Mode,Time,Yaw_SP,Roll,Pitch,Yaw,northCurrentPos,eastCurrentPos,downCurrentPos,errorNorth,errorEast,errorDown,self.pitchAngle,self.rollAngle,self.thrust
STABILIZE,0.103510141373,-0.870209872723,-0.0227721724659,0.0189882460982,-0.882859826088,1.2,2.23,0.03,0.8,1.83,-0.37,-0.16,0.261791666667,0.54625
STABILIZE,0.206479072571,-0.870209872723,-0.0227721724659,0.0189882460982,-0.882859826088,1.2,2.22,0.03,0.8,1.82,-0.37,-0.16,-0.157531849048,0.54625
STABILIZE,0.309316158295,-0.870209872723,-0.0227721724659,0.0189882460982,-0.882859826088,1.2,2.22,0.03,0.8,1.82,-0.37,-0.16,0.261791666667,0.54625
STABILIZE,0.412242174149,-0.870209872723,-0.0227721724659,0.0189882460982,-0.882859826088,1.2,2.22,0.03,0.8,1.82,-0.37,-0.16,0.261791666667,0.54625
STABILIZE,0.515424013138,-0.870209872723,-0.0227721724659,0.0189882460982,-0.882859826088,1.2,2.22,0.03,0.8,1.82,-0.37,-0.16,0.261791666667,0.54625
STABILIZE,0.618477106094,-0.870209872723,-0.0227721724659,0.0189882460982,-0.882859826088,1.2,2.22,0.03,0.8,1.82,-0.37,-0.16,0.261791666667,0.54625
STABILIZE,0.721341133118,-0.870209872723,-0.0227721724659,0.0189882460982,-0.882859826088,1.2,2.22,0.03,0.8,1.82,-0.37,-0.16,0.261791666667,0.54625
STABILIZE,0.824200153351,-0.870209872723,-0.0227721724659,0.0189882460982,-0.882859826088,1.2,2.22,0.03,0.8,1.82,-0.37,-0.16,0.261791666667,0.54625
STABILIZE,0.927259206772,-0.870209872723,-0.0227721724659,0.0189882460982,-0.882859826088,1.2,2.22,0.03,0.8,1.82,-0.37,-0.16,0.261791666667,0.54625
STABILIZE,1.03042602539,-0.870209872723,-0.0228987764567,0.0189997069538,-0.895489454269,1.2,2.22,0.03,0.8,1.82,-0.37,-0.16,0.261791666667,0.54625
STABILIZE,1.13389611244,-0.870209872723,-0.0228987764567,0.0189997069538,-0.895489454269,1.2,2.22,0.03,0.8,1.82,-0.37,-0.16,0.261791666667,0.54625
STABILIZE,1.23763012886,-0.870209872723,-0.0228987764567,0.0189997069538,-0.895489454269,1.2,2.23,0.03,0.8,1.83,-0.37,-0.16,0.261791666667,0.54625
STABILIZE,1.34104204178,-0.870209872723,-0.0228987764567,0.0189997069538,-0.895489454269,1.2,2.22,0.03,0.8,1.82,-0.37,-0.16,0.261791666667,0.54625
STABILIZE,1.44437599182,-0.870209872723,-0.0228987764567,0.0189997069538,-0.895489454269,1.2,2.23,0.03,0.8,1.83,-0.37,-0.16,0.261791666667,0.54625
STABILIZE,1.54760813713,-0.870209872723,-0.0228987764567,0.0189997069538,-0.895489454269,1.2,2.23,0.03,0.8,1.83,-0.37,-0.16,0.261791666667,0.54625
STABILIZE,1.65103507042,-0.870209872723,-0.0228987764567,0.0189997069538,-0.895489454269,1.2,2.22,0.03,0.8,1.82,-0.37,-0.16,0.261791666667,0.54625
STABILIZE,1.75490117073,-0.870209872723,-0.0228987764567,0.0189997069538,-0.895489454269,1.2,2.22,0.03,0.8,1.82,-0.37,-0.16,0.261791666667,0.54625
STABILIZE,1.85817313194,-0.870209872723,-0.0228987764567,0.0189997069538,-0.895489454269,1.2,2.22,0.03,0.8,1.82,-0.37,-0.16,0.261791666667,0.54625
STABILIZE,1.96154022217,-0.870209872723,-0.0228987764567,0.0189997069538,-0.895489454269,1.2,2.22,0.03,0.8,1.82,-0.37,-0.16,0.261791666667,0.54625
STABILIZE,2.06562209129,-0.870209872723,-0.0228987764567,0.0189997069538,-0.895489454269,1.2,2.22,0.03,0.8,1.82,-0.37,-0.16,0.261791666667,0.54625
STABILIZE,2.17125415802,-0.870209872723,-0.0228987764567,0.0189997069538,-0.895489454269,1.2,2.22,0.03,0.8,1.82,-0.37,-0.16,0.261791666667,0.54625
STABILIZE,2.27656006813,-0.870209872723,-0.0229079127312,0.0190684404224,-0.906351387501,1.2,2.22,0.03,0.8,1.82,-0.37,-0.16,0.261791666667,0.54625
STABILIZE,2.38074207306,-0.870209872723,-0.0229079127312,0.0190684404224,-0.906351387501,1.2,2.22,0.03,0.8,1.82,-0.37,-0.16,0.261791666667,0.54625
STABILIZE,2.4841902256,-0.870209872723,-0.0229079127312,0.0190684404224,-0.906351387501,1.2,2.23,0.03,0.8,1.83,-0.37,-0.16,0.261791666667,0.54625
STABILIZE,2.5872900486,-0.870209872723,-0.0229079127312,0.0190684404224,-0.906351387501,1.2,2.23,0.03,0.8,1.83,-0.37,-0.16,0.261791666667,0.54625
STABILIZE,2.69031000137,-0.870209872723,-0.0229079127312,0.0190684404224,-0.906351387501,1.2,2.22,0.03,0.8,1.82,-0.37,-0.16,0.261791666667,0.54625
STABILIZE,2.79595422745,-0.870209872723,-0.0229079127312,0.0190684404224,-0.906351387501,1.2,2.22,0.03,0.8,1.82,-0.37,-0.16,0.261791666667,0.54625
STABILIZE,2.90198612213,-0.870209872723,-0.0229079127312,0.0190684404224,-0.906351387501,1.2,2.22,0.03,0.8,1.82,-0.37,-0.16,0.261791666667,0.54625
STABILIZE,3.00709199905,-0.870209872723,-0.0229079127312,0.0190684404224,-0.906351387501,1.2,2.22,0.03,0.8,1.82,-0.37,-0.16,0.261791666667,0.54625
STABILIZE,3.1125562191,-0.870209872723,-0.0229567959905,0.0191638376564,-0.916025042534,1.2,2.22,0.03,0.8,1.82,-0.37,-0.16,0.261791666667,0.54625
STABILIZE,3.21762609482,-0.870209872723,-0.0229567959905,0.0191638376564,-0.916025042534,1.2,2.22,0.03,0.8,1.82,-0.37,-0.16,0.261791666667,0.54625
STABILIZE,3.32372713089,-0.870209872723,-0.0229567959905,0.0191638376564,-0.916025042534,1.2,2.22,0.03,0.8,1.82,-0.37,-0.16,0.261791666667,0.54625
STABILIZE,3.43010807037,-0.870209872723,-0.0229567959905,0.0191638376564,-0.916025042534,1.2,2.23,0.03,0.8,1.83,-0.37,-0.16,0.261791666667,0.54625
STABILIZE,3.53379416466,-0.870209872723,-0.0229567959905,0.0191638376564,-0.916025042534,1.2,2.22,0.03,0.8,1.82,-0.37,-0.16,0.261791666667,0.54625
STABILIZE,3.63780999184,-0.870209872723,-0.0229567959905,0.0191638376564,-0.916025042534,1.2,2.22,0.03,0.8,1.82,-0.37,-0.16,0.261791666667,0.54625
STABILIZE,3.7414700985,-0.870209872723,-0.0229567959905,0.0191638376564,-0.916025042534,1.19,2.22,0.03,0.79,1.82,-0.37,-0.143156043325,0.261791666667,0.54625
STABILIZE,3.84660601616,-0.870209872723,-0.0229567959905,0.0191638376564,-0.916025042534,1.2,2.22,0.03,0.8,1.82,-0.37,-0.174432667631,0.261791666667,0.54625
STABILIZE,3.95233011246,-0.870209872723,-0.0229567959905,0.0191638376564,-0.916025042534,1.2,2.22,0.03,0.8,1.82,-0.37,-0.16,0.261791666667,0.54625
STABILIZE,4.05824804306,-0.870209872723,-0.0230228137225,0.0195093415678,-0.925626993179,1.2,2.22,0.03,0.8,1.82,-0.37,-0.16,0.261791666667,0.54625
STABILIZE,4.16205811501,-0.870209872723,-0.0230228137225,0.0195093415678,-0.925626993179,1.2,2.22,0.03,0.8,1.82,-0.37,-0.16,0.261791666667,0.54625
STABILIZE,4.26612210274,-0.870209872723,-0.0230228137225,0.0195093415678,-0.925626993179,1.2,2.22,0.03,0.8,1.82,-0.37,-0.16,0.261791666667,0.54625
STABILIZE,4.36950302124,-0.870209872723,-0.0230228137225,0.0195093415678,-0.925626993179,1.2,2.22,0.03,0.8,1.82,-0.37,-0.16,0.261791666667,0.54625
STABILIZE,4.4730360508,-0.870209872723,-0.0230228137225,0.0195093415678,-0.925626993179,1.2,2.22,0.03,0.8,1.82,-0.37,-0.16,0.261791666667,0.54625
STABILIZE,4.57641410828,-0.870209872723,-0.0230228137225,0.0195093415678,-0.925626993179,1.2,2.22,0.03,0.8,1.82,-0.37,-0.16,0.261791666667,0.54625
STABILIZE,4.67991399765,-0.870209872723,-0.0230228137225,0.0195093415678,-0.925626993179,1.2,2.22,0.03,0.8,1.82,-0.37,-0.16,0.261791666667,0.54625
STABILIZE,4.78339004517,-0.870209872723,-0.0230228137225,0.0195093415678,-0.925626993179,1.2,2.22,0.03,0.8,1.82,-0.37,-0.16,0.261791666667,0.54625
STABILIZE,4.88856601715,-0.870209872723,-0.0230228137225,0.0195093415678,-0.925626993179,1.2,2.22,0.03,0.8,1.82,-0.37,-0.16,0.261791666667,0.54625
STABILIZE,4.9933590889,-0.870209872723,-0.0230228137225,0.0195093415678,-0.925626993179,1.2,2.23,0.03,0.8,1.83,-0.37,-0.16,0.261791666667,0.54625
STABILIZE,5.09831118584,-0.870209872723,-0.0229021683335,0.0199464764446,-0.935243785381,1.2,2.22,0.03,0.8,1.82,-0.37,-0.16,0.261791666667,0.54625
STABILIZE,5.20386815071,-0.870209872723,-0.0229021683335,0.0199464764446,-0.935243785381,1.2,2.22,0.03,0.8,1.82,-0.37,-0.16,0.261791666667,0.54625
STABILIZE,5.30742812157,-0.870209872723,-0.0229021683335,0.0199464764446,-0.935243785381,1.2,2.22,0.03,0.8,1.82,-0.37,-0.16,0.261791666667,0.54625
STABILIZE,5.41303420067,-0.870209872723,-0.0229021683335,0.0199464764446,-0.935243785381,1.2,2.22,0.03,0.8,1.82,-0.37,-0.16,0.261791666667,0.54625
STABILIZE,5.51638102531,-0.870209872723,-0.0229021683335,0.0199464764446,-0.935243785381,1.2,2.22,0.03,0.8,1.82,-0.37,-0.16,0.261791666667,0.54625
STABILIZE,5.61956310272,-0.870209872723,-0.0229021683335,0.0199464764446,-0.935243785381,1.2,2.22,0.03,0.8,1.82,-0.37,-0.16,0.261791666667,0.54625
STABILIZE,5.72306418419,-0.870209872723,-0.0229021683335,0.0199464764446,-0.935243785381,1.2,2.22,0.03,0.8,1.82,-0.37,-0.16,0.261791666667,0.54625
STABILIZE,5.82663416862,-0.870209872723,-0.0229021683335,0.0199464764446,-0.935243785381,1.2,2.22,0.03,0.8,1.82,-0.37,-0.16,0.261791666667,0.54625
STABILIZE,5.93200421333,-0.870209872723,-0.0229021683335,0.0199464764446,-0.935243785381,1.2,2.22,0.03,0.8,1.82,-0.37,-0.16,0.261791666667,0.54625
STABILIZE,6.03502511978,-0.870209872723,-0.0231492612511,0.0201367139816,-0.944872140884,1.2,2.23,0.03,0.8,1.83,-0.37,-0.16,0.261791666667,0.54625
STABILIZE,6.13881802559,-0.870209872723,-0.0231492612511,0.0201367139816,-0.944872140884,1.2,2.22,0.03,0.8,1.82,-0.37,-0.16,0.261791666667,0.54625
STABILIZE,6.24225306511,-0.870209872723,-0.0231492612511,0.0201367139816,-0.944872140884,1.2,2.23,0.03,0.8,1.83,-0.37,-0.16,0.261791666667,0.54625
STABILIZE,6.34597420692,-0.870209872723,-0.0231492612511,0.0201367139816,-0.944872140884,1.19,2.22,0.03,0.79,1.82,-0.37,-0.149349324595,0.261791666667,0.54625
STABILIZE,6.44929909706,-0.870209872723,-0.0231492612511,0.0201367139816,-0.944872140884,1.2,2.21,0.03,0.8,1.81,-0.37,-0.168509286384,0.261791666667,0.54625
STABILIZE,6.55310201645,-0.870209872723,-0.0231492612511,0.0201367139816,-0.944872140884,1.2,2.22,0.03,0.8,1.82,-0.37,-0.16,0.261791666667,0.54625
STABILIZE,6.656894207,-0.870209872723,-0.0231492612511,0.0201367139816,-0.944872140884,1.2,2.22,0.03,0.8,1.82,-0.37,-0.16,0.261791666667,0.54625
STABILIZE,6.76053404808,-0.870209872723,-0.0231492612511,0.0201367139816,-0.944872140884,1.2,2.22,0.03,0.8,1.82,-0.37,-0.16,0.261791666667,0.54625
STABILIZE,6.86604404449,-0.870209872723,-0.0231492612511,0.0201367139816,-0.944872140884,1.2,2.22,0.03,0.8,1.82,-0.37,-0.16,0.261791666667,0.54625
STABILIZE,6.96987104416,-0.870209872723,-0.0231492612511,0.0201367139816,-0.944872140884,1.2,2.22,0.03,0.8,1.82,-0.37,-0.16,0.261791666667,0.54625
STABILIZE,7.07382822037,-0.870209872723,-0.0233586337417,0.0201942753047,-0.953965842724,1.2,2.21,0.03,0.8,1.81,-0.37,-0.16,0.261791666667,0.54625
STABILIZE,7.17719817162,-0.870209872723,-0.0233586337417,0.0201942753047,-0.953965842724,1.2,2.22,0.03,0.8,1.82,-0.37,-0.16,0.261791666667,0.54625
STABILIZE,7.28096914291,-0.870209872723,-0.0233586337417,0.0201942753047,-0.953965842724,1.2,2.22,0.03,0.8,1.82,-0.37,-0.16,0.261791666667,0.54625
STABILIZE,7.38705205917,-0.870209872723,-0.0233586337417,0.0201942753047,-0.953965842724,1.2,2.22,0.03,0.8,1.82,-0.37,-0.16,0.261791666667,0.54625
STABILIZE,7.49255204201,-0.870209872723,-0.0233586337417,0.0201942753047,-0.953965842724,1.2,2.22,0.03,0.8,1.82,-0.37,-0.16,0.261791666667,0.54625
STABILIZE,7.59848999977,-0.870209872723,-0.0233586337417,0.0201942753047,-0.953965842724,1.2,2.22,0.03,0.8,1.82,-0.37,-0.16,0.261791666667,0.54625
STABILIZE,7.70439505577,-0.870209872723,-0.0233586337417,0.0201942753047,-0.953965842724,1.2,2.22,0.03,0.8,1.82,-0.37,-0.16,0.261791666667,0.54625
STABILIZE,7.80901002884,-0.870209872723,-0.0233586337417,0.0201942753047,-0.953965842724,1.19,2.22,0.03,0.79,1.82,-0.37,-0.15099105635,0.261791666667,0.54625
STABILIZE,7.91397309303,-0.870209872723,-0.0233586337417,0.0201942753047,-0.953965842724,1.19,2.22,0.03,0.79,1.82,-0.37,-0.158,0.261791666667,0.54625
STABILIZE,8.01938819885,-0.870209872723,-0.0233586337417,0.0201942753047,-0.953965842724,1.2,2.22,0.03,0.8,1.82,-0.37,-0.166823338866,0.261791666667,0.54625
STABILIZE,8.1253080368,-0.870209872723,-0.0234731789678,0.0203708969057,-0.962018549442,1.19,2.22,0.03,0.79,1.82,-0.37,-0.151266354477,0.261791666667,0.54625
STABILIZE,8.22909903526,-0.870209872723,-0.0234731789678,0.0203708969057,-0.962018549442,1.19,2.22,0.03,0.79,1.82,-0.37,-0.158,0.261791666667,0.54625
STABILIZE,8.33212018013,-0.870209872723,-0.0234731789678,0.0203708969057,-0.962018549442,1.2,2.23,0.03,0.8,1.83,-0.37,-0.166562053581,0.261791666667,0.54625
STABILIZE,8.43518900871,-0.870209872723,-0.0234731789678,0.0203708969057,-0.962018549442,1.2,2.22,0.03,0.8,1.82,-0.37,-0.16,0.261791666667,0.54625
STABILIZE,8.53901314735,-0.870209872723,-0.0234731789678,0.0203708969057,-0.962018549442,1.2,2.22,0.03,0.8,1.82,-0.37,-0.16,0.261791666667,0.54625
STABILIZE,8.64260411263,-0.870209872723,-0.0234731789678,0.0203708969057,-0.962018549442,1.2,2.22,0.03,0.8,1.82,-0.37,-0.16,0.261791666667,0.54625
STABILIZE,8.7471101284,-0.870209872723,-0.0234731789678,0.0203708969057,-0.962018549442,0.88,2.22,0.03,0.48,1.82,-0.37,0.103938998688,0.261791666667,0.54625
STABILIZE,8.85407614708,-0.870209872723,-0.0234731789678,0.0203708969057,-0.962018549442,1.2,2.22,0.03,0.8,1.82,-0.37,-0.261791666667,0.261791666667,0.54625
STABILIZE,8.96075701714,-0.870209872723,-0.0234731789678,0.0203708969057,-0.962018549442,1.19,2.22,0.03,0.79,1.82,-0.37,-0.151901145815,0.261791666667,0.54625
STABILIZE,9.06429815292,-0.870209872723,-0.0236406456679,0.0202841367573,-0.968578398228,1.2,2.22,0.03,0.8,1.82,-0.37,-0.166026248183,0.261791666667,0.54625
STABILIZE,9.16766309738,-0.870209872723,-0.0236406456679,0.0202841367573,-0.968578398228,1.19,2.22,0.03,0.79,1.82,-0.37,-0.152042581737,0.261791666667,0.54625
STABILIZE,9.27107810974,-0.870209872723,-0.0236406456679,0.0202841367573,-0.968578398228,1.2,2.22,0.03,0.8,1.82,-0.37,-0.165890252113,0.261791666667,0.54625
STABILIZE,9.37411618233,-0.870209872723,-0.0236406456679,0.0202841367573,-0.968578398228,1.2,2.22,0.03,0.8,1.82,-0.37,-0.16,0.261791666667,0.54625
STABILIZE,9.47720599174,-0.870209872723,-0.0236406456679,0.0202841367573,-0.968578398228,1.2,2.22,0.03,0.8,1.82,-0.37,-0.16,0.261791666667,0.54625
STABILIZE,9.58099317551,-0.870209872723,-0.0236406456679,0.0202841367573,-0.968578398228,1.2,2.22,0.03,0.8,1.82,-0.37,-0.16,0.261791666667,0.54625
STABILIZE,9.68408203125,-0.870209872723,-0.0236406456679,0.0202841367573,-0.968578398228,1.2,2.22,0.03,0.8,1.82,-0.37,-0.16,0.261791666667,0.54625
STABILIZE,9.78878116608,-0.870209872723,-0.0236406456679,0.0202841367573,-0.968578398228,1.2,2.22,0.03,0.8,1.82,-0.37,-0.16,0.261791666667,0.54625
STABILIZE,9.89452314377,-0.870209872723,-0.0236406456679,0.0202841367573,-0.968578398228,1.2,2.22,0.03,0.8,1.82,-0.37,-0.16,0.261791666667,0.54625
STABILIZE,10.0022721291,-0.870209872723,-0.0236406456679,0.0202841367573,-0.968578398228,1.2,2.22,0.03,0.8,1.82,-0.37,-0.16,0.261791666667,0.54625
STABILIZE,10.1071431637,-0.870209872723,-0.0236872863024,0.0205464009196,-0.974047899246,1.2,2.22,0.03,0.8,1.82,-0.37,-0.16,0.261791666667,0.54625
STABILIZE,10.2135322094,-0.870209872723,-0.0236872863024,0.0205464009196,-0.974047899246,1.2,2.22,0.03,0.8,1.82,-0.37,-0.16,0.261791666667,0.54625
STABILIZE,10.3174340725,-0.870209872723,-0.0236872863024,0.0205464009196,-0.974047899246,1.2,2.22,0.03,0.8,1.82,-0.37,-0.16,0.261791666667,0.54625
STABILIZE,10.4208481312,-0.870209872723,-0.0236872863024,0.0205464009196,-0.974047899246,1.2,2.21,0.03,0.8,1.81,-0.37,-0.16,0.261791666667,0.54625
STABILIZE,10.5242021084,-0.870209872723,-0.0236872863024,0.0205464009196,-0.974047899246,1.2,2.22,0.03,0.8,1.82,-0.37,-0.16,0.261791666667,0.54625
STABILIZE,10.6299052238,-0.870209872723,-0.0236872863024,0.0205464009196,-0.974047899246,1.2,2.21,0.03,0.8,1.81,-0.37,-0.16,0.261791666667,0.54625
STABILIZE,10.7360751629,-0.870209872723,-0.0236872863024,0.0205464009196,-0.974047899246,1.2,2.22,0.03,0.8,1.82,-0.37,-0.16,0.261791666667,0.54625
STABILIZE,10.8411180973,-0.870209872723,-0.0236872863024,0.0205464009196,-0.974047899246,1.2,2.22,0.03,0.8,1.82,-0.37,-0.16,0.261791666667,0.54625
STABILIZE,10.9476401806,-0.870209872723,-0.0236872863024,0.0205464009196,-0.974047899246,1.2,2.22,0.03,0.8,1.82,-0.37,-0.16,0.261791666667,0.54625
STABILIZE,11.0549890995,-0.870209872723,-0.0236002150923,0.0206561181694,-0.97951155901,1.2,2.22,0.03,0.8,1.82,-0.37,-0.16,0.261791666667,0.54625
STABILIZE,11.1586060524,-0.870209872723,-0.0236002150923,0.0206561181694,-0.97951155901,1.2,2.22,0.03,0.8,1.82,-0.37,-0.16,0.261791666667,0.54625
STABILIZE,11.2621290684,-0.870209872723,-0.0236002150923,0.0206561181694,-0.97951155901,1.2,2.22,0.03,0.8,1.82,-0.37,-0.16,0.261791666667,0.54625
STABILIZE,11.3659951687,-0.870209872723,-0.0236002150923,0.0206561181694,-0.97951155901,1.2,2.22,0.03,0.8,1.82,-0.37,-0.16,0.261791666667,0.54625
STABILIZE,11.4696011543,-0.870209872723,-0.0236002150923,0.0206561181694,-0.97951155901,1.2,2.22,0.03,0.8,1.82,-0.37,-0.16,0.261791666667,0.54625
STABILIZE,11.5732281208,-0.870209872723,-0.0236002150923,0.0206561181694,-0.97951155901,1.2,2.22,0.03,0.8,1.82,-0.37,-0.16,0.261791666667,0.54625
STABILIZE,11.6762430668,-0.870209872723,-0.0236002150923,0.0206561181694,-0.97951155901,1.2,2.22,0.03,0.8,1.82,-0.37,-0.16,0.261791666667,0.54625
STABILIZE,11.7794070244,-0.870209872723,-0.0236002150923,0.0206561181694,-0.97951155901,1.2,2.22,0.03,0.8,1.82,-0.37,-0.16,0.261791666667,0.54625
STABILIZE,11.8827490807,-0.870209872723,-0.0236002150923,0.0206561181694,-0.97951155901,1.2,2.22,0.03,0.8,1.82,-0.37,-0.16,0.261791666667,0.54625
STABILIZE,11.9859571457,-0.870209872723,-0.0236002150923,0.0206561181694,-0.97951155901,1.2,2.21,0.03,0.8,1.81,-0.37,-0.16,0.261791666667,0.54625
STABILIZE,12.089110136,-0.870209872723,-0.0234353933483,0.0207138359547,-0.984924316406,1.19,2.22,0.03,0.79,1.82,-0.37,-0.153494739768,0.261791666667,0.54625
STABILIZE,12.1938071251,-0.870209872723,-0.0234353933483,0.0207138359547,-0.984924316406,1.19,2.22,0.03,0.79,1.82,-0.37,-0.158,0.261791666667,0.54625
STABILIZE,12.2969419956,-0.870209872723,-0.0234353933483,0.0207138359547,-0.984924316406,1.19,2.21,0.03,0.79,1.81,-0.37,-0.158,0.261791666667,0.54625
STABILIZE,12.4000639915,-0.870209872723,-0.0234353933483,0.0207138359547,-0.984924316406,1.19,2.22,0.03,0.79,1.82,-0.37,-0.158,0.261791666667,0.54625
STABILIZE,12.5031130314,-0.870209872723,-0.0234353933483,0.0207138359547,-0.984924316406,1.2,2.22,0.03,0.8,1.82,-0.37,-0.164354806021,0.261791666667,0.54625
STABILIZE,12.6063752174,-0.870209872723,-0.0234353933483,0.0207138359547,-0.984924316406,1.2,2.22,0.03,0.8,1.82,-0.37,-0.16,0.261791666667,0.54625
STABILIZE,12.7094461918,-0.870209872723,-0.0234353933483,0.0207138359547,-0.984924316406,1.19,2.22,0.03,0.79,1.82,-0.37,-0.153716463186,0.261791666667,0.54625
STABILIZE,12.8125610352,-0.870209872723,-0.0234353933483,0.0207138359547,-0.984924316406,1.19,2.22,0.03,0.79,1.82,-0.37,-0.158,0.261791666667,0.54625
STABILIZE,12.9156141281,-0.870209872723,-0.0234353933483,0.0207138359547,-0.984924316406,1.2,2.22,0.03,0.8,1.82,-0.37,-0.164214603874,0.261791666667,0.54625
STABILIZE,13.0186340809,-0.870209872723,-0.0234353933483,0.0207138359547,-0.984924316406,1.2,2.22,0.03,0.8,1.82,-0.37,-0.16,0.261791666667,0.54625
STABILIZE,13.1217081547,-0.870209872723,-0.023216439411,0.0206119995564,-0.990325629711,1.2,2.22,0.03,0.8,1.82,-0.37,-0.16,0.261791666667,0.54625
STABILIZE,13.2246952057,-0.870209872723,-0.023216439411,0.0206119995564,-0.990325629711,1.19,2.22,0.03,0.79,1.82,-0.37,-0.153884690883,0.261791666667,0.54625
STABILIZE,13.3278491497,-0.870209872723,-0.023216439411,0.0206119995564,-0.990325629711,1.19,2.22,0.03,0.79,1.82,-0.37,-0.158,0.261791666667,0.54625
STABILIZE,13.4316082001,-0.870209872723,-0.023216439411,0.0206119995564,-0.990325629711,1.19,2.22,0.03,0.79,1.82,-0.37,-0.158,0.261791666667,0.54625
STABILIZE,13.5352401733,-0.870209872723,-0.023216439411,0.0206119995564,-0.990325629711,1.19,2.22,0.03,0.79,1.82,-0.37,-0.158,0.261791666667,0.54625
STABILIZE,13.638433218,-0.870209872723,-0.023216439411,0.0206119995564,-0.990325629711,1.19,2.23,0.03,0.79,1.83,-0.37,-0.158,0.261791666667,0.54625
STABILIZE,13.742454052,-0.870209872723,-0.023216439411,0.0206119995564,-0.990325629711,1.19,2.22,0.03,0.79,1.82,-0.37,-0.158,0.261791666667,0.54625
STABILIZE,13.8455700874,-0.870209872723,-0.023216439411,0.0206119995564,-0.990325629711,1.19,2.23,0.03,0.79,1.83,-0.37,-0.158,0.261791666667,0.54625
STABILIZE,13.9515271187,-0.870209872723,-0.023216439411,0.0206119995564,-0.990325629711,1.2,2.22,0.03,0.8,1.82,-0.37,-0.163900155701,0.261791666667,0.54625
STABILIZE,14.0571382046,-0.870209872723,-0.0229973401874,0.0205502808094,-0.995664358139,1.2,2.22,0.03,0.8,1.82,-0.37,-0.16,0.261791666667,0.54625
STABILIZE,14.1604731083,-0.870209872723,-0.0229973401874,0.0205502808094,-0.995664358139,1.2,2.22,0.03,0.8,1.82,-0.37,-0.16,0.261791666667,0.54625
STABILIZE,14.2637460232,-0.870209872723,-0.0229973401874,0.0205502808094,-0.995664358139,1.2,2.22,0.03,0.8,1.82,-0.37,-0.16,0.261791666667,0.54625
STABILIZE,14.3672370911,-0.870209872723,-0.0229973401874,0.0205502808094,-0.995664358139,1.2,2.22,0.03,0.8,1.82,-0.37,-0.16,0.261791666667,0.54625
STABILIZE,14.4703500271,-0.870209872723,-0.0229973401874,0.0205502808094,-0.995664358139,1.2,2.22,0.03,0.8,1.82,-0.37,-0.16,0.261791666667,0.54625
STABILIZE,14.5737431049,-0.870209872723,-0.0229973401874,0.0205502808094,-0.995664358139,1.2,2.22,0.03,0.8,1.82,-0.37,-0.16,0.261791666667,0.54625
STABILIZE,14.676815033,-0.870209872723,-0.0229973401874,0.0205502808094,-0.995664358139,1.2,2.22,0.03,0.8,1.82,-0.37,-0.16,0.261791666667,0.54625
STABILIZE,14.7799971104,-0.870209872723,-0.0229973401874,0.0205502808094,-0.995664358139,1.2,2.22,0.03,0.8,1.82,-0.37,-0.16,0.261791666667,0.54625
STABILIZE,14.8828990459,-0.870209872723,-0.0229973401874,0.0205502808094,-0.995664358139,1.2,2.22,0.03,0.8,1.82,-0.37,-0.16,0.261791666667,0.54625
STABILIZE,14.9858520031,-0.870209872723,-0.0229973401874,0.0205502808094,-0.995664358139,1.2,2.22,0.03,0.8,1.82,-0.37,-0.16,0.261791666667,0.54625
STABILIZE,15.090583086,-0.870209872723,-0.0228599533439,0.0205425955355,-1.00090956688,1.2,2.22,0.03,0.8,1.82,-0.37,-0.16,0.261791666667,0.54625
STABILIZE,15.1944491863,-0.870209872723,-0.0228599533439,0.0205425955355,-1.00090956688,1.2,2.22,0.03,0.8,1.82,-0.37,-0.16,0.261791666667,0.54625
STABILIZE,15.2979609966,-0.870209872723,-0.0228866394609,0.0205405745655,-1.00217461586,1.2,2.22,0.03,0.8,1.82,-0.37,-0.16,0.261791666667,0.54625
STABILIZE,15.4024991989,-0.870209872723,-0.0228866394609,0.0205405745655,-1.00217461586,1.2,2.22,0.03,0.8,1.82,-0.37,-0.16,0.261791666667,0.54625
STABILIZE,15.5063581467,-0.870209872723,-0.0228150710464,0.0205861628056,-1.00343668461,1.2,2.22,0.03,0.8,1.82,-0.37,-0.16,0.261791666667,0.54625
STABILIZE,15.6098492146,-0.870209872723,-0.0228150710464,0.0205861628056,-1.00343668461,1.2,2.22,0.03,0.8,1.82,-0.37,-0.16,0.261791666667,0.54625
STABILIZE,15.7140731812,-0.870209872723,-0.0228150710464,0.0205861628056,-1.00343668461,1.2,2.22,0.03,0.8,1.82,-0.37,-0.16,0.261791666667,0.54625
STABILIZE,15.8176782131,-0.870209872723,-0.0227938462049,0.0205374062061,-1.00465607643,1.19,2.22,0.03,0.79,1.82,-0.37,-0.154563596665,0.261791666667,0.54625
STABILIZE,15.9209411144,-0.870209872723,-0.0227938462049,0.0205374062061,-1.00465607643,1.19,2.22,0.03,0.79,1.82,-0.37,-0.158,0.261791666667,0.54625
STABILIZE,16.0241730213,-0.870209872723,-0.02277020365,0.0205196216702,-1.00582480431,1.2,2.22,0.03,0.8,1.82,-0.37,-0.163391752488,0.261791666667,0.54625
STABILIZE,16.1286451817,-0.870209872723,-0.02277020365,0.0205196216702,-1.00582480431,1.2,2.22,0.03,0.8,1.82,-0.37,-0.16,0.261791666667,0.54625
STABILIZE,16.2329390049,-0.870209872723,-0.0228056795895,0.0205216221511,-1.0070772171,1.2,2.22,0.03,0.8,1.82,-0.37,-0.16,0.261791666667,0.54625
STABILIZE,16.3373951912,-0.870209872723,-0.0228056795895,0.0205216221511,-1.0070772171,1.2,2.22,0.03,0.8,1.82,-0.37,-0.16,0.261791666667,0.54625
STABILIZE,16.4406170845,-0.870209872723,-0.0228056795895,0.0205216221511,-1.0070772171,1.2,2.22,0.03,0.8,1.82,-0.37,-0.16,0.261791666667,0.54625
STABILIZE,16.5436770916,-0.870209872723,-0.0228056795895,0.0205216221511,-1.0070772171,1.2,2.22,0.03,0.8,1.82,-0.37,-0.16,0.261791666667,0.54625
STABILIZE,16.6478919983,-0.870209872723,-0.0227348748595,0.0205322541296,-1.00828766823,1.2,2.22,0.03,0.8,1.82,-0.37,-0.16,0.261791666667,0.54625
STABILIZE,16.7512660027,-0.870209872723,-0.0226117987186,0.020583357662,-1.00953245163,1.2,2.22,0.03,0.8,1.82,-0.37,-0.16,0.261791666667,0.54625
STABILIZE,16.8544640541,-0.870209872723,-0.0226117987186,0.020583357662,-1.00953245163,1.2,2.22,0.03,0.8,1.82,-0.37,-0.16,0.261791666667,0.54625
STABILIZE,16.9578461647,-0.870209872723,-0.0225041806698,0.0206046272069,-1.01075553894,1.2,2.22,0.03,0.8,1.82,-0.37,-0.16,0.261791666667,0.54625
STABILIZE,17.0628042221,-0.870209872723,-0.0225041806698,0.0206046272069,-1.01075553894,1.2,2.22,0.03,0.8,1.82,-0.37,-0.16,0.261791666667,0.54625
STABILIZE,17.1664171219,-0.870209872723,-0.0225041806698,0.0206046272069,-1.01075553894,1.2,2.22,0.03,0.8,1.82,-0.37,-0.16,0.261791666667,0.54625
STABILIZE,17.2708041668,-0.870209872723,-0.0225160960108,0.0206060614437,-1.01193106174,1.2,2.23,0.03,0.8,1.83,-0.37,-0.16,0.261791666667,0.54625
STABILIZE,17.3740792274,-0.870209872723,-0.0225160960108,0.0206060614437,-1.01193106174,1.2,2.22,0.03,0.8,1.82,-0.37,-0.16,0.261791666667,0.54625
STABILIZE,17.4775080681,-0.870209872723,-0.0224735401571,0.0206042639911,-1.01317155361,1.2,2.22,0.03,0.8,1.82,-0.37,-0.16,0.261791666667,0.54625
STABILIZE,17.5807290077,-0.870209872723,-0.0224735401571,0.0206042639911,-1.01317155361,1.2,2.22,0.03,0.8,1.82,-0.37,-0.16,0.261791666667,0.54625
STABILIZE,17.6884691715,-0.870209872723,-0.0224918685853,0.0206408910453,-1.01440536976,1.2,2.22,0.03,0.8,1.82,-0.37,-0.16,0.261791666667,0.54625
STABILIZE,17.7933981419,-0.870209872723,-0.0224918685853,0.0206408910453,-1.01440536976,1.2,2.22,0.03,0.8,1.82,-0.37,-0.16,0.261791666667,0.54625
STABILIZE,17.898070097,-0.870209872723,-0.022462554276,0.0206118710339,-1.015578866,1.2,2.22,0.03,0.8,1.82,-0.37,-0.16,0.261791666667,0.54625
STABILIZE,18.0018630028,-0.870209872723,-0.022462554276,0.0206118710339,-1.015578866,1.2,2.22,0.03,0.8,1.82,-0.37,-0.16,0.261791666667,0.54625
STABILIZE,18.1051020622,-0.870209872723,-0.022462554276,0.0206118710339,-1.015578866,1.2,2.22,0.03,0.8,1.82,-0.37,-0.16,0.261791666667,0.54625
STABILIZE,18.2100050449,-0.870209872723,-0.0224136151373,0.0206601507962,-1.01678907871,1.2,2.22,0.03,0.8,1.82,-0.37,-0.16,0.261791666667,0.54625
STABILIZE,18.3133940697,-0.870209872723,-0.0224136151373,0.0206601507962,-1.01678907871,1.2,2.22,0.03,0.8,1.82,-0.37,-0.16,0.261791666667,0.54625
STABILIZE,18.4171190262,-0.870209872723,-0.0223032031208,0.0206942483783,-1.01799440384,1.2,2.22,0.03,0.8,1.82,-0.37,-0.16,0.261791666667,0.54625
STABILIZE,18.5218729973,-0.870209872723,-0.0223032031208,0.0206942483783,-1.01799440384,1.2,2.22,0.03,0.8,1.82,-0.37,-0.16,0.261791666667,0.54625
STABILIZE,18.6297080517,-0.870209872723,-0.0222804490477,0.0206456128508,-1.01914489269,1.2,2.23,0.03,0.8,1.83,-0.37,-0.16,0.261791666667,0.54625
STABILIZE,18.7372300625,-0.870209872723,-0.0222804490477,0.0206456128508,-1.01914489269,1.2,2.22,0.03,0.8,1.82,-0.37,-0.16,0.261791666667,0.54625
STABILIZE,18.8405690193,-0.870209872723,-0.0222804490477,0.0206456128508,-1.01914489269,1.2,2.23,0.03,0.8,1.83,-0.37,-0.16,0.261791666667,0.54625
STABILIZE,18.943759203,-0.870209872723,-0.0222407709807,0.0206554494798,-1.02028882504,1.2,2.23,0.03,0.8,1.83,-0.37,-0.16,0.261791666667,0.54625
STABILIZE,19.0468580723,-0.870209872723,-0.0222407709807,0.0206554494798,-1.02028882504,1.2,2.22,0.03,0.8,1.82,-0.37,-0.16,0.261791666667,0.54625
STABILIZE,19.1509501934,-0.870209872723,-0.0222407709807,0.0206554494798,-1.02028882504,1.2,2.22,0.03,0.8,1.82,-0.37,-0.16,0.261791666667,0.54625
STABILIZE,19.2555642128,-0.870209872723,-0.0222149975598,0.0207306407392,-1.02158284187,1.2,2.22,0.03,0.8,1.82,-0.37,-0.16,0.261791666667,0.54625
STABILIZE,19.3599321842,-0.870209872723,-0.0222305078059,0.0207971036434,-1.0235067606,1.2,2.22,0.03,0.8,1.82,-0.37,-0.16,0.261791666667,0.54625
STABILIZE,19.4640982151,-0.870209872723,-0.0222305078059,0.0207971036434,-1.0235067606,1.2,2.22,0.03,0.8,1.82,-0.37,-0.16,0.261791666667,0.54625
STABILIZE,19.5700931549,-0.870209872723,-0.0222305078059,0.0207971036434,-1.0235067606,1.2,2.23,0.03,0.8,1.83,-0.37,-0.16,0.261791666667,0.54625
STABILIZE,19.6747221947,-0.870209872723,-0.0222355108708,0.0208143405616,-1.02591609955,1.2,2.23,0.03,0.8,1.83,-0.37,-0.16,0.261791666667,0.54625
STABILIZE,19.7783741951,-0.870209872723,-0.0222355108708,0.0208143405616,-1.02591609955,1.2,2.22,0.03,0.8,1.82,-0.37,-0.16,0.261791666667,0.54625
STABILIZE,19.8817059994,-0.870209872723,-0.0222511570901,0.020789321512,-1.02859640121,1.2,2.22,0.03,0.8,1.82,-0.37,-0.16,0.261791666667,0.54625
STABILIZE,19.9850502014,-0.870209872723,-0.0222511570901,0.020789321512,-1.02859640121,1.2,2.22,0.03,0.8,1.82,-0.37,-0.16,0.261791666667,0.54625
STABILIZE,20.0903251171,-0.870209872723,-0.022266741842,0.0208046324551,-1.0313128233,1.2,2.22,0.03,0.8,1.82,-0.37,-0.16,0.261791666667,0.54625
STABILIZE,20.1951432228,-0.870209872723,-0.022266741842,0.0208046324551,-1.0313128233,1.2,2.22,0.03,0.8,1.82,-0.37,-0.16,0.261791666667,0.54625
STABILIZE,20.3012721539,-0.870209872723,-0.0222355704755,0.0207938365638,-1.03398549557,1.2,2.23,0.03,0.8,1.83,-0.37,-0.16,0.261791666667,0.54625
STABILIZE,20.4044370651,-0.870209872723,-0.0222355704755,0.0207938365638,-1.03398549557,1.2,2.23,0.03,0.8,1.83,-0.37,-0.16,0.261791666667,0.54625
STABILIZE,20.5090670586,-0.870209872723,-0.0222355704755,0.0207938365638,-1.03398549557,1.2,2.22,0.03,0.8,1.82,-0.37,-0.16,0.261791666667,0.54625
STABILIZE,20.6155080795,-0.870209872723,-0.0222757868469,0.020787101239,-1.0366768837,1.2,2.22,0.03,0.8,1.82,-0.37,-0.16,0.261791666667,0.54625
STABILIZE,20.7191050053,-0.870209872723,-0.0222757868469,0.020787101239,-1.0366768837,1.2,2.22,0.03,0.8,1.82,-0.37,-0.16,0.261791666667,0.54625
STABILIZE,20.8225591183,-0.870209872723,-0.0222561471164,0.0208461768925,-1.03928005695,1.2,2.22,0.03,0.8,1.82,-0.37,-0.16,0.261791666667,0.54625
STABILIZE,20.9279952049,-0.870209872723,-0.0222561471164,0.0208461768925,-1.03928005695,1.2,2.22,0.03,0.8,1.82,-0.37,-0.16,0.261791666667,0.54625
STABILIZE,21.0326750278,-0.870209872723,-0.0222373548895,0.0208410695195,-1.04175364971,1.2,2.23,0.03,0.8,1.83,-0.37,-0.16,0.261791666667,0.54625
STABILIZE,21.1370081902,-0.870209872723,-0.0222373548895,0.0208410695195,-1.04175364971,1.2,2.22,0.03,0.8,1.82,-0.37,-0.16,0.261791666667,0.54625
STABILIZE,21.2411720753,-0.870209872723,-0.0222373548895,0.0208410695195,-1.04175364971,1.2,2.22,0.03,0.8,1.82,-0.37,-0.16,0.261791666667,0.54625
STABILIZE,21.3447592258,-0.870209872723,-0.0222010649741,0.0208314917982,-1.0443520546,1.2,2.22,0.03,0.8,1.82,-0.37,-0.16,0.261791666667,0.54625
STABILIZE,21.4504780769,-0.870209872723,-0.0222010649741,0.0208314917982,-1.0443520546,1.2,2.22,0.03,0.8,1.82,-0.37,-0.16,0.261791666667,0.54625
STABILIZE,21.5538141727,-0.870209872723,-0.0221779383719,0.0208285879344,-1.04698431492,1.2,2.22,0.03,0.8,1.82,-0.37,-0.16,0.261791666667,0.54625
STABILIZE,21.6571261883,-0.870209872723,-0.0221779383719,0.0208285879344,-1.04698431492,1.2,2.22,0.03,0.8,1.82,-0.37,-0.16,0.261791666667,0.54625
STABILIZE,21.7640471458,-0.870209872723,-0.0222099293023,0.0208267979324,-1.04952871799,1.2,2.22,0.03,0.8,1.82,-0.37,-0.16,0.261791666667,0.54625
STABILIZE,21.8702671528,-0.870209872723,-0.0222099293023,0.0208267979324,-1.04952871799,1.2,2.23,0.03,0.8,1.83,-0.37,-0.16,0.261791666667,0.54625
STABILIZE,21.9764699936,-0.870209872723,-0.0222502835095,0.0208189822733,-1.05202674866,1.2,2.22,0.03,0.8,1.82,-0.37,-0.16,0.261791666667,0.54625
STABILIZE,22.0800380707,-0.870209872723,-0.0222502835095,0.0208189822733,-1.05202674866,1.2,2.22,0.03,0.8,1.82,-0.37,-0.16,0.261791666667,0.54625
STABILIZE,22.1832151413,-0.870209872723,-0.0222502835095,0.0208189822733,-1.05202674866,1.2,2.22,0.03,0.8,1.82,-0.37,-0.16,0.261791666667,0.54625
STABILIZE,22.2874381542,-0.870209872723,-0.0222241748124,0.0208459421992,-1.05456066132,1.2,2.22,0.03,0.8,1.82,-0.37,-0.16,0.261791666667,0.54625
STABILIZE,22.3924770355,-0.870209872723,-0.0222241748124,0.0208459421992,-1.05456066132,1.2,2.22,0.03,0.8,1.82,-0.37,-0.16,0.261791666667,0.54625
STABILIZE,22.4956700802,-0.870209872723,-0.0222737621516,0.0208198316395,-1.05709528923,1.2,2.22,0.03,0.8,1.82,-0.37,-0.16,0.261791666667,0.54625
STABILIZE,22.6031601429,-0.870209872723,-0.0222737621516,0.0208198316395,-1.05709528923,1.2,2.22,0.03,0.8,1.82,-0.37,-0.16,0.261791666667,0.54625
STABILIZE,22.7086641788,-0.870209872723,-0.0222321245819,0.0207939054817,-1.05962979794,1.2,2.22,0.03,0.8,1.82,-0.37,-0.16,0.261791666667,0.54625
STABILIZE,22.8160550594,-0.870209872723,-0.0222321245819,0.0207939054817,-1.05962979794,1.2,2.23,0.03,0.8,1.83,-0.37,-0.16,0.261791666667,0.54625
STABILIZE,22.919260025,-0.870209872723,-0.0222321245819,0.0207939054817,-1.05962979794,1.2,2.23,0.03,0.8,1.83,-0.37,-0.16,0.261791666667,0.54625
STABILIZE,23.0232071877,-0.870209872723,-0.0222615934908,0.020715765655,-1.06207931042,1.2,2.22,0.03,0.8,1.82,-0.37,-0.16,0.261791666667,0.54625
STABILIZE,23.1263451576,-0.870209872723,-0.0222615934908,0.020715765655,-1.06207931042,1.2,2.22,0.03,0.8,1.82,-0.37,-0.16,0.261791666667,0.54625
STABILIZE,23.2296462059,-0.870209872723,-0.022258521989,0.0206884145737,-1.06448888779,1.2,2.23,0.03,0.8,1.83,-0.37,-0.16,0.261791666667,0.54625
STABILIZE,23.3330311775,-0.870209872723,-0.022258521989,0.0206884145737,-1.06448888779,1.2,2.23,0.03,0.8,1.83,-0.37,-0.16,0.261791666667,0.54625
STABILIZE,23.4412660599,-0.870209872723,-0.0222261603922,0.0207113288343,-1.06700181961,1.2,2.23,0.03,0.8,1.83,-0.37,-0.16,0.261791666667,0.54625
STABILIZE,23.545522213,-0.870209872723,-0.0222261603922,0.0207113288343,-1.06700181961,1.2,2.23,0.03,0.8,1.83,-0.37,-0.16,0.261791666667,0.54625
STABILIZE,23.6501550674,-0.870209872723,-0.0222261603922,0.0207113288343,-1.06700181961,1.2,2.23,0.03,0.8,1.83,-0.37,-0.16,0.261791666667,0.54625
STABILIZE,23.755199194,-0.870209872723,-0.0222736410797,0.0206923559308,-1.06943535805,1.2,2.23,0.03,0.8,1.83,-0.37,-0.16,0.261791666667,0.54625
STABILIZE,23.8587841988,-0.870209872723,-0.0222736410797,0.0206923559308,-1.06943535805,1.2,2.23,0.03,0.8,1.83,-0.37,-0.16,0.261791666667,0.54625
STABILIZE,23.962801218,-0.870209872723,-0.02228740789,0.0206905994564,-1.07182919979,1.2,2.23,0.03,0.8,1.83,-0.37,-0.16,0.261791666667,0.54625
STABILIZE,24.0667090416,-0.870209872723,-0.02228740789,0.0206905994564,-1.07182919979,1.2,2.23,0.03,0.8,1.83,-0.37,-0.16,0.261791666667,0.54625
STABILIZE,24.1699261665,-0.870209872723,-0.0223217271268,0.0206324663013,-1.07429087162,1.2,2.22,0.03,0.8,1.82,-0.37,-0.16,0.261791666667,0.54625
STABILIZE,24.275635004,-0.870209872723,-0.0223217271268,0.0206324663013,-1.07429087162,1.2,2.22,0.03,0.8,1.82,-0.37,-0.16,0.261791666667,0.54625
STABILIZE,24.3806250095,-0.870209872723,-0.0223525948822,0.0206191167235,-1.07674825191,1.2,2.22,0.03,0.8,1.82,-0.37,-0.16,0.261791666667,0.54625
STABILIZE,24.4846410751,-0.870209872723,-0.0223525948822,0.0206191167235,-1.07674825191,1.2,2.22,0.03,0.8,1.82,-0.37,-0.16,0.261791666667,0.54625
STABILIZE,24.5878450871,-0.870209872723,-0.0223525948822,0.0206191167235,-1.07674825191,1.2,2.22,0.03,0.8,1.82,-0.37,-0.16,0.261791666667,0.54625
STABILIZE,24.6909220219,-0.870209872723,-0.0223716627806,0.0205660611391,-1.07916247845,1.2,2.22,0.03,0.8,1.82,-0.37,-0.16,0.261791666667,0.54625
STABILIZE,24.793941021,-0.870209872723,-0.0223716627806,0.0205660611391,-1.07916247845,1.2,2.22,0.03,0.8,1.82,-0.37,-0.16,0.261791666667,0.54625
STABILIZE,24.8968892097,-0.870209872723,-0.0224127527326,0.020503744483,-1.08152508736,1.2,2.22,0.03,0.8,1.82,-0.37,-0.16,0.261791666667,0.54625
STABILIZE,24.999805212,-0.870209872723,-0.0224127527326,0.020503744483,-1.08152508736,1.2,2.22,0.03,0.8,1.82,-0.37,-0.16,0.261791666667,0.54625
STABILIZE,25.1027030945,-0.870209872723,-0.0224127527326,0.020503744483,-1.08152508736,1.2,2.22,0.03,0.8,1.82,-0.37,-0.16,0.261791666667,0.54625
STABILIZE,25.2058601379,-0.870209872723,-0.0223633330315,0.0205044485629,-1.08386623859,1.2,2.23,0.03,0.8,1.83,-0.37,-0.16,0.261791666667,0.54625
STABILIZE,25.3087720871,-0.870209872723,-0.0223633330315,0.0205044485629,-1.08386623859,1.2,2.23,0.03,0.8,1.83,-0.37,-0.16,0.261791666667,0.54625
STABILIZE,25.4121751785,-0.870209872723,-0.0224035289139,0.0205243006349,-1.08629393578,1.2,2.22,0.03,0.8,1.82,-0.37,-0.16,0.261791666667,0.54625
STABILIZE,25.5158240795,-0.870209872723,-0.0224035289139,0.0205243006349,-1.08629393578,1.2,2.22,0.03,0.8,1.82,-0.37,-0.16,0.261791666667,0.54625
STABILIZE,25.6191082001,-0.870209872723,-0.0224506035447,0.0205126386136,-1.08871555328,1.2,2.22,0.03,0.8,1.82,-0.37,-0.16,0.261791666667,0.54625
STABILIZE,25.724722147,-0.870209872723,-0.0224506035447,0.0205126386136,-1.08871555328,1.2,2.22,0.03,0.8,1.82,-0.37,-0.16,0.261791666667,0.54625
STABILIZE,25.8295161724,-0.870209872723,-0.0224691424519,0.0205161683261,-1.09103035927,1.2,2.22,0.03,0.8,1.82,-0.37,-0.16,0.261791666667,0.54625
STABILIZE,25.9359800816,-0.870209872723,-0.0224691424519,0.0205161683261,-1.09103035927,1.2,2.22,0.03,0.8,1.82,-0.37,-0.16,0.261791666667,0.54625
STABILIZE,26.0393052101,-0.870209872723,-0.0224691424519,0.0205161683261,-1.09103035927,1.2,2.22,0.03,0.8,1.82,-0.37,-0.16,0.261791666667,0.54625
STABILIZE,26.1428120136,-0.870209872723,-0.0224786680192,0.0204489305615,-1.09335887432,1.2,2.22,0.03,0.8,1.82,-0.37,-0.16,0.261791666667,0.54625
STABILIZE,26.2461850643,-0.870209872723,-0.0224786680192,0.0204489305615,-1.09335887432,1.2,2.22,0.03,0.8,1.82,-0.37,-0.16,0.261791666667,0.54625
STABILIZE,26.3506090641,-0.870209872723,-0.0225180704147,0.0204500183463,-1.09571373463,1.2,2.22,0.03,0.8,1.82,-0.37,-0.16,0.261791666667,0.54625
STABILIZE,26.4539191723,-0.870209872723,-0.0225180704147,0.0204500183463,-1.09571373463,1.2,2.22,0.03,0.8,1.82,-0.37,-0.16,0.261791666667,0.54625
STABILIZE,26.5592601299,-0.870209872723,-0.0225621052086,0.0204343106598,-1.09808421135,1.2,2.22,0.03,0.8,1.82,-0.37,-0.16,0.261791666667,0.54625
STABILIZE,26.6643180847,-0.870209872723,-0.0225621052086,0.0204343106598,-1.09808421135,1.2,2.22,0.03,0.8,1.82,-0.37,-0.16,0.261791666667,0.54625
STABILIZE,26.7675421238,-0.870209872723,-0.0225621052086,0.0204343106598,-1.09808421135,1.2,2.22,0.03,0.8,1.82,-0.37,-0.16,0.261791666667,0.54625
STABILIZE,26.8719680309,-0.870209872723,-0.0226232614368,0.0204002223909,-1.10038113594,1.2,2.23,0.03,0.8,1.83,-0.37,-0.16,0.261791666667,0.54625
STABILIZE,26.975675106,-0.870209872723,-0.0226232614368,0.0204002223909,-1.10038113594,1.2,2.22,0.03,0.8,1.82,-0.37,-0.16,0.261791666667,0.54625
STABILIZE,27.0789232254,-0.870209872723,-0.0227186381817,0.0203097332269,-1.10266327858,1.2,2.22,0.03,0.8,1.82,-0.37,-0.16,0.261791666667,0.54625
STABILIZE,27.1824002266,-0.870209872723,-0.0227186381817,0.0203097332269,-1.10266327858,1.2,2.22,0.03,0.8,1.82,-0.37,-0.16,0.261791666667,0.54625
STABILIZE,27.2876560688,-0.870209872723,-0.0227657407522,0.0202871505171,-1.10492992401,1.2,2.22,0.03,0.8,1.82,-0.37,-0.16,0.261791666667,0.54625
STABILIZE,27.3933970928,-0.870209872723,-0.0227657407522,0.0202871505171,-1.10492992401,1.2,2.22,0.03,0.8,1.82,-0.37,-0.16,0.261791666667,0.54625
STABILIZE,27.4969260693,-0.870209872723,-0.0227657407522,0.0202871505171,-1.10492992401,1.2,2.21,0.03,0.8,1.81,-0.37,-0.16,0.261791666667,0.54625
STABILIZE,27.6000421047,-0.870209872723,-0.0227657407522,0.0202871505171,-1.10492992401,1.2,2.22,0.03,0.8,1.82,-0.37,-0.16,0.261791666667,0.54625
STABILIZE,27.7058420181,-0.870209872723,-0.0228322260082,0.0202872306108,-1.10721099377,1.2,2.22,0.03,0.8,1.82,-0.37,-0.16,0.261791666667,0.54625
STABILIZE,27.8095970154,-0.870209872723,-0.0228984504938,0.0202570110559,-1.10949826241,1.2,2.23,0.03,0.8,1.83,-0.37,-0.16,0.261791666667,0.54625
STABILIZE,27.9143970013,-0.870209872723,-0.0228984504938,0.0202570110559,-1.10949826241,1.2,2.22,0.03,0.8,1.82,-0.37,-0.16,0.261791666667,0.54625
STABILIZE,28.0195991993,-0.870209872723,-0.0229903701693,0.0202310625464,-1.11173498631,1.2,2.21,0.03,0.8,1.81,-0.37,-0.16,0.261791666667,0.54625
STABILIZE,28.123647213,-0.870209872723,-0.0229903701693,0.0202310625464,-1.11173498631,1.2,2.22,0.03,0.8,1.82,-0.37,-0.16,0.261791666667,0.54625
STABILIZE,28.2295691967,-0.870209872723,-0.0230152849108,0.0202406812459,-1.11397969723,1.2,2.22,0.03,0.8,1.82,-0.37,-0.16,0.261791666667,0.54625
STABILIZE,28.3337302208,-0.870209872723,-0.0230152849108,0.0202406812459,-1.11397969723,1.2,2.22,0.03,0.8,1.82,-0.37,-0.16,0.261791666667,0.54625
STABILIZE,28.437816143,-0.870209872723,-0.0230152849108,0.0202406812459,-1.11397969723,1.2,2.22,0.03,0.8,1.82,-0.37,-0.16,0.261791666667,0.54625
STABILIZE,28.5435290337,-0.870209872723,-0.0230377409607,0.0202220585197,-1.11628222466,1.2,2.22,0.03,0.8,1.82,-0.37,-0.16,0.261791666667,0.54625
STABILIZE,28.6467940807,-0.870209872723,-0.0230377409607,0.0202220585197,-1.11628222466,1.2,2.22,0.03,0.8,1.82,-0.37,-0.16,0.261791666667,0.54625
STABILIZE,28.7518880367,-0.870209872723,-0.023017693311,0.0202231407166,-1.11855900288,1.2,2.21,0.03,0.8,1.81,-0.37,-0.16,0.261791666667,0.54625
STABILIZE,28.8551220894,-0.870209872723,-0.023017693311,0.0202231407166,-1.11855900288,1.2,2.22,0.03,0.8,1.82,-0.37,-0.16,0.261791666667,0.54625
STABILIZE,28.9610061646,-0.870209872723,-0.0230325125158,0.020183833316,-1.12077534199,1.2,2.22,0.03,0.8,1.82,-0.37,-0.16,0.261791666667,0.54625
STABILIZE,29.0665781498,-0.870209872723,-0.0230325125158,0.020183833316,-1.12077534199,1.2,2.22,0.03,0.8,1.82,-0.37,-0.16,0.261791666667,0.54625
STABILIZE,29.1717121601,-0.870209872723,-0.0230325125158,0.020183833316,-1.12077534199,1.2,2.22,0.03,0.8,1.82,-0.37,-0.16,0.261791666667,0.54625
STABILIZE,29.2763562202,-0.870209872723,-0.0230936091393,0.0202025864273,-1.12292945385,1.2,2.21,0.03,0.8,1.81,-0.37,-0.16,0.261791666667,0.54625
STABILIZE,29.3800740242,-0.870209872723,-0.0230936091393,0.0202025864273,-1.12292945385,1.2,2.22,0.03,0.8,1.82,-0.37,-0.16,0.261791666667,0.54625
STABILIZE,29.4840831757,-0.870209872723,-0.0231391843408,0.0201790239662,-1.12514209747,1.2,2.22,0.03,0.8,1.82,-0.37,-0.16,0.261791666667,0.54625
STABILIZE,29.5896470547,-0.870209872723,-0.0231391843408,0.0201790239662,-1.12514209747,1.2,2.22,0.03,0.8,1.82,-0.37,-0.16,0.261791666667,0.54625
STABILIZE,29.6944930553,-0.870209872723,-0.0231778007001,0.0202081538737,-1.12735748291,1.2,2.23,0.03,0.8,1.83,-0.37,-0.16,0.261791666667,0.54625
STABILIZE,29.800342083,-0.870209872723,-0.0231778007001,0.0202081538737,-1.12735748291,1.2,2.22,0.03,0.8,1.82,-0.37,-0.16,0.261791666667,0.54625
STABILIZE,29.9060981274,-0.870209872723,-0.0231778007001,0.0202081538737,-1.12735748291,1.2,2.22,0.03,0.8,1.82,-0.37,-0.16,0.261791666667,0.54625
STABILIZE,30.0099132061,-0.870209872723,-0.0231768190861,0.0202040076256,-1.12947702408,1.2,2.22,0.03,0.8,1.82,-0.37,-0.16,0.261791666667,0.54625
STABILIZE,30.1148700714,-0.870209872723,-0.0231768190861,0.0202040076256,-1.12947702408,1.2,2.22,0.03,0.8,1.82,-0.37,-0.16,0.261791666667,0.54625
STABILIZE,30.2213420868,-0.870209872723,-0.023236842826,0.0202377457172,-1.13160717487,1.2,2.22,0.03,0.8,1.82,-0.37,-0.16,0.261791666667,0.54625
STABILIZE,30.3245110512,-0.870209872723,-0.023236842826,0.0202377457172,-1.13160717487,1.2,2.23,0.03,0.8,1.83,-0.37,-0.16,0.261791666667,0.54625
STABILIZE,30.4280412197,-0.870209872723,-0.0232588350773,0.0201995354146,-1.1338019371,1.2,2.23,0.03,0.8,1.83,-0.37,-0.16,0.261791666667,0.54625
STABILIZE,30.5331192017,-0.870209872723,-0.0232588350773,0.0201995354146,-1.1338019371,1.2,2.22,0.03,0.8,1.82,-0.37,-0.16,0.261791666667,0.54625
STABILIZE,30.6377501488,-0.870209872723,-0.0233292002231,0.0201645027846,-1.13594639301,1.2,2.22,0.03,0.8,1.82,-0.37,-0.16,0.261791666667,0.54625
STABILIZE,30.7436640263,-0.870209872723,-0.0233292002231,0.0201645027846,-1.13594639301,1.2,2.22,0.03,0.8,1.82,-0.37,-0.16,0.261791666667,0.54625
STABILIZE,30.8472239971,-0.870209872723,-0.0233292002231,0.0201645027846,-1.13594639301,1.2,2.22,0.03,0.8,1.82,-0.37,-0.16,0.261791666667,0.54625
STABILIZE,30.9523701668,-0.870209872723,-0.0233137253672,0.0201872363687,-1.13804972172,1.2,2.22,0.03,0.8,1.82,-0.37,-0.16,0.261791666667,0.54625
STABILIZE,31.0567572117,-0.870209872723,-0.0233137253672,0.0201872363687,-1.13804972172,1.2,2.23,0.03,0.8,1.83,-0.37,-0.16,0.261791666667,0.54625
STABILIZE,31.1599349976,-0.870209872723,-0.0233332701027,0.0202011801302,-1.14008104801,1.2,2.22,0.03,0.8,1.82,-0.37,-0.16,0.261791666667,0.54625
STABILIZE,31.2640721798,-0.870209872723,-0.0233332701027,0.0202011801302,-1.14008104801,1.2,2.22,0.03,0.8,1.82,-0.37,-0.16,0.261791666667,0.54625
STABILIZE,31.3696269989,-0.870209872723,-0.0233537256718,0.0202608220279,-1.14226698875,1.2,2.23,0.03,0.8,1.83,-0.37,-0.16,0.261791666667,0.54625
STABILIZE,31.4743711948,-0.870209872723,-0.0233537256718,0.0202608220279,-1.14226698875,1.2,2.22,0.03,0.8,1.82,-0.37,-0.16,0.261791666667,0.54625
STABILIZE,31.5794801712,-0.870209872723,-0.0234245937318,0.0202625244856,-1.14435911179,1.2,2.22,0.03,0.8,1.82,-0.37,-0.16,0.261791666667,0.54625
STABILIZE,31.6826000214,-0.870209872723,-0.0234245937318,0.0202625244856,-1.14435911179,1.2,2.22,0.03,0.8,1.82,-0.37,-0.16,0.261791666667,0.54625
STABILIZE,31.7857570648,-0.870209872723,-0.0234245937318,0.0202625244856,-1.14435911179,1.2,2.22,0.03,0.8,1.82,-0.37,-0.16,0.261791666667,0.54625
STABILIZE,31.8893790245,-0.870209872723,-0.0233872905374,0.0203123409301,-1.14639163017,1.2,2.23,0.03,0.8,1.83,-0.37,-0.16,0.261791666667,0.54625
STABILIZE,31.9930791855,-0.870209872723,-0.0233872905374,0.0203123409301,-1.14639163017,1.2,2.22,0.03,0.8,1.82,-0.37,-0.16,0.261791666667,0.54625
STABILIZE,32.0960381031,-0.870209872723,-0.0233916044235,0.0203038584441,-1.14840531349,1.2,2.22,0.03,0.8,1.82,-0.37,-0.16,0.261791666667,0.54625
STABILIZE,32.2008302212,-0.870209872723,-0.0233916044235,0.0203038584441,-1.14840531349,1.2,2.22,0.03,0.8,1.82,-0.37,-0.16,0.261791666667,0.54625
STABILIZE,32.3047881126,-0.870209872723,-0.0233655050397,0.0203144140542,-1.15046942234,1.2,2.23,0.03,0.8,1.83,-0.37,-0.16,0.261791666667,0.54625
STABILIZE,32.408424139,-0.870209872723,-0.0233655050397,0.0203144140542,-1.15046942234,1.2,2.23,0.03,0.8,1.83,-0.37,-0.16,0.261791666667,0.54625
STABILIZE,32.5126171112,-0.870209872723,-0.0233655050397,0.0203144140542,-1.15046942234,1.2,2.23,0.03,0.8,1.83,-0.37,-0.16,0.261791666667,0.54625
STABILIZE,32.6167850494,-0.870209872723,-0.0233933329582,0.0203401483595,-1.15254509449,1.2,2.22,0.03,0.8,1.82,-0.37,-0.16,0.261791666667,0.54625
STABILIZE,32.7197291851,-0.870209872723,-0.0233933329582,0.0203401483595,-1.15254509449,1.2,2.22,0.03,0.8,1.82,-0.37,-0.16,0.261791666667,0.54625
STABILIZE,32.8226761818,-0.870209872723,-0.0233833268285,0.0203262008727,-1.15455567837,1.2,2.23,0.03,0.8,1.83,-0.37,-0.16,0.261791666667,0.54625
STABILIZE,32.9255030155,-0.870209872723,-0.0233833268285,0.0203262008727,-1.15455567837,1.2,2.23,0.03,0.8,1.83,-0.37,-0.16,0.261791666667,0.54625
STABILIZE,33.0284461975,-0.870209872723,-0.0233811959624,0.0203199777752,-1.15655469894,1.2,2.22,0.03,0.8,1.82,-0.37,-0.16,0.261791666667,0.54625
STABILIZE,33.1313271523,-0.870209872723,-0.0233811959624,0.0203199777752,-1.15655469894,1.2,2.23,0.03,0.8,1.83,-0.37,-0.16,0.261791666667,0.54625
STABILIZE,33.2342061996,-0.870209872723,-0.0233811959624,0.0203199777752,-1.15655469894,1.2,2.23,0.03,0.8,1.83,-0.37,-0.16,0.261791666667,0.54625
STABILIZE,33.3371191025,-0.870209872723,-0.0233947243541,0.0203046835959,-1.15856528282,1.2,2.23,0.03,0.8,1.83,-0.37,-0.16,0.261791666667,0.54625
STABILIZE,33.44008708,-0.870209872723,-0.0233947243541,0.0203046835959,-1.15856528282,1.2,2.23,0.03,0.8,1.83,-0.37,-0.16,0.261791666667,0.54625
STABILIZE,33.5430371761,-0.870209872723,-0.0234011001885,0.0202391520143,-1.16061663628,1.2,2.22,0.03,0.8,1.82,-0.37,-0.16,0.261791666667,0.54625
STABILIZE,33.6459410191,-0.870209872723,-0.0234011001885,0.0202391520143,-1.16061663628,1.2,2.23,0.03,0.8,1.83,-0.37,-0.16,0.261791666667,0.54625
STABILIZE,33.7488970757,-0.870209872723,-0.0234205741435,0.0202150791883,-1.16265833378,1.2,2.23,0.03,0.8,1.83,-0.37,-0.16,0.261791666667,0.54625
STABILIZE,33.8518199921,-0.870209872723,-0.0234205741435,0.0202150791883,-1.16265833378,1.2,2.23,0.03,0.8,1.83,-0.37,-0.16,0.261791666667,0.54625
STABILIZE,33.9546971321,-0.870209872723,-0.0234205741435,0.0202150791883,-1.16265833378,1.2,2.23,0.03,0.8,1.83,-0.37,-0.16,0.261791666667,0.54625
STABILIZE,34.0575551987,-0.870209872723,-0.0233974475414,0.0202172081918,-1.16457617283,1.2,2.23,0.03,0.8,1.83,-0.37,-0.16,0.261791666667,0.54625
STABILIZE,34.1605250835,-0.870209872723,-0.0233974475414,0.0202172081918,-1.16457617283,1.2,2.22,0.03,0.8,1.82,-0.37,-0.16,0.261791666667,0.54625
STABILIZE,34.2635920048,-0.870209872723,-0.0234058964998,0.020216923207,-1.16653299332,1.2,2.22,0.03,0.8,1.82,-0.37,-0.16,0.261791666667,0.54625
STABILIZE,34.3664581776,-0.870209872723,-0.0234058964998,0.020216923207,-1.16653299332,1.2,2.22,0.03,0.8,1.82,-0.37,-0.16,0.261791666667,0.54625
STABILIZE,34.4692230225,-0.870209872723,-0.0233825147152,0.0202108360827,-1.16856575012,1.2,2.22,0.03,0.8,1.82,-0.37,-0.16,0.261791666667,0.54625
STABILIZE,34.571999073,-0.870209872723,-0.0233825147152,0.0202108360827,-1.16856575012,1.2,2.22,0.03,0.8,1.82,-0.37,-0.16,0.261791666667,0.54625
STABILIZE,34.6749300957,-0.870209872723,-0.0233825147152,0.0202108360827,-1.16856575012,1.2,2.22,0.03,0.8,1.82,-0.37,-0.16,0.261791666667,0.54625
STABILIZE,34.7780461311,-0.870209872723,-0.0233821347356,0.0201879106462,-1.17056572437,1.2,2.23,0.03,0.8,1.83,-0.37,-0.16,0.261791666667,0.54625
STABILIZE,34.8810091019,-0.870209872723,-0.0233821347356,0.0201879106462,-1.17056572437,1.2,2.23,0.03,0.8,1.83,-0.37,-0.16,0.261791666667,0.54625
STABILIZE,34.9838540554,-0.870209872723,-0.0233651325107,0.0203363541514,-1.17263174057,1.2,2.22,0.03,0.8,1.82,-0.37,-0.16,0.261791666667,0.54625
STABILIZE,35.0869112015,-0.870209872723,-0.0233651325107,0.0203363541514,-1.17263174057,1.2,2.22,0.03,0.8,1.82,-0.37,-0.16,0.261791666667,0.54625
STABILIZE,35.1898760796,-0.870209872723,-0.0233651325107,0.0203363541514,-1.17263174057,1.2,2.23,0.03,0.8,1.83,-0.37,-0.16,0.261791666667,0.54625
STABILIZE,35.2950952053,-0.870209872723,-0.0234273914248,0.0205087251961,-1.17471885681,1.2,2.22,0.03,0.8,1.82,-0.37,-0.16,0.261791666667,0.54625
STABILIZE,35.3985311985,-0.870209872723,-0.0234273914248,0.0205087251961,-1.17471885681,1.2,2.22,0.03,0.8,1.82,-0.37,-0.16,0.261791666667,0.54625
STABILIZE,35.501912117,-0.870209872723,-0.0234206803143,0.0207335501909,-1.17684102058,1.2,2.23,0.03,0.8,1.83,-0.37,-0.16,0.261791666667,0.54625
STABILIZE,35.6048970222,-0.870209872723,-0.0234206803143,0.0207335501909,-1.17684102058,1.2,2.23,0.03,0.8,1.83,-0.37,-0.16,0.261791666667,0.54625
STABILIZE,35.7083220482,-0.870209872723,-0.0234206803143,0.0207335501909,-1.17684102058,1.2,2.23,0.03,0.8,1.83,-0.37,-0.16,0.261791666667,0.54625
STABILIZE,35.8117611408,-0.870209872723,-0.0234185941517,0.0210287775844,-1.17883300781,1.2,2.23,0.03,0.8,1.83,-0.37,-0.16,0.261791666667,0.54625
STABILIZE,35.9154071808,-0.870209872723,-0.0234185941517,0.0210287775844,-1.17883300781,1.2,2.22,0.03,0.8,1.82,-0.37,-0.16,0.261791666667,0.54625
STABILIZE,36.018404007,-0.870209872723,-0.0234185941517,0.0210287775844,-1.17883300781,1.2,2.22,0.03,0.8,1.82,-0.37,-0.16,0.261791666667,0.54625
STABILIZE,36.1213331223,-0.870209872723,-0.0234185941517,0.0210287775844,-1.17883300781,1.2,2.23,0.03,0.8,1.83,-0.37,-0.16,0.261791666667,0.54625
STABILIZE,36.2253241539,-0.870209872723,-0.0234010517597,0.0212586782873,-1.18076980114,1.2,2.23,0.03,0.8,1.83,-0.37,-0.16,0.261791666667,0.54625
STABILIZE,36.3291780949,-0.870209872723,-0.0234569050372,0.0215428210795,-1.18290185928,1.2,2.23,0.03,0.8,1.83,-0.37,-0.16,0.261791666667,0.54625
STABILIZE,36.4335319996,-0.870209872723,-0.0234569050372,0.0215428210795,-1.18290185928,1.2,2.23,0.03,0.8,1.83,-0.37,-0.16,0.261791666667,0.54625
STABILIZE,36.5377111435,-0.870209872723,-0.0235031843185,0.0217864140868,-1.18472123146,1.2,2.23,0.03,0.8,1.83,-0.37,-0.16,0.261791666667,0.54625
STABILIZE,36.6425762177,-0.870209872723,-0.0235031843185,0.0217864140868,-1.18472123146,1.2,2.23,0.03,0.8,1.83,-0.37,-0.16,0.261791666667,0.54625
STABILIZE,36.7461230755,-0.870209872723,-0.0235031843185,0.0217864140868,-1.18472123146,1.2,2.23,0.03,0.8,1.83,-0.37,-0.16,0.261791666667,0.54625
STABILIZE,36.8494272232,-0.870209872723,-0.0235121175647,0.0220263451338,-1.18653774261,1.2,2.23,0.03,0.8,1.83,-0.37,-0.16,0.261791666667,0.54625
STABILIZE,36.9539132118,-0.870209872723,-0.0235121175647,0.0220263451338,-1.18653774261,1.2,2.22,0.03,0.8,1.82,-0.37,-0.16,0.261791666667,0.54625
STABILIZE,37.0573160648,-0.870209872723,-0.0236502550542,0.0222676880658,-1.18841147423,1.2,2.23,0.03,0.8,1.83,-0.37,-0.16,0.261791666667,0.54625
STABILIZE,37.1618330479,-0.870209872723,-0.0236502550542,0.0222676880658,-1.18841147423,1.2,2.23,0.03,0.8,1.83,-0.37,-0.16,0.261791666667,0.54625
STABILIZE,37.265651226,-0.870209872723,-0.0236502550542,0.0222676880658,-1.18841147423,1.2,2.23,0.03,0.8,1.83,-0.37,-0.16,0.261791666667,0.54625
STABILIZE,37.3694140911,-0.870209872723,-0.02366585657,0.0223585199565,-1.19045138359,1.2,2.23,0.03,0.8,1.83,-0.37,-0.16,0.261791666667,0.54625
STABILIZE,37.4737651348,-0.870209872723,-0.02366585657,0.0223585199565,-1.19045138359,1.2,2.23,0.03,0.8,1.83,-0.37,-0.16,0.261791666667,0.54625
STABILIZE,37.5770361423,-0.870209872723,-0.0235430151224,0.0228614211082,-1.1920119524,1.2,2.22,0.03,0.8,1.82,-0.37,-0.16,0.261791666667,0.54625
STABILIZE,37.6806221008,-0.870209872723,-0.0235430151224,0.0228614211082,-1.1920119524,1.2,2.23,0.03,0.8,1.83,-0.37,-0.16,0.261791666667,0.54625
STABILIZE,37.7851791382,-0.870209872723,-0.0234322007746,0.0230289306492,-1.1935107708,1.2,2.23,0.03,0.8,1.83,-0.37,-0.16,0.261791666667,0.54625
STABILIZE,37.8882582188,-0.870209872723,-0.0234322007746,0.0230289306492,-1.1935107708,1.2,2.22,0.03,0.8,1.82,-0.37,-0.16,0.261791666667,0.54625
STABILIZE,37.992773056,-0.870209872723,-0.0234322007746,0.0230289306492,-1.1935107708,1.2,2.27,0.03,0.8,1.87,-0.37,-0.16,0.261791666667,0.54625
STABILIZE,38.0960211754,-0.870209872723,-0.023471750319,0.0231699999422,-1.19542741776,1.2,2.23,0.03,0.8,1.83,-0.37,-0.16,0.261791666667,0.54625
STABILIZE,38.2012190819,-0.870209872723,-0.023471750319,0.0231699999422,-1.19542741776,1.19,2.23,0.03,0.79,1.83,-0.37,-0.156582530326,0.261791666667,0.54625
STABILIZE,38.3042550087,-0.870209872723,-0.0236145555973,0.0234265886247,-1.19721615314,1.2,2.26,0.03,0.8,1.86,-0.37,-0.161413565751,0.261791666667,0.54625
STABILIZE,38.4072930813,-0.870209872723,-0.0236145555973,0.0234265886247,-1.19721615314,1.2,2.23,0.03,0.8,1.83,-0.37,-0.16,0.261791666667,0.54625
STABILIZE,38.510874033,-0.870209872723,-0.0236145555973,0.0234265886247,-1.19721615314,1.2,2.27,0.03,0.8,1.87,-0.37,-0.16,0.261791666667,0.54625
STABILIZE,38.6139302254,-0.870209872723,-0.0237382799387,0.0236951522529,-1.19909739494,1.2,2.27,0.03,0.8,1.87,-0.37,-0.16,0.261791666667,0.54625
STABILIZE,38.7178230286,-0.870209872723,-0.0237382799387,0.0236951522529,-1.19909739494,1.2,2.24,0.03,0.8,1.84,-0.37,-0.16,0.261791666667,0.54625
STABILIZE,38.822302103,-0.870209872723,-0.0237155146897,0.0238967593759,-1.20077693462,1.2,2.22,0.03,0.8,1.82,-0.37,-0.16,0.261791666667,0.54625
STABILIZE,38.9255571365,-0.870209872723,-0.0237155146897,0.0238967593759,-1.20077693462,1.2,2.22,0.03,0.8,1.82,-0.37,-0.16,0.261791666667,0.54625
STABILIZE,39.0289170742,-0.870209872723,-0.0237155146897,0.0238967593759,-1.20077693462,1.2,2.23,0.03,0.8,1.83,-0.37,-0.16,0.261791666667,0.54625
STABILIZE,39.131896019,-0.870209872723,-0.0235425382853,0.0241921078414,-1.20206606388,1.2,2.24,0.03,0.8,1.84,-0.37,-0.16,0.261791666667,0.54625
STABILIZE,39.2353270054,-0.870209872723,-0.0235425382853,0.0241921078414,-1.20206606388,1.2,2.26,0.03,0.8,1.86,-0.37,-0.16,0.261791666667,0.54625
STABILIZE,39.3387670517,-0.870209872723,-0.0235572177917,0.0242451839149,-1.20379185677,1.2,2.23,0.03,0.8,1.83,-0.37,-0.16,0.261791666667,0.54625
STABILIZE,39.4417331219,-0.870209872723,-0.0235572177917,0.0242451839149,-1.20379185677,1.2,2.23,0.03,0.8,1.83,-0.37,-0.16,0.261791666667,0.54625
STABILIZE,39.5462729931,-0.870209872723,-0.0235572177917,0.0242451839149,-1.20379185677,1.2,2.23,0.03,0.8,1.83,-0.37,-0.16,0.261791666667,0.54625
STABILIZE,39.6493082047,-0.870209872723,-0.0234507378191,0.0243471302092,-1.20491421223,1.2,2.23,0.03,0.8,1.83,-0.37,-0.16,0.261791666667,0.54625
STABILIZE,39.752395153,-0.870209872723,-0.0234507378191,0.0243471302092,-1.20491421223,1.2,2.24,0.03,0.8,1.84,-0.37,-0.16,0.261791666667,0.54625
STABILIZE,39.8564012051,-0.870209872723,-0.0239760950208,0.0245599485934,-1.20817220211,1.2,2.24,0.03,0.8,1.84,-0.37,-0.16,0.261791666667,0.54625
STABILIZE,39.9596190453,-0.870209872723,-0.0239760950208,0.0245599485934,-1.20817220211,1.2,2.23,0.03,0.8,1.83,-0.37,-0.16,0.261791666667,0.54625
STABILIZE,40.064522028,-0.870209872723,-0.0239760950208,0.0245599485934,-1.20817220211,1.2,2.22,0.03,0.8,1.82,-0.37,-0.16,0.261791666667,0.54625
STABILIZE,40.1684341431,-0.870209872723,-0.0240698158741,0.0246098097414,-1.21004235744,1.2,2.24,0.03,0.8,1.84,-0.37,-0.16,0.261791666667,0.54625
STABILIZE,40.2716760635,-0.870209872723,-0.0240698158741,0.0246098097414,-1.21004235744,1.2,2.27,0.03,0.8,1.87,-0.37,-0.16,0.261791666667,0.54625
STABILIZE,40.375524044,-0.870209872723,-0.0236479304731,0.0248037874699,-1.21070468426,1.2,2.26,0.03,0.8,1.86,-0.37,-0.16,0.261791666667,0.54625
STABILIZE,40.4810471535,-0.870209872723,-0.0236479304731,0.0248037874699,-1.21070468426,1.2,2.23,0.03,0.8,1.83,-0.37,-0.16,0.261791666667,0.54625
STABILIZE,40.5856170654,-0.870209872723,-0.0236479304731,0.0248037874699,-1.21070468426,1.2,2.24,0.03,0.8,1.84,-0.37,-0.16,0.261791666667,0.54625
STABILIZE,40.6891930103,-0.870209872723,-0.0238965302706,0.0247680693865,-1.21304154396,1.2,2.26,0.03,0.8,1.86,-0.37,-0.16,0.261791666667,0.54625
STABILIZE,40.794449091,-0.870209872723,-0.0238965302706,0.0247680693865,-1.21304154396,1.2,2.24,0.03,0.8,1.84,-0.37,-0.16,0.261791666667,0.54625
STABILIZE,40.8990571499,-0.870209872723,-0.0238965302706,0.0247680693865,-1.21304154396,1.2,2.22,0.03,0.8,1.82,-0.37,-0.16,0.261791666667,0.54625
STABILIZE,41.0021791458,-0.870209872723,-0.0236417222768,0.0251682139933,-1.21431922913,1.2,2.24,0.03,0.8,1.84,-0.37,-0.16,0.261791666667,0.54625
STABILIZE,41.1067550182,-0.870209872723,-0.0236417222768,0.0251682139933,-1.21431922913,1.2,2.23,0.03,0.8,1.83,-0.37,-0.16,0.261791666667,0.54625
STABILIZE,41.211466074,-0.870209872723,-0.0239748489112,0.0251928362995,-1.21650648117,1.2,2.23,0.03,0.8,1.83,-0.37,-0.16,0.261791666667,0.54625
STABILIZE,41.315680027,-0.870209872723,-0.0239748489112,0.0251928362995,-1.21650648117,1.2,2.23,0.03,0.8,1.83,-0.37,-0.16,0.261791666667,0.54625
STABILIZE,41.4188780785,-0.870209872723,-0.0235374942422,0.0252667386085,-1.21682476997,1.2,2.23,0.03,0.8,1.83,-0.37,-0.16,0.261791666667,0.54625
STABILIZE,41.5219910145,-0.870209872723,-0.0235374942422,0.0252667386085,-1.21682476997,1.2,2.22,0.03,0.8,1.82,-0.37,-0.16,0.261791666667,0.54625
STABILIZE,41.626262188,-0.870209872723,-0.0235374942422,0.0252667386085,-1.21682476997,1.2,2.23,0.03,0.8,1.83,-0.37,-0.16,0.261791666667,0.54625
STABILIZE,41.7297661304,-0.870209872723,-0.0236792676151,0.0253399908543,-1.21882247925,1.2,2.22,0.03,0.8,1.82,-0.37,-0.16,0.261791666667,0.54625
STABILIZE,41.833422184,-0.870209872723,-0.0236792676151,0.0253399908543,-1.21882247925,1.2,2.23,0.03,0.8,1.83,-0.37,-0.16,0.261791666667,0.54625
STABILIZE,41.9383971691,-0.870209872723,-0.0236516389996,0.0255971327424,-1.22011125088,1.2,2.23,0.03,0.8,1.83,-0.37,-0.16,0.261791666667,0.54625
STABILIZE,42.0424082279,-0.870209872723,-0.0236516389996,0.0255971327424,-1.22011125088,1.2,2.27,0.03,0.8,1.87,-0.37,-0.16,0.261791666667,0.54625
STABILIZE,42.1455349922,-0.870209872723,-0.0236516389996,0.0255971327424,-1.22011125088,1.2,2.25,0.03,0.8,1.85,-0.37,-0.16,0.261791666667,0.54625
STABILIZE,42.2494540215,-0.870209872723,-0.0238115508109,0.0254694782197,-1.22214245796,1.2,2.22,0.03,0.8,1.82,-0.37,-0.16,0.261791666667,0.54625
STABILIZE,42.3525822163,-0.870209872723,-0.0238115508109,0.0254694782197,-1.22214245796,1.2,2.23,0.03,0.8,1.83,-0.37,-0.16,0.261791666667,0.54625
