Mode,Time,Yaw_SP,Roll,Pitch,Yaw,northCurrentPos,eastCurrentPos,downCurrentPos,errorNorth,errorEast,errorDown,self.pitchAngle,self.rollAngle,self.thrust
STABILIZE,0.104411840439,2.91528344154,-0.036493241787,0.0223512463272,2.91502714157,1.17,1.24,0.02,0.77,0.84,-0.38,-0.154,0.168,0.5475
STABILIZE,0.208062887192,2.91528344154,-0.036493241787,0.0223512463272,2.91502714157,1.17,1.11,0.02,0.77,0.71,-0.38,-0.154,-0.261791666667,0.5475
STABILIZE,0.311368942261,2.91528344154,-0.036493241787,0.0223512463272,2.91502714157,1.17,1.25,0.02,0.77,0.85,-0.38,-0.154,0.261791666667,0.5475
STABILIZE,0.416321992874,2.91528344154,-0.036493241787,0.0223512463272,2.91502714157,1.17,1.25,0.02,0.77,0.85,-0.38,-0.154,0.17,0.5475
STABILIZE,0.519361972809,2.91528344154,-0.036493241787,0.0223512463272,2.91502714157,1.17,1.25,0.02,0.77,0.85,-0.38,-0.154,0.17,0.5475
STABILIZE,0.622684001923,2.91528344154,-0.036493241787,0.0223512463272,2.91502714157,1.17,1.24,0.02,0.77,0.84,-0.38,-0.154,0.0640356749576,0.5475
STABILIZE,0.725870847702,2.91528344154,-0.036493241787,0.0223512463272,2.91502714157,1.17,1.12,0.02,0.77,0.72,-0.38,-0.154,-0.261791666667,0.5475
STABILIZE,0.829076051712,2.91528344154,-0.036493241787,0.0223512463272,2.91502714157,1.17,1.25,0.02,0.77,0.85,-0.38,-0.154,0.261791666667,0.5475
STABILIZE,0.932174921036,2.91528344154,-0.036493241787,0.0223512463272,2.91502714157,1.17,1.25,0.02,0.77,0.85,-0.38,-0.154,0.17,0.5475
STABILIZE,1.0353448391,2.91528344154,-0.036493241787,0.0223512463272,2.91502714157,1.17,1.24,0.02,0.77,0.84,-0.38,-0.154,0.110072765692,0.5475
STABILIZE,1.13844799995,2.91528344154,-0.036493241787,0.0223512463272,2.91502714157,1.17,1.24,0.02,0.77,0.84,-0.38,-0.154,0.168,0.5475
STABILIZE,1.24382591248,2.91528344154,-0.0366861969233,0.0223524533212,2.91475820541,1.17,1.24,0.02,0.77,0.84,-0.38,-0.154,0.168,0.5475
STABILIZE,1.34940505028,2.91528344154,-0.0366861969233,0.0223524533212,2.91475820541,1.17,1.24,0.02,0.77,0.84,-0.38,-0.154,0.168,0.5475
STABILIZE,1.45329904556,2.91528344154,-0.0366861969233,0.0223524533212,2.91475820541,1.17,1.24,0.02,0.77,0.84,-0.38,-0.154,0.168,0.5475
STABILIZE,1.55656099319,2.91528344154,-0.0366861969233,0.0223524533212,2.91475820541,1.17,1.24,0.02,0.77,0.84,-0.38,-0.154,0.168,0.5475
STABILIZE,1.66022205353,2.91528344154,-0.0366861969233,0.0223524533212,2.91475820541,1.17,1.24,0.02,0.77,0.84,-0.38,-0.154,0.168,0.5475
STABILIZE,1.76380491257,2.91528344154,-0.0366861969233,0.0223524533212,2.91475820541,1.17,1.24,0.02,0.77,0.84,-0.38,-0.154,0.168,0.5475
STABILIZE,1.86721491814,2.91528344154,-0.0366861969233,0.0223524533212,2.91475820541,1.17,1.12,0.02,0.77,0.72,-0.38,-0.154,-0.223381312398,0.5475
STABILIZE,1.97255587578,2.91528344154,-0.0366861969233,0.0223524533212,2.91475820541,1.17,1.24,0.02,0.77,0.84,-0.38,-0.154,0.261791666667,0.5475
STABILIZE,2.0810649395,2.91528344154,-0.036685269326,0.0224126372486,2.91462898254,1.17,1.24,0.02,0.77,0.84,-0.38,-0.154,0.168,0.5475
STABILIZE,2.18475103378,2.91528344154,-0.036685269326,0.0224126372486,2.91462898254,1.17,1.12,0.02,0.77,0.72,-0.38,-0.154,-0.167363771097,0.5475
STABILIZE,2.29155683517,2.91528344154,-0.036685269326,0.0224126372486,2.91462898254,1.17,1.24,0.02,0.77,0.84,-0.38,-0.154,0.261791666667,0.5475
STABILIZE,2.39623904228,2.91528344154,-0.036685269326,0.0224126372486,2.91462898254,1.17,1.24,0.02,0.77,0.84,-0.38,-0.154,0.168,0.5475
STABILIZE,2.49951601028,2.91528344154,-0.036685269326,0.0224126372486,2.91462898254,1.17,1.24,0.02,0.77,0.84,-0.38,-0.154,0.168,0.5475
STABILIZE,2.60507702827,2.91528344154,-0.036685269326,0.0224126372486,2.91462898254,1.17,1.24,0.02,0.77,0.84,-0.38,-0.154,0.168,0.5475
STABILIZE,2.71381902695,2.91528344154,-0.036685269326,0.0224126372486,2.91462898254,1.17,1.24,0.02,0.77,0.84,-0.38,-0.154,0.168,0.5475
STABILIZE,2.81747889519,2.91528344154,-0.036685269326,0.0224126372486,2.91462898254,1.17,1.24,0.02,0.77,0.84,-0.38,-0.154,0.168,0.5475
STABILIZE,2.92058205605,2.91528344154,-0.036685269326,0.0224126372486,2.91462898254,1.17,1.24,0.02,0.77,0.84,-0.38,-0.154,0.168,0.5475
STABILIZE,3.02900004387,2.91528344154,-0.0369026400149,0.0219957027584,2.91505026817,1.17,1.24,0.02,0.77,0.84,-0.38,-0.154,0.168,0.5475
STABILIZE,3.13295698166,2.91528344154,-0.0369026400149,0.0219957027584,2.91505026817,1.17,1.24,0.02,0.77,0.84,-0.38,-0.154,0.168,0.5475
STABILIZE,3.23589992523,2.91528344154,-0.0369026400149,0.0219957027584,2.91505026817,1.17,1.25,0.02,0.77,0.85,-0.38,-0.154,0.187235931813,0.5475
STABILIZE,3.33887004852,2.91528344154,-0.0369026400149,0.0219957027584,2.91505026817,1.18,1.25,0.02,0.78,0.85,-0.38,-0.172687650291,0.17,0.5475
STABILIZE,3.4419670105,2.91528344154,-0.0369026400149,0.0219957027584,2.91505026817,1.17,1.25,0.02,0.77,0.85,-0.38,-0.137826994314,0.17,0.5475
STABILIZE,3.54490303993,2.91528344154,-0.0369026400149,0.0219957027584,2.91505026817,1.17,1.27,0.02,0.77,0.87,-0.38,-0.154,0.205377170162,0.5475
STABILIZE,3.64780688286,2.91528344154,-0.0369026400149,0.0219957027584,2.91505026817,1.16,1.28,0.02,0.76,0.88,-0.38,-0.136766963664,0.191233036336,0.5475
STABILIZE,3.75079894066,2.91528344154,-0.0369026400149,0.0219957027584,2.91505026817,1.16,1.28,0.02,0.76,0.88,-0.38,-0.152,0.176,0.5475
STABILIZE,3.85366082191,2.91528344154,-0.0369026400149,0.0219957027584,2.91505026817,1.17,1.27,0.02,0.77,0.87,-0.38,-0.168396810094,0.159603189906,0.5475
STABILIZE,3.95656585693,2.91528344154,-0.0369026400149,0.0219957027584,2.91505026817,1.16,1.27,0.02,0.76,0.87,-0.38,-0.137987448912,0.174,0.5475
STABILIZE,4.05952882767,2.91528344154,-0.0371778011322,0.0231653843075,2.94266080856,1.16,1.28,0.02,0.76,0.88,-0.38,-0.152,0.189648102416,0.5475
STABILIZE,4.16240692139,2.91528344154,-0.0371778011322,0.0231653843075,2.94266080856,1.16,1.28,0.02,0.76,0.88,-0.38,-0.152,0.176,0.5475
STABILIZE,4.26524090767,2.91528344154,-0.0371778011322,0.0231653843075,2.94266080856,1.16,1.28,0.02,0.76,0.88,-0.38,-0.152,0.176,0.5475
STABILIZE,4.36804103851,2.91528344154,-0.0371778011322,0.0231653843075,2.94266080856,1.17,1.28,0.02,0.77,0.88,-0.38,-0.166660403517,0.176,0.5475
STABILIZE,4.47094702721,2.91528344154,-0.0371778011322,0.0231653843075,2.94266080856,1.17,1.27,0.02,0.77,0.87,-0.38,-0.154,0.161637563133,0.5475
STABILIZE,4.57391285896,2.91528344154,-0.0371778011322,0.0231653843075,2.94266080856,1.16,1.27,0.02,0.76,0.87,-0.38,-0.139922099895,0.174,0.5475
STABILIZE,4.67702198029,2.91528344154,-0.0371778011322,0.0231653843075,2.94266080856,1.16,1.28,0.02,0.76,0.88,-0.38,-0.152,0.187806017048,0.5475
STABILIZE,4.78004693985,2.91528344154,-0.0371778011322,0.0231653843075,2.94266080856,1.16,1.19,0.02,0.76,0.79,-0.38,-0.152,0.0540883911885,0.5475
STABILIZE,4.88604283333,2.91528344154,-0.0371778011322,0.0231653843075,2.94266080856,1.16,1.28,0.02,0.76,0.88,-0.38,-0.152,0.261791666667,0.5475
STABILIZE,4.99000000954,2.91528344154,-0.0371778011322,0.0231653843075,2.94266080856,1.16,1.27,0.02,0.76,0.87,-0.38,-0.152,0.162948222715,0.5475
STABILIZE,5.09287691116,2.91528344154,-0.0371943563223,0.0232620853931,2.9428589344,1.16,1.28,0.02,0.76,0.88,-0.38,-0.152,0.18682158484,0.5475
STABILIZE,5.19584393501,2.91528344154,-0.0371943563223,0.0232620853931,2.9428589344,1.16,1.19,0.02,0.76,0.79,-0.38,-0.152,0.0625731052305,0.5475
STABILIZE,5.30287885666,2.91528344154,-0.0371943563223,0.0232620853931,2.9428589344,1.16,1.19,0.02,0.76,0.79,-0.38,-0.152,0.158,0.5475
STABILIZE,5.40729403496,2.91528344154,-0.0371943563223,0.0232620853931,2.9428589344,1.16,1.19,0.02,0.76,0.79,-0.38,-0.152,0.158,0.5475
STABILIZE,5.51387405396,2.91528344154,-0.0371943563223,0.0232620853931,2.9428589344,1.16,1.18,0.02,0.76,0.78,-0.38,-0.152,0.146013553539,0.5475
STABILIZE,5.61676383018,2.91528344154,-0.0371943563223,0.0232620853931,2.9428589344,1.16,1.27,0.02,0.76,0.87,-0.38,-0.152,0.261791666667,0.5475
STABILIZE,5.7217400074,2.91528344154,-0.0371943563223,0.0232620853931,2.9428589344,1.16,1.27,0.02,0.76,0.87,-0.38,-0.152,0.174,0.5475
STABILIZE,5.82487487793,2.91528344154,-0.0371943563223,0.0232620853931,2.9428589344,1.16,1.27,0.02,0.76,0.87,-0.38,-0.152,0.174,0.5475
STABILIZE,5.93191695213,2.91528344154,-0.0371943563223,0.0232620853931,2.9428589344,1.16,1.28,0.02,0.76,0.88,-0.38,-0.152,0.185270537589,0.5475
STABILIZE,6.03804183006,2.91528344154,-0.0374901145697,0.0230762809515,2.94278860092,1.16,1.28,0.02,0.76,0.88,-0.38,-0.152,0.176,0.5475
STABILIZE,6.14223384857,2.91528344154,-0.0374901145697,0.0230762809515,2.94278860092,1.16,1.28,0.02,0.76,0.88,-0.38,-0.152,0.176,0.5475
STABILIZE,6.24573993683,2.91528344154,-0.0374901145697,0.0230762809515,2.94278860092,1.16,1.27,0.02,0.76,0.87,-0.38,-0.152,0.165208460438,0.5475
STABILIZE,6.348706007,2.91528344154,-0.0374901145697,0.0230762809515,2.94278860092,1.16,1.28,0.02,0.76,0.88,-0.38,-0.152,0.184645851543,0.5475
STABILIZE,6.45229792595,2.91528344154,-0.0374901145697,0.0230762809515,2.94278860092,1.17,1.28,0.02,0.77,0.88,-0.38,-0.162505628755,0.176,0.5475
STABILIZE,6.55559587479,2.91528344154,-0.0374901145697,0.0230762809515,2.94278860092,1.16,1.19,0.02,0.76,0.79,-0.38,-0.143630926348,0.0826783371302,0.5475
STABILIZE,6.65970396996,2.91528344154,-0.0374901145697,0.0230762809515,2.94278860092,1.16,1.18,0.02,0.76,0.78,-0.38,-0.152,0.147762800273,0.5475
STABILIZE,6.76408982277,2.91528344154,-0.0374901145697,0.0230762809515,2.94278860092,1.16,1.27,0.02,0.76,0.87,-0.38,-0.152,0.246975866608,0.5475
STABILIZE,6.86745500565,2.91528344154,-0.0374901145697,0.0230762809515,2.94278860092,1.16,1.27,0.02,0.76,0.87,-0.38,-0.152,0.174,0.5475
STABILIZE,6.97250103951,2.91528344154,-0.0374901145697,0.0230762809515,2.94278860092,1.16,1.27,0.02,0.76,0.87,-0.38,-0.152,0.174,0.5475
STABILIZE,7.07574701309,2.91528344154,-0.0374667868018,0.022944431752,2.94267678261,1.16,1.28,0.02,0.76,0.88,-0.38,-0.152,0.183744670223,0.5475
STABILIZE,7.18141198158,2.91528344154,-0.0374667868018,0.022944431752,2.94267678261,1.16,1.27,0.02,0.76,0.87,-0.38,-0.152,0.166368331417,0.5475
STABILIZE,7.28765892982,2.91528344154,-0.0374667868018,0.022944431752,2.94267678261,1.16,1.27,0.02,0.76,0.87,-0.38,-0.152,0.174,0.5475
STABILIZE,7.39235281944,2.91528344154,-0.0374667868018,0.022944431752,2.94267678261,1.16,1.28,0.02,0.76,0.88,-0.38,-0.152,0.183409748402,0.5475
STABILIZE,7.49767589569,2.91528344154,-0.0374667868018,0.022944431752,2.94267678261,1.16,1.27,0.02,0.76,0.87,-0.38,-0.152,0.166695190607,0.5475
STABILIZE,7.60143089294,2.91528344154,-0.0374667868018,0.022944431752,2.94267678261,1.16,1.27,0.02,0.76,0.87,-0.38,-0.152,0.174,0.5475
STABILIZE,7.70577692986,2.91528344154,-0.0374667868018,0.022944431752,2.94267678261,1.16,1.19,0.02,0.76,0.79,-0.38,-0.152,0.101168879893,0.5475
STABILIZE,7.81136894226,2.91528344154,-0.0374667868018,0.022944431752,2.94267678261,1.16,1.19,0.02,0.76,0.79,-0.38,-0.152,0.158,0.5475
STABILIZE,7.91669392586,2.91528344154,-0.0374667868018,0.022944431752,2.94267678261,1.16,1.18,0.02,0.76,0.78,-0.38,-0.152,0.149087031028,0.5475
STABILIZE,8.02183794975,2.91528344154,-0.0375498384237,0.0229988954961,2.94283056259,1.16,1.27,0.02,0.76,0.87,-0.38,-0.152,0.235388936919,0.5475
STABILIZE,8.12653493881,2.91528344154,-0.0375498384237,0.0229988954961,2.94283056259,1.16,1.28,0.02,0.76,0.88,-0.38,-0.152,0.182731588378,0.5475
STABILIZE,8.23061203957,2.91528344154,-0.0375498384237,0.0229988954961,2.94283056259,1.17,1.27,0.02,0.77,0.87,-0.38,-0.160644868304,0.167355131696,0.5475
STABILIZE,8.33477187157,2.91528344154,-0.0375498384237,0.0229988954961,2.94283056259,1.16,1.27,0.02,0.76,0.87,-0.38,-0.145439152504,0.174,0.5475
STABILIZE,8.43879985809,2.91528344154,-0.0375498384237,0.0229988954961,2.94283056259,1.17,1.28,0.02,0.77,0.88,-0.38,-0.160478855825,0.182478855825,0.5475
STABILIZE,8.54344797134,2.91528344154,-0.0375498384237,0.0229988954961,2.94283056259,1.16,1.27,0.02,0.76,0.87,-0.38,-0.14560101239,0.16760101239,0.5475
STABILIZE,8.64961886406,2.91528344154,-0.0375498384237,0.0229988954961,2.94283056259,1.16,1.28,0.02,0.76,0.88,-0.38,-0.152,0.182320604345,0.5475
STABILIZE,8.7533159256,2.91528344154,-0.0375498384237,0.0229988954961,2.94283056259,1.16,1.28,0.02,0.76,0.88,-0.38,-0.152,0.176,0.5475
STABILIZE,8.856746912,2.91528344154,-0.0375498384237,0.0229988954961,2.94283056259,1.16,1.28,0.02,0.76,0.88,-0.38,-0.152,0.176,0.5475
STABILIZE,8.96350288391,2.91528344154,-0.0375498384237,0.0229988954961,2.94283056259,1.16,1.27,0.02,0.76,0.87,-0.38,-0.152,0.16790297524,0.5475
STABILIZE,9.07008695602,2.91528344154,-0.0374337509274,0.0228868052363,2.94288134575,1.17,1.27,0.02,0.77,0.87,-0.38,-0.160024402279,0.174,0.5475
STABILIZE,9.17387294769,2.91528344154,-0.0374337509274,0.0228868052363,2.94288134575,1.17,1.28,0.02,0.77,0.88,-0.38,-0.154,0.181953609499,0.5475
STABILIZE,9.27749586105,2.91528344154,-0.0374337509274,0.0228868052363,2.94288134575,1.16,1.28,0.02,0.76,0.88,-0.38,-0.146113738848,0.176,0.5475
STABILIZE,9.38367891312,2.91528344154,-0.0374337509274,0.0228868052363,2.94288134575,1.16,1.28,0.02,0.76,0.88,-0.38,-0.152,0.176,0.5475
STABILIZE,9.48717188835,2.91528344154,-0.0374337509274,0.0228868052363,2.94288134575,1.16,1.28,0.02,0.76,0.88,-0.38,-0.152,0.176,0.5475
STABILIZE,9.59067988396,2.91528344154,-0.0374337509274,0.0228868052363,2.94288134575,1.16,1.28,0.02,0.76,0.88,-0.38,-0.152,0.176,0.5475
STABILIZE,9.69512104988,2.91528344154,-0.0374337509274,0.0228868052363,2.94288134575,1.16,1.28,0.02,0.76,0.88,-0.38,-0.152,0.176,0.5475
STABILIZE,9.80271291733,2.91528344154,-0.0374337509274,0.0228868052363,2.94288134575,1.16,1.28,0.02,0.76,0.88,-0.38,-0.152,0.176,0.5475
STABILIZE,9.90945601463,2.91528344154,-0.0374337509274,0.0228868052363,2.94288134575,1.16,1.27,0.02,0.76,0.87,-0.38,-0.152,0.168491344457,0.5475
STABILIZE,10.0181689262,2.91528344154,-0.0373691692948,0.0224367752671,2.94285511971,1.17,1.27,0.02,0.77,0.87,-0.38,-0.159449316377,0.174,0.5475
STABILIZE,10.1251418591,2.91528344154,-0.0373691692948,0.0224367752671,2.94285511971,1.16,1.27,0.02,0.76,0.87,-0.38,-0.146609815491,0.174,0.5475
STABILIZE,10.2280008793,2.91528344154,-0.0373691692948,0.0224367752671,2.94285511971,1.17,1.28,0.02,0.77,0.88,-0.38,-0.159333235377,0.181333235377,0.5475
STABILIZE,10.3309340477,2.91528344154,-0.0373691692948,0.0224367752671,2.94285511971,1.16,1.27,0.02,0.76,0.87,-0.38,-0.146720389308,0.168720389308,0.5475
STABILIZE,10.4344439507,2.91528344154,-0.0373691692948,0.0224367752671,2.94285511971,1.17,1.27,0.02,0.77,0.87,-0.38,-0.159227005512,0.174,0.5475
STABILIZE,10.5385689735,2.91528344154,-0.0373691692948,0.0224367752671,2.94285511971,1.16,1.28,0.02,0.76,0.88,-0.38,-0.146824847887,0.181175152113,0.5475
STABILIZE,10.6437649727,2.91528344154,-0.0373691692948,0.0224367752671,2.94285511971,1.16,1.27,0.02,0.76,0.87,-0.38,-0.152,0.168875979716,0.5475
STABILIZE,10.7490799427,2.91528344154,-0.0373691692948,0.0224367752671,2.94285511971,1.17,1.27,0.02,0.77,0.87,-0.38,-0.159073374222,0.174,0.5475
STABILIZE,10.8525469303,2.91528344154,-0.0373691692948,0.0224367752671,2.94285511971,1.17,1.27,0.02,0.77,0.87,-0.38,-0.154,0.174,0.5475
STABILIZE,10.9559948444,2.91528344154,-0.0373691692948,0.0224367752671,2.94285511971,1.17,1.28,0.02,0.77,0.88,-0.38,-0.154,0.18097577586,0.5475
STABILIZE,11.0683839321,2.91528344154,-0.0374746397138,0.0222632903606,2.94313836098,1.16,1.28,0.02,0.76,0.88,-0.38,-0.147071206885,0.176,0.5475
STABILIZE,11.172552824,2.91528344154,-0.0374746397138,0.0222632903606,2.94313836098,1.16,1.27,0.02,0.76,0.87,-0.38,-0.152,0.16912125885,0.5475
STABILIZE,11.2775568962,2.91528344154,-0.0374746397138,0.0222632903606,2.94313836098,1.16,1.28,0.02,0.76,0.88,-0.38,-0.152,0.180833258026,0.5475
STABILIZE,11.381321907,2.91528344154,-0.0374746397138,0.0222632903606,2.94313836098,1.16,1.28,0.02,0.76,0.88,-0.38,-0.152,0.176,0.5475
STABILIZE,11.4847369194,2.91528344154,-0.0374746397138,0.0222632903606,2.94313836098,1.16,1.27,0.02,0.76,0.87,-0.38,-0.152,0.169255395011,0.5475
STABILIZE,11.5917320251,2.91528344154,-0.0374746397138,0.0222632903606,2.94313836098,1.17,1.28,0.02,0.77,0.88,-0.38,-0.158701881611,0.180701881611,0.5475
STABILIZE,11.6983108521,2.91528344154,-0.0374746397138,0.0222632903606,2.94313836098,1.17,1.27,0.02,0.77,0.87,-0.38,-0.154,0.169341525708,0.5475
STABILIZE,11.8027119637,2.91528344154,-0.0374746397138,0.0222632903606,2.94313836098,1.16,1.28,0.02,0.76,0.88,-0.38,-0.147383964387,0.180616035613,0.5475
STABILIZE,11.906291008,2.91528344154,-0.0374746397138,0.0222632903606,2.94313836098,1.17,1.28,0.02,0.77,0.88,-0.38,-0.15857520267,0.176,0.5475
STABILIZE,12.0143148899,2.91528344154,-0.0374746397138,0.0222632903606,2.94313836098,1.17,1.28,0.02,0.77,0.88,-0.38,-0.154,0.176,0.5475
STABILIZE,12.1190078259,2.91528344154,-0.0375198051333,0.0221409313381,2.94317889214,1.16,1.28,0.02,0.76,0.88,-0.38,-0.147505377832,0.176,0.5475
STABILIZE,12.2226228714,2.91528344154,-0.0375198051333,0.0221409313381,2.94317889214,1.16,1.28,0.02,0.76,0.88,-0.38,-0.152,0.176,0.5475
STABILIZE,12.3257639408,2.91528344154,-0.0375198051333,0.0221409313381,2.94317889214,1.16,1.28,0.02,0.76,0.88,-0.38,-0.152,0.176,0.5475
STABILIZE,12.4291679859,2.91528344154,-0.0375198051333,0.0221409313381,2.94317889214,1.17,1.27,0.02,0.77,0.87,-0.38,-0.158381051174,0.169618948826,0.5475
STABILIZE,12.5322320461,2.91528344154,-0.0375198051333,0.0221409313381,2.94317889214,1.16,1.28,0.02,0.76,0.88,-0.38,-0.147655390035,0.180344609965,0.5475
STABILIZE,12.6361899376,2.91528344154,-0.0375198051333,0.0221409313381,2.94317889214,1.16,1.28,0.02,0.76,0.88,-0.38,-0.152,0.176,0.5475
STABILIZE,12.7396309376,2.91528344154,-0.0375198051333,0.0221409313381,2.94317889214,1.16,1.28,0.02,0.76,0.88,-0.38,-0.152,0.176,0.5475
STABILIZE,12.8426139355,2.91528344154,-0.0375198051333,0.0221409313381,2.94317889214,1.16,1.27,0.02,0.76,0.87,-0.38,-0.152,0.169761268997,0.5475
STABILIZE,12.9496860504,2.91528344154,-0.0375198051333,0.0221409313381,2.94317889214,1.17,1.28,0.02,0.77,0.88,-0.38,-0.158204742351,0.180204742351,0.5475
STABILIZE,13.0565218925,2.91528344154,-0.0374334678054,0.022113321349,2.9435338974,1.16,1.18,0.02,0.76,0.78,-0.38,-0.14783002917,0.114300291698,0.5475
STABILIZE,13.1606068611,2.91528344154,-0.0374334678054,0.022113321349,2.9435338974,1.16,1.18,0.02,0.76,0.78,-0.38,-0.152,0.156,0.5475
STABILIZE,13.2640948296,2.91528344154,-0.0374334678054,0.022113321349,2.9435338974,1.17,1.27,0.02,0.77,0.87,-0.38,-0.158103144589,0.210928301298,0.5475
STABILIZE,13.3674108982,2.91528344154,-0.0374334678054,0.022113321349,2.9435338974,1.16,1.27,0.02,0.76,0.87,-0.38,-0.14792887073,0.174,0.5475
STABILIZE,13.471118927,2.91528344154,-0.0374334678054,0.022113321349,2.9435338974,1.16,1.19,0.02,0.76,0.79,-0.38,-0.152,0.125682679805,0.5475
STABILIZE,13.5748958588,2.91528344154,-0.0374334678054,0.022113321349,2.9435338974,1.16,1.27,0.02,0.76,0.87,-0.38,-0.152,0.206068536367,0.5475
STABILIZE,13.678855896,2.91528344154,-0.0374334678054,0.022113321349,2.9435338974,1.16,1.27,0.02,0.76,0.87,-0.38,-0.152,0.174,0.5475
STABILIZE,13.785435915,2.91528344154,-0.0374334678054,0.022113321349,2.9435338974,1.16,1.28,0.02,0.76,0.88,-0.38,-0.152,0.179947689016,0.5475
STABILIZE,13.8916518688,2.91528344154,-0.0374334678054,0.022113321349,2.9435338974,1.16,1.18,0.02,0.76,0.78,-0.38,-0.152,0.116828338376,0.5475
STABILIZE,13.9969689846,2.91528344154,-0.0374334678054,0.022113321349,2.9435338974,1.16,1.28,0.02,0.76,0.88,-0.38,-0.152,0.214872138203,0.5475
STABILIZE,14.1018829346,2.91528344154,-0.0372674241662,0.0219689197838,2.94339704514,1.17,1.28,0.02,0.77,0.88,-0.38,-0.157857965168,0.176,0.5475
STABILIZE,14.205121994,2.91528344154,-0.0372674241662,0.0219689197838,2.94339704514,1.16,1.28,0.02,0.76,0.88,-0.38,-0.148170732808,0.176,0.5475
STABILIZE,14.308672905,2.91528344154,-0.0372674241662,0.0219689197838,2.94339704514,1.17,1.28,0.02,0.77,0.88,-0.38,-0.157801436901,0.176,0.5475
STABILIZE,14.4121448994,2.91528344154,-0.0372674241662,0.0219689197838,2.94339704514,1.16,1.28,0.02,0.76,0.88,-0.38,-0.148226074599,0.176,0.5475
STABILIZE,14.5154669285,2.91528344154,-0.0372674241662,0.0219689197838,2.94339704514,1.17,1.27,0.02,0.77,0.87,-0.38,-0.157746830819,0.170253169181,0.5475
STABILIZE,14.618751049,2.91528344154,-0.0372674241662,0.0219689197838,2.94339704514,1.16,1.28,0.02,0.76,0.88,-0.38,-0.148279838261,0.179720161739,0.5475
STABILIZE,14.7220430374,2.91528344154,-0.0372674241662,0.0219689197838,2.94339704514,1.16,1.27,0.02,0.76,0.87,-0.38,-0.152,0.170306122544,0.5475
STABILIZE,14.8253438473,2.91528344154,-0.0372674241662,0.0219689197838,2.94339704514,1.16,1.27,0.02,0.76,0.87,-0.38,-0.152,0.174,0.5475
STABILIZE,14.9308428764,2.91528344154,-0.0372674241662,0.0219689197838,2.94339704514,1.16,1.28,0.02,0.76,0.88,-0.38,-0.152,0.179642400701,0.5475
STABILIZE,15.0343949795,2.91528344154,-0.0373011156917,0.0220002047718,2.94333052635,1.17,1.27,0.02,0.77,0.87,-0.38,-0.157616664885,0.170383335115,0.5475
STABILIZE,15.1377749443,2.91528344154,-0.0373011156917,0.0220002047718,2.94333052635,1.16,1.28,0.02,0.76,0.88,-0.38,-0.148408244511,0.179591755489,0.5475
STABILIZE,15.242470026,2.91528344154,-0.0372694507241,0.022011116147,2.94327616692,1.16,1.19,0.02,0.76,0.79,-0.38,-0.152,0.125894957667,0.5475
STABILIZE,15.3461380005,2.91528344154,-0.0372694507241,0.022011116147,2.94327616692,1.16,1.27,0.02,0.76,0.87,-0.38,-0.152,0.202341785156,0.5475
STABILIZE,15.4507880211,2.91528344154,-0.0372694507241,0.022011116147,2.94327616692,1.16,1.19,0.02,0.76,0.79,-0.38,-0.152,0.129849655347,0.5475
STABILIZE,15.5544240475,2.91528344154,-0.0372171401978,0.0220020525157,2.94330668449,1.17,1.28,0.02,0.77,0.88,-0.38,-0.157494958797,0.207454629171,0.5475
STABILIZE,15.6575889587,2.91528344154,-0.0372171401978,0.0220020525157,2.94330668449,1.17,1.28,0.02,0.77,0.88,-0.38,-0.154,0.176,0.5475
STABILIZE,15.7626988888,2.91528344154,-0.0371788777411,0.0219988748431,2.94326019287,1.16,1.18,0.02,0.76,0.78,-0.38,-0.14855119998,0.121511999805,0.5475
STABILIZE,15.8660209179,2.91528344154,-0.0371788777411,0.0219988748431,2.94326019287,1.16,1.19,0.02,0.76,0.79,-0.38,-0.152,0.161425800981,0.5475
STABILIZE,15.9710199833,2.91528344154,-0.0371754616499,0.0219539292157,2.94325017929,1.16,1.19,0.02,0.76,0.79,-0.38,-0.152,0.158,0.5475
STABILIZE,16.0746560097,2.91528344154,-0.0371754616499,0.0219539292157,2.94325017929,1.17,1.28,0.02,0.77,0.88,-0.38,-0.157381114323,0.206430028907,0.5475
STABILIZE,16.1798598766,2.91528344154,-0.0371754616499,0.0219539292157,2.94325017929,1.16,1.27,0.02,0.76,0.87,-0.38,-0.148640681689,0.170640681689,0.5475
STABILIZE,16.2837049961,2.91528344154,-0.0371338948607,0.0220300108194,2.94326663017,1.16,1.27,0.02,0.76,0.87,-0.38,-0.152,0.174,0.5475
STABILIZE,16.3903639317,2.91528344154,-0.0371338948607,0.0220300108194,2.94326663017,1.16,1.18,0.02,0.76,0.78,-0.38,-0.152,0.126154265316,0.5475
STABILIZE,16.4945540428,2.91528344154,-0.0370991565287,0.022023761645,2.94323992729,1.16,1.19,0.02,0.76,0.79,-0.38,-0.152,0.161294610679,0.5475
STABILIZE,16.5977230072,2.91528344154,-0.0370991565287,0.022023761645,2.94323992729,1.16,1.28,0.02,0.76,0.88,-0.38,-0.152,0.205464215008,0.5475
STABILIZE,16.7025818825,2.91528344154,-0.0370237864554,0.0219908896834,2.94318437576,1.16,1.18,0.02,0.76,0.78,-0.38,-0.152,0.123465477561,0.5475
STABILIZE,16.8062410355,2.91528344154,-0.0370237864554,0.0219908896834,2.94318437576,1.16,1.28,0.02,0.76,0.88,-0.38,-0.152,0.208330255266,0.5475
STABILIZE,16.9107830524,2.91528344154,-0.0370237864554,0.0219908896834,2.94318437576,1.16,1.28,0.02,0.76,0.88,-0.38,-0.152,0.176,0.5475
STABILIZE,17.0142178535,2.91528344154,-0.0369574725628,0.0219950508326,2.94313216209,1.16,1.27,0.02,0.76,0.87,-0.38,-0.152,0.170806777967,0.5475
STABILIZE,17.118418932,2.91528344154,-0.0369574725628,0.0219950508326,2.94313216209,1.16,1.28,0.02,0.76,0.88,-0.38,-0.152,0.179173809825,0.5475
STABILIZE,17.2220628262,2.91528344154,-0.0369617529213,0.0220021363348,2.94314289093,1.16,1.28,0.02,0.76,0.88,-0.38,-0.152,0.176,0.5475
STABILIZE,17.3262879848,2.91528344154,-0.0369617529213,0.0220021363348,2.94314289093,1.17,1.28,0.02,0.77,0.88,-0.38,-0.157135505772,0.176,0.5475
STABILIZE,17.432268858,2.91528344154,-0.0370517298579,0.0219401493669,2.94305872917,1.17,1.27,0.02,0.77,0.87,-0.38,-0.154,0.17088335523,0.5475
STABILIZE,17.5355210304,2.91528344154,-0.0370517298579,0.0219401493669,2.94305872917,1.16,1.19,0.02,0.76,0.79,-0.38,-0.148902303463,0.133218427702,0.5475
STABILIZE,17.6415958405,2.91528344154,-0.0371786169708,0.021904591471,2.94301843643,1.16,1.19,0.02,0.76,0.79,-0.38,-0.152,0.158,0.5475
STABILIZE,17.7449729443,2.91528344154,-0.0371786169708,0.021904591471,2.94301843643,1.16,1.27,0.02,0.76,0.87,-0.38,-0.152,0.198487516726,0.5475
STABILIZE,17.8488650322,2.91528344154,-0.0371786169708,0.021904591471,2.94301843643,1.16,1.27,0.02,0.76,0.87,-0.38,-0.152,0.174,0.5475
STABILIZE,17.9531178474,2.91528344154,-0.0371978878975,0.0219097752124,2.94290351868,1.16,1.28,0.02,0.76,0.88,-0.38,-0.152,0.179025395499,0.5475
STABILIZE,18.0564639568,2.91528344154,-0.0371978878975,0.0219097752124,2.94290351868,1.16,1.27,0.02,0.76,0.87,-0.38,-0.152,0.170992172135,0.5475
STABILIZE,18.1600809097,2.91528344154,-0.0371978878975,0.0219097752124,2.94290351868,1.17,1.28,0.02,0.77,0.88,-0.38,-0.156990612806,0.178990612806,0.5475
STABILIZE,18.2640779018,2.91528344154,-0.0371289514005,0.0218784548342,2.94282627106,1.16,1.19,0.02,0.76,0.79,-0.38,-0.149026451213,0.131238060913,0.5475
STABILIZE,18.3692760468,2.91528344154,-0.0371289514005,0.0218784548342,2.94282627106,1.16,1.28,0.02,0.76,0.88,-0.38,-0.152,0.202609559487,0.5475
STABILIZE,18.4730629921,2.91528344154,-0.037148617208,0.021850027144,2.94285106659,1.16,1.19,0.02,0.76,0.79,-0.38,-0.152,0.131542912704,0.5475
STABILIZE,18.5780849457,2.91528344154,-0.037148617208,0.021850027144,2.94285106659,1.16,1.18,0.02,0.76,0.78,-0.38,-0.152,0.153076829834,0.5475
STABILIZE,18.6823608875,2.91528344154,-0.0371502935886,0.0218349993229,2.94293856621,1.16,1.27,0.02,0.76,0.87,-0.38,-0.152,0.200159789757,0.5475
STABILIZE,18.7879729271,2.91528344154,-0.0371502935886,0.0218349993229,2.94293856621,1.16,1.27,0.02,0.76,0.87,-0.38,-0.152,0.174,0.5475
STABILIZE,18.8933198452,2.91528344154,-0.0370832830667,0.0219246260822,2.94302940369,1.17,1.27,0.02,0.77,0.87,-0.38,-0.156874173494,0.174,0.5475
STABILIZE,18.9963598251,2.91528344154,-0.0370832830667,0.0219246260822,2.94302940369,1.16,1.27,0.02,0.76,0.87,-0.38,-0.149141852382,0.174,0.5475
STABILIZE,19.1012599468,2.91528344154,-0.0371165275574,0.0219392329454,2.94311404228,1.16,1.27,0.02,0.76,0.87,-0.38,-0.152,0.174,0.5475
STABILIZE,19.2044110298,2.91528344154,-0.0371165275574,0.0219392329454,2.94311404228,1.16,1.18,0.02,0.76,0.78,-0.38,-0.152,0.130556701438,0.5475
STABILIZE,19.3095068932,2.91528344154,-0.0371165275574,0.0219392329454,2.94311404228,1.16,1.18,0.02,0.76,0.78,-0.38,-0.152,0.156,0.5475
STABILIZE,19.4135420322,2.91528344154,-0.037131074816,0.0219725184143,2.94318771362,1.16,1.18,0.02,0.76,0.78,-0.38,-0.152,0.156,0.5475
STABILIZE,19.5197370052,2.91528344154,-0.037131074816,0.0219725184143,2.94318771362,1.16,1.18,0.02,0.76,0.78,-0.38,-0.152,0.156,0.5475
STABILIZE,19.6229529381,2.91528344154,-0.0371198169887,0.0219703651965,2.94315242767,1.16,1.18,0.02,0.76,0.78,-0.38,-0.152,0.156,0.5475
STABILIZE,19.7270338535,2.91528344154,-0.0371198169887,0.0219703651965,2.94315242767,1.16,1.18,0.02,0.76,0.78,-0.38,-0.152,0.156,0.5475
STABILIZE,19.8328080177,2.91528344154,-0.0371404141188,0.021953638643,2.94311189651,1.16,1.19,0.02,0.76,0.79,-0.38,-0.152,0.160737355472,0.5475
STABILIZE,19.9359078407,2.91528344154,-0.0371404141188,0.021953638643,2.94311189651,1.16,1.18,0.02,0.76,0.78,-0.38,-0.152,0.153277243881,0.5475
STABILIZE,20.0404419899,2.91528344154,-0.0371112935245,0.0219376944005,2.94319081306,1.16,1.18,0.02,0.76,0.78,-0.38,-0.152,0.156,0.5475
STABILIZE,20.1445200443,2.91528344154,-0.0371112935245,0.0219376944005,2.94319081306,1.16,1.19,0.02,0.76,0.79,-0.38,-0.152,0.16069454638,0.5475
STABILIZE,20.2491028309,2.91528344154,-0.0371112935245,0.0219376944005,2.94319081306,1.16,1.18,0.02,0.76,0.78,-0.38,-0.152,0.153319374742,0.5475
STABILIZE,20.3527040482,2.91528344154,-0.0371091887355,0.0219286456704,2.94329214096,1.16,1.19,0.02,0.76,0.79,-0.38,-0.152,0.16066677926,0.5475
STABILIZE,20.4561710358,2.91528344154,-0.0371091887355,0.0219286456704,2.94329214096,1.16,1.27,0.02,0.76,0.87,-0.38,-0.152,0.195225642283,0.5475
STABILIZE,20.5610969067,2.91528344154,-0.0371534563601,0.0219285860658,2.94345784187,1.17,1.27,0.02,0.77,0.87,-0.38,-0.156639785316,0.174,0.5475
STABILIZE,20.6650960445,2.91528344154,-0.0371534563601,0.0219285860658,2.94345784187,1.16,1.27,0.02,0.76,0.87,-0.38,-0.149373686973,0.174,0.5475
STABILIZE,20.7700810432,2.91528344154,-0.0371759347618,0.0219269134104,2.94352912903,1.16,1.27,0.02,0.76,0.87,-0.38,-0.152,0.174,0.5475
STABILIZE,20.8736569881,2.91528344154,-0.0371759347618,0.0219269134104,2.94352912903,1.16,1.18,0.02,0.76,0.78,-0.38,-0.152,0.132601008432,0.5475
STABILIZE,20.9779629707,2.91528344154,-0.0371759347618,0.0219269134104,2.94352912903,1.16,1.2,0.02,0.76,0.8,-0.38,-0.152,0.16517397688,0.5475
STABILIZE,21.0816049576,2.91528344154,-0.0371939055622,0.0218589045107,2.94355750084,1.17,1.27,0.02,0.77,0.87,-0.38,-0.156574124903,0.19201887432,0.5475
STABILIZE,21.1870260239,2.91528344154,-0.0371939055622,0.0218589045107,2.94355750084,1.16,1.19,0.02,0.76,0.79,-0.38,-0.149438529914,0.137508239315,0.5475
STABILIZE,21.2911570072,2.91528344154,-0.0372299253941,0.0218590348959,2.94352436066,1.17,1.27,0.02,0.77,0.87,-0.38,-0.156548724793,0.194389798345,0.5475
STABILIZE,21.3945889473,2.91528344154,-0.0372299253941,0.0218590348959,2.94352436066,1.17,1.28,0.02,0.77,0.88,-0.38,-0.154,0.178536260427,0.5475
STABILIZE,21.4982659817,2.91528344154,-0.0373065546155,0.0218147970736,2.94347286224,1.16,1.27,0.02,0.76,0.87,-0.38,-0.149476001194,0.171476001194,0.5475
STABILIZE,21.6018588543,2.91528344154,-0.0373065546155,0.0218147970736,2.94347286224,1.16,1.19,0.02,0.76,0.79,-0.38,-0.152,0.137905396184,0.5475
STABILIZE,21.7059268951,2.91528344154,-0.0373065546155,0.0218147970736,2.94347286224,1.16,1.28,0.02,0.76,0.88,-0.38,-0.152,0.198498026365,0.5475
STABILIZE,21.8096380234,2.91528344154,-0.0373314768076,0.0219385772943,2.94340968132,1.16,1.19,0.02,0.76,0.79,-0.38,-0.152,0.135609850493,0.5475
STABILIZE,21.9141118526,2.91528344154,-0.0373314768076,0.0219385772943,2.94340968132,1.17,1.27,0.02,0.77,0.87,-0.38,-0.156475965046,0.19380772037,0.5475
STABILIZE,22.0180239677,2.91528344154,-0.0373567193747,0.0218930952251,2.94335436821,1.16,1.19,0.02,0.76,0.79,-0.38,-0.149535839279,0.138286714232,0.5475
STABILIZE,22.1210489273,2.91528344154,-0.0373567193747,0.0218930952251,2.94335436821,1.17,1.27,0.02,0.77,0.87,-0.38,-0.15645253348,0.193620267839,0.5475
STABILIZE,22.2269690037,2.91528344154,-0.0374134406447,0.021909289062,2.94329214096,1.17,1.27,0.02,0.77,0.87,-0.38,-0.154,0.174,0.5475
STABILIZE,22.3303079605,2.91528344154,-0.0374134406447,0.021909289062,2.94329214096,1.16,1.27,0.02,0.76,0.87,-0.38,-0.149570523849,0.174,0.5475
STABILIZE,22.4343619347,2.91528344154,-0.0374134406447,0.021909289062,2.94329214096,1.16,1.18,0.02,0.76,0.78,-0.38,-0.152,0.134235886052,0.5475
STABILIZE,22.5381798744,2.91528344154,-0.0374708510935,0.0219351127744,2.94321990013,1.16,1.19,0.02,0.76,0.79,-0.38,-0.152,0.160407017811,0.5475
STABILIZE,22.6425638199,2.91528344154,-0.0374708510935,0.0219351127744,2.94321990013,1.17,1.27,0.02,0.77,0.87,-0.38,-0.15639593045,0.193167443604,0.5475
STABILIZE,22.7464039326,2.91528344154,-0.0374544225633,0.0220087021589,2.94318032265,1.16,1.27,0.02,0.76,0.87,-0.38,-0.149615115908,0.174,0.5475
STABILIZE,22.8518159389,2.91528344154,-0.0374544225633,0.0220087021589,2.94318032265,1.17,1.27,0.02,0.77,0.87,-0.38,-0.156373998295,0.174,0.5475
STABILIZE,22.9568548203,2.91528344154,-0.0375480130315,0.0219997633249,2.94310355186,1.16,1.27,0.02,0.76,0.87,-0.38,-0.149636953944,0.174,0.5475
STABILIZE,23.0604948997,2.91528344154,-0.0375480130315,0.0219997633249,2.94310355186,1.16,1.19,0.02,0.76,0.79,-0.38,-0.152,0.139182129911,0.5475
STABILIZE,23.1655058861,2.91528344154,-0.0376331917942,0.0219389386475,2.94305515289,1.16,1.2,0.02,0.76,0.8,-0.38,-0.152,0.162341663639,0.5475
STABILIZE,23.269204855,2.91528344154,-0.0376331917942,0.0219389386475,2.94305515289,1.16,1.19,0.02,0.76,0.79,-0.38,-0.152,0.155668952076,0.5475
STABILIZE,23.3755259514,2.91528344154,-0.0376331917942,0.0219389386475,2.94305515289,1.17,1.28,0.02,0.77,0.88,-0.38,-0.156320660032,0.196885940289,0.5475
STABILIZE,23.479943037,2.91528344154,-0.0376864075661,0.0220006406307,2.94302773476,1.16,1.27,0.02,0.76,0.87,-0.38,-0.149689895792,0.171689895792,0.5475
STABILIZE,23.5838668346,2.91528344154,-0.0376864075661,0.0220006406307,2.94302773476,1.16,1.27,0.02,0.76,0.87,-0.38,-0.152,0.174,0.5475
STABILIZE,23.6884689331,2.91528344154,-0.0377287268639,0.0219894405454,2.94298243523,1.17,1.28,0.02,0.77,0.88,-0.38,-0.156289696871,0.178289696871,0.5475
STABILIZE,23.7925560474,2.91528344154,-0.0377287268639,0.0219894405454,2.94298243523,1.16,1.27,0.02,0.76,0.87,-0.38,-0.149720414595,0.171720414595,0.5475
STABILIZE,23.8973119259,2.91528344154,-0.0377573743463,0.0220612157136,2.94290971756,1.16,1.28,0.02,0.76,0.88,-0.38,-0.152,0.178269613522,0.5475
STABILIZE,24.00106287,2.91528344154,-0.0377573743463,0.0220612157136,2.94290971756,1.17,1.27,0.02,0.77,0.87,-0.38,-0.156259664114,0.171740335886,0.5475
STABILIZE,24.1055939198,2.91528344154,-0.0377573743463,0.0220612157136,2.94290971756,1.16,1.28,0.02,0.76,0.88,-0.38,-0.149750103014,0.178249896986,0.5475
STABILIZE,24.2118959427,2.91528344154,-0.0377573743463,0.0220612157136,2.94290971756,1.16,1.27,0.02,0.76,0.87,-0.38,-0.152,0.171759859589,0.5475
STABILIZE,24.3167438507,2.91528344154,-0.037823997438,0.0220316685736,2.94295549393,1.17,1.28,0.02,0.77,0.88,-0.38,-0.156230304196,0.178230304196,0.5475
STABILIZE,24.4203770161,2.91528344154,-0.0378755517304,0.0221002437174,2.94298410416,1.16,1.19,0.02,0.76,0.79,-0.38,-0.149779311685,0.138013805163,0.5475
STABILIZE,24.5256428719,2.91528344154,-0.0378755517304,0.0221002437174,2.94298410416,1.16,1.28,0.02,0.76,0.88,-0.38,-0.152,0.195901380977,0.5475
STABILIZE,24.6305239201,2.91528344154,-0.037919215858,0.0221532974392,2.94299554825,1.17,1.27,0.02,0.77,0.87,-0.38,-0.156201773466,0.171798226534,0.5475
STABILIZE,24.7342269421,2.91528344154,-0.037919215858,0.0221532974392,2.94299554825,1.16,1.27,0.02,0.76,0.87,-0.38,-0.149807602498,0.174,0.5475
STABILIZE,24.8387129307,2.91528344154,-0.0379456505179,0.0221848543733,2.94293355942,1.17,1.28,0.02,0.77,0.88,-0.38,-0.156183206269,0.178183206269,0.5475
STABILIZE,24.9422669411,2.91528344154,-0.0379456505179,0.0221848543733,2.94293355942,1.17,1.28,0.02,0.77,0.88,-0.38,-0.154,0.176,0.5475
STABILIZE,25.0461599827,2.91528344154,-0.0379456505179,0.0221848543733,2.94293355942,1.17,1.27,0.02,0.77,0.87,-0.38,-0.154,0.171835003795,0.5475
STABILIZE,25.149835825,2.91528344154,-0.0379837118089,0.0222096275538,2.94296717644,1.17,1.27,0.02,0.77,0.87,-0.38,-0.154,0.174,0.5475
STABILIZE,25.2544529438,2.91528344154,-0.0379837118089,0.0222096275538,2.94296717644,1.17,1.27,0.02,0.77,0.87,-0.38,-0.154,0.174,0.5475
STABILIZE,25.3601520061,2.91528344154,-0.037986189127,0.0222378093749,2.94294404984,1.16,1.27,0.02,0.76,0.87,-0.38,-0.149861766435,0.174,0.5475
STABILIZE,25.4635310173,2.91528344154,-0.037986189127,0.0222378093749,2.94294404984,1.16,1.28,0.02,0.76,0.88,-0.38,-0.152,0.178129321173,0.5475
STABILIZE,25.569231987,2.91528344154,-0.0380563437939,0.0222622938454,2.94290304184,1.16,1.28,0.02,0.76,0.88,-0.38,-0.152,0.176,0.5475
STABILIZE,25.6726658344,2.91528344154,-0.0380563437939,0.0222622938454,2.94290304184,1.17,1.27,0.02,0.77,0.87,-0.38,-0.156111909377,0.171888090623,0.5475
STABILIZE,25.7773318291,2.91528344154,-0.0380563437939,0.0222622938454,2.94290304184,1.17,1.27,0.02,0.77,0.87,-0.38,-0.154,0.174,0.5475
STABILIZE,25.8825929165,2.91528344154,-0.0380896218121,0.0222533177584,2.94281625748,1.16,1.27,0.02,0.76,0.87,-0.38,-0.149905140087,0.174,0.5475
STABILIZE,25.9874129295,2.91528344154,-0.0380896218121,0.0222533177584,2.94281625748,1.17,1.27,0.02,0.77,0.87,-0.38,-0.156086341794,0.174,0.5475
STABILIZE,26.0912058353,2.91528344154,-0.038106136024,0.0223996303976,2.94275903702,1.16,1.27,0.02,0.76,0.87,-0.38,-0.149922074391,0.174,0.5475
STABILIZE,26.1946518421,2.91528344154,-0.038106136024,0.0223996303976,2.94275903702,1.16,1.19,0.02,0.76,0.79,-0.38,-0.152,0.14144271745,0.5475
