Mode,Time,Yaw_SP,Roll,Pitch,Yaw,northCurrentPos,eastCurrentPos,downCurrentPos,errorNorth,errorEast,errorDown,self.pitchAngle,self.rollAngle,self.thrust
STABILIZE,0.103420972824,-0.486528307199,-0.0221590325236,0.0230626538396,-0.486528307199,0.57,0.52,0.03,0.17,0.12,-0.37,-0.034,0.024,0.54625
STABILIZE,0.207679986954,-0.486528307199,-0.0221590325236,0.0230626538396,-0.486528307199,0.57,0.52,0.03,0.17,0.12,-0.37,-0.034,0.024,0.54625
STABILIZE,0.313463926315,-0.486528307199,-0.0221590325236,0.0230626538396,-0.486528307199,0.57,0.52,0.03,0.17,0.12,-0.37,-0.034,0.024,0.54625
STABILIZE,0.418236017227,-0.486528307199,-0.0221590325236,0.0230626538396,-0.486528307199,0.57,0.52,0.03,0.17,0.12,-0.37,-0.034,0.024,0.54625
STABILIZE,0.523020029068,-0.486528307199,-0.0221590325236,0.0230626538396,-0.486528307199,0.57,0.52,0.03,0.17,0.12,-0.37,-0.034,0.024,0.54625
STABILIZE,0.628052949905,-0.486528307199,-0.0221590325236,0.0230626538396,-0.486528307199,0.57,0.52,0.03,0.17,0.12,-0.37,-0.034,0.024,0.54625
STABILIZE,0.733778953552,-0.486528307199,-0.0221590325236,0.0230626538396,-0.486528307199,0.57,0.52,0.03,0.17,0.12,-0.37,-0.034,0.024,0.54625
STABILIZE,0.838652849197,-0.486528307199,-0.0222476087511,0.0229924991727,-0.486653029919,0.57,0.52,0.03,0.17,0.12,-0.37,-0.034,0.024,0.54625
STABILIZE,0.942596912384,-0.486528307199,-0.0222476087511,0.0229924991727,-0.486653029919,0.57,0.52,0.03,0.17,0.12,-0.37,-0.034,0.024,0.54625
STABILIZE,1.04601788521,-0.486528307199,-0.0222476087511,0.0229924991727,-0.486653029919,0.57,0.52,0.03,0.17,0.12,-0.37,-0.034,0.024,0.54625
STABILIZE,1.14967799187,-0.486528307199,-0.0222476087511,0.0229924991727,-0.486653029919,0.57,0.52,0.03,0.17,0.12,-0.37,-0.034,0.024,0.54625
STABILIZE,1.25281405449,-0.486528307199,-0.0222476087511,0.0229924991727,-0.486653029919,0.57,0.52,0.03,0.17,0.12,-0.37,-0.034,0.024,0.54625
STABILIZE,1.35727286339,-0.486528307199,-0.0222476087511,0.0229924991727,-0.486653029919,0.57,0.52,0.03,0.17,0.12,-0.37,-0.034,0.024,0.54625
STABILIZE,1.46178007126,-0.486528307199,-0.0222476087511,0.0229924991727,-0.486653029919,0.57,0.52,0.03,0.17,0.12,-0.37,-0.034,0.024,0.54625
STABILIZE,1.56705904007,-0.486528307199,-0.0222476087511,0.0229924991727,-0.486653029919,0.57,0.52,0.03,0.17,0.12,-0.37,-0.034,0.024,0.54625
STABILIZE,1.67322492599,-0.486528307199,-0.0222476087511,0.0229924991727,-0.486653029919,0.57,0.52,0.03,0.17,0.12,-0.37,-0.034,0.024,0.54625
STABILIZE,1.77831506729,-0.486528307199,-0.0222476087511,0.0229924991727,-0.486653029919,0.57,0.52,0.03,0.17,0.12,-0.37,-0.034,0.024,0.54625
STABILIZE,1.88299798965,-0.486528307199,-0.0223780479282,0.0230184029788,-0.486282408237,0.57,0.52,0.03,0.17,0.12,-0.37,-0.034,0.024,0.54625
STABILIZE,1.98832297325,-0.486528307199,-0.0223780479282,0.0230184029788,-0.486282408237,0.57,0.52,0.03,0.17,0.12,-0.37,-0.034,0.024,0.54625
STABILIZE,2.09237790108,-0.486528307199,-0.0223780479282,0.0230184029788,-0.486282408237,0.57,0.52,0.03,0.17,0.12,-0.37,-0.034,0.024,0.54625
STABILIZE,2.19578289986,-0.486528307199,-0.0223780479282,0.0230184029788,-0.486282408237,0.57,0.52,0.03,0.17,0.12,-0.37,-0.034,0.024,0.54625
STABILIZE,2.29876184464,-0.486528307199,-0.0223780479282,0.0230184029788,-0.486282408237,0.57,0.52,0.03,0.17,0.12,-0.37,-0.034,0.024,0.54625
STABILIZE,2.4018778801,-0.486528307199,-0.0223780479282,0.0230184029788,-0.486282408237,0.57,0.52,0.03,0.17,0.12,-0.37,-0.034,0.024,0.54625
STABILIZE,2.50720691681,-0.486528307199,-0.0223780479282,0.0230184029788,-0.486282408237,0.57,0.52,0.03,0.17,0.12,-0.37,-0.034,0.024,0.54625
STABILIZE,2.61390805244,-0.486528307199,-0.0223780479282,0.0230184029788,-0.486282408237,0.57,0.52,0.03,0.17,0.12,-0.37,-0.034,0.024,0.54625
STABILIZE,2.71995401382,-0.486528307199,-0.0223780479282,0.0230184029788,-0.486282408237,0.57,0.52,0.03,0.17,0.12,-0.37,-0.034,0.024,0.54625
STABILIZE,2.82616591454,-0.486528307199,-0.0223347060382,0.0229810308665,-0.484844893217,0.57,0.52,0.03,0.17,0.12,-0.37,-0.034,0.024,0.54625
STABILIZE,2.93259096146,-0.486528307199,-0.0223347060382,0.0229810308665,-0.484844893217,0.57,0.52,0.03,0.17,0.12,-0.37,-0.034,0.024,0.54625
STABILIZE,3.0389289856,-0.486528307199,-0.0223347060382,0.0229810308665,-0.484844893217,0.57,0.52,0.03,0.17,0.12,-0.37,-0.034,0.024,0.54625
STABILIZE,3.14226198196,-0.486528307199,-0.0223347060382,0.0229810308665,-0.484844893217,0.57,0.52,0.03,0.17,0.12,-0.37,-0.034,0.024,0.54625
STABILIZE,3.24571204185,-0.486528307199,-0.0223347060382,0.0229810308665,-0.484844893217,0.57,0.52,0.03,0.17,0.12,-0.37,-0.034,0.024,0.54625
STABILIZE,3.3490588665,-0.486528307199,-0.0223347060382,0.0229810308665,-0.484844893217,0.57,0.52,0.03,0.17,0.12,-0.37,-0.034,0.024,0.54625
STABILIZE,3.45233893394,-0.486528307199,-0.0223347060382,0.0229810308665,-0.484844893217,0.57,0.52,0.03,0.17,0.12,-0.37,-0.034,0.024,0.54625
STABILIZE,3.55594205856,-0.486528307199,-0.0223347060382,0.0229810308665,-0.484844893217,0.57,0.52,0.03,0.17,0.12,-0.37,-0.034,0.024,0.54625
STABILIZE,3.65931487083,-0.486528307199,-0.0223347060382,0.0229810308665,-0.484844893217,0.57,0.52,0.03,0.17,0.12,-0.37,-0.034,0.024,0.54625
STABILIZE,3.76632905006,-0.486528307199,-0.0223347060382,0.0229810308665,-0.484844893217,0.57,0.52,0.03,0.17,0.12,-0.37,-0.034,0.024,0.54625
STABILIZE,3.87242698669,-0.486528307199,-0.0222814399749,0.0230436250567,-0.484453350306,0.57,0.52,0.03,0.17,0.12,-0.37,-0.034,0.024,0.54625
STABILIZE,3.97598791122,-0.486528307199,-0.0222814399749,0.0230436250567,-0.484453350306,0.57,0.52,0.03,0.17,0.12,-0.37,-0.034,0.024,0.54625
STABILIZE,4.07953596115,-0.486528307199,-0.0222814399749,0.0230436250567,-0.484453350306,0.57,0.52,0.03,0.17,0.12,-0.37,-0.034,0.024,0.54625
STABILIZE,4.18337392807,-0.486528307199,-0.0222814399749,0.0230436250567,-0.484453350306,0.57,0.52,0.03,0.17,0.12,-0.37,-0.034,0.024,0.54625
STABILIZE,4.28733992577,-0.486528307199,-0.0222814399749,0.0230436250567,-0.484453350306,0.57,0.52,0.03,0.17,0.12,-0.37,-0.034,0.024,0.54625
STABILIZE,4.39096498489,-0.486528307199,-0.0222814399749,0.0230436250567,-0.484453350306,0.57,0.52,0.03,0.17,0.12,-0.37,-0.034,0.024,0.54625
STABILIZE,4.49435091019,-0.486528307199,-0.0222814399749,0.0230436250567,-0.484453350306,0.57,0.52,0.03,0.17,0.12,-0.37,-0.034,0.024,0.54625
STABILIZE,4.59765696526,-0.486528307199,-0.0222814399749,0.0230436250567,-0.484453350306,0.57,0.52,0.03,0.17,0.12,-0.37,-0.034,0.024,0.54625
STABILIZE,4.70112395287,-0.486528307199,-0.0222814399749,0.0230436250567,-0.484453350306,0.57,0.52,0.03,0.17,0.12,-0.37,-0.034,0.024,0.54625
STABILIZE,4.80622887611,-0.486528307199,-0.0222814399749,0.0230436250567,-0.484453350306,0.57,0.52,0.03,0.17,0.12,-0.37,-0.034,0.024,0.54625
STABILIZE,4.91310405731,-0.486528307199,-0.0222829170525,0.0232027750462,-0.483743697405,0.57,0.52,0.03,0.17,0.12,-0.37,-0.034,0.024,0.54625
STABILIZE,5.01843500137,-0.486528307199,-0.0222829170525,0.0232027750462,-0.483743697405,0.57,0.52,0.03,0.17,0.12,-0.37,-0.034,0.024,0.54625
STABILIZE,5.123721838,-0.486528307199,-0.0222829170525,0.0232027750462,-0.483743697405,0.57,0.52,0.03,0.17,0.12,-0.37,-0.034,0.024,0.54625
STABILIZE,5.22888088226,-0.486528307199,-0.0222829170525,0.0232027750462,-0.483743697405,0.57,0.52,0.03,0.17,0.12,-0.37,-0.034,0.024,0.54625
STABILIZE,5.33791995049,-0.486528307199,-0.0222829170525,0.0232027750462,-0.483743697405,0.57,0.52,0.03,0.17,0.12,-0.37,-0.034,0.024,0.54625
STABILIZE,5.4413330555,-0.486528307199,-0.0222829170525,0.0232027750462,-0.483743697405,0.57,0.52,0.03,0.17,0.12,-0.37,-0.034,0.024,0.54625
STABILIZE,5.54488992691,-0.486528307199,-0.0222829170525,0.0232027750462,-0.483743697405,0.57,0.52,0.03,0.17,0.12,-0.37,-0.034,0.024,0.54625
STABILIZE,5.64825892448,-0.486528307199,-0.0222829170525,0.0232027750462,-0.483743697405,0.57,0.52,0.03,0.17,0.12,-0.37,-0.034,0.024,0.54625
STABILIZE,5.7531979084,-0.486528307199,-0.0222829170525,0.0232027750462,-0.483743697405,0.57,0.52,0.03,0.17,0.12,-0.37,-0.034,0.024,0.54625
STABILIZE,5.85928487778,-0.486528307199,-0.0221787337214,0.0234895981848,-0.484044224024,0.57,0.52,0.03,0.17,0.12,-0.37,-0.034,0.024,0.54625
STABILIZE,5.96278500557,-0.486528307199,-0.0221787337214,0.0234895981848,-0.484044224024,0.57,0.52,0.03,0.17,0.12,-0.37,-0.034,0.024,0.54625
STABILIZE,6.06616306305,-0.486528307199,-0.0221787337214,0.0234895981848,-0.484044224024,0.57,0.52,0.03,0.17,0.12,-0.37,-0.034,0.024,0.54625
STABILIZE,6.16973185539,-0.486528307199,-0.0221787337214,0.0234895981848,-0.484044224024,0.57,0.52,0.03,0.17,0.12,-0.37,-0.034,0.024,0.54625
STABILIZE,6.27334594727,-0.486528307199,-0.0221787337214,0.0234895981848,-0.484044224024,0.57,0.52,0.03,0.17,0.12,-0.37,-0.034,0.024,0.54625
STABILIZE,6.37689900398,-0.486528307199,-0.0221787337214,0.0234895981848,-0.484044224024,0.57,0.52,0.03,0.17,0.12,-0.37,-0.034,0.024,0.54625
STABILIZE,6.48074102402,-0.486528307199,-0.0221787337214,0.0234895981848,-0.484044224024,0.57,0.52,0.03,0.17,0.12,-0.37,-0.034,0.024,0.54625
STABILIZE,6.58435106277,-0.486528307199,-0.0221787337214,0.0234895981848,-0.484044224024,0.57,0.52,0.03,0.17,0.12,-0.37,-0.034,0.024,0.54625
STABILIZE,6.68821597099,-0.486528307199,-0.0221787337214,0.0234895981848,-0.484044224024,0.57,0.52,0.03,0.17,0.12,-0.37,-0.034,0.024,0.54625
STABILIZE,6.79382586479,-0.486528307199,-0.0221787337214,0.0234895981848,-0.484044224024,0.57,0.52,0.03,0.17,0.12,-0.37,-0.034,0.024,0.54625
STABILIZE,6.90055990219,-0.486528307199,-0.0221672095358,0.0238140895963,-0.484222352505,0.57,0.52,0.03,0.17,0.12,-0.37,-0.034,0.024,0.54625
STABILIZE,7.00522494316,-0.486528307199,-0.0221672095358,0.0238140895963,-0.484222352505,0.57,0.52,0.03,0.17,0.12,-0.37,-0.034,0.024,0.54625
STABILIZE,7.11209893227,-0.486528307199,-0.0221672095358,0.0238140895963,-0.484222352505,0.57,0.52,0.03,0.17,0.12,-0.37,-0.034,0.024,0.54625
STABILIZE,7.21805500984,-0.486528307199,-0.0221672095358,0.0238140895963,-0.484222352505,0.57,0.52,0.03,0.17,0.12,-0.37,-0.034,0.024,0.54625
STABILIZE,7.32275485992,-0.486528307199,-0.0221672095358,0.0238140895963,-0.484222352505,0.57,0.52,0.03,0.17,0.12,-0.37,-0.034,0.024,0.54625
STABILIZE,7.42618584633,-0.486528307199,-0.0221672095358,0.0238140895963,-0.484222352505,0.57,0.52,0.03,0.17,0.12,-0.37,-0.034,0.024,0.54625
STABILIZE,7.52900791168,-0.486528307199,-0.0221672095358,0.0238140895963,-0.484222352505,0.57,0.52,0.03,0.17,0.12,-0.37,-0.034,0.024,0.54625
STABILIZE,7.63198804855,-0.486528307199,-0.0221672095358,0.0238140895963,-0.484222352505,0.57,0.52,0.03,0.17,0.12,-0.37,-0.034,0.024,0.54625
STABILIZE,7.73508191109,-0.486528307199,-0.0221672095358,0.0238140895963,-0.484222352505,0.57,0.52,0.03,0.17,0.12,-0.37,-0.034,0.024,0.54625
STABILIZE,7.83836603165,-0.486528307199,-0.0220536980778,0.0239713825285,-0.484315723181,0.57,0.52,0.03,0.17,0.12,-0.37,-0.034,0.024,0.54625
STABILIZE,7.94134092331,-0.486528307199,-0.0220536980778,0.0239713825285,-0.484315723181,0.57,0.52,0.03,0.17,0.12,-0.37,-0.034,0.024,0.54625
STABILIZE,8.04482698441,-0.486528307199,-0.0220536980778,0.0239713825285,-0.484315723181,0.57,0.52,0.03,0.17,0.12,-0.37,-0.034,0.024,0.54625
STABILIZE,8.14846205711,-0.486528307199,-0.0220536980778,0.0239713825285,-0.484315723181,0.57,0.52,0.03,0.17,0.12,-0.37,-0.034,0.024,0.54625
STABILIZE,8.25209498405,-0.486528307199,-0.0220536980778,0.0239713825285,-0.484315723181,0.57,0.52,0.03,0.17,0.12,-0.37,-0.034,0.024,0.54625
STABILIZE,8.35570406914,-0.486528307199,-0.0220536980778,0.0239713825285,-0.484315723181,0.57,0.52,0.03,0.17,0.12,-0.37,-0.034,0.024,0.54625
STABILIZE,8.46037387848,-0.486528307199,-0.0220536980778,0.0239713825285,-0.484315723181,0.57,0.52,0.03,0.17,0.12,-0.37,-0.034,0.024,0.54625
STABILIZE,8.56396603584,-0.486528307199,-0.0220536980778,0.0239713825285,-0.484315723181,0.57,0.52,0.03,0.17,0.12,-0.37,-0.034,0.024,0.54625
STABILIZE,8.6673078537,-0.486528307199,-0.0220536980778,0.0239713825285,-0.484315723181,0.57,0.52,0.03,0.17,0.12,-0.37,-0.034,0.024,0.54625
STABILIZE,8.77314090729,-0.486528307199,-0.0220536980778,0.0239713825285,-0.484315723181,0.57,0.52,0.03,0.17,0.12,-0.37,-0.034,0.024,0.54625
STABILIZE,8.8807220459,-0.486528307199,-0.0219460632652,0.0240154862404,-0.484389483929,0.57,0.52,0.03,0.17,0.12,-0.37,-0.034,0.024,0.54625
STABILIZE,8.98529791832,-0.486528307199,-0.0219460632652,0.0240154862404,-0.484389483929,0.57,0.52,0.03,0.17,0.12,-0.37,-0.034,0.024,0.54625
STABILIZE,9.08955097198,-0.486528307199,-0.0219460632652,0.0240154862404,-0.484389483929,0.57,0.52,0.03,0.17,0.12,-0.37,-0.034,0.024,0.54625
STABILIZE,9.19307088852,-0.486528307199,-0.0219460632652,0.0240154862404,-0.484389483929,0.57,0.52,0.03,0.17,0.12,-0.37,-0.034,0.024,0.54625
STABILIZE,9.29663395882,-0.486528307199,-0.0219460632652,0.0240154862404,-0.484389483929,0.57,0.52,0.03,0.17,0.12,-0.37,-0.034,0.024,0.54625
STABILIZE,9.400867939,-0.486528307199,-0.0219460632652,0.0240154862404,-0.484389483929,0.57,0.52,0.03,0.17,0.12,-0.37,-0.034,0.024,0.54625
STABILIZE,9.50709891319,-0.486528307199,-0.0219460632652,0.0240154862404,-0.484389483929,0.57,0.52,0.03,0.17,0.12,-0.37,-0.034,0.024,0.54625
STABILIZE,9.61276292801,-0.486528307199,-0.0219460632652,0.0240154862404,-0.484389483929,0.57,0.52,0.03,0.17,0.12,-0.37,-0.034,0.024,0.54625
STABILIZE,9.71608901024,-0.486528307199,-0.0219460632652,0.0240154862404,-0.484389483929,0.57,0.52,0.03,0.17,0.12,-0.37,-0.034,0.024,0.54625
STABILIZE,9.81931805611,-0.486528307199,-0.0219460632652,0.0240154862404,-0.484389483929,0.57,0.52,0.03,0.17,0.12,-0.37,-0.034,0.024,0.54625
STABILIZE,9.92608594894,-0.486528307199,-0.0219460632652,0.0240154862404,-0.484389483929,0.57,0.52,0.03,0.17,0.12,-0.37,-0.034,0.024,0.54625
STABILIZE,10.0329480171,-0.486528307199,-0.0218511931598,0.0242092274129,-0.484460383654,0.57,0.52,0.03,0.17,0.12,-0.37,-0.034,0.024,0.54625
STABILIZE,10.1402468681,-0.486528307199,-0.0218511931598,0.0242092274129,-0.484460383654,0.57,0.52,0.03,0.17,0.12,-0.37,-0.034,0.024,0.54625
STABILIZE,10.2460188866,-0.486528307199,-0.0218511931598,0.0242092274129,-0.484460383654,0.57,0.52,0.03,0.17,0.12,-0.37,-0.034,0.024,0.54625
STABILIZE,10.3531188965,-0.486528307199,-0.0218511931598,0.0242092274129,-0.484460383654,0.57,0.52,0.03,0.17,0.12,-0.37,-0.034,0.024,0.54625
STABILIZE,10.4583878517,-0.486528307199,-0.0218511931598,0.0242092274129,-0.484460383654,0.57,0.52,0.03,0.17,0.12,-0.37,-0.034,0.024,0.54625
STABILIZE,10.5627980232,-0.486528307199,-0.0218511931598,0.0242092274129,-0.484460383654,0.57,0.52,0.03,0.17,0.12,-0.37,-0.034,0.024,0.54625
STABILIZE,10.6662828922,-0.486528307199,-0.0218511931598,0.0242092274129,-0.484460383654,0.57,0.52,0.03,0.17,0.12,-0.37,-0.034,0.024,0.54625
STABILIZE,10.7726738453,-0.486528307199,-0.0218511931598,0.0242092274129,-0.484460383654,0.57,0.52,0.03,0.17,0.12,-0.37,-0.034,0.024,0.54625
STABILIZE,10.8799760342,-0.486528307199,-0.0218019578606,0.0242183022201,-0.484399437904,0.57,0.52,0.03,0.17,0.12,-0.37,-0.034,0.024,0.54625
STABILIZE,10.9872128963,-0.486528307199,-0.0218019578606,0.0242183022201,-0.484399437904,0.57,0.52,0.03,0.17,0.12,-0.37,-0.034,0.024,0.54625
STABILIZE,11.0919950008,-0.486528307199,-0.0218019578606,0.0242183022201,-0.484399437904,0.57,0.52,0.03,0.17,0.12,-0.37,-0.034,0.024,0.54625
STABILIZE,11.1952500343,-0.486528307199,-0.0218019578606,0.0242183022201,-0.484399437904,0.57,0.52,0.03,0.17,0.12,-0.37,-0.034,0.024,0.54625
STABILIZE,11.2982769012,-0.486528307199,-0.0218019578606,0.0242183022201,-0.484399437904,0.57,0.52,0.03,0.17,0.12,-0.37,-0.034,0.024,0.54625
STABILIZE,11.4016389847,-0.486528307199,-0.0218019578606,0.0242183022201,-0.484399437904,0.57,0.52,0.03,0.17,0.12,-0.37,-0.034,0.024,0.54625
STABILIZE,11.5045340061,-0.486528307199,-0.0218019578606,0.0242183022201,-0.484399437904,0.57,0.52,0.03,0.17,0.12,-0.37,-0.034,0.024,0.54625
STABILIZE,11.6084139347,-0.486528307199,-0.0218019578606,0.0242183022201,-0.484399437904,0.57,0.52,0.03,0.17,0.12,-0.37,-0.034,0.024,0.54625
STABILIZE,11.7153768539,-0.486528307199,-0.0218019578606,0.0242183022201,-0.484399437904,0.57,0.52,0.03,0.17,0.12,-0.37,-0.034,0.024,0.54625
STABILIZE,11.822437048,-0.486528307199,-0.0218019578606,0.0242183022201,-0.484399437904,0.57,0.52,0.03,0.17,0.12,-0.37,-0.034,0.024,0.54625
STABILIZE,11.9278860092,-0.486528307199,-0.0214207097888,0.0232415664941,-0.483433008194,0.57,0.52,0.03,0.17,0.12,-0.37,-0.034,0.024,0.54625
STABILIZE,12.0346689224,-0.486528307199,-0.0214207097888,0.0232415664941,-0.483433008194,0.57,0.52,0.03,0.17,0.12,-0.37,-0.034,0.024,0.54625
STABILIZE,12.1400079727,-0.486528307199,-0.0214207097888,0.0232415664941,-0.483433008194,0.57,0.52,0.04,0.17,0.12,-0.36,-0.034,0.024,0.545
STABILIZE,12.2434270382,-0.486528307199,-0.0214207097888,0.0232415664941,-0.483433008194,0.58,0.52,0.04,0.18,0.12,-0.36,-0.040448091159,0.024,0.545
STABILIZE,12.3469529152,-0.486528307199,-0.0214207097888,0.0232415664941,-0.483433008194,0.58,0.52,0.04,0.18,0.12,-0.36,-0.036,0.024,0.545
STABILIZE,12.4509558678,-0.486528307199,-0.0214207097888,0.0232415664941,-0.483433008194,0.57,0.52,0.04,0.17,0.12,-0.36,-0.0296264654776,0.024,0.545
STABILIZE,12.5543398857,-0.486528307199,-0.0214207097888,0.0232415664941,-0.483433008194,0.56,0.52,0.04,0.16,0.12,-0.36,-0.0276629965389,0.024,0.545
STABILIZE,12.6585688591,-0.486528307199,-0.0214207097888,0.0232415664941,-0.483433008194,0.56,0.53,0.05,0.16,0.13,-0.35,-0.032,0.0303012880254,0.54375
STABILIZE,12.7638158798,-0.486528307199,-0.0214207097888,0.0232415664941,-0.483433008194,0.57,0.53,0.06,0.17,0.13,-0.34,-0.0382658715795,0.026,0.5425
STABILIZE,12.8671798706,-0.486528307199,-0.0143800247461,0.0316447913647,-0.494177758694,0.57,0.54,0.08,0.17,0.14,-0.32,-0.034,0.0322306958187,0.54
STABILIZE,12.9700200558,-0.486528307199,-0.0143800247461,0.0316447913647,-0.494177758694,0.56,0.53,0.09,0.16,0.13,-0.31,-0.0278032856871,0.0218032856871,0.53875
STABILIZE,13.0735039711,-0.486528307199,-0.0143800247461,0.0316447913647,-0.494177758694,0.56,0.53,0.11,0.16,0.13,-0.29,-0.032,0.026,0.53625
STABILIZE,13.1787478924,-0.486528307199,-0.0143800247461,0.0316447913647,-0.494177758694,0.55,0.54,0.11,0.15,0.14,-0.29,-0.0258695193457,0.0321304806543,0.53625
STABILIZE,13.2822868824,-0.486528307199,-0.0143800247461,0.0316447913647,-0.494177758694,0.54,0.54,0.12,0.14,0.14,-0.28,-0.0239025063444,0.028,0.535
STABILIZE,13.3861849308,-0.486528307199,-0.0143800247461,0.0316447913647,-0.494177758694,0.54,0.55,0.14,0.14,0.15,-0.26,-0.028,0.0340655523976,0.5325
STABILIZE,13.4905920029,-0.486528307199,-0.0143800247461,0.0316447913647,-0.494177758694,0.54,0.55,0.15,0.14,0.15,-0.25,-0.028,0.03,0.53125
STABILIZE,13.5943889618,-0.486528307199,-0.0143800247461,0.0316447913647,-0.494177758694,0.54,0.55,0.15,0.14,0.15,-0.25,-0.028,0.03,0.53125
STABILIZE,13.69779706,-0.486528307199,-0.0143800247461,0.0316447913647,-0.494177758694,0.53,0.54,0.17,0.13,0.14,-0.23,-0.0220277828799,0.0240277828799,0.52875
STABILIZE,13.8048160076,-0.486528307199,-0.0143800247461,0.0316447913647,-0.494177758694,0.53,0.55,0.18,0.13,0.15,-0.22,-0.026,0.0339422291102,0.5275
STABILIZE,13.9099090099,-0.486528307199,-0.0643872097135,-0.0121724642813,-0.515305817127,0.53,0.55,0.2,0.13,0.15,-0.2,-0.026,0.03,0.525
STABILIZE,14.017152071,-0.486528307199,-0.0643872097135,-0.0121724642813,-0.515305817127,0.53,0.55,0.21,0.13,0.15,-0.19,-0.026,0.03,0.52375
STABILIZE,14.1231620312,-0.486528307199,-0.0643872097135,-0.0121724642813,-0.515305817127,0.53,0.55,0.22,0.13,0.15,-0.18,-0.026,0.03,0.5225
STABILIZE,14.2292120457,-0.486528307199,-0.0643872097135,-0.0121724642813,-0.515305817127,0.53,0.55,0.23,0.13,0.15,-0.17,-0.026,0.03,0.52125
STABILIZE,14.3320028782,-0.486528307199,-0.0643872097135,-0.0121724642813,-0.515305817127,0.53,0.56,0.24,0.13,0.16,-0.16,-0.026,0.0357950024193,0.52
STABILIZE,14.4351840019,-0.486528307199,-0.0643872097135,-0.0121724642813,-0.515305817127,0.53,0.56,0.25,0.13,0.16,-0.15,-0.026,0.032,0.51875
STABILIZE,14.5384428501,-0.486528307199,-0.0643872097135,-0.0121724642813,-0.515305817127,0.53,0.56,0.26,0.13,0.16,-0.14,-0.026,0.032,0.5175
STABILIZE,14.6419038773,-0.486528307199,-0.0643872097135,-0.0121724642813,-0.515305817127,0.53,0.57,0.26,0.13,0.17,-0.14,-0.026,0.0377142820221,0.5175
STABILIZE,14.7456028461,-0.486528307199,-0.0643872097135,-0.0121724642813,-0.515305817127,0.53,0.56,0.27,0.13,0.16,-0.13,-0.026,0.0283119636139,0.51625
STABILIZE,14.8489718437,-0.486528307199,-0.0323720686138,0.0239900443703,-0.499337136745,0.53,0.57,0.28,0.13,0.17,-0.12,-0.026,0.0376620984837,0.515
STABILIZE,14.9531769753,-0.486528307199,-0.0323720686138,0.0239900443703,-0.499337136745,0.52,0.58,0.29,0.12,0.18,-0.11,-0.0203633933954,0.0396366066046,0.51375
STABILIZE,15.0582768917,-0.486528307199,-0.0418404489756,0.0162477642298,-0.523353338242,0.52,0.59,0.29,0.12,0.19,-0.11,-0.024,0.0416112603922,0.51375
STABILIZE,15.1617569923,-0.486528307199,-0.0418404489756,0.0162477642298,-0.523353338242,0.52,0.59,0.3,0.12,0.19,-0.1,-0.024,0.038,0.5125
STABILIZE,15.2674930096,-0.486528307199,-0.0320028066635,0.0381648913026,-0.524190783501,0.51,0.6,0.3,0.11,0.2,-0.1,-0.0184384154522,0.0435615845478,0.5125
STABILIZE,15.3710100651,-0.486528307199,-0.0320028066635,0.0381648913026,-0.524190783501,0.51,0.6,0.31,0.11,0.2,-0.09,-0.022,0.04,0.51125
STABILIZE,15.4756989479,-0.486528307199,-0.0320028066635,0.0381648913026,-0.524190783501,0.5,0.6,0.31,0.1,0.2,-0.09,-0.0164869005007,0.04,0.51125
STABILIZE,15.5798609257,-0.486528307199,-0.0378025099635,0.0333313271403,-0.54668956995,0.5,0.6,0.31,0.1,0.2,-0.09,-0.02,0.04,0.51125
STABILIZE,15.6854720116,-0.486528307199,-0.0378025099635,0.0333313271403,-0.54668956995,0.49,0.24,0.31,0.09,-0.16,-0.09,-0.0145339954659,-0.156776163227,0.51125
STABILIZE,15.7890028954,-0.486528307199,-0.0378025099635,0.0333313271403,-0.54668956995,0.48,0.6,0.31,0.08,0.2,-0.09,-0.0125573321954,0.163936040964,0.51125
STABILIZE,15.893422842,-0.486528307199,-0.0365472137928,0.0368187353015,-0.564328670502,0.46,0.59,0.32,0.06,0.19,-0.08,-0.0051598116448,0.0345799058224,0.51
STABILIZE,15.9998719692,-0.486528307199,-0.0320157930255,0.0700287818909,-0.559271872044,0.44,0.59,0.32,0.04,0.19,-0.08,-0.00120475083327,0.038,0.51
STABILIZE,16.1036159992,-0.486528307199,-0.0320157930255,0.0700287818909,-0.559271872044,0.42,0.6,0.32,0.02,0.2,-0.08,0.00275003671294,0.0433750183565,0.51
STABILIZE,16.2087209225,-0.486528307199,-0.0320157930255,0.0700287818909,-0.559271872044,0.4,0.61,0.33,0.0,0.21,-0.07,0.00670655456189,0.0453532772809,0.50875
STABILIZE,16.3127470016,-0.486528307199,-0.0209690388292,0.0800817385316,-0.5684222579,0.39,0.61,0.33,-0.01,0.21,-0.07,0.00533153021645,0.042,0.50875
STABILIZE,16.4184889793,-0.486528307199,-0.0209690388292,0.0800817385316,-0.5684222579,0.37,0.61,0.33,-0.03,0.21,-0.07,0.0126205756668,0.042,0.50875
STABILIZE,16.522302866,-0.486528307199,-0.0297863502055,0.0695283859968,-0.563719809055,0.36,0.62,0.34,-0.04,0.22,-0.06,0.0112889664159,0.0472889664159,0.5075
STABILIZE,16.6255829334,-0.486528307199,-0.0297863502055,0.0695283859968,-0.563719809055,0.35,0.62,0.34,-0.05,0.22,-0.06,0.0132683029797,0.044,0.5075
STABILIZE,16.7298469543,-0.486528307199,-0.0292459186167,0.0456492304802,-0.562858819962,0.34,0.61,0.34,-0.06,0.21,-0.06,0.0152479995668,0.0387520004332,0.5075
STABILIZE,16.8333239555,-0.486528307199,-0.0292459186167,0.0456492304802,-0.562858819962,0.33,0.61,0.33,-0.07,0.21,-0.07,0.0172277570061,0.042,0.50875
STABILIZE,16.9378199577,-0.486528307199,-0.0292459186167,0.0456492304802,-0.562858819962,0.32,0.61,0.33,-0.08,0.21,-0.07,0.0192079157185,0.042,0.50875
STABILIZE,17.0410809517,-0.486528307199,-0.0138292983174,0.04388333112,-0.581722259521,0.31,0.61,0.32,-0.09,0.21,-0.08,0.0211881245212,0.042,0.51
STABILIZE,17.1460180283,-0.486528307199,-0.0138292983174,0.04388333112,-0.581722259521,0.3,0.62,0.33,-0.1,0.22,-0.07,0.0231688067275,0.0471688067275,0.50875
STABILIZE,17.2501890659,-0.486528307199,-0.0160207245499,0.0388559103012,-0.600177407265,0.29,0.62,0.33,-0.11,0.22,-0.07,0.0251494123313,0.044,0.50875
STABILIZE,17.3556940556,-0.486528307199,-0.0160207245499,0.0388559103012,-0.600177407265,0.28,0.62,0.33,-0.12,0.22,-0.07,0.0271303945017,0.044,0.50875
STABILIZE,17.4613828659,-0.486528307199,-0.0161835849285,0.0218671523035,-0.61458003521,0.28,0.62,0.32,-0.12,0.22,-0.08,0.024,0.044,0.51
STABILIZE,17.5648999214,-0.486528307199,-0.0161835849285,0.0218671523035,-0.61458003521,0.27,0.63,0.32,-0.13,0.23,-0.08,0.0290925313073,0.0490925313073,0.51
STABILIZE,17.6704919338,-0.486528307199,-0.00733941886574,0.0232670940459,-0.62155097723,0.26,0.62,0.32,-0.14,0.22,-0.08,0.0310743070229,0.0409256929771,0.51
STABILIZE,17.774230957,-0.486528307199,-0.00733941886574,0.0232670940459,-0.62155097723,0.26,0.63,0.32,-0.14,0.23,-0.08,0.028,0.0490559342942,0.51
STABILIZE,17.8793878555,-0.486528307199,-0.00733941886574,0.0232670940459,-0.62155097723,0.26,0.62,0.32,-0.14,0.22,-0.08,0.028,0.0409618996991,0.51
STABILIZE,17.9838280678,-0.486528307199,-0.0090257441625,0.0283608902246,-0.623904168606,0.26,0.62,0.32,-0.14,0.22,-0.08,0.028,0.044,0.51
STABILIZE,18.0874390602,-0.486528307199,-0.0090257441625,0.0283608902246,-0.623904168606,0.25,0.62,0.32,-0.15,0.22,-0.08,0.0330026919339,0.044,0.51
STABILIZE,18.191174984,-0.486528307199,-0.00944807752967,0.0435611009598,-0.632488429546,0.25,0.63,0.31,-0.15,0.23,-0.09,0.03,0.0489854918428,0.51125
STABILIZE,18.2947158813,-0.486528307199,-0.00944807752967,0.0435611009598,-0.632488429546,0.24,0.64,0.31,-0.16,0.24,-0.09,0.0349684658164,0.0509684658164,0.51125
STABILIZE,18.4001209736,-0.486528307199,-0.00944807752967,0.0435611009598,-0.632488429546,0.24,0.64,0.31,-0.16,0.24,-0.09,0.032,0.048,0.51125
STABILIZE,18.5062229633,-0.486528307199,-0.00878141541034,0.0396390967071,-0.652116596699,0.23,0.65,0.31,-0.17,0.25,-0.09,0.0369347556702,0.0529347556702,0.51125
STABILIZE,18.6110858917,-0.486528307199,-0.00878141541034,0.0396390967071,-0.652116596699,0.22,0.65,0.31,-0.18,0.25,-0.09,0.0389179301384,0.05,0.51125
STABILIZE,18.7143769264,-0.486528307199,-0.0150689305738,0.0383727401495,-0.669984221458,0.22,0.65,0.31,-0.18,0.25,-0.09,0.036,0.05,0.51125
STABILIZE,18.8201110363,-0.486528307199,-0.0150689305738,0.0383727401495,-0.669984221458,0.21,0.65,0.31,-0.19,0.25,-0.09,0.0408854767158,0.05,0.51125
STABILIZE,18.924020052,-0.486528307199,-0.0150708314031,0.0312304086983,-0.677665829659,0.21,0.66,0.31,-0.19,0.26,-0.09,0.038,0.0548692642295,0.51125
STABILIZE,19.0290820599,-0.486528307199,-0.0150708314031,0.0312304086983,-0.677665829659,0.21,0.66,0.31,-0.19,0.26,-0.09,0.038,0.052,0.51125
STABILIZE,19.1337058544,-0.486528307199,-0.0117194913328,0.0368246883154,-0.690428078175,0.21,0.66,0.31,-0.19,0.26,-0.09,0.038,0.052,0.51125
STABILIZE,19.2372169495,-0.486528307199,-0.0117194913328,0.0368246883154,-0.690428078175,0.21,0.66,0.31,-0.19,0.26,-0.09,0.038,0.052,0.51125
STABILIZE,19.3413259983,-0.486528307199,-0.0117194913328,0.0368246883154,-0.690428078175,0.2,0.66,0.31,-0.2,0.26,-0.09,0.04280705314,0.052,0.51125
STABILIZE,19.4447128773,-0.486528307199,-0.0209001861513,0.0366283878684,-0.702706873417,0.2,0.66,0.31,-0.2,0.26,-0.09,0.04,0.052,0.51125
STABILIZE,19.5496559143,-0.486528307199,-0.0209001861513,0.0366283878684,-0.702706873417,0.19,0.66,0.31,-0.21,0.26,-0.09,0.0447771000923,0.052,0.51125
STABILIZE,19.6537418365,-0.486528307199,-0.0227068029344,0.0327077805996,-0.713152825832,0.19,0.66,0.31,-0.21,0.26,-0.09,0.042,0.052,0.51125
STABILIZE,19.7583129406,-0.486528307199,-0.0227068029344,0.0327077805996,-0.713152825832,0.19,0.66,0.3,-0.21,0.26,-0.1,0.042,0.052,0.5125
STABILIZE,19.8637769222,-0.486528307199,-0.0150915123522,0.0275197885931,-0.721991837025,0.19,0.66,0.31,-0.21,0.26,-0.09,0.042,0.052,0.51125
STABILIZE,19.9674620628,-0.486528307199,-0.0150915123522,0.0275197885931,-0.721991837025,0.19,0.67,0.3,-0.21,0.27,-0.1,0.042,0.0567185093802,0.5125
STABILIZE,20.0730650425,-0.486528307199,-0.0139705259353,0.0343205407262,-0.729550421238,0.19,0.67,0.3,-0.21,0.27,-0.1,0.042,0.054,0.5125
STABILIZE,20.1768710613,-0.486528307199,-0.0139705259353,0.0343205407262,-0.729550421238,0.19,0.67,0.3,-0.21,0.27,-0.1,0.042,0.054,0.5125
STABILIZE,20.281537056,-0.486528307199,-0.0139705259353,0.0343205407262,-0.729550421238,0.18,0.67,0.3,-0.22,0.27,-0.1,0.0466763269431,0.054,0.5125
STABILIZE,20.385037899,-0.486528307199,-0.0101840849966,0.0353173166513,-0.738126993179,0.18,0.67,0.3,-0.22,0.27,-0.1,0.044,0.054,0.5125
STABILIZE,20.489207983,-0.486528307199,-0.0101840849966,0.0353173166513,-0.738126993179,0.18,0.67,0.3,-0.22,0.27,-0.1,0.044,0.054,0.5125
STABILIZE,20.5929698944,-0.486528307199,-0.00623425003141,0.0354554466903,-0.747105002403,0.18,0.67,0.3,-0.22,0.27,-0.1,0.044,0.054,0.5125
STABILIZE,20.6962089539,-0.486528307199,-0.00623425003141,0.0354554466903,-0.747105002403,0.18,0.67,0.3,-0.22,0.27,-0.1,0.044,0.054,0.5125
STABILIZE,20.8027179241,-0.486528307199,-0.00438588298857,0.0394842550159,-0.754895806313,0.18,0.67,0.3,-0.22,0.27,-0.1,0.044,0.054,0.5125
STABILIZE,20.9068510532,-0.486528307199,-0.00438588298857,0.0394842550159,-0.754895806313,0.18,0.67,0.3,-0.22,0.27,-0.1,0.044,0.054,0.5125
STABILIZE,21.0113830566,-0.486528307199,-0.00438588298857,0.0394842550159,-0.754895806313,0.18,0.67,0.3,-0.22,0.27,-0.1,0.044,0.054,0.5125
STABILIZE,21.1147480011,-0.486528307199,-0.00437693484128,0.0466823354363,-0.758008182049,0.19,0.67,0.3,-0.21,0.27,-0.1,0.0394299695331,0.054,0.5125
STABILIZE,21.2201910019,-0.486528307199,-0.00437693484128,0.0466823354363,-0.758008182049,0.19,0.67,0.3,-0.21,0.27,-0.1,0.042,0.054,0.5125
STABILIZE,21.3236548901,-0.486528307199,-0.000263402238488,0.0573860071599,-0.763364195824,0.19,0.67,0.3,-0.21,0.27,-0.1,0.042,0.054,0.5125
STABILIZE,21.4287309647,-0.486528307199,-0.000263402238488,0.0573860071599,-0.763364195824,0.19,0.67,0.3,-0.21,0.27,-0.1,0.042,0.054,0.5125
STABILIZE,21.5337429047,-0.486528307199,-0.00469907186925,0.0595201961696,-0.763104975224,0.2,0.67,0.3,-0.2,0.27,-0.1,0.0374800234716,0.054,0.5125
STABILIZE,21.6374909878,-0.486528307199,-0.00469907186925,0.0595201961696,-0.763104975224,0.2,0.67,0.3,-0.2,0.27,-0.1,0.04,0.054,0.5125
STABILIZE,21.7411708832,-0.486528307199,-0.00373532064259,0.0559855289757,-0.752984046936,0.2,0.67,0.3,-0.2,0.27,-0.1,0.04,0.054,0.5125
STABILIZE,21.8439350128,-0.486528307199,-0.00373532064259,0.0559855289757,-0.752984046936,0.2,0.66,0.3,-0.2,0.26,-0.1,0.04,0.049516236233,0.5125
STABILIZE,21.9466738701,-0.486528307199,-0.00373532064259,0.0559855289757,-0.752984046936,0.21,0.67,0.3,-0.19,0.27,-0.1,0.0355279209828,0.0564720790172,0.5125
STABILIZE,22.0497529507,-0.486528307199,-0.00317172147334,0.0563477985561,-0.74185603857,0.21,0.67,0.3,-0.19,0.27,-0.1,0.038,0.054,0.5125
STABILIZE,22.1525490284,-0.486528307199,-0.00317172147334,0.0563477985561,-0.74185603857,0.22,0.67,0.3,-0.18,0.27,-0.1,0.0335509960676,0.054,0.5125
STABILIZE,22.2553620338,-0.486528307199,-0.00432488508523,0.0568716675043,-0.737849116325,0.22,0.66,0.31,-0.18,0.26,-0.09,0.036,0.0495623604485,0.51125
STABILIZE,22.3581590652,-0.486528307199,-0.00432488508523,0.0568716675043,-0.737849116325,0.22,0.66,0.3,-0.18,0.26,-0.1,0.036,0.052,0.5125
STABILIZE,22.4612400532,-0.486528307199,-0.00432488508523,0.0568716675043,-0.737849116325,0.22,0.67,0.3,-0.18,0.27,-0.1,0.036,0.0564152220258,0.5125
STABILIZE,22.5640249252,-0.486528307199,-0.00787728931755,0.0562656745315,-0.735947310925,0.23,0.67,0.31,-0.17,0.27,-0.09,0.0315958616611,0.054,0.51125
STABILIZE,22.6669659615,-0.486528307199,-0.00787728931755,0.0562656745315,-0.735947310925,0.23,0.67,0.31,-0.17,0.27,-0.09,0.034,0.054,0.51125
STABILIZE,22.7698619366,-0.486528307199,-0.00601223763078,0.0580046921968,-0.734525978565,0.23,0.67,0.3,-0.17,0.27,-0.1,0.034,0.054,0.5125
STABILIZE,22.8725888729,-0.486528307199,-0.00601223763078,0.0580046921968,-0.734525978565,0.23,0.67,0.31,-0.17,0.27,-0.09,0.034,0.054,0.51125
STABILIZE,22.9755280018,-0.486528307199,-0.000883186236024,0.0661497563124,-0.737128853798,0.23,0.67,0.31,-0.17,0.27,-0.09,0.034,0.054,0.51125
STABILIZE,23.0784158707,-0.486528307199,-0.000883186236024,0.0661497563124,-0.737128853798,0.24,0.67,0.31,-0.16,0.27,-0.09,0.0296496759215,0.054,0.51125
STABILIZE,23.1815218925,-0.486528307199,-0.00594493001699,0.0523298941553,-0.741557478905,0.23,0.67,0.31,-0.17,0.27,-0.09,0.0363398457882,0.054,0.51125
STABILIZE,23.2843739986,-0.486528307199,-0.00594493001699,0.0523298941553,-0.741557478905,0.23,0.67,0.31,-0.17,0.27,-0.09,0.034,0.054,0.51125
STABILIZE,23.3872890472,-0.486528307199,-0.00594493001699,0.0523298941553,-0.741557478905,0.23,0.66,0.31,-0.17,0.26,-0.09,0.034,0.0496808508869,0.51125
STABILIZE,23.4903638363,-0.486528307199,-0.0098394267261,0.0691662877798,-0.746400296688,0.23,0.66,0.31,-0.17,0.26,-0.09,0.034,0.052,0.51125
STABILIZE,23.5933020115,-0.486528307199,-0.0098394267261,0.0691662877798,-0.746400296688,0.23,0.67,0.31,-0.17,0.27,-0.09,0.034,0.0562988122152,0.51125
STABILIZE,23.6961140633,-0.486528307199,-0.0117126256227,0.0288299769163,-0.743143200874,0.23,0.67,0.31,-0.17,0.27,-0.09,0.034,0.054,0.51125
STABILIZE,23.7994420528,-0.486528307199,-0.0117126256227,0.0288299769163,-0.743143200874,0.23,0.67,0.31,-0.17,0.27,-0.09,0.034,0.054,0.51125
STABILIZE,23.9025650024,-0.486528307199,-0.0113234575838,-0.00509875267744,-0.741025388241,0.23,0.67,0.31,-0.17,0.27,-0.09,0.034,0.054,0.51125
STABILIZE,24.005838871,-0.486528307199,-0.0113234575838,-0.00509875267744,-0.741025388241,0.23,0.67,0.31,-0.17,0.27,-0.09,0.034,0.054,0.51125
STABILIZE,24.1107008457,-0.486528307199,-0.0113234575838,-0.00509875267744,-0.741025388241,0.23,0.66,0.31,-0.17,0.26,-0.09,0.034,0.0497505506345,0.51125
STABILIZE,24.2152218819,-0.486528307199,-0.00383180566132,-0.047870285809,-0.739266932011,0.23,0.66,0.31,-0.17,0.26,-0.09,0.034,0.052,0.51125
STABILIZE,24.3184549809,-0.486528307199,-0.00383180566132,-0.047870285809,-0.739266932011,0.23,0.67,0.31,-0.17,0.27,-0.09,0.034,0.0562299989643,0.51125
STABILIZE,24.4245538712,-0.486528307199,-0.00383180566132,-0.047870285809,-0.739266932011,0.23,0.67,0.31,-0.17,0.27,-0.09,0.034,0.054,0.51125
STABILIZE,24.5287680626,-0.486528307199,-0.0050668399781,-0.0881129354239,-0.740863919258,0.23,0.66,0.31,-0.17,0.26,-0.09,0.034,0.0497891143297,0.51125
STABILIZE,24.6337330341,-0.486528307199,-0.00627783220261,-0.112546011806,-0.741989970207,0.23,0.66,0.31,-0.17,0.26,-0.09,0.034,0.052,0.51125
STABILIZE,24.7374899387,-0.486528307199,-0.00627783220261,-0.112546011806,-0.741989970207,0.23,0.66,0.31,-0.17,0.26,-0.09,0.034,0.052,0.51125
STABILIZE,24.8435559273,-0.486528307199,-0.00627783220261,-0.112546011806,-0.741989970207,0.23,0.67,0.32,-0.17,0.27,-0.08,0.034,0.0561829187356,0.51
STABILIZE,24.9470980167,-0.486528307199,-0.00285191275179,-0.0805312544107,-0.751694321632,0.23,0.67,0.32,-0.17,0.27,-0.08,0.034,0.054,0.51
STABILIZE,25.0520939827,-0.486528307199,-0.00285191275179,-0.0805312544107,-0.751694321632,0.22,0.66,0.31,-0.18,0.26,-0.09,0.0381645774864,0.0498354225136,0.51125
STABILIZE,25.1559379101,-0.486528307199,-0.00562444515526,-0.124734282494,-0.74868619442,0.23,0.66,0.31,-0.17,0.26,-0.09,0.0318444949045,0.052,0.51125
STABILIZE,25.2592868805,-0.486528307199,-0.00562444515526,-0.124734282494,-0.74868619442,0.23,0.66,0.32,-0.17,0.26,-0.08,0.034,0.052,0.51
STABILIZE,25.3648300171,-0.486528307199,-0.00863628555089,-0.0893325507641,-0.750382781029,0.23,0.67,0.32,-0.17,0.27,-0.08,0.034,0.0561378241843,0.51
STABILIZE,25.4683580399,-0.486528307199,-0.00863628555089,-0.0893325507641,-0.750382781029,0.23,0.67,0.32,-0.17,0.27,-0.08,0.034,0.054,0.51
STABILIZE,25.5725328922,-0.486528307199,-0.00863628555089,-0.0893325507641,-0.750382781029,0.23,0.67,0.31,-0.17,0.27,-0.09,0.034,0.054,0.51125
STABILIZE,25.6762869358,-0.486528307199,0.0156352929771,0.0344889014959,-0.752044200897,0.23,0.67,0.31,-0.17,0.27,-0.09,0.034,0.054,0.51125
STABILIZE,25.7804250717,-0.486528307199,0.0156352929771,0.0344889014959,-0.752044200897,0.24,0.67,0.3,-0.16,0.27,-0.1,0.0298968951227,0.054,0.5125
STABILIZE,25.8841569424,-0.486528307199,0.0176588855684,0.136862069368,-0.738814413548,0.24,0.67,0.31,-0.16,0.27,-0.09,0.032,0.054,0.51125
STABILIZE,25.9884929657,-0.486528307199,0.0176588855684,0.136862069368,-0.738814413548,0.24,0.67,0.31,-0.16,0.27,-0.09,0.032,0.054,0.51125
STABILIZE,26.0937080383,-0.486528307199,0.0116081908345,0.196029141545,-0.743496894836,0.24,0.63,0.31,-0.16,0.23,-0.09,0.032,0.0376886452726,0.51125
STABILIZE,26.1971108913,-0.486528307199,0.0116081908345,0.196029141545,-0.743496894836,0.24,0.63,0.31,-0.16,0.23,-0.09,0.032,0.046,0.51125
STABILIZE,26.3015298843,-0.486528307199,0.0116081908345,0.196029141545,-0.743496894836,0.25,0.64,0.31,-0.15,0.24,-0.09,0.0279387067536,0.0500612932464,0.51125
STABILIZE,26.4054849148,-0.486528307199,0.008479738608,0.224006876349,-0.745272040367,0.25,0.67,0.31,-0.15,0.27,-0.09,0.03,0.0601593267499,0.51125
STABILIZE,26.5107939243,-0.486528307199,0.008479738608,0.224006876349,-0.745272040367,0.25,0.67,0.31,-0.15,0.27,-0.09,0.03,0.054,0.51125
STABILIZE,26.6149868965,-0.486528307199,0.0110032483935,0.248392254114,-0.741908490658,0.25,0.67,0.31,-0.15,0.27,-0.09,0.03,0.054,0.51125
STABILIZE,26.7211399078,-0.486528307199,0.0110032483935,0.248392254114,-0.741908490658,0.26,0.67,0.31,-0.14,0.27,-0.09,0.0259710706916,0.054,0.51125
STABILIZE,26.8247020245,-0.486528307199,0.0110032483935,0.248392254114,-0.741908490658,0.26,0.67,0.31,-0.14,0.27,-0.09,0.028,0.054,0.51125
STABILIZE,26.9304978848,-0.486528307199,0.0110032483935,0.248392254114,-0.741908490658,0.26,0.67,0.31,-0.14,0.27,-0.09,0.028,0.054,0.51125
STABILIZE,27.0358428955,-0.486528307199,0.0132457539439,0.260759592056,-0.740759909153,0.27,0.67,0.31,-0.13,0.27,-0.09,0.0239948416925,0.054,0.51125
STABILIZE,27.1439058781,-0.486528307199,0.0146938376129,0.259336173534,-0.736714720726,0.27,0.67,0.31,-0.13,0.27,-0.09,0.026,0.054,0.51125
STABILIZE,27.2483699322,-0.486528307199,0.0146938376129,0.259336173534,-0.736714720726,0.27,0.67,0.31,-0.13,0.27,-0.09,0.026,0.054,0.51125
STABILIZE,27.3519580364,-0.486528307199,0.0171117410064,0.264488756657,-0.734016060829,0.27,0.67,0.31,-0.13,0.27,-0.09,0.026,0.054,0.51125
STABILIZE,27.4579908848,-0.486528307199,0.0171117410064,0.264488756657,-0.734016060829,0.28,0.67,0.32,-0.12,0.27,-0.08,0.0220257379348,0.054,0.51
STABILIZE,27.561784029,-0.486528307199,0.0101051293314,0.262811601162,-0.734381079674,0.29,0.67,0.32,-0.11,0.27,-0.08,0.0200333626154,0.054,0.51
STABILIZE,27.6663489342,-0.486528307199,0.0101051293314,0.262811601162,-0.734381079674,0.29,0.67,0.32,-0.11,0.27,-0.08,0.022,0.054,0.51
STABILIZE,27.7717659473,-0.486528307199,0.00784501433372,0.257086873055,-0.731383085251,0.3,0.67,0.32,-0.1,0.27,-0.08,0.0180481736692,0.054,0.51
STABILIZE,27.8753108978,-0.486528307199,0.00784501433372,0.257086873055,-0.731383085251,0.3,0.67,0.32,-0.1,0.27,-0.08,0.02,0.054,0.51
STABILIZE,27.9792590141,-0.486528307199,0.00784501433372,0.257086873055,-0.731383085251,0.31,0.67,0.32,-0.09,0.27,-0.08,0.0160628044434,0.054,0.51
STABILIZE,28.0831899643,-0.486528307199,0.0101043134928,0.253538399935,-0.722973644733,0.31,0.67,0.31,-0.09,0.27,-0.09,0.018,0.054,0.51125
STABILIZE,28.1878728867,-0.486528307199,0.0101043134928,0.253538399935,-0.722973644733,0.32,0.67,0.32,-0.08,0.27,-0.08,0.0140771443267,0.054,0.51
STABILIZE,28.2914409637,-0.486528307199,0.0065385363996,0.248450353742,-0.71566671133,0.32,0.66,0.31,-0.08,0.26,-0.09,0.016,0.0500842860164,0.51125
STABILIZE,28.3959798813,-0.486528307199,0.0065385363996,0.248450353742,-0.71566671133,0.33,0.66,0.31,-0.07,0.26,-0.09,0.0120912980815,0.052,0.51125
STABILIZE,28.5007469654,-0.486528307199,0.0106208510697,0.250212669373,-0.707383275032,0.34,0.66,0.31,-0.06,0.26,-0.09,0.0100983252502,0.052,0.51125
STABILIZE,28.6062290668,-0.486528307199,0.0106208510697,0.250212669373,-0.707383275032,0.34,0.66,0.31,-0.06,0.26,-0.09,0.012,0.052,0.51125
STABILIZE,28.7110359669,-0.486528307199,0.0162639804184,0.246259763837,-0.705809056759,0.34,0.66,0.31,-0.06,0.26,-0.09,0.012,0.052,0.51125
STABILIZE,28.8145899773,-0.486528307199,0.0162639804184,0.246259763837,-0.705809056759,0.34,0.66,0.31,-0.06,0.26,-0.09,0.012,0.052,0.51125
STABILIZE,28.9206058979,-0.486528307199,0.0162639804184,0.246259763837,-0.705809056759,0.35,0.66,0.31,-0.05,0.26,-0.09,0.00812595160476,0.052,0.51125
STABILIZE,29.0241520405,-0.486528307199,0.0118163637817,0.232667192817,-0.706791400909,0.35,0.66,0.31,-0.05,0.26,-0.09,0.01,0.052,0.51125
STABILIZE,29.129817009,-0.486528307199,0.0118163637817,0.232667192817,-0.706791400909,0.35,0.66,0.31,-0.05,0.26,-0.09,0.01,0.052,0.51125
STABILIZE,29.2348878384,-0.486528307199,0.00944249518216,0.204982712865,-0.702836871147,0.35,0.66,0.31,-0.05,0.26,-0.09,0.01,0.052,0.51125
STABILIZE,29.3382160664,-0.486528307199,0.00944249518216,0.204982712865,-0.702836871147,0.35,0.66,0.31,-0.05,0.26,-0.09,0.01,0.052,0.51125
STABILIZE,29.4429140091,-0.486528307199,0.0172562897205,0.181750893593,-0.702104330063,0.36,0.66,0.31,-0.04,0.26,-0.09,0.00615939935411,0.052,0.51125
STABILIZE,29.5470628738,-0.486528307199,0.0172562897205,0.181750893593,-0.702104330063,0.36,0.66,0.31,-0.04,0.26,-0.09,0.008,0.052,0.51125
STABILIZE,29.6523849964,-0.486528307199,0.0172562897205,0.181750893593,-0.702104330063,0.35,0.66,0.31,-0.05,0.26,-0.09,0.0118275900342,0.052,0.51125
STABILIZE,29.7559099197,-0.486528307199,0.0141770020127,0.16037067771,-0.702993929386,0.35,0.65,0.31,-0.05,0.25,-0.09,0.01,0.048178900981,0.51125
STABILIZE,29.8613679409,-0.486528307199,0.0141770020127,0.16037067771,-0.702993929386,0.36,0.66,0.3,-0.04,0.26,-0.1,0.00618523684245,0.0538147631575,0.5125
STABILIZE,29.9650828838,-0.486528307199,0.00540076196194,0.128779262304,-0.705833077431,0.36,0.65,0.31,-0.04,0.25,-0.09,0.008,0.0481916459437,0.51125
STABILIZE,30.0683870316,-0.486528307199,0.00540076196194,0.128779262304,-0.705833077431,0.36,0.66,0.31,-0.04,0.26,-0.09,0.008,0.0538020957189,0.51125
STABILIZE,30.1747858524,-0.486528307199,0.00476116873324,0.101239584386,-0.706685423851,0.36,0.66,0.31,-0.04,0.26,-0.09,0.008,0.052,0.51125
STABILIZE,30.2782039642,-0.486528307199,0.00476116873324,0.101239584386,-0.706685423851,0.36,0.66,0.3,-0.04,0.26,-0.1,0.008,0.052,0.5125
STABILIZE,30.3824129105,-0.486528307199,0.0112740285695,0.0709692388773,-0.702823698521,0.36,0.66,0.3,-0.04,0.26,-0.1,0.008,0.052,0.5125
STABILIZE,30.4858119488,-0.486528307199,0.0112740285695,0.0709692388773,-0.702823698521,0.36,0.66,0.3,-0.04,0.26,-0.1,0.008,0.052,0.5125
STABILIZE,30.5910758972,-0.486528307199,0.0112740285695,0.0709692388773,-0.702823698521,0.37,0.66,0.31,-0.03,0.26,-0.09,0.00422868630426,0.052,0.51125
STABILIZE,30.6945438385,-0.486528307199,0.00363050028682,0.050414878875,-0.71277987957,0.36,0.66,0.31,-0.04,0.26,-0.09,0.0097652185542,0.052,0.51125
STABILIZE,30.7997059822,-0.486528307199,0.00363050028682,0.050414878875,-0.71277987957,0.36,0.66,0.31,-0.04,0.26,-0.09,0.008,0.052,0.51125
STABILIZE,30.9042580128,-0.486528307199,-0.00204513221979,0.0239980779588,-0.716670513153,0.36,0.66,0.31,-0.04,0.26,-0.09,0.008,0.052,0.51125
STABILIZE,31.0078299046,-0.486528307199,-0.00204513221979,0.0239980779588,-0.716670513153,0.36,0.66,0.31,-0.04,0.26,-0.09,0.008,0.052,0.51125
STABILIZE,31.1119709015,-0.486528307199,0.0018023699522,0.0246156360954,-0.716867804527,0.36,0.66,0.31,-0.04,0.26,-0.09,0.008,0.052,0.51125
STABILIZE,31.2154579163,-0.486528307199,0.0018023699522,0.0246156360954,-0.716867804527,0.36,0.66,0.31,-0.04,0.26,-0.09,0.008,0.052,0.51125
STABILIZE,31.3185808659,-0.486528307199,0.0018023699522,0.0246156360954,-0.716867804527,0.36,0.66,0.31,-0.04,0.26,-0.09,0.008,0.052,0.51125
STABILIZE,31.4215869904,-0.486528307199,0.00456443056464,0.027735248208,-0.720552444458,0.36,0.66,0.31,-0.04,0.26,-0.09,0.008,0.052,0.51125
STABILIZE,31.5244209766,-0.486528307199,0.00456443056464,0.027735248208,-0.720552444458,0.36,0.66,0.31,-0.04,0.26,-0.09,0.008,0.052,0.51125
STABILIZE,31.6284990311,-0.486528307199,0.000398388132453,0.0272808037698,-0.722277760506,0.36,0.66,0.31,-0.04,0.26,-0.09,0.008,0.052,0.51125
STABILIZE,31.7314300537,-0.486528307199,0.000398388132453,0.0272808037698,-0.722277760506,0.36,0.66,0.31,-0.04,0.26,-0.09,0.008,0.052,0.51125
STABILIZE,31.8363878727,-0.486528307199,-0.000374319031835,0.0305509231985,-0.721930503845,0.36,0.66,0.31,-0.04,0.26,-0.09,0.008,0.052,0.51125
STABILIZE,31.9398639202,-0.486528307199,-0.000374319031835,0.0305509231985,-0.721930503845,0.36,0.66,0.31,-0.04,0.26,-0.09,0.008,0.052,0.51125
STABILIZE,32.0440888405,-0.486528307199,-0.000374319031835,0.0305509231985,-0.721930503845,0.36,0.66,0.31,-0.04,0.26,-0.09,0.008,0.052,0.51125
STABILIZE,32.149561882,-0.486528307199,0.00849518924952,0.0291399434209,-0.721862196922,0.36,0.66,0.31,-0.04,0.26,-0.09,0.008,0.052,0.51125
STABILIZE,32.2548220158,-0.486528307199,0.00849518924952,0.0291399434209,-0.721862196922,0.36,0.66,0.31,-0.04,0.26,-0.09,0.008,0.052,0.51125
STABILIZE,32.3587579727,-0.486528307199,0.0149203464389,0.0255073308945,-0.720201432705,0.36,0.66,0.31,-0.04,0.26,-0.09,0.008,0.052,0.51125
STABILIZE,32.4625489712,-0.486528307199,0.0149203464389,0.0255073308945,-0.720201432705,0.37,0.65,0.31,-0.03,0.25,-0.09,0.00433121144983,0.0483312114498,0.51125
STABILIZE,32.5665540695,-0.486528307199,0.0287333354354,0.0365508943796,-0.721461474895,0.36,0.65,0.3,-0.04,0.25,-0.1,0.00966345368947,0.05,0.5125
STABILIZE,32.6704728603,-0.486528307199,0.0287333354354,0.0365508943796,-0.721461474895,0.37,0.65,0.31,-0.03,0.25,-0.09,0.00434185894554,0.05,0.51125
STABILIZE,32.775042057,-0.486528307199,0.0287333354354,0.0365508943796,-0.721461474895,0.37,0.65,0.31,-0.03,0.25,-0.09,0.006,0.05,0.51125
STABILIZE,32.8784930706,-0.486528307199,0.043992176652,0.0410338938236,-0.718048930168,0.37,0.64,0.31,-0.03,0.24,-0.09,0.006,0.0463524065621,0.51125
STABILIZE,32.983080864,-0.486528307199,0.043992176652,0.0410338938236,-0.718048930168,0.37,0.65,0.31,-0.03,0.25,-0.09,0.006,0.0516424093489,0.51125
STABILIZE,33.0869958401,-0.486528307199,0.0933716893196,0.0420200675726,-0.716084897518,0.37,0.64,0.32,-0.03,0.24,-0.08,0.006,0.0463627991099,0.51
STABILIZE,33.1914379597,-0.486528307199,0.0933716893196,0.0420200675726,-0.716084897518,0.38,0.63,0.33,-0.02,0.23,-0.07,0.0023679405933,0.0443679405933,0.50875
STABILIZE,33.2953228951,-0.486528307199,0.130738317966,0.0395179316401,-0.725499212742,0.38,0.63,0.33,-0.02,0.23,-0.07,0.004,0.046,0.50875
STABILIZE,33.3986458778,-0.486528307199,0.130738317966,0.0395179316401,-0.725499212742,0.37,0.62,0.34,-0.03,0.22,-0.06,0.00762184766256,0.0423781523374,0.5075
STABILIZE,33.5041458607,-0.486528307199,0.214734405279,0.0528014414012,-0.717570066452,0.37,0.62,0.34,-0.03,0.22,-0.06,0.006,0.044,0.5075
STABILIZE,33.6074509621,-0.486528307199,0.214734405279,0.0528014414012,-0.717570066452,0.37,0.61,0.34,-0.03,0.21,-0.06,0.006,0.0403882611958,0.5075
STABILIZE,33.7127709389,-0.486528307199,0.214734405279,0.0528014414012,-0.717570066452,0.37,0.6,0.35,-0.03,0.2,-0.05,0.006,0.0383932151768,0.50625
STABILIZE,33.8163619041,-0.486528307199,0.236243516207,0.074781909585,-0.712221801281,0.37,0.59,0.35,-0.03,0.19,-0.05,0.006,0.0363982353493,0.50625
STABILIZE,33.921599865,-0.486528307199,0.236243516207,0.074781909585,-0.712221801281,0.37,0.58,0.36,-0.03,0.18,-0.04,0.006,0.034403141572,0.505
STABILIZE,34.0265610218,-0.486528307199,0.273133695126,0.0765112414956,-0.712162137032,0.36,0.58,0.36,-0.04,0.18,-0.04,0.00959190369887,0.036,0.505
STABILIZE,34.1301670074,-0.486528307199,0.273133695126,0.0765112414956,-0.712162137032,0.36,0.57,0.37,-0.04,0.17,-0.03,0.008,0.0324130063897,0.50375
STABILIZE,34.2363770008,-0.486528307199,0.293066293001,0.0763089954853,-0.70205283165,0.37,0.56,0.37,-0.03,0.16,-0.03,0.00441782407061,0.0304178240706,0.50375
STABILIZE,34.3405048847,-0.486528307199,0.293066293001,0.0763089954853,-0.70205283165,0.37,0.56,0.37,-0.03,0.16,-0.03,0.006,0.032,0.50375
STABILIZE,34.4471049309,-0.486528307199,0.293066293001,0.0763089954853,-0.70205283165,0.37,0.55,0.36,-0.03,0.15,-0.04,0.006,0.0284275143466,0.505
STABILIZE,34.5507218838,-0.486528307199,0.311052054167,0.0822148919106,-0.693034827709,0.37,0.54,0.36,-0.03,0.14,-0.04,0.006,0.0264323809268,0.505
STABILIZE,34.6562960148,-0.486528307199,0.311052054167,0.0822148919106,-0.693034827709,0.37,0.54,0.36,-0.03,0.14,-0.04,0.006,0.028,0.505
STABILIZE,34.7603368759,-0.486528307199,0.309395104647,0.0645021349192,-0.697429537773,0.37,0.53,0.36,-0.03,0.13,-0.04,0.006,0.0244418434505,0.505
STABILIZE,34.863781929,-0.486528307199,0.309395104647,0.0645021349192,-0.697429537773,0.36,0.53,0.35,-0.04,0.13,-0.05,0.00955349315936,0.026,0.50625
STABILIZE,34.9675090313,-0.486528307199,0.324957102537,0.0816145166755,-0.692428708076,0.36,0.52,0.36,-0.04,0.12,-0.04,0.008,0.0224511162803,0.505
STABILIZE,35.0707499981,-0.486528307199,0.324957102537,0.0816145166755,-0.692428708076,0.36,0.52,0.36,-0.04,0.12,-0.04,0.008,0.024,0.505
STABILIZE,35.1752169132,-0.486528307199,0.324957102537,0.0816145166755,-0.692428708076,0.37,0.51,0.35,-0.03,0.11,-0.05,0.00446025687963,0.0204602568796,0.50625
STABILIZE,35.2783198357,-0.486528307199,0.338734954596,0.0951735526323,-0.683108210564,0.37,0.5,0.35,-0.03,0.1,-0.05,0.006,0.0184648301136,0.50625
STABILIZE,35.3810620308,-0.486528307199,0.338734954596,0.0951735526323,-0.683108210564,0.39,0.49,0.35,-0.01,0.09,-0.05,-0.00106136784225,0.0164693160789,0.50625
STABILIZE,35.4844009876,-0.486528307199,0.338734954596,0.0951735526323,-0.683108210564,0.39,0.49,0.35,-0.01,0.09,-0.05,0.002,0.018,0.50625
STABILIZE,35.5872459412,-0.486528307199,0.341684609652,0.0812700688839,-0.687375068665,0.4,0.48,0.34,0.0,0.08,-0.06,-0.00152179425456,0.0144782057454,0.5075
STABILIZE,35.6917250156,-0.486528307199,0.317129224539,0.0804799124599,-0.691752254963,0.38,0.47,0.34,-0.02,0.07,-0.06,0.00703479281362,0.0124826035932,0.5075
STABILIZE,35.7949540615,-0.486528307199,0.317129224539,0.0804799124599,-0.691752254963,0.37,0.47,0.33,-0.03,0.07,-0.07,0.00751295424783,0.014,0.50875
STABILIZE,35.9002120495,-0.486528307199,0.279704272747,0.0604639574885,-0.702843904495,0.38,0.45,0.33,-0.02,0.05,-0.07,0.00249140894567,0.00698281789134,0.50875
STABILIZE,36.0038709641,-0.486528307199,0.279704272747,0.0604639574885,-0.702843904495,0.37,0.45,0.32,-0.03,0.05,-0.08,0.00750416767017,0.01,0.51
STABILIZE,36.1087269783,-0.486528307199,0.279704272747,0.0604639574885,-0.702843904495,0.37,0.44,0.32,-0.03,0.04,-0.08,0.006,0.00650016277255,0.51
STABILIZE,36.2126269341,-0.486528307199,0.260110169649,0.0697185844183,-0.703473269939,0.37,0.44,0.32,-0.03,0.04,-0.08,0.006,0.008,0.51
STABILIZE,36.31614995,-0.486528307199,0.260110169649,0.0697185844183,-0.703473269939,0.37,0.43,0.31,-0.03,0.03,-0.09,0.006,0.00450880884014,0.51125
STABILIZE,36.4211950302,-0.486528307199,0.204709351063,0.0681302249432,-0.703650414944,0.38,0.42,0.31,-0.02,0.02,-0.09,0.00251305967288,0.00251305967288,0.51125
STABILIZE,36.5247478485,-0.486528307199,0.204709351063,0.0681302249432,-0.703650414944,0.38,0.42,0.31,-0.02,0.02,-0.09,0.004,0.004,0.51125
STABILIZE,36.6306729317,-0.486528307199,0.165454238653,0.0584781840444,-0.706265807152,0.38,0.41,0.31,-0.02,0.01,-0.09,0.004,0.000521551545811,0.51125
STABILIZE,36.7346379757,-0.486528307199,0.165454238653,0.0584781840444,-0.706265807152,0.38,0.41,0.3,-0.02,0.01,-0.1,0.004,0.002,0.5125
STABILIZE,36.8395960331,-0.486528307199,0.165454238653,0.0584781840444,-0.706265807152,0.38,0.4,0.3,-0.02,0.0,-0.1,0.004,-0.00147000087268,0.5125
STABILIZE,36.9432070255,-0.486528307199,0.138732075691,0.0607342980802,-0.70452862978,0.38,0.4,0.29,-0.02,0.0,-0.11,0.004,0.0,0.51375
STABILIZE,37.0472750664,-0.486528307199,0.138732075691,0.0607342980802,-0.70452862978,0.38,0.39,0.29,-0.02,-0.01,-0.11,0.004,-0.00346170179189,0.51375
STABILIZE,37.1510388851,-0.486528307199,0.0770014375448,0.0507640354335,-0.702599406242,0.38,0.39,0.28,-0.02,-0.01,-0.12,0.004,-0.002,0.515
STABILIZE,37.2573039532,-0.486528307199,0.0770014375448,0.0507640354335,-0.702599406242,0.38,0.39,0.28,-0.02,-0.01,-0.12,0.004,-0.002,0.515
STABILIZE,37.362226963,-0.486528307199,0.038236130029,0.0444927811623,-0.705280482769,0.38,0.39,0.28,-0.02,-0.01,-0.12,0.004,-0.002,0.515
STABILIZE,37.4655048847,-0.486528307199,0.038236130029,0.0444927811623,-0.705280482769,0.38,0.39,0.28,-0.02,-0.01,-0.12,0.004,-0.002,0.515
STABILIZE,37.5706598759,-0.486528307199,0.038236130029,0.0444927811623,-0.705280482769,0.38,0.39,0.28,-0.02,-0.01,-0.12,0.004,-0.002,0.515
STABILIZE,37.674175024,-0.486528307199,-0.0145695265383,0.0325379520655,-0.706743896008,0.38,0.4,0.29,-0.02,0.0,-0.11,0.004,0.00143729015853,0.51375
STABILIZE,37.7790799141,-0.486528307199,-0.0145695265383,0.0325379520655,-0.706743896008,0.38,0.4,0.29,-0.02,0.0,-0.11,0.004,0.0,0.51375
STABILIZE,37.8830649853,-0.486528307199,-0.064642265439,0.0292596742511,-0.711684823036,0.38,0.41,0.29,-0.02,0.01,-0.11,0.004,0.00342936075603,0.51375
STABILIZE,37.9869329929,-0.486528307199,-0.064642265439,0.0292596742511,-0.711684823036,0.38,0.41,0.29,-0.02,0.01,-0.11,0.004,0.002,0.51375
STABILIZE,38.092936039,-0.486528307199,-0.0882095992565,0.0102673759684,-0.711935281754,0.37,0.42,0.29,-0.03,0.02,-0.11,0.00742153988478,0.00542153988478,0.51375
STABILIZE,38.196518898,-0.486528307199,-0.0882095992565,0.0102673759684,-0.711935281754,0.37,0.42,0.29,-0.03,0.02,-0.11,0.006,0.004,0.51375
STABILIZE,38.3010849953,-0.486528307199,-0.105771623552,0.0259493365884,-0.70223903656,0.38,0.42,0.3,-0.02,0.02,-0.1,0.00258625986456,0.004,0.5125
STABILIZE,38.4047260284,-0.486528307199,-0.105771623552,0.0259493365884,-0.70223903656,0.38,0.42,0.3,-0.02,0.02,-0.1,0.004,0.004,0.5125
STABILIZE,38.5094079971,-0.486528307199,-0.105771623552,0.0259493365884,-0.70223903656,0.38,0.43,0.3,-0.02,0.03,-0.1,0.004,0.00740607570945,0.5125
STABILIZE,38.6129639149,-0.486528307199,-0.11265039444,0.00792144145817,-0.704701662064,0.38,0.44,0.3,-0.02,0.04,-0.1,0.004,0.00940225314522,0.5125
STABILIZE,38.7182309628,-0.486528307199,-0.11265039444,0.00792144145817,-0.704701662064,0.39,0.44,0.3,-0.01,0.04,-0.1,0.000601507157732,0.008,0.5125
STABILIZE,38.8235039711,-0.486528307199,-0.0932017117739,0.0261145681143,-0.727660477161,0.39,0.45,0.3,-0.01,0.05,-0.1,0.002,0.0113946902739,0.5125
STABILIZE,38.9269719124,-0.486528307199,-0.0932017117739,0.0261145681143,-0.727660477161,0.39,0.46,0.3,-0.01,0.06,-0.1,0.002,0.0133909085332,0.5125
STABILIZE,39.0326600075,-0.486528307199,-0.0666754543781,0.00992471165955,-0.738411426544,0.4,0.46,0.29,0.0,0.06,-0.11,-0.00138721146643,0.012,0.51375
STABILIZE,39.1361899376,-0.486528307199,-0.0666754543781,0.00992471165955,-0.738411426544,0.4,0.46,0.29,0.0,0.06,-0.11,-0.0,0.012,0.51375
STABILIZE,39.2418239117,-0.486528307199,-0.0666754543781,0.00992471165955,-0.738411426544,0.4,0.46,0.3,0.0,0.06,-0.1,-0.0,0.012,0.5125
STABILIZE,39.3448688984,-0.486528307199,-0.0334861986339,0.0475928038359,-0.725702226162,0.4,0.47,0.3,0.0,0.07,-0.1,-0.0,0.0153760813141,0.5125
STABILIZE,39.4478609562,-0.486528307199,-0.0334861986339,0.0475928038359,-0.725702226162,0.37,0.47,0.31,-0.03,0.07,-0.09,0.0101174334741,0.014,0.51125
STABILIZE,39.5515289307,-0.486528307199,-0.00102676637471,0.0401585847139,-0.712636530399,0.36,0.48,0.31,-0.04,0.08,-0.09,0.00936889450718,0.0173688945072,0.51125
STABILIZE,39.6544530392,-0.486528307199,-0.00102676637471,0.0401585847139,-0.712636530399,0.37,0.49,0.33,-0.03,0.09,-0.07,0.0046346935468,0.0193653064532,0.50875
STABILIZE,39.7573678493,-0.486528307199,0.0554525926709,0.0340979248285,-0.687016844749,0.38,0.52,0.33,-0.02,0.12,-0.07,0.00263823712408,0.0280852886278,0.50875
STABILIZE,39.8608708382,-0.486528307199,0.0554525926709,0.0340979248285,-0.687016844749,0.38,0.54,0.35,-0.02,0.14,-0.05,0.004,0.0307164755676,0.50625
STABILIZE,39.9658899307,-0.486528307199,0.0554525926709,0.0340979248285,-0.687016844749,0.39,0.56,0.36,-0.01,0.16,-0.04,0.00064528929784,0.0347094214043,0.505
STABILIZE,40.0694038868,-0.486528307199,0.0800957977772,-0.0149605460465,-0.666884064674,0.39,0.6,0.38,-0.01,0.2,-0.02,0.002,0.0454046017609,0.5025
STABILIZE,40.1751868725,-0.486528307199,0.0800957977772,-0.0149605460465,-0.666884064674,0.4,0.64,0.4,0.0,0.24,0.0,-0.00134766036096,0.0533906414438,0.5
STABILIZE,40.2796008587,-0.486528307199,0.0670397728682,0.0613760463893,-0.6585496068,0.4,0.65,0.42,0.0,0.25,0.02,-0.0,0.0513441116139,0.4975
STABILIZE,40.383054018,-0.486528307199,0.0670397728682,0.0613760463893,-0.6585496068,0.41,0.67,0.42,0.01,0.27,0.02,-0.00334062764156,0.0566812552831,0.4975
STABILIZE,40.4895198345,-0.486528307199,0.0981865003705,0.0717614591122,-0.695690453053,0.41,0.68,0.43,0.01,0.28,0.03,-0.002,0.0573371933958,0.49625
STABILIZE,40.5930838585,-0.486528307199,0.0981865003705,0.0717614591122,-0.695690453053,0.41,0.68,0.43,0.01,0.28,0.03,-0.002,0.056,0.49625
STABILIZE,40.6968939304,-0.486528307199,0.0981865003705,0.0717614591122,-0.695690453053,0.41,0.66,0.43,0.01,0.26,0.03,-0.002,0.0493394508201,0.49625
STABILIZE,40.8009560108,-0.486528307199,0.0860283449292,0.0620101578534,-0.686754584312,0.4,0.63,0.43,0.0,0.23,0.03,0.00132688112025,0.0420193566392,0.49625
STABILIZE,40.9053709507,-0.486528307199,0.0860283449292,0.0620101578534,-0.686754584312,0.4,0.61,0.44,0.0,0.21,0.04,-0.0,0.0393530053963,0.495
STABILIZE,41.0104939938,-0.486528307199,0.0248130522668,0.0429703369737,-0.679862558842,0.4,0.61,0.46,0.0,0.21,0.06,-0.0,0.042,0.4925
STABILIZE,41.1149089336,-0.486528307199,0.0248130522668,0.0429703369737,-0.679862558842,0.42,0.6,0.47,0.02,0.2,0.07,-0.00663346972935,0.0386832651353,0.49125
STABILIZE,41.2188639641,-0.486528307199,0.122309543192,0.0968140661716,-0.692185878754,0.42,0.59,0.48,0.02,0.19,0.08,-0.004,0.0366866090965,0.49
STABILIZE,41.322355032,-0.486528307199,0.122309543192,0.0968140661716,-0.692185878754,0.43,0.57,0.48,0.03,0.17,0.08,-0.00731007853157,0.0313798429369,0.49
STABILIZE,41.4258198738,-0.486528307199,0.122309543192,0.0968140661716,-0.692185878754,0.44,0.57,0.48,0.04,0.17,0.08,-0.00930679756543,0.034,0.49
STABILIZE,41.5322790146,-0.486528307199,0.0359089411795,-0.0486121103168,-0.682564258575,0.44,0.58,0.48,0.04,0.18,0.08,-0.008,0.0373035336822,0.49
STABILIZE,41.6385319233,-0.486528307199,0.0359089411795,-0.0486121103168,-0.682564258575,0.43,0.59,0.48,0.03,0.19,0.08,-0.00469980776488,0.0393001922351,0.49
STABILIZE,41.7421209812,-0.486528307199,0.0676804035902,-0.0153005346656,-0.748432338238,0.42,0.61,0.2,0.02,0.21,-0.2,-0.00270312567941,0.0445937486412,0.525
STABILIZE,41.8461279869,-0.486528307199,0.0676804035902,-0.0153005346656,-0.748432338238,0.4,0.64,0.19,0.0,0.24,-0.21,0.00258731239129,0.0518809685869,0.52625
STABILIZE,41.9506139755,-0.486528307199,0.0959738045931,-0.0522592365742,-0.822113633156,0.4,0.65,0.21,0.0,0.25,-0.19,-0.0,0.0512904407387,0.52375
STABILIZE,42.0544919968,-0.486528307199,0.0959738045931,-0.0522592365742,-0.822113633156,0.4,0.65,0.21,0.0,0.25,-0.19,-0.0,0.05,0.52375
STABILIZE,42.1611399651,-0.486528307199,0.0750510022044,-0.0656410753727,-0.842314004898,0.4,0.64,0.21,0.0,0.24,-0.19,-0.0,0.0467159527089,0.52375
STABILIZE,42.2647719383,-0.486528307199,0.0750510022044,-0.0656410753727,-0.842314004898,0.4,0.61,0.19,0.0,0.21,-0.21,-0.0,0.0381576028882,0.52625
STABILIZE,42.3700239658,-0.486528307199,0.0750510022044,-0.0656410753727,-0.842314004898,0.4,0.59,0.26,0.0,0.19,-0.14,-0.0,0.0354446828823,0.5175
STABILIZE,42.4735050201,-0.486528307199,-0.0362323597074,0.0484148897231,-0.806403279305,0.39,0.57,0.2,-0.01,0.17,-0.2,0.00327448438079,0.0314510312384,0.525
STABILIZE,42.5782139301,-0.486528307199,-0.0362323597074,0.0484148897231,-0.806403279305,0.38,0.56,0.21,-0.02,0.16,-0.19,0.00527137969372,0.0307286203063,0.52375
STABILIZE,42.6833000183,-0.486528307199,0.0332887880504,0.0773939788342,-0.80408513546,0.38,0.55,0.34,-0.02,0.15,-0.06,0.004,0.0287317470181,0.5075
STABILIZE,42.7882890701,-0.486528307199,0.0332887880504,0.0773939788342,-0.80408513546,0.38,0.54,0.24,-0.02,0.14,-0.16,0.004,0.0267348696247,0.52
STABILIZE,42.8949959278,-0.486528307199,-0.0442844145,0.0565508417785,-0.756858408451,0.37,0.53,0.25,-0.03,0.13,-0.15,0.00726202617347,0.0247379738265,0.51875
STABILIZE,42.9984838963,-0.486528307199,-0.0442844145,0.0565508417785,-0.756858408451,0.38,0.52,0.25,-0.02,0.12,-0.15,0.00274111327664,0.0227411132766,0.51875
STABILIZE,43.1026329994,-0.486528307199,-0.0359633490443,0.0244279578328,-0.768446207047,0.39,0.53,0.36,-0.01,0.13,-0.04,0.000744142818665,0.0272558571813,0.505
