Mode,Time,Freq,North-Vision,East-Vision,Down-Vision,Yaw-Vision,North-Desired,East-Desired,Down-Desired,Roll-UAV,Pitch-UAV,Yaw-UAV,Roll-Control,Pitch-Control,Yaw-Control,Thrust-Control
GUIDED_NOGPS,0.002561807632446289,399.91456903127386,319.7194632607651,54.3626581870038,-81.56417424791994,-12.491564080729091,300,0,30,-1.6160524262592242,0.6117342603462619,83.68920140952069,5.436314591198215,-1.9719640177698767,12.491564080729091,0.5111584192634174
GUIDED_NOGPS,0.009001016616821289,155.06891452233066,318.5916509518066,54.24773382108097,-81.34228688279299,-8.941401287852607,300,0,30,-1.66070991060006,0.6143414716185027,83.66602657766684,5.4250216564289255,-1.859251159651951,8.941401287852607,0.511144419989448
GUIDED_NOGPS,0.011034250259399414,492.80977558453765,318.8757170661783,54.344437810056604,-81.39553089441618,-8.442422039586171,300,0,30,-1.66070991060006,0.6143414716185027,83.66602657766684,5.4349647814024875,-1.8877524983593712,8.442422039586171,0.5111609250991608
GUIDED_NOGPS,0.01263570785522461,627.3263535746336,318.81721108957316,54.46099756867823,-81.36084895210946,-7.469066521321778,300,0,30,-1.66070991060006,0.6143414716185027,83.66602657766684,5.446732489004667,-1.8819405059362035,7.469066521321778,0.5111620262451841
GUIDED_NOGPS,0.024427413940429688,84.90837685736264,318.71384785896043,54.554720035294054,-81.31187534796926,-7.916730857934961,300,0,30,-1.6724162145072272,0.6127442745697775,83.62441023505396,5.4561908150580125,-1.8716337105975587,7.916730857934961,0.5111606415628738
GUIDED_NOGPS,0.0270693302154541,379.81562981073984,317.96263568791875,54.52364881358313,-81.10252666707991,-6.711074710075441,300,0,30,-1.6786122633014866,0.6007096946956266,83.58685785499722,5.453767632995943,-1.7967378152992126,6.711074710075441,0.5111675799115833
GUIDED_NOGPS,0.030388593673706055,302.44476492644935,317.8477428966018,54.576272129827515,-81.07254429801434,-4.984378508333435,300,0,30,-1.6786122633014866,0.6007096946956266,83.58685785499722,5.459199589016582,-1.7853040073914443,4.984378508333435,0.5111714859986717
GUIDED_NOGPS,0.033145904541015625,363.4578856152513,317.9364863153792,54.65359366803298,-81.06820021899183,-4.490597005943367,300,0,30,-1.6786122633014866,0.6007096946956266,83.58685785499722,5.4670913265396095,-1.7942307222368843,4.490597005943367,0.5111775377789336
GUIDED_NOGPS,0.03579545021057129,379.81562981073984,318.0130751238944,54.72069678361529,-81.097024750053,-4.965727638666938,300,0,30,-1.6786122633014866,0.6007096946956266,83.58685785499722,5.473923870107767,-1.8019298396808934,4.965727638666938,0.5111853834775503
GUIDED_NOGPS,0.04035520553588867,219.58557143605046,318.30910372443765,54.808888111773854,-81.17269151894664,-7.086831870015303,300,0,30,-1.7340492802564835,0.5734598012282145,83.55025487123513,5.483009187027313,-1.8316216194803936,7.086831870015303,0.5112037485501985
GUIDED_NOGPS,0.04210662841796875,574.0117695360614,318.43905462179566,54.88608102813746,-81.21565734224289,-7.165695851568448,300,0,30,-1.7340492802564835,0.5734598012282145,83.55025487123513,5.490834788202102,-1.8446524240522553,7.165695851568448,0.5112123534325476
GUIDED_NOGPS,0.044208526611328125,477.4936247723133,319.1684584793291,55.091977676902594,-81.44396989951032,-7.678553050619452,300,0,30,-1.7340492802564835,0.5734598012282145,83.55025487123513,5.511509738315704,-1.9176224835729054,7.678553050619452,0.5112386351091144
GUIDED_NOGPS,0.04747629165649414,306.5563514106125,319.008737819767,55.13492768351589,-81.4600374060091,-6.357465377300613,300,0,30,-1.8015413676531413,0.5235710323133835,83.51227901944985,5.515923571504732,-1.9016913872245012,6.357465377300613,0.5112450464649533
GUIDED_NOGPS,0.04871010780334473,814.7443667443667,319.77396573456843,55.33625189202585,-81.62954549411786,-8.216737306741441,300,0,30,-1.8015413676531413,0.5235710323133835,83.51227901944985,5.536238744431211,-1.978279483692873,8.216737306741441,0.5112693705708079
GUIDED_NOGPS,0.0498957633972168,848.1908998988878,319.8377067570147,55.38488999384244,-81.60569835485589,-10.2980609481086,300,0,30,-1.8015413676531413,0.5235710323133835,83.51227901944985,5.5411707309269955,-1.9846780052642787,10.2980609481086,0.5112697334890066
GUIDED_NOGPS,0.05103492736816406,885.8086589229144,318.524453324869,55.27569602287219,-81.31239292956333,-9.873299359414807,300,0,30,-1.8015413676531413,0.5235710323133835,83.51227901944985,5.530314512771395,-1.8533738351046993,9.873299359414807,0.51124294750029
GUIDED_NOGPS,0.05345749855041504,414.3340906845797,317.22113825913647,55.17260257660549,-81.07798428524039,-9.049163313692313,300,0,30,-1.8015413676531413,0.5235710323133835,83.51227901944985,5.520070241841087,-1.7230626401185336,9.049163313692313,0.5112221268693374
GUIDED_NOGPS,0.056269168853759766,356.9620425531915,316.8838353062335,55.27680152375101,-81.02990163637241,-7.099644566450564,300,0,30,-1.8015413676531413,0.5235710323133835,83.51227901944985,5.530620490207609,-1.6893721602576885,7.099644566450564,0.5112225552146585
GUIDED_NOGPS,0.06747841835021973,89.29750904832872,317.0590514399233,55.41559624122178,-81.09625360293226,-7.6741831363498205,300,0,30,-1.8172008569858649,0.4815416766991216,83.46754811057544,5.544678457529928,-1.7069487214284844,7.6741831363498205,0.5112363473097472
GUIDED_NOGPS,0.07987284660339355,80.72955442209604,317.8493868611274,55.702291536653036,-81.2907280439121,-7.053896264451164,300,0,30,-1.8172008569858649,0.4815416766991216,83.46754811057544,5.5745729104119155,-1.7863747811625796,7.053896264451164,0.5113047416127334
GUIDED_NOGPS,0.08108878135681152,825.8129553061626,317.89880414780464,55.818840734895595,-81.35978752014778,-7.802667064822221,300,0,30,-1.8172008569858649,0.4815416766991216,83.46754811057544,5.586301557933942,-1.7913401512675895,7.802667064822221,0.511314589327205
GUIDED_NOGPS,0.0823216438293457,827.9320963284642,317.81372040464976,55.920228859839405,-81.37087558847321,-7.527018582095096,300,0,30,-1.8172008569858649,0.4815416766991216,83.46754811057544,5.5965052726562226,-1.7828524519415463,7.527018582095096,0.5113182833230098
GUIDED_NOGPS,0.08347201347351074,866.9499793303017,317.60271362106704,56.000604044490046,-81.36165604177819,-6.982781620486051,300,0,30,-1.8172008569858649,0.4815416766991216,83.46754811057544,5.604611858867622,-1.7617734837019408,6.982781620486051,0.5113201083025001
GUIDED_NOGPS,0.08691573143005371,290.9478357380688,317.8427375768896,56.16994200195678,-81.49219153116053,-8.781382805936323,300,0,30,-1.8172008569858649,0.4815416766991216,83.46754811057544,5.621600923223972,-1.785793435707855,8.781382805936323,0.5113353559140262
GUIDED_NOGPS,0.08885359764099121,517.8153086419753,318.8994503887585,56.54766027387706,-81.83246595176085,-9.729582769414867,300,0,30,-1.8172008569858649,0.4815416766991216,83.46754811057544,5.659577906204991,-1.8915332843940424,9.729582769414867,0.5113774979545245
GUIDED_NOGPS,0.09075236320495605,528.9827216546853,319.2912536325019,56.719769907318046,-82.02186737785438,-11.115292398658971,300,0,30,-1.8172008569858649,0.4815416766991216,83.46754811057544,5.676888534405099,-1.9307475062968542,11.115292398658971,0.5114003748702556
GUIDED_NOGPS,0.09603691101074219,189.58163080817212,318.736005364633,56.84938746961395,-81.94650490736542,-7.809191676222373,300,0,30,-1.6197347519955072,0.5086782317149938,83.35588134783491,5.690155417161216,-1.8753232408790919,7.809191676222373,0.5114048555858229
GUIDED_NOGPS,0.09909915924072266,327.5776319900031,318.4777599050354,56.94678265086327,-81.91038802807935,-11.136647762772881,300,0,30,-1.6197347519955072,0.5086782317149938,83.35588134783491,5.700013083828225,-1.849537031069188,11.136647762772881,0.5114058875488868
GUIDED_NOGPS,0.11311197280883789,71.49828682474472,317.44236637480685,57.02951039854991,-81.74148542561873,-9.816487951048009,300,0,30,-1.0806052958047752,0.2668627479483913,83.26038847304895,5.709158616082626,-1.7462646092494298,9.816487951048009,0.5114231982548393
GUIDED_NOGPS,0.11471390724182129,625.5486950037285,317.84020420898486,57.325856399070936,-81.87312772082923,-10.410115917777532,300,0,30,-1.0806052958047752,0.2668627479483913,83.26038847304895,5.738902761541795,-1.7860824839578795,10.410115917777532,0.5114406381072941
GUIDED_NOGPS,0.1160893440246582,731.9902268760908,317.2543811961954,57.4543838030876,-81.81114367265047,-6.2996288087579115,300,0,30,-1.0806052958047752,0.2668627479483913,83.26038847304895,5.7518271434904955,-1.7275216976701377,6.2996288087579115,0.5114372281140048
GUIDED_NOGPS,0.11719179153442383,912.5987815491732,318.5153627980581,57.91112074603847,-82.16829286327409,-6.186387895757851,300,0,30,-1.0806052958047752,0.2668627479483913,83.26038847304895,5.79757953818218,-1.8536450199733983,6.186387895757851,0.5114759917356377
GUIDED_NOGPS,0.11819243431091309,1005.5871493646607,317.54800481955454,57.93353966553593,-82.04091209464144,-6.2259822346408,300,0,30,-1.0806052958047752,0.2668627479483913,83.26038847304895,5.799882619206614,-1.756927756225803,6.2259822346408,0.5114656203982411
GUIDED_NOGPS,0.11911606788635254,1087.4524241638578,317.44959242153186,58.08601662389111,-82.07116822549021,-6.192983258275646,300,0,30,-1.0806052958047752,0.2668627479483913,83.26038847304895,5.815187718258234,-1.747103760896179,6.192983258275646,0.5114708610867821
GUIDED_NOGPS,0.12206864356994629,339.61975708502024,317.4519920955536,58.20207281009061,-82.07041878417807,-6.136452037808287,300,0,30,-1.0806052958047752,0.2668627479483913,83.26038847304895,5.826956440736132,-1.747392635271973,6.136452037808287,0.5114770674026757
GUIDED_NOGPS,0.12433266639709473,443.231956039311,318.7942660680549,58.54217138285483,-82.34666253607747,-8.407865540789947,300,0,30,-0.8162466125999869,0.16890545553253783,83.23588175430694,5.861030056061297,-1.8816405012834085,8.407865540789947,0.5115071389040371
GUIDED_NOGPS,0.12612628936767578,559.7629787801949,319.7637271697675,58.91499521513101,-82.58604960724925,-9.048560715546955,300,0,30,-0.8162466125999869,0.16890545553253783,83.23588175430694,5.89845175177617,-1.9786333454649014,9.048560715546955,0.5115364021104754
GUIDED_NOGPS,0.13239717483520508,159.74041208058804,318.850709394889,58.968610660503884,-82.41518900336534,-9.85597259173789,300,0,30,-0.4947360013499995,0.05517789665335957,83.19008533592202,5.9041549211147215,-1.887440776414874,9.85597259173789,0.5115323412226905
GUIDED_NOGPS,0.14472365379333496,81.17326933870062,318.5700317624276,59.19805282294525,-82.39887274500042,-7.412809011859825,300,0,30,-0.4947360013499995,0.05517789665335957,83.19008533592202,5.927846610331133,-1.859607490422205,7.412809011859825,0.5115590940167748
GUIDED_NOGPS,0.14773225784301758,336.5134788189987,317.36742369691945,59.2024786055926,-82.15220522176652,-7.40529898519506,300,0,30,-0.4947360013499995,0.05517789665335957,83.19008533592202,5.928418425268774,-1.739384596271483,7.40529898519506,0.5115393237411542
GUIDED_NOGPS,0.1503288745880127,384.9397944199706,317.6227783827526,59.46442672031257,-82.16060610525024,-8.548922663664518,300,0,30,-0.4947360013499995,0.05517789665335957,83.19008533592202,5.954802632949665,-1.7649761939995645,8.548922663664518,0.511547308535928
GUIDED_NOGPS,0.1521291732788086,557.9015695663741,316.3551675765702,59.3908816551267,-81.89898952841436,-9.345014553725377,300,0,30,-0.4947360013499995,0.05517789665335957,83.19008533592202,5.947593463538095,-1.638255136574685,9.345014553725377,0.5115266235019156
GUIDED_NOGPS,0.15489959716796875,361.5467632100681,316.6349701313989,59.70927939633145,-81.96696113625556,-8.1986756205675,300,0,30,-0.4947360013499995,0.05517789665335957,83.19008533592202,5.979576364407383,-1.6662752670856205,8.1986756205675,0.5115387884940599
GUIDED_NOGPS,0.1565861701965332,595.8664583037363,316.75872380179203,59.95519430120853,-82.10424071870976,-6.005383237356156,300,0,30,-0.4947360013499995,0.05517789665335957,83.19008533592202,6.004311999949749,-1.6786909256657494,6.005383237356156,0.5115579069016547
GUIDED_NOGPS,0.15839815139770508,553.5573445954864,317.1009269999717,60.281641808942084,-82.24585304883081,-5.267310331071077,300,0,30,-0.1247799922352357,-0.04798784189145178,83.14215106832687,6.037022130149247,-1.7129297925696991,5.267310331071077,0.5115745028956451
GUIDED_NOGPS,0.1608109474182129,416.63891924108475,317.1339312527956,60.51588903259801,-82.25161178199352,-5.237003522172945,300,0,30,-0.1247799922352357,-0.04798784189145178,83.14215106832687,6.060560863458047,-1.7162624978977796,5.237003522172945,0.5115793083729019
GUIDED_NOGPS,0.1680316925048828,138.66384554350702,317.1421537427898,60.74684988084571,-82.25114213778204,-5.184345005856978,300,0,30,1.018047699918334,-0.4731886755093134,83.11624416080501,6.083883928642688,-1.7171487984856035,5.184345005856978,0.511587649927289
GUIDED_NOGPS,0.17055821418762207,397.2254948385264,317.26830743355316,60.99805430972081,-82.2456622351903,-5.271867534725909,300,0,30,1.018047699918334,-0.4731886755093134,83.11624416080501,6.109381691466727,-1.729870985340615,5.271867534725909,0.5116009884541096
GUIDED_NOGPS,0.17250514030456543,515.777668470241,318.37566317753493,61.40067725368417,-82.54028312541888,-6.379482132225495,300,0,30,1.018047699918334,-0.4731886755093134,83.11624416080501,6.149799935792966,-1.8406532315918172,6.379482132225495,0.5116361673039402
GUIDED_NOGPS,0.17669105529785156,239.40091324200912,318.010340060881,61.52232951890736,-82.44804406286521,-7.296307117228797,300,0,30,1.392171098262371,-0.5891172628485283,83.08740027194004,6.162225417817187,-1.8041971083628598,7.296307117228797,0.5116364570888517
GUIDED_NOGPS,0.17858672142028809,530.1193124368049,317.87515974288374,61.729727500081616,-82.38816415569708,-6.733144725039608,300,0,30,1.392171098262371,-0.5891172628485283,83.08740027194004,6.183080645396279,-1.7907125016267118,6.733144725039608,0.5116346722287209
GUIDED_NOGPS,0.18127059936523438,378.51313058388234,317.592225829975,61.84905330186495,-82.32101819907255,-6.553415418415606,300,0,30,1.392171098262371,-0.5891172628485283,83.08740027194004,6.195163354228059,-1.7624618126414358,6.553415418415606,0.5116334104580625
GUIDED_NOGPS,0.18355607986450195,435.72657386245584,318.40677781788577,62.24570220244666,-82.46218743385695,-5.508006189003315,300,0,30,1.392171098262371,-0.5891172628485283,83.08740027194004,6.234985464880905,-1.8439635033902246,5.508006189003315,0.5116532085358573
GUIDED_NOGPS,0.18735432624816895,263.59376571141274,318.1300077175846,62.32441956008901,-82.33334456665199,-6.644119924893526,300,0,30,1.7684193257685166,-0.7024668134458286,83.03171373963693,6.243121369272628,-1.8163633393105205,6.644119924893526,0.5116498469837774
GUIDED_NOGPS,0.18860077857971191,807.2178598922247,317.5535639405455,62.417244138052915,-82.0703947527053,-6.136148655621635,300,0,30,1.7684193257685166,-0.7024668134458286,83.03171373963693,6.252480243215451,-1.7587404520734025,6.136148655621635,0.5116262961119039
GUIDED_NOGPS,0.1897573471069336,870.7294996886029,316.80240430019677,62.49010482587074,-81.93996123852635,-7.0764952407254595,300,0,30,1.7684193257685166,-0.7024668134458286,83.03171373963693,6.259843174916754,-1.683645155020178,7.0764952407254595,0.5116160064867779
GUIDED_NOGPS,0.1908400058746338,927.1229000884173,317.4976785822542,62.8831925440362,-82.24707319199318,-10.042420528492562,300,0,30,1.7684193257685166,-0.7024668134458286,83.03171373963693,6.299216099732438,-1.7531904342368758,10.042420528492562,0.5116490079559157
GUIDED_NOGPS,0.19220566749572754,738.954193093728,317.22115736205404,63.18845381456949,-82.40120057188071,-10.873499511843809,300,0,30,1.7684193257685166,-0.7024668134458286,83.03171373963693,6.329809854923635,-1.7255567433499872,10.873499511843809,0.5116668266663346
GUIDED_NOGPS,0.19365525245666504,695.919031027045,317.09252788807015,63.50876937667331,-82.45623608240616,-10.34552808793122,300,0,30,1.7684193257685166,-0.7024668134458286,83.03171373963693,6.361931579782173,-1.7127180636259425,10.34552808793122,0.5116755234856188
GUIDED_NOGPS,0.19533228874206543,614.1900717528189,316.45130799842184,63.75415475238359,-82.00210148496382,-7.431865298350137,300,0,30,1.7684193257685166,-0.7024668134458286,83.03171373963693,6.386596522008401,-1.648628692486933,7.431865298350137,0.511634551332351
GUIDED_NOGPS,0.19863295555114746,299.5931428571429,317.88756781324486,64.11693784447398,-81.20377102087728,-7.303233818547436,300,0,30,2.172511779921571,-0.8194170476744893,82.99829362402805,6.423015407427561,-1.7922938924125356,7.303233818547436,0.511559594565193
GUIDED_NOGPS,0.19993019104003906,775.717403366007,318.35932895260856,63.99115387694642,-79.64440562616134,-8.746447798464137,300,0,30,2.172511779921571,-0.8194170476744893,82.99829362402805,6.410581369380799,-1.839511423463772,8.746447798464137,0.5114086049984065
GUIDED_NOGPS,0.20251822471618652,387.50036954915004,319.4980093720181,63.78571219045485,-78.33292691174871,-7.907456132929165,300,0,30,2.172511779921571,-0.8194170476744893,82.99829362402805,6.3901208430754135,-1.9534050331870183,7.907456132929165,0.5112802982710406
GUIDED_NOGPS,0.2050483226776123,396.6620011348591,318.36387760660836,62.95297198377826,-77.30977257237912,-6.080357558854146,300,0,30,2.5801276511910003,-0.9188057983299893,83.0023849073409,6.307030084228528,-1.8400453155621312,6.080357558854146,0.5111842306070464
GUIDED_NOGPS,0.2084941864013672,290.96801942421087,318.1562478690109,62.131724161973274,-77.48917086113426,-3.3704669414254105,300,0,30,2.5801276511910003,-0.9188057983299893,83.0023849073409,6.225169424210326,-1.8193595240713623,3.3704669414254105,0.5112113091722484
GUIDED_NOGPS,0.21062922477722168,470.794028510495,317.15601015984606,60.85444800974088,-78.19109081365748,-2.082421779824704,300,0,30,2.5801276511910003,-0.9188057983299893,83.0023849073409,6.097540048281966,-1.719363448654489,2.082421779824704,0.5112849942947318
GUIDED_NOGPS,0.21321868896484375,387.50036954915004,316.84565453989785,59.98999415089573,-79.0166123926168,-1.8025878732109202,300,0,30,2.5801276511910003,-0.9188057983299893,83.0023849073409,6.011221642026986,-1.6883635435221667,1.8025878732109202,0.5113721615186069
GUIDED_NOGPS,0.21729087829589844,246.13015668094596,316.4456173621705,58.667201587157486,-80.51061988964749,-2.287468215056071,300,0,30,2.93408427568034,-1.0220422933657338,83.02856502242955,5.879232203562613,-1.6484410676412296,2.287468215056071,0.5115324807904015
GUIDED_NOGPS,0.22261548042297363,188.22042721234968,316.4810439233852,57.86289709564994,-81.63874544661415,-2.3486770944468227,300,0,30,2.93408427568034,-1.0220422933657338,83.02856502242955,5.79906741608287,-1.6520593919695905,2.3486770944468227,0.5116555445216021
GUIDED_NOGPS,0.22804903984069824,184.1788082378255,317.13682517783656,56.744374129313435,-83.61152594070171,-0.942982967606099,300,0,30,3.2239278354214735,-1.127037775556168,83.06842600642575,5.687554451646387,-1.7177399958829334,0.942982967606099,0.5118664105431447
GUIDED_NOGPS,0.2299056053161621,541.1306928138305,317.8206525464077,55.50590280643391,-85.94383757130477,0.5262675165860363,300,0,30,3.2239278354214735,-1.127037775556168,83.06842600642575,5.563803461741984,-1.7861536000879437,-0.5262675165860363,0.5121036582580809
GUIDED_NOGPS,0.2312333583831787,757.3680028891297,318.50447991497884,54.26743148355438,-88.27614920190786,1.9955180007781717,300,0,30,3.2239278354214735,-1.127037775556168,83.06842600642575,5.44005928001563,-1.8545714417316173,-1.9955180007781717,0.5123413770468317
GUIDED_NOGPS,0.2322697639465332,976.5550640279395,317.7011248852892,52.67296191534621,-90.1356393034644,1.253106920067798,300,0,30,3.2239278354214735,-1.127037775556168,83.06842600642575,5.280675428213816,-1.7742571456547946,-1.253106920067798,0.5125302046351138
GUIDED_NOGPS,0.23340940475463867,881.8973927670311,318.39685180736905,51.69226102745282,-91.0310344316923,-0.935312801171103,300,0,30,3.2239278354214735,-1.127037775556168,83.06842600642575,5.1826569170193295,-1.8438481939058378,0.935312801171103,0.512622159399092
GUIDED_NOGPS,0.2358555793762207,410.7230708969839,319.1435030649745,50.14071548414762,-91.68122458000856,-3.76760781094967,300,0,30,3.4332413304140417,-1.2482185649237112,83.09493397059457,5.027559493139845,-1.9185351318195174,3.76760781094967,0.5126899512914845
GUIDED_NOGPS,0.23888921737670898,330.49436608620283,322.5599529009756,48.87030343053478,-91.64445440236375,-8.802532547986084,300,0,30,3.4332413304140417,-1.2482185649237112,83.09493397059457,4.900730136957107,-2.260277911159671,8.802532547986084,0.5126968206693554
GUIDED_NOGPS,0.24094915390014648,487.4830311483031,325.42012388194286,47.17444296346928,-90.36626042626166,-12.668740415141096,300,0,30,3.4332413304140417,-1.2482185649237112,83.09493397059457,4.731214430637495,-2.5463329124352705,12.668740415141096,0.5125725907616472
GUIDED_NOGPS,0.24225163459777832,771.7210671573137,328.22937052738456,46.0494271518156,-89.33327143007124,-15.891072993756444,300,0,30,3.4332413304140417,-1.2482185649237112,83.09493397059457,4.618802647032026,-2.827312624973469,15.0,0.5124739459206135
GUIDED_NOGPS,0.24344205856323242,845.9669221460266,329.23564629945463,45.313494570627164,-88.61540935176748,-16.16601728644291,300,0,30,3.4332413304140417,-1.2482185649237112,83.09493397059457,4.545262801807707,-2.927974663448735,15.0,0.5124049560507873
GUIDED_NOGPS,0.24463987350463867,840.5418837675351,329.23564629945463,45.313494570627164,-88.61540935176748,-16.16601728644291,300,0,30,3.4332413304140417,-1.2482185649237112,83.09493397059457,4.54531805131066,-2.9280103096716066,15.0,0.5124078485411906
GUIDED_NOGPS,0.24637722969055176,577.8870212179664,327.50905111916,40.984525311722315,-85.45421090477873,-13.24718063183652,300,0,30,3.4332413304140417,-1.2482185649237112,83.09493397059457,4.112467236997911,-2.75538174200059,13.24718063183652,0.5120943266408527
GUIDED_NOGPS,0.25615859031677246,102.34752690271101,325.78245593886544,36.655556052817474,-82.29301245778997,-10.328343977230128,300,0,30,3.801570167020969,-1.4833338465579429,83.08476381892042,3.679631574060215,-2.5827653145568736,10.328343977230128,0.5117819603343683
GUIDED_NOGPS,0.25759267807006836,700.3346134580064,326.1303039739757,32.08731930714055,-78.70590141320666,-7.981754326431059,300,0,30,3.801570167020969,-1.4833338465579429,83.08476381892042,3.223127456542936,-2.6178103493070495,7.981754326431059,0.511444901233236
GUIDED_NOGPS,0.25897979736328125,725.9093111803393,328.15657446601955,31.37407310337225,-77.33815357370113,-8.078040941399616,300,0,30,3.801570167020969,-1.4833338465579429,83.08476381892042,3.1518467447166354,-2.8204768041177335,8.078040941399616,0.5113111308808264
GUIDED_NOGPS,0.26052427291870117,650.9861865590564,327.83584249810565,30.08086893757091,-74.84409653751825,-6.786168589226382,300,0,30,3.801570167020969,-1.4833338465579429,83.08476381892042,3.022570026145619,-2.7884440440205696,6.786168589226382,0.5110647712848826
GUIDED_NOGPS,0.26192593574523926,717.4656175162504,326.19241673870005,28.93717911393618,-72.81082098935671,-5.872014103515909,300,0,30,3.801570167020969,-1.4833338465579429,83.08476381892042,2.9082440669509375,-2.6241404103957744,5.872014103515909,0.5108645008679358
GUIDED_NOGPS,0.26346802711486816,651.4917676296986,325.30908704976594,28.522314528595334,-72.41417077350967,-6.595653236413213,300,0,30,3.801570167020969,-1.4833338465579429,83.08476381892042,2.8667968662583863,-2.535842276688258,6.595653236413213,0.5108276550840977
GUIDED_NOGPS,0.26613950729370117,375.93474948462847,326.77275982078976,28.68740790528754,-73.14382975433999,-8.707451336452309,300,0,30,3.9888654800069427,-1.5725623706579315,83.09144374392869,2.8833796339916344,-2.6822780830029807,8.707451336452309,0.5109059012487338
GUIDED_NOGPS,0.26929283142089844,318.06354743307804,327.48468316790036,28.94225442658521,-73.83861984474352,-9.869284566221324,300,0,30,3.9888654800069427,-1.5725623706579315,83.09144374392869,2.9089483947456705,-2.753550290513707,9.869284566221324,0.5109814155329344
GUIDED_NOGPS,0.27054262161254883,812.5346764819838,327.48468316790036,28.94225442658521,-73.83861984474352,-9.869284566221324,300,0,30,3.9888654800069427,-1.5725623706579315,83.09144374392869,2.909001734614864,-2.7536009441146114,9.869284566221324,0.5109852429738229
GUIDED_NOGPS,0.27283787727355957,442.99788762146176,327.48468316790036,28.94225442658521,-73.83861984474352,-9.869284566221324,300,0,30,3.9888654800069427,-1.5725623706579315,83.09144374392869,2.909045476067751,-2.753642482688497,9.869284566221324,0.5109883816734078
GUIDED_NOGPS,0.2759063243865967,322.6884136020926,327.48468316790036,28.94225442658521,-73.83861984474352,-9.869284566221324,300,0,30,4.133917780523681,-1.641512703442387,83.11748725523395,2.9091368921850957,-2.753729294965959,9.869284566221324,0.5109949413030184
GUIDED_NOGPS,0.27691006660461426,1006.5524358051356,327.48468316790036,28.94225442658521,-73.83861984474352,-9.869284566221324,300,0,30,4.133917780523681,-1.641512703442387,83.11748725523395,2.9091885552640933,-2.7537783562221003,9.869284566221324,0.5109986484246136
GUIDED_NOGPS,0.2786111831665039,589.58448130447,327.48468316790036,28.94225442658521,-73.83861984474352,-9.869284566221324,300,0,30,4.133917780523681,-1.641512703442387,83.11748725523395,2.9092390314792484,-2.753826290386475,9.869284566221324,0.5110022703819356
GUIDED_NOGPS,0.2810349464416504,413.7618624839696,327.48468316790036,28.94225442658521,-73.83861984474352,-9.869284566221324,300,0,30,4.133917780523681,-1.641512703442387,83.11748725523395,2.9092722084638645,-2.7538577965330657,9.869284566221324,0.5110046510204597
GUIDED_NOGPS,0.2824687957763672,700.8026733500418,327.48468316790036,28.94225442658521,-73.83861984474352,-9.869284566221324,300,0,30,4.133917780523681,-1.641512703442387,83.11748725523395,2.909348981993573,-2.753930703643501,9.869284566221324,0.5110101599606052
GUIDED_NOGPS,0.2836599349975586,844.434064827864,327.48468316790036,28.94225442658521,-73.83861984474352,-9.869284566221324,300,0,30,4.133917780523681,-1.641512703442387,83.11748725523395,2.909381951967054,-2.7539620132043185,9.869284566221324,0.5110125257448955
GUIDED_NOGPS,0.29650163650512695,77.92483046911286,327.48468316790036,28.94225442658521,-73.83861984474352,-9.869284566221324,300,0,30,4.256303244506085,-1.759350648819738,83.14732835171773,2.909752212083636,-2.754313626518333,9.869284566221324,0.5110390940273264
GUIDED_NOGPS,0.29780054092407227,776.435394298408,327.48468316790036,28.94225442658521,-73.83861984474352,-9.869284566221324,300,0,30,4.256303244506085,-1.759350648819738,83.14732835171773,2.909790543645521,-2.7543500276506774,9.869284566221324,0.5110418445362701
GUIDED_NOGPS,0.29935383796691895,676.2824895195098,327.48468316790036,28.94225442658521,-73.83861984474352,-9.869284566221324,300,0,30,4.256303244506085,-1.759350648819738,83.14732835171773,2.909832256389282,-2.754389639683985,9.869284566221324,0.5110448376643646
GUIDED_NOGPS,0.30878567695617676,105.5861443963347,327.48468316790036,28.94225442658521,-73.83861984474352,-9.869284566221324,300,0,30,4.241010024067603,-1.8208086909715127,83.18044793900313,2.910104993560029,-2.7546486414402267,9.869284566221324,0.51106440811729
GUIDED_NOGPS,0.31079673767089844,496.89657623504326,327.48468316790036,28.94225442658521,-73.83861984474352,-9.869284566221324,300,0,30,4.241010024067603,-1.8208086909715127,83.18044793900313,2.910150846526496,-2.7546921851889987,9.869284566221324,0.5110676983300589
GUIDED_NOGPS,0.3145170211791992,269.08988259446977,327.48468316790036,28.94225442658521,-73.83861984474352,-9.869284566221324,300,0,30,4.241010024067603,-1.8208086909715127,83.18044793900313,2.9102116939995293,-2.754749968300613,9.869284566221324,0.5110720644844903
GUIDED_NOGPS,0.31589508056640625,727.7987159465556,328.2673555762389,30.089501398259745,-73.88325282686064,-6.850539084754284,300,0,30,4.241010024067603,-1.8208086909715127,83.18044793900313,3.025045097215635,-2.833119332213541,6.850539084754284,0.5110840338811159
GUIDED_NOGPS,0.3170456886291504,873.8133333333334,326.0624170596402,30.946889665949797,-72.50930497042037,-4.174155120932714,300,0,30,4.241010024067603,-1.8208086909715127,83.18044793900313,3.110814905522866,-2.6126515721505683,4.174155120932714,0.5109486915769875
GUIDED_NOGPS,0.3186216354370117,637.7229740003041,324.7852599458972,31.97215762479635,-71.53254671597143,-2.6108399143388303,300,0,30,4.241010024067603,-1.8208086909715127,83.18044793900313,3.2133781610513426,-2.4849641247977425,2.6108399143388303,0.5108533314166491
GUIDED_NOGPS,0.3212854862213135,378.9577159378388,322.7254304238157,31.850178611968364,-70.51115547940539,-4.066270189211987,300,0,30,4.241010024067603,-1.8208086909715127,83.18044793900313,3.2012556877356526,-2.279034991220856,4.066270189211987,0.5107559529269732
GUIDED_NOGPS,0.3231806755065918,528.3829680020157,323.65321182667134,32.01805830312486,-70.90834508139672,-5.179338946439671,300,0,30,4.241010024067603,-1.8208086909715127,83.18044793900313,3.218110100575808,-2.37186221654073,5.179338946439671,0.5107998599776664
GUIDED_NOGPS,0.33018064498901367,143.09658489986694,323.6532118266713,32.01805830312486,-70.90834508139672,-5.179338946439671,300,0,30,4.241010024067603,-1.8208086909715127,83.18044793900313,3.2183147906067022,-2.372013430477988,5.179338946439671,0.5108127620294253
GUIDED_NOGPS,0.35190367698669434,46.04773510748084,323.6532118266713,32.01805830312486,-70.90834508139672,-5.179338946439671,300,0,30,3.7398995352312774,-2.0374479907357426,83.39966286041468,3.2190478700818583,-2.3725549899925436,5.179338946439671,0.5108589696013841
GUIDED_NOGPS,0.3534719944000244,640.8409472880061,323.6532118266713,32.01805830312486,-70.90834508139672,-5.179338946439671,300,0,30,3.7398995352312774,-2.0374479907357426,83.39966286041468,3.2190905806331696,-2.3725865422405854,5.179338946439671,0.5108616617390581
GUIDED_NOGPS,0.3555450439453125,483.7162956983047,323.6532118266713,32.01805830312486,-70.90834508139672,-5.179338946439671,300,0,30,3.5278191732946196,-2.070536415283046,83.42373927723898,3.2191384668330576,-2.372621917978202,5.179338946439671,0.5108646801089649
GUIDED_NOGPS,0.358234167098999,373.2583429741034,319.94502781676476,32.37399579854772,-81.65976149645265,-3.5193800847106664,300,0,30,3.5278191732946196,-2.070536415283046,83.42373927723898,3.254822932635448,-2.001859405619354,3.5193800847106664,0.5119460794617707
GUIDED_NOGPS,0.3607783317565918,394.4239232649991,316.95786000671217,32.80092909749121,-93.05419126650311,-4.725941562056225,300,0,30,3.5278191732946196,-2.070536415283046,83.42373927723898,3.297589734726584,-1.7031806092462918,4.725941562056225,0.5130910351251569
GUIDED_NOGPS,0.3662881851196289,181.7131964301187,314.9751104171474,33.33203812149683,-104.3163787442325,-4.018044036783787,300,0,30,3.5278191732946196,-2.070536415283046,83.42373927723898,3.350916071731179,-1.5050024387601535,4.018044036783787,0.5142346163850957
GUIDED_NOGPS,0.36817216873168945,533.2194253750317,316.7005448374892,33.507209650079595,-104.82714980690594,-4.9701053732403535,300,0,30,3.5278191732946196,-2.070536415283046,83.42373927723898,3.3684743586184833,-1.6775663826714906,4.9701053732403535,0.5142890038140977
GUIDED_NOGPS,0.37067723274230957,400.29623974040845,317.70496305797707,33.611385375141715,-104.69490751458484,-3.0556463706223553,300,0,30,3.5278191732946196,-2.070536415283046,83.42373927723898,3.3789528663774555,-1.7780403026652754,3.0556463706223553,0.5142806634467733
GUIDED_NOGPS,0.3728921413421631,454.4208017334778,317.70496305797707,33.611385375141715,-104.69490751458484,-3.0556463706223553,300,0,30,3.5278191732946196,-2.070536415283046,83.42373927723898,3.3790510327170544,-1.7780920122689332,3.0556463706223553,0.5142885313200465
GUIDED_NOGPS,0.376145601272583,307.5228389178092,317.70496305797707,33.611385375141715,-104.69490751458484,-3.0556463706223553,300,0,30,3.311147003245009,-2.1093224982586096,83.45012429800273,3.3791598250620667,-1.7781493191733624,3.0556463706223553,0.5142972508504592
GUIDED_NOGPS,0.3845407962799072,119.2512225634027,317.70496305797707,33.611385375141715,-104.69490751458484,-3.0556463706223553,300,0,30,3.311147003245009,-2.1093224982586096,83.45012429800273,3.379228918137987,-1.7781857142919533,3.0556463706223553,0.5143027885486927
GUIDED_NOGPS,0.3918483257293701,136.98817688941145,317.70496305797707,33.611385375141715,-104.69490751458484,-3.0556463706223553,300,0,30,2.996055649236923,-2.0871896971400066,83.58758185504925,3.3797066316075797,-1.7784373522187165,3.0556463706223553,0.514341076510279
GUIDED_NOGPS,0.393801212310791,514.0708420149529,318.92007439662854,33.04308814216826,-92.58591510450613,-3.4680206160352043,300,0,30,2.996055649236923,-2.0871896971400066,83.58758185504925,3.322926351178748,-1.8999767964750305,3.4680206160352043,0.5131338458121484
GUIDED_NOGPS,0.39507460594177246,788.5512314344802,320.2584922738716,32.4345315164173,-79.66635344820365,-3.7574268670335536,300,0,30,2.996055649236923,-2.0871896971400066,83.58758185504925,3.262134284753858,-2.0338583061270876,3.7574268670335536,0.5118461902222072
GUIDED_NOGPS,0.39739274978637695,433.07217346411977,321.9710186258664,31.897128350511398,-66.96065773086359,-3.257710646855301,300,0,30,2.996055649236923,-2.0871896971400066,83.58758185504925,3.208426539812992,-2.205133376961368,3.257710646855301,0.5105776008717308
GUIDED_NOGPS,0.40233802795410156,202.65275160651302,322.46843363920965,31.92802241757894,-66.36395442360224,-2.3456201812642,300,0,30,2.782729418106973,-2.098542752201037,83.67056182327573,3.211599224356843,-2.2549334826944225,2.3456201812642,0.510522957461616
GUIDED_NOGPS,0.4051697254180908,354.6080486980047,322.84254211396143,31.999175877423983,-66.57782036256465,-1.5564977100875979,300,0,30,2.782729418106973,-2.098542752201037,83.67056182327573,3.21888143616099,-2.292463446972082,1.5564977100875979,0.5105544165256383
GUIDED_NOGPS,0.4099912643432617,208.07143565829944,322.84254211396143,31.999175877423983,-66.57782036256467,-1.5564977100875979,300,0,30,2.782729418106973,-2.098542752201037,83.67056182327573,3.2190444797524123,-2.292579835285261,1.5564977100875979,0.5105642582757782
GUIDED_NOGPS,0.416276216506958,159.3338398419693,322.84254211396143,31.999175877423983,-66.57782036256467,-1.5564977100875979,300,0,30,2.538678007882543,-2.1192715225583796,83.75637632000777,3.2191961405803515,-2.29268809803748,1.5564977100875979,0.5105734129316687
GUIDED_NOGPS,0.4194672107696533,313.9684108091923,322.84254211396143,31.999175877423983,-66.57782036256467,-1.5564977100875979,300,0,30,2.3056712269894355,-2.121030296269658,83.83391262746575,3.219350296156051,-2.2927981416599628,1.5564977100875979,0.5105827181772505
GUIDED_NOGPS,0.4214589595794678,504.06249248888355,322.84254211396143,31.999175877423983,-66.57782036256467,-1.5564977100875979,300,0,30,2.3056712269894355,-2.121030296269658,83.83391262746575,3.2194384896854524,-2.2928610984191384,1.5564977100875979,0.5105880417761284
GUIDED_NOGPS,0.4226365089416504,854.9335507541786,320.582875221213,31.921076665640104,-77.57909974345479,-5.153676993188611,300,0,30,2.3056712269894355,-2.121030296269658,83.83391262746575,3.21166788475168,-2.066919760462032,5.153676993188611,0.5116908197540299
GUIDED_NOGPS,0.42392492294311523,780.3356279069767,316.312759416566,31.672464210427083,-88.58411571416734,-4.587919376198694,300,0,30,2.3056712269894355,-2.121030296269658,83.83391262746575,3.1868403633536566,-1.6399255494544713,4.587919376198694,0.5127938466647683
GUIDED_NOGPS,0.4253418445587158,709.9363574813812,312.042643611919,31.423851755214063,-99.58913168487989,-4.0221617592087755,300,0,30,2.3056712269894355,-2.121030296269658,83.83391262746575,3.1620295017346782,-1.2129332777423782,4.0221617592087755,0.513898503835258
GUIDED_NOGPS,0.428389310836792,328.57845671758713,311.2562334761977,31.22509744857793,-99.64939157180602,-1.4007276542423124,300,0,30,2.122262718528022,-2.086722682955507,83.90780844409612,3.1422099803427437,-1.1343124187211333,1.4007276542423124,0.5139091726296734
GUIDED_NOGPS,0.4301486015319824,569.9557005027857,312.48027225237485,31.19685638537094,-99.70591486890974,-2.94223044936678,300,0,30,2.122262718528022,-2.086722682955507,83.90780844409612,3.1394662555172714,-1.2567484528783455,2.94223044936678,0.5139215089375694
GUIDED_NOGPS,0.43114185333251953,1011.1629701060752,313.704311028552,31.168615322163948,-99.76243816601345,-4.483733244491248,300,0,30,2.122262718528022,-2.086722682955507,83.90780844409612,3.1366914996428816,-1.3791740290495147,4.483733244491248,0.5139312704227051
GUIDED_NOGPS,0.4324483871459961,770.4452608376193,313.704311028552,31.168615322163948,-99.76243816601345,-4.483733244491248,300,0,30,2.122262718528022,-2.086722682955507,83.90780844409612,3.1367256979193328,-1.3791890654511092,4.483733244491248,0.5139341179356199
GUIDED_NOGPS,0.4336276054382324,853.7154488092815,313.704311028552,31.168615322163948,-99.76243816601345,-4.483733244491248,300,0,30,2.122262718528022,-2.086722682955507,83.90780844409612,3.1367663761821087,-1.3792069509926843,4.483733244491248,0.5139375050033504
GUIDED_NOGPS,0.4344980716705322,1151.9648448228509,313.704311028552,31.168615322163948,-99.76243816601345,-4.483733244491248,300,0,30,2.122262718528022,-2.086722682955507,83.90780844409612,3.136795885385887,-1.3792199256886277,4.483733244491248,0.5139399620815306
GUIDED_NOGPS,0.43538498878479004,1136.3597940937416,315.3832325734024,30.141472610460113,-89.24090075927268,-4.035095615908598,300,0,30,2.122262718528022,-2.086722682955507,83.90780844409612,3.0341069602500057,-1.5471250159697552,4.035095615908598,0.5128898137398785
GUIDED_NOGPS,0.43619680404663086,1238.719432959244,317.8572089052753,29.04304319805489,-78.2273655635296,-3.4394836569994944,300,0,30,2.122262718528022,-2.086722682955507,83.90780844409612,2.924289902420765,-1.7945385636560633,3.4394836569994944,0.5117903892835886
GUIDED_NOGPS,0.43725156784057617,957.1665905979005,320.2654742233769,27.80300656557449,-67.43628738343227,-1.4282597803366837,300,0,30,2.122262718528022,-2.086722682955507,83.90780844409612,2.8003079085673286,-2.035380890180969,1.4282597803366837,0.5107128002835922
GUIDED_NOGPS,0.43976831436157227,398.2060191778221,320.9948179966281,27.590112644797923,-67.16674661007572,0.13432646774347745,300,0,30,2.0152895764077514,-2.030411188343337,83.97884241146426,2.7790512946410195,-2.1083402101850384,-0.13432646774347745,0.5106881549654613
GUIDED_NOGPS,0.44185471534729004,482.4921200966295,320.9291069828567,27.448505424722743,-67.38920362572145,1.5499383854971853,300,0,30,2.0152895764077514,-2.030411188343337,83.97884241146426,2.764981845060383,-2.1018387027751175,-1.5499383854971853,0.5107168774852201
GUIDED_NOGPS,0.44447875022888184,382.48258252781324,320.9291069828567,27.448505424722743,-67.38920362572145,1.5499383854971853,300,0,30,2.0152895764077514,-2.030411188343337,83.97884241146426,2.7650337866429573,-2.1018783075157663,-1.5499383854971853,0.5107205633320694
GUIDED_NOGPS,0.44845128059387207,252.06153846153848,320.9291069828567,27.448505424722743,-67.38920362572145,1.5499383854971853,300,0,30,1.9363769858320092,-1.9863385389501833,84.03637992503245,2.7651167806142563,-2.101941589274732,-1.5499383854971853,0.5107264526995563
GUIDED_NOGPS,0.45151543617248535,327.2453772333619,320.9291069828567,27.448505424722743,-67.38920362572145,1.5499383854971853,300,0,30,1.9363769858320092,-1.9863385389501833,84.03637992503245,2.765226992053355,-2.1020256239776764,-1.5499383854971853,0.5107342734563648
GUIDED_NOGPS,0.453385591506958,536.7678525723061,320.9291069828567,27.448505424722743,-67.38920362572145,1.5499383854971853,300,0,30,1.9363769858320092,-1.9863385389501833,84.03637992503245,2.765288416230505,-2.102072459065963,-1.5499383854971853,0.5107386322012971
GUIDED_NOGPS,0.45828771591186523,204.73002391760627,318.86957491375097,26.833586214541295,-78.58132215541252,2.7344958859455537,300,0,30,1.8459608625900845,-1.9413158529321632,84.0930363441977,2.7039303847187712,-1.8962134042396919,-2.7344958859455537,0.5118686796537367
GUIDED_NOGPS,0.4607219696044922,412.41927236971486,316.81004284464524,26.218667004359844,-89.7734406851036,3.9190533863939216,300,0,30,1.8459608625900845,-1.9413158529321632,84.0930363441977,2.642488903159487,-1.6902925364813868,-3.9190533863939216,0.5129924999084473
GUIDED_NOGPS,0.4622077941894531,676.1734644526841,314.2596995758468,25.3740227068426,-101.582187818014,3.6733848889346583,300,0,30,1.8459608625900845,-1.9413158529321632,84.0930363441977,2.5580810314775366,-1.4352899941196273,-3.6733848889346583,0.5141792404906592
GUIDED_NOGPS,0.46567344665527344,289.0829140533462,315.4762781130869,25.100379211412875,-102.57731282524351,1.384851923168526,300,0,30,1.762280479808556,-1.8743554530737085,84.16600325510095,2.5307528396597068,-1.5569701418100144,-1.384851923168526,0.5142825726101989
GUIDED_NOGPS,0.4667811393737793,909.8273318872017,316.9277831510987,24.552767923514295,-102.58148662431624,-1.8881239956593845,300,0,30,1.762280479808556,-1.8743554530737085,84.16600325510095,2.47607460704203,-1.7021777979628623,1.8881239956593845,0.5142919425430547
GUIDED_NOGPS,0.46810150146484375,761.6313782458689,318.8700993888031,24.23488172295151,-101.96903182016962,-3.730873916579663,300,0,30,1.762280479808556,-1.8743554530737085,84.16600325510095,2.4443167030786337,-1.896433338323123,3.730873916579663,0.5142340423011975
GUIDED_NOGPS,0.46935009956359863,804.5854594283522,319.10502588957485,23.96091393048265,-100.97808061201282,-4.715316869641441,300,0,30,1.762280479808556,-1.8743554530737085,84.16600325510095,2.416948304659748,-1.919948617606148,4.715316869641441,0.5141380499555002
GUIDED_NOGPS,0.47066450119018555,766.2228717573986,319.10502588957485,23.96091393048265,-100.97808061201279,-4.715316869641441,300,0,30,1.762280479808556,-1.8743554530737085,84.16600325510095,2.4169797589349034,-1.9199736973983015,4.715316869641441,0.5141414887396791
GUIDED_NOGPS,0.47284579277038574,462.4880361671629,319.10502588957485,23.96091393048265,-100.97808061201279,-4.715316869641441,300,0,30,1.762280479808556,-1.8743554530737085,84.16600325510095,2.4170091509155927,-1.9199971328379362,4.715316869641441,0.5141447020605292
GUIDED_NOGPS,0.4752049446105957,424.05257304620363,319.10502588957485,23.96091393048265,-100.97808061201279,-4.715316869641441,300,0,30,1.702839798061168,-1.804363516440826,84.25530797849886,2.417089254774334,-1.920061002951553,4.715316869641441,0.5141534595308811
GUIDED_NOGPS,0.4766535758972168,694.3062406886277,321.49721140039316,22.629158392751922,-92.61296685654763,-4.179679614780658,300,0,30,1.702839798061168,-1.804363516440826,84.25530797849886,2.283946007529461,-2.159310244536949,4.179679614780658,0.5133204491244848
GUIDED_NOGPS,0.47912025451660156,406.81901066925315,322.39286266361245,20.976639740194702,-83.3084757476925,-3.3287368082348934,300,0,30,1.702839798061168,-1.804363516440826,84.25530797849886,2.11874087367941,-2.2489252573021905,3.3287368082348934,0.5123950485479802
GUIDED_NOGPS,0.4860496520996094,144.46180340290692,322.18590313297756,19.045028408324853,-73.96671666181166,-0.155639601853674,300,0,30,1.702839798061168,-1.804363516440826,84.25530797849886,1.9257133774989668,-2.2283849804403086,0.155639601853674,0.5114754631146561
GUIDED_NOGPS,0.48924732208251953,313.52249962625206,319.59487826063696,18.2416375863436,-74.08301697850506,3.462034997072488,300,0,30,1.699676566701806,-1.7159555755365907,84.3578427783191,1.845396502036814,-1.969306347330413,-3.462034997072488,0.5114896272873161
GUIDED_NOGPS,0.49372410774230957,223.9111680546658,318.5003876358954,17.759009879188834,-75.1386946485884,6.764404044313669,300,0,30,1.699676566701806,-1.7159555755365907,84.3578427783191,1.7971919879991862,-1.8599179735506086,-6.764404044313669,0.511602092996389
GUIDED_NOGPS,0.5084130764007568,68.11035871453858,318.508507805008,17.555474851346705,-76.23164029569745,7.7446186917193955,300,0,30,1.7299401744187803,-1.5427515831385878,84.56013932115653,1.7771462822915842,-1.8610544968989235,-7.7446186917193955,0.5117486383772738
GUIDED_NOGPS,0.5098576545715332,694.6512090096059,318.508507805008,17.555474851346705,-76.23164029569745,7.7446186917193955,300,0,30,1.7299401744187803,-1.5427515831385878,84.56013932115653,1.77717686192989,-1.861086736612121,-7.7446186917193955,0.5117523392457087
GUIDED_NOGPS,0.5108544826507568,1007.7616530514176,318.508507805008,17.555474851346705,-76.23164029569745,7.7446186917193955,300,0,30,1.7299401744187803,-1.5427515831385878,84.56013932115653,1.7771995476183127,-1.8611106538370774,-7.7446186917193955,0.5117550847571948
GUIDED_NOGPS,0.511894941329956,967.0979940050727,318.508507805008,17.555474851346705,-76.23164029569745,7.7446186917193955,300,0,30,1.7299401744187803,-1.5427515831385878,84.56013932115653,1.7772155699089551,-1.8611275459287995,-7.7446186917193955,0.5117570238380008
GUIDED_NOGPS,0.5128169059753418,1090.2791785807121,317.7853629713721,16.617798766420517,-86.28458599510789,7.299858445912818,300,0,30,1.7299401744187803,-1.5427515831385878,84.56013932115653,1.683465382295027,-1.7888317074323876,-7.299858445912818,0.5127647564921848
GUIDED_NOGPS,0.5147829055786133,510.56652465003043,317.0622181377361,15.680122681494332,-96.33753169451835,6.855098200106241,300,0,30,1.70177140706459,-1.5234704927201708,84.64042136466087,1.5897160136149169,-1.7165370715958892,-6.855098200106241,0.5137729902902654
GUIDED_NOGPS,0.5166268348693848,544.2200596859998,316.3390733041002,14.742446596568145,-106.39047739392879,6.4103379542996635,300,0,30,1.70177140706459,-1.5234704927201708,84.64042136466087,1.4959745628084296,-1.6442515788308658,-6.4103379542996635,0.5147831248428723
GUIDED_NOGPS,0.5191421508789062,398.6223151492112,316.3390733041003,14.742446596568145,-106.39047739392879,6.4103379542996635,300,0,30,1.70177140706459,-1.5234704927201708,84.64042136466087,1.4960025763475948,-1.6442826262738401,-6.4103379542996635,0.5147883082158697
GUIDED_NOGPS,0.520550012588501,713.317006802721,316.3390733041003,14.742446596568145,-106.39047739392879,6.4103379542996635,300,0,30,1.70177140706459,-1.5234704927201708,84.64042136466087,1.4960399078155338,-1.6443240007897462,-6.4103379542996635,0.5147952156944903
GUIDED_NOGPS,0.5217828750610352,817.603118908382,316.3390733041003,14.742446596568145,-106.39047739392879,6.4103379542996635,300,0,30,1.70177140706459,-1.5234704927201708,84.64042136466087,1.4960597738786907,-1.644346018374145,-6.4103379542996635,0.5147988915319033
GUIDED_NOGPS,0.5238552093505859,485.22720962517354,316.3390733041003,14.742446596568145,-106.39047739392879,6.4103379542996635,300,0,30,1.70177140706459,-1.5234704927201708,84.64042136466087,1.496078490578321,-1.6443667621174083,-6.4103379542996635,0.5148023547014404
GUIDED_NOGPS,0.5265293121337891,375.1613595706619,316.3390733041003,14.742446596568145,-106.39047739392879,6.4103379542996635,300,0,30,1.6806215128562338,-1.513982826354494,84.71889340803514,1.4961259765148482,-1.6444193908444482,-6.4103379542996635,0.5148111410714774
GUIDED_NOGPS,0.5292799472808838,364.8172566756545,316.3390733041003,14.742446596568145,-106.39047739392879,6.4103379542996635,300,0,30,1.6806215128562338,-1.513982826354494,84.71889340803514,1.4961473188247367,-1.6444430445550764,-6.4103379542996635,0.5148150900602906
GUIDED_NOGPS,0.5318567752838135,389.1903127029786,320.62451108495776,12.135348599082539,-98.16818391930184,2.624124467273049,300,0,30,1.6806215128562338,-1.513982826354494,84.71889340803514,1.2354877495284822,-2.073072191306745,-2.624124467273049,0.5140034709491914
GUIDED_NOGPS,0.5330541133880615,840.3734722500501,323.3302707815176,9.214035404505454,-88.89770447046703,0.4327987933655777,300,0,30,1.6806215128562338,-1.513982826354494,84.71889340803514,0.9433673854985543,-2.343675900501966,-0.4327987933655777,0.5130792503761541
GUIDED_NOGPS,0.5349371433258057,533.3550356052899,325.4078920107424,5.941269544416315,-79.60859461619816,-0.0754715121130829,300,0,30,1.6806215128562338,-1.513982826354494,84.71889340803514,0.6160984415559265,-2.5514707047888394,0.0754715121130829,0.5121531591117963
GUIDED_NOGPS,0.5389678478240967,248.80199311899395,322.1843020692975,4.878476625158359,-79.16148691248583,-3.222204656851327,300,0,30,1.678821010957995,-1.4740145870439894,84.80965296172627,0.5098357973590355,-2.229187414245116,3.222204656851327,0.5121158985804262
GUIDED_NOGPS,0.5420701503753662,323.21060337520225,320.54039021215027,4.129898902991878,-79.76256518298135,-7.963825614708715,300,0,30,1.678821010957995,-1.4740145870439894,84.80965296172627,0.4349945691414318,-2.0648785114637134,7.963825614708715,0.5121848003843559
GUIDED_NOGPS,0.5439393520355225,537.5245418428809,319.52461682233815,3.732773846337453,-80.38227385891093,-14.388501940994914,300,0,30,1.678821010957995,-1.4740145870439894,84.80965296172627,0.3952881899787794,-1.9633332177186607,14.388501940994914,0.5122503946019646
GUIDED_NOGPS,0.5527122020721436,114.06864291542018,319.52461682233815,3.732773846337453,-80.38227385891093,-14.388501940994914,300,0,30,1.678821010957995,-1.4740145870439894,84.80965296172627,0.3953232153483035,-1.9635164211344502,14.388501940994914,0.5122711093845365
GUIDED_NOGPS,0.559239387512207,153.36785139681146,319.52461682233815,3.732773846337453,-80.38227385891093,-14.388501940994914,300,0,30,1.6834492111726191,-1.3769788365575586,84.98639776687868,0.3953457901405423,-1.96363450066095,14.388501940994914,0.5122844606187755
GUIDED_NOGPS,0.5603854656219482,876.7357859531772,319.52461682233815,3.732773846337453,-80.38227385891093,-14.388501940994914,300,0,30,1.6834492111726191,-1.3769788365575586,84.98639776687868,0.3953521070953365,-1.963667542073829,14.388501940994914,0.5122881966063427
GUIDED_NOGPS,0.5617971420288086,712.5898742779477,318.5913320621832,2.497982143808508,-89.38818430181841,-7.3589672198640415,300,0,30,1.6834492111726191,-1.3769788365575586,84.98639776687868,0.271875395931786,-1.8703573679291774,7.3589672198640415,0.5131911382375866
GUIDED_NOGPS,0.5642573833465576,407.7285894818703,317.65804730202825,1.2631904412795634,-98.3940947447259,-0.32943249873316915,300,0,30,1.6834492111726191,-1.3769788365575586,84.98639776687868,0.14839803479548885,-1.7770541814230132,0.32943249873316915,0.5140954069520087
GUIDED_NOGPS,0.5691564083099365,204.63014099624334,316.7247625418733,0.028398738750618897,-107.40000518763338,6.700102222397703,300,0,30,1.6834492111726191,-1.3769788365575586,84.98639776687868,0.02491899782553535,-1.6838041992292911,-6.700102222397703,0.5150088951020033
GUIDED_NOGPS,0.5739367008209229,216.2792760274326,317.1785189443323,-1.0252784929221377,-107.00936029635544,5.132093739391332,300,0,30,1.6834492111726191,-1.3769788365575586,84.98639776687868,-0.08045387140717405,-1.7292660616900868,-5.132093739391332,0.514983584127418
GUIDED_NOGPS,0.596045970916748,45.03128556397758,317.63227534679146,-2.0789557245948944,-106.61871540507748,3.564085256384961,300,0,30,1.6834492111726191,-1.3769788365575586,84.98639776687868,-0.18585499473607411,-1.7749249791791955,-3.564085256384961,0.5149884175156856
GUIDED_NOGPS,0.5972733497619629,817.9219968798752,318.0860317492505,-3.132632956267651,-106.22807051379954,1.99607677337859,300,0,30,1.6834492111726191,-1.3769788365575586,84.98639776687868,-0.29124974592073277,-1.8204566637454287,-1.99607677337859,0.5149728602469013
GUIDED_NOGPS,0.598705530166626,702.2106144316089,318.0860317492504,-3.132632956267651,-106.22807051379954,1.99607677337859,300,0,30,1.6834492111726191,-1.3769788365575586,84.98639776687868,-0.29125305907108956,-1.82047579198144,-1.99607677337859,0.5149757418106639
GUIDED_NOGPS,0.6000850200653076,729.3173361154581,318.0860317492504,-3.132632956267651,-106.22807051379954,1.99607677337859,300,0,30,1.6834492111726191,-1.3769788365575586,84.98639776687868,-0.29125778755506354,-1.8205030915446108,-1.99607677337859,0.5149798543400105
GUIDED_NOGPS,0.6019165515899658,548.3467119884953,318.0860317492504,-3.132632956267651,-106.22807051379954,1.99607677337859,300,0,30,1.6834492111726191,-1.3769788365575586,84.98639776687868,-0.29126221131285507,-1.820528631793017,-1.99607677337859,0.5149837018382445
GUIDED_NOGPS,0.6165473461151123,68.39245356857502,319.86722010298996,-5.141209225786401,-97.65596735891347,1.4155459138150708,300,0,30,1.6399050476664954,-1.2721769475414118,85.20859065076837,-0.4921376571349205,-1.9987163247840238,-1.4155459138150708,0.5141353403558281
GUIDED_NOGPS,0.6219823360443115,184.18689618830143,322.4781277971219,-7.620631509638415,-88.43694648341541,0.8424543115884878,300,0,30,1.5999522830033288,-1.2716307458512224,85.30978673351127,-0.74020388713753,-2.260172854462573,-0.8424543115884878,0.5132519819845208
GUIDED_NOGPS,0.6238906383514404,526.7902537050992,323.1068893972345,-10.366162194361575,-78.69812242736738,2.7486517502051035,300,0,30,1.5999522830033288,-1.2716307458512224,85.30978673351127,-1.014779760008041,-2.323099847047838,-2.7486517502051035,0.5122828820533176
GUIDED_NOGPS,0.6259598731994629,484.33071593533487,321.60139442604935,-11.456729800657882,-78.12867407708818,0.8529863932705553,300,0,30,1.5999522830033288,-1.2716307458512224,85.30978673351127,-1.1238582333092344,-2.1725912886605854,-0.8529863932705553,0.5122300357043805
GUIDED_NOGPS,0.6274712085723877,665.1290834126229,319.2661801144719,-12.07645139262093,-78.20614344742096,-1.050118221000929,300,0,30,1.5999522830033288,-1.2716307458512224,85.30978673351127,-1.1858581196867142,-1.9391140920920618,1.050118221000929,0.5122427514045812
GUIDED_NOGPS,0.6322119235992432,211.2893053246688,318.91311189691373,-12.430064583712833,-78.80341599830369,-5.432511876115612,300,0,30,1.5999522830033288,-1.2716307458512224,85.30978673351127,-1.2212477348508985,-1.9038503245336478,5.432511876115612,0.5123074323064054
GUIDED_NOGPS,0.6349496841430664,366.28277006374987,318.91311189691373,-12.430064583712833,-78.8034159983037,-5.432511876115612,300,0,30,1.5489581973817195,-1.2771214708919723,85.42296296805839,-1.221296064560245,-1.903923861174963,5.432511876115612,0.5123158931433314
GUIDED_NOGPS,0.6374812126159668,398.3951367781155,318.91311189691373,-12.430064583712833,-78.8034159983037,-5.432511876115612,300,0,30,1.5489581973817195,-1.2771214708919723,85.42296296805839,-1.2213332838893893,-1.9039804926857722,5.432511876115612,0.5123224089423842
GUIDED_NOGPS,0.6411600112915039,272.42816315926217,315.11678001612887,-13.652628694920578,-84.76608409994277,-6.609353349414955,300,0,30,1.5489581973817195,-1.2771214708919723,85.42296296805839,-1.3436508800033302,-1.5244150512737087,6.609353349414955,0.5129289623606854
GUIDED_NOGPS,0.6429471969604492,563.2962664517862,312.3305139983773,-15.21744318472224,-92.42246697005402,-1.0489473547610164,300,0,30,1.5489581973817195,-1.2771214708919723,85.42296296805839,-1.5001504187957082,-1.2458031074591547,1.0489473547610164,0.5136975112541776
GUIDED_NOGPS,0.6533811092376709,95.88514733785978,309.45096971958066,-17.15979346628679,-100.60544264917202,3.416526386167495,300,0,30,0.8852548952706818,-1.4601811060971863,85.76317469061672,-1.694555130035224,-0.9579421346483468,-3.416526386167495,0.5145416384268766
GUIDED_NOGPS,0.6562831401824951,346.35045417010735,311.49585573014207,-18.330932022649804,-102.97885555825746,7.642106099012456,300,0,30,0.8852548952706818,-1.4601811060971863,85.76317469061672,-1.811721151180898,-1.1624634501987152,-7.642106099012456,0.5147865482470093
GUIDED_NOGPS,0.6659946441650391,102.99847748145966,312.5306758776702,-19.159820200418903,-103.65855369887072,5.130438343904136,300,0,30,0.7630961081913574,-1.4597516579531218,85.83564982789973,-1.894820862450314,-1.2660833909848457,-5.130438343904136,0.514883941843651
GUIDED_NOGPS,0.6721391677856445,163.0058684077572,313.65877428624344,-19.611172586425116,-103.8116590304772,3.7137028425212435,300,0,30,0.7630961081913574,-1.4597516579531218,85.83564982789973,-1.939978614391886,-1.3789089119164293,-3.7137028425212435,0.5149023246535863
GUIDED_NOGPS,0.6749022006988525,363.3004763967085,313.65877428624344,-19.611172586425116,-103.8116590304772,3.7137028425212435,300,0,30,0.7630961081913574,-1.4597516579531218,85.83564982789973,-1.9401097902548925,-1.3790002731798476,-3.7137028425212435,0.5149202255310339
GUIDED_NOGPS,0.67624831199646,748.0477973961121,313.65877428624344,-19.611172586425116,-103.8116590304772,3.7137028425212435,300,0,30,0.7630961081913574,-1.4597516579531218,85.83564982789973,-1.9401566217446047,-1.3790328903395124,-3.7137028425212435,0.514926616377176
GUIDED_NOGPS,0.6781997680664062,515.9680157460942,313.65877428624344,-19.611172586425116,-103.8116590304772,3.7137028425212435,300,0,30,0.7630961081913574,-1.4597516579531218,85.83564982789973,-1.9401784337353702,-1.3790480819379385,-3.7137028425212435,0.5149295929443937
GUIDED_NOGPS,0.6922082901000977,71.41185684611979,313.65877428624344,-19.611172586425116,-103.8116590304772,3.7137028425212435,300,0,30,0.7630961081913574,-1.4597516579531218,85.83564982789973,-1.9402182096422174,-1.3790757850307171,-3.7137028425212435,0.514935020952394
GUIDED_NOGPS,0.6948721408843994,376.40707170420893,317.63719535098693,-22.880047949697595,-95.05214503882206,2.541860462164697,300,0,30,0.6359689454602308,-1.4668587899496373,85.8987061343173,-2.2674559097053173,-1.7771878169102762,-2.541860462164697,0.5140973463316507
GUIDED_NOGPS,0.6973605155944824,403.7254788718837,319.63957399173313,-26.586053651668788,-85.05609411380426,1.5456912455982537,300,0,30,0.6359689454602308,-1.4668587899496373,85.8987061343173,-2.6380983971246503,-1.9774566459561542,-1.5456912455982537,0.5131013693307245
GUIDED_NOGPS,0.6999189853668213,392.21095941649526,320.6404086549135,-30.6033385816185,-74.99535521284241,4.024713987705089,300,0,30,0.6359689454602308,-1.4668587899496373,85.8987061343173,-3.0399122726450853,-2.0775976984820743,-4.024713987705089,0.5121011541272981
GUIDED_NOGPS,0.7017178535461426,557.6790320436112,317.6628222533504,-31.351748148295737,-73.6941303035357,7.675579110168471,300,0,30,0.6359689454602308,-1.4668587899496373,85.8987061343173,-3.1148151284566037,-1.7798739308173825,-7.675579110168471,0.5119751261945732
GUIDED_NOGPS,0.703624963760376,526.1294530858003,316.6612782757846,-31.663027376274254,-73.62944232759163,11.150771068841749,300,0,30,0.497865882176305,-1.4972617762143623,85.96700802601742,-3.1459981517995805,-1.6797485273039796,-11.150771068841749,0.5119722641517565
GUIDED_NOGPS,0.7049074172973633,783.3963391856556,316.6612782757846,-31.663027376274254,-73.62944232759163,11.150771068841749,300,0,30,0.497865882176305,-1.4972617762143623,85.96700802601742,-3.14606634995339,-1.6797844135887943,-11.150771068841749,0.5119767282458325
GUIDED_NOGPS,0.7078132629394531,344.8979524710139,316.6612782757846,-31.663027376274254,-73.62944232759163,11.150771068841749,300,0,30,0.497865882176305,-1.4972617762143623,85.96700802601742,-3.1461164379266613,-1.6798107701860652,-11.150771068841749,0.5119800068892015
GUIDED_NOGPS,0.7122616767883301,225.28220002148458,316.6612782757846,-31.663027376274254,-73.62944232759163,11.150771068841749,300,0,30,0.3309887260229965,-1.514853035143436,86.06006252326968,-3.1462403480989694,-1.6798759724750787,-11.150771068841749,0.511988117763694
GUIDED_NOGPS,0.7143933773040771,471.53501967397415,314.0543215327386,-31.904119900396307,-81.5552270398734,12.073332856018121,300,0,30,0.3309887260229965,-1.514853035143436,86.06006252326968,-3.170444948426574,-1.4192223005910027,-12.073332856018121,0.5127873640623898
GUIDED_NOGPS,0.7220938205718994,129.99950409124722,310.77455381712485,-32.203555994406905,-89.74283154569177,11.286353207881547,300,0,30,-0.22872158424086497,-1.5402934620893236,86.36790597935132,-3.200456753166918,-1.0912683455891836,-11.286353207881547,0.5136111959423663
GUIDED_NOGPS,0.7252864837646484,314.0154226248409,308.92086197724035,-32.93991077249786,-98.21892030249477,10.540961097812408,300,0,30,-0.22872158424086497,-1.5402934620893236,86.36790597935132,-3.274368068990155,-0.9059738646826335,-10.540961097812408,0.5144802788606424
GUIDED_NOGPS,0.7287793159484863,287.1827456350565,309.8459210226706,-33.865720710765125,-98.53525892076902,8.163265717400256,300,0,30,-0.22872158424086497,-1.5402934620893236,86.36790597935132,-3.367043119370855,-0.998507114676536,-8.163265717400256,0.5145190524397205
