E-kp,E-ki,E-kd,E-I-Tot,E-P,E-I,E-D,E-PID,N-kp,N-ki,N-kd,N-I-Tot,N-P,N-I,N-D,N-PID,D-kp,D-ki,D-kd,D-I-Tot,D-P,D-I,D-D,D-PID,Y-kp,Y-ki,Y-kd,Y-I-Tot,Y-P,Y-I,Y-D,Y-PID,errorN,desiredN,actualN,errorE,desiredE,actualE,errorD,desiredD,actualD,errorY,desiredY,actualY,roll,pitch,yaw-rate,thrust,dt,Time,Mode
0.03,0.005,0.04,-0.003774628060435784,-0.003425862327136964,-1.887314030217892e-05,-0.13819207257370944,-0.1416368080411486,0.03,0.005,0.04,-0.003669899442492565,-0.003330810358826377,-1.8349497212462825e-05,-0.13435787631923587,-0.13770703617527472,0.002,8e-05,0,-0.005312873571738495,-0.0003214651991638292,-4.2502988573907965e-07,-0.0,-0.0003218902290495683,0.05,0.02,0.005,-0.00367421011661929,-0.005557871229948556,-7.348420233238581e-05,-0.016814461681964054,-0.022445817114244995,-0.11102701196087923,0.0,0.11102701196087923,-0.11419541090456546,0.0,0.11419541090456546,-0.1607325995819146,0.0,0.1607325995819146,-0.1111574245989711,0,0.1111574245989711,-0.14190370165640645,0.13743199285636945,0.022445817114244995,0.4,0.03305411338806152,0.03333544731140137,STABILIZE
0.03,0.005,0.04,-0.008025938737572614,-0.0038130920332934016,-4.012969368786307e-05,-0.07681413976512959,-0.08066736149211086,0.03,0.005,0.04,-0.007795234670422329,-0.0037001019419445544,-3.8976173352111644e-05,-0.07453950633619934,-0.078278584451496,0.002,8e-05,0,-0.011740328816196695,-0.0003843281950481432,-9.392263052957357e-07,-0.0,-0.0003852674213534389,0.05,0.02,0.005,-0.0077940037749872765,-0.00615855264825272,-0.00015588007549974554,-0.009305170991926083,-0.015619603715678549,-0.12333673139815182,0.0,0.12333673139815182,-0.12710306777644673,0.0,0.12710306777644673,-0.1921640975240716,0.0,0.1921640975240716,-0.1231710529650544,0,0.1231710529650544,-0.08083545360195936,0.07810498982007717,0.015619603715678549,0.4,0.0334477424621582,0.06673336029052734,STABILIZE
0.03,0.005,0.04,-0.012645666225111096,-0.004146045036887259,-6.322833112555548e-05,-0.05563629705214418,-0.05984557042015699,0.03,0.005,0.04,-0.01226441324924675,-0.0040109326179260905,-6.132206624623375e-05,-0.05382574112158721,-0.057897995805759536,0.002,8e-05,0,-0.01925703865220605,-0.0004497324080027585,-1.540563092176484e-06,-0.0,-0.00045127297109493495,0.05,0.02,0.005,-0.012278715121705044,-0.006708121229764889,-0.0002455743024341009,-0.006751468130753953,-0.013705163662952942,-0.1336977539308697,0.0,0.1336977539308697,-0.1382015012295753,0.0,0.1382015012295753,-0.22486620400137924,0.0,0.22486620400137924,-0.13416242459529776,0,0.13416242459529776,-0.059980978790196135,0.057757704253266165,0.013705163662952942,0.4,0.03342747688293457,0.1001594066619873,STABILIZE
0.03,0.005,0.04,-0.01766598469745948,-0.0045020614870600354,-8.832992348729742e-05,-0.04527460276313182,-0.04986499417367915,0.03,0.005,0.04,-0.017105171908495368,-0.0043410379735851976,-8.552585954247685e-05,-0.04365850533580585,-0.04808506916893352,0.002,8e-05,0,-0.027979302710523596,-0.0005214565478691722,-2.2383442168418878e-06,-0.0,-0.0005236948920860141,0.05,0.02,0.005,-0.017194408758573247,-0.007347062119207937,-0.00034388817517146494,-0.005541085940696018,-0.01323203623507542,-0.14470126578617326,0.0,0.14470126578617326,-0.15006871623533452,0.0,0.15006871623533452,-0.2607282739345861,0.0,0.2607282739345861,-0.14694124238415873,0,0.14694124238415873,-0.04998814942861826,0.04795702698900661,0.01323203623507542,0.4,0.03345346450805664,0.13361549377441406,STABILIZE
0.03,0.005,0.04,-0.022953203191983157,-0.0047361433075648815,-0.00011476601595991578,-0.03808353986185831,-0.04293444918538311,0.03,0.005,0.04,-0.022092469464540253,-0.0044674824706718765,-0.00011046234732270127,-0.035933608397466774,-0.04051155321546135,0.002,8e-05,0,-0.03829476723909494,-0.0006160204190794462,-3.0635813791275954e-06,-0.0,-0.0006190840004585737,0.05,0.02,0.005,-0.022259700325377715,-0.007562245561263702,-0.0004451940065075543,-0.004561372315132206,-0.012568811882903461,-0.14891608235572923,0.0,0.14891608235572923,-0.15787144358549607,0.0,0.15787144358549607,-0.3080102095397231,0.0,0.3080102095397231,-0.15124491122527403,0,0.15124491122527403,-0.043041238700075285,0.04039807720603226,0.012568811882903461,0.4,0.033490657806396484,0.16710972785949707,STABILIZE
0.03,0.005,0.04,-0.02834324210322455,-0.004840341802091526,-0.00014171621051612277,-0.011276875811387666,-0.016258933823995313,0.03,0.005,0.04,-0.027175630102019874,-0.004564760166948805,-0.00013587815051009937,-0.009838539256948295,-0.0145391775744072,0.002,8e-05,0,-0.04954112530695868,-0.0006732940519054969,-3.963290024556695e-06,-0.0,-0.0006772573419300536,0.05,0.02,0.005,-0.02741943636658181,-0.007722543522493914,-0.0005483887273316361,-0.0012944467469834914,-0.009565378996809041,-0.15215867223162682,0.0,0.15215867223162682,-0.1613447267363842,0.0,0.1613447267363842,-0.3366470259527484,0.0,0.3366470259527484,-0.15445087044987826,0,0.15445087044987826,-0.016298067617682016,0.01449529598051274,0.009565378996809041,0.4,0.033406972885131836,0.2005457878112793,STABILIZE
0.03,0.005,0.04,-0.03375239828621251,-0.004850897031201864,-0.00016876199143106254,-0.008273775421533364,-0.01329343444416629,0.03,0.005,0.04,-0.03229246297058157,-0.004588743332892835,-0.00016146231485290784,-0.007085493776830478,-0.011835699424576221,0.002,8e-05,0,-0.061605677914505344,-0.0007212942949190135,-4.928454233160428e-06,-0.0,-0.0007262227491521739,0.05,0.02,0.005,-0.03264841702035347,-0.007815527928172293,-0.0006529683404070694,-0.000990862570958296,-0.00945935883953766,-0.15295811109642785,0.0,0.15295811109642785,-0.1616965677067288,0.0,0.1616965677067288,-0.36064714745950677,0.0,0.36064714745950677,-0.15631055856344586,0,0.15631055856344586,-0.013325674307385049,0.011799389155535071,0.00945935883953766,0.4,0.033452510833740234,0.2340238094329834,STABILIZE
0.03,0.005,0.04,-0.03921914991732607,-0.004903666626281986,-0.00019609574958663037,-0.006038401845160111,-0.011138164221028726,0.03,0.005,0.04,-0.03744551105199724,-0.004622275092332531,-0.0001872275552599862,-0.004873211010927504,-0.009682713658520022,0.002,8e-05,0,-0.07460958604706017,-0.0007776321860306993,-5.968766883764814e-06,-0.0,-0.0007836009529144641,0.05,0.02,0.005,-0.03791829612492394,-0.007878453858700714,-0.0007583659224984789,-0.0006996797221652032,-0.009336499503364395,-0.15407583641108435,0.0,0.15407583641108435,-0.16345555420939953,0.0,0.16345555420939953,-0.38881609301534964,0.0,0.38881609301534964,-0.15756907717401428,0,0.15756907717401428,-0.011164750491315614,0.009652046025282015,0.009336499503364395,0.4,0.033444881439208984,0.2674424648284912,STABILIZE
0.03,0.005,0.04,-0.044719426503588254,-0.004934230897493118,-0.00022359713251794128,-0.0034442208359556914,-0.00860204886596675,0.03,0.005,0.04,-0.042570995951957194,-0.004598009856664924,-0.00021285497975978598,-0.0020483576700658754,-0.0068592225064905855,0.002,8e-05,0,-0.08857961401042497,-0.0008354894223300751,-7.086369120833998e-06,-0.0,-0.0008425757914509091,0.05,0.02,0.005,-0.043168563226258755,-0.007849917407245263,-0.0008633712645251751,-0.00030062538018797757,-0.009013914051958415,-0.15326699522216414,0.0,0.15326699522216414,-0.16447436324977063,0.0,0.16447436324977063,-0.41774471116503753,0.0,0.41774471116503753,-0.15699834814490526,0,0.15699834814490526,-0.008620811765735117,0.00683562598346266,0.009013914051958415,0.4,0.03344154357910156,0.3008897304534912,STABILIZE
0.03,0.005,0.04,-0.05022925612368936,-0.004938997894503577,-0.00025114628061844677,-0.0016183465139067807,-0.006808490689028804,0.03,0.005,0.04,-0.047641572957195795,-0.00454525291697353,-0.00023820786478597898,-0.0006211873843171944,-0.0054046481660767025,0.002,8e-05,0,-0.10350578465235306,-0.0008919855416767104,-8.280462772188246e-06,-0.0,-0.0009002660044488986,0.05,0.02,0.005,-0.04837147641887986,-0.007773131256754722,-0.0009674295283775972,-0.00012623453836215404,-0.008866795323494473,-0.15150843056578434,0.0,0.15150843056578434,-0.16463326315011922,0.0,0.16463326315011922,-0.4459927708383552,0.0,0.4459927708383552,-0.15546262513509443,0,0.15546262513509443,-0.006823130227627229,0.005386154579893505,0.008866795323494473,0.4,0.03346729278564453,0.3343498706817627,STABILIZE
0.03,0.005,0.04,-0.0556796827138545,-0.004885261931140431,-0.0002783984135692725,-0.00035847175219297963,-0.005522132096902684,0.03,0.005,0.04,-0.05259641511977747,-0.004441065555372685,-0.0002629820755988874,0.0009853985997988997,-0.003718649031172672,0.002,8e-05,0,-0.1198911855193063,-0.0009790912540832478,-9.591294841544505e-06,-0.0,-0.0009886825489247924,0.05,0.02,0.005,-0.05346156397177088,-0.007603811841437546,-0.0010692312794354176,7.090714774305213e-05,-0.00860213597312991,-0.14803551851242283,0.0,0.14803551851242283,-0.1628420643713477,0.0,0.1628420643713477,-0.48954562704162385,0.0,0.48954562704162385,-0.1520762368287509,0,0.1520762368287509,-0.005531982787483922,0.0037039789351001845,0.00860213597312991,0.4,0.03347063064575195,0.3678269386291504,STABILIZE
0.03,0.005,0.04,-0.06106733787817165,-0.004830444537632408,-0.0003053366893908583,0.0001625402003737965,-0.00497324102664947,0.03,0.005,0.04,-0.057383512746672076,-0.004291998815383886,-0.00028691756373336037,0.002364577927416712,-0.0022143384517005348,0.002,8e-05,0,-0.13719331670841287,-0.0010341788470471759,-1.097546533667303e-05,-0.0,-0.0010451543123838488,0.05,0.02,0.005,-0.058553801089396444,-0.00760929947536245,-0.001171076021787929,0.0001232189766714124,-0.008657156520478966,-0.1430666271794629,0.0,0.1430666271794629,-0.16101481792108027,0.0,0.16101481792108027,-0.5170894235235879,0.0,0.5170894235235879,-0.152185989507249,0,0.152185989507249,-0.004979105083883596,0.00220112099882617,0.008657156520478966,0.4,0.03346061706542969,0.40129828453063965,STABILIZE
0.03,0.005,0.04,-0.06641776792593276,-0.004800832212811011,-0.00033208883962966383,0.000819471505909896,-0.0043134495465307785,0.03,0.005,0.04,-0.06217418697344384,-0.004298574683467428,-0.0003108709348672192,0.002579489363335167,-0.0020299562549994806,0.002,8e-05,0,-0.15515238768284423,-0.0010742873087031869,-1.2412191014627539e-05,-0.0,-0.0010866994997178144,0.05,0.02,0.005,-0.06354394456878408,-0.00746259065425271,-0.0012708788913756816,0.0002486078398775659,-0.008484861705750826,-0.1432858227822476,0.0,0.1432858227822476,-0.1600277404270337,0.0,0.1600277404270337,-0.5371436543515934,0.0,0.5371436543515934,-0.1492518130850542,0,0.1492518130850542,-0.004318722810914124,0.0020187131223054224,0.008484861705750826,0.4,0.033434391021728516,0.43471717834472656,STABILIZE
0.03,0.005,0.04,-0.07169684129225087,-0.004733564854979308,-0.00035848420646125435,0.0015993397487773504,-0.003492709312663212,0.03,0.005,0.04,-0.06678830008142914,-0.004137317693709508,-0.0003339415004071457,0.003671272393708508,-0.0007999868004081455,0.002,8e-05,0,-0.17388753590037448,-0.0011199445180557254,-1.391100287202996e-05,-0.0,-0.0011338555209277554,0.05,0.02,0.005,-0.06848917265628779,-0.007390361985437605,-0.0013697834531257557,0.0002747180262520387,-0.00848542741231132,-0.13791058979031692,0.0,0.13791058979031692,-0.15778549516597692,0.0,0.15778549516597692,-0.5599722590278626,0.0,0.5599722590278626,-0.1478072397087521,0,0.1478072397087521,-0.0034947614327832132,0.0007909739259435864,0.00848542741231132,0.4,0.033457279205322266,0.46819639205932617,STABILIZE
0.03,0.005,0.04,-0.07721115927294481,-0.00486112065484699,-0.00038605579636472406,0.0006378012505556711,-0.004609375200656043,0.03,0.005,0.04,-0.07145872198890701,-0.00411718810572355,-0.0003572936099445351,0.003408640832871893,-0.0010658408827961914,0.002,8e-05,0,-0.19494539523972496,-0.0012375636822754446,-1.5595631619177996e-05,-0.0,-0.0012531593138946225,0.05,0.02,0.005,-0.0736769200926673,-0.007622056587779026,-0.0014735384018533459,9.26645676116752e-05,-0.009002930422020697,-0.13723960352411832,0.0,0.13723960352411832,-0.16203735516156634,0.0,0.16203735516156634,-0.6187818411377223,0.0,0.6187818411377223,-0.15244113175558052,0,0.15244113175558052,-0.004612194658814446,0.0010535734227220229,0.009002930422020697,0.4,0.03403115272521973,0.5022127628326416,STABILIZE
0.03,0.005,0.04,-0.08270713926198243,-0.004927601131215765,-0.00041353569630991216,-0.00032014750640005515,-0.0056612843339257325,0.03,0.005,0.04,-0.07608861710333963,-0.004151084328690105,-0.00038044308551669816,0.0023084207896770827,-0.0022231066245297203,0.002,8e-05,0,-0.21753749419471122,-0.0013503791569981357,-1.74029995355769e-05,-0.0,-0.0013677821565337125,0.05,0.02,0.005,-0.07876180236696455,-0.007598363317947478,-0.001575236047339291,5.651635232924654e-06,-0.009167947730053845,-0.1383694776230035,0.0,0.1383694776230035,-0.1642533710405255,0.0,0.1642533710405255,-0.6751895784990678,0.0,0.6751895784990678,-0.15196726635894955,0,0.15196726635894955,-0.005667160824392099,0.0022080832330454198,0.009167947730053845,0.4,0.033460378646850586,0.53568434715271,STABILIZE
0.03,0.005,0.04,-0.08789871028916266,-0.004644150217669315,-0.0004394935514458133,0.0014968719608071412,-0.0035867718083079877,0.03,0.005,0.04,-0.08018459417725556,-0.003664080240798921,-0.0004009229708862778,0.004992888624607185,0.0009278854129219872,0.002,8e-05,0,-0.24089296144155267,-0.001392851319062087,-1.9271436915324215e-05,-0.0,-0.0014121227559774111,0.05,0.02,0.005,-0.08356910990328609,-0.007167341775198375,-0.0016713821980657217,0.00026598025150025793,-0.00857274372176384,-0.1221360080266307,0.0,0.1221360080266307,-0.15480500725564386,0.0,0.15480500725564386,-0.6964256595310434,0.0,0.6964256595310434,-0.14334683550396748,0,0.14334683550396748,-0.0035844391326378994,-0.0009368561516051565,0.00857274372176384,0.4,0.03353619575500488,0.5692138671875,STABILIZE
0.03,0.005,0.04,-0.09286326235922311,-0.0044530992662576195,-0.00046431631179611556,0.0027839667682989276,-0.002133448809754807,0.03,0.005,0.04,-0.0842145667251649,-0.0036148010017578334,-0.00042107283362582455,0.005438247189548685,0.0014023733541650273,0.002,8e-05,0,-0.2643149845569413,-0.0014006042905449362,-2.1145198764555306e-05,-0.0,-0.0014217494893094915,0.05,0.02,0.005,-0.08810412997606631,-0.0067796967626914595,-0.0017620825995213263,0.00041002732802960894,-0.008131752034183176,-0.12049336672526112,0.0,0.12049336672526112,-0.14843664220858732,0.0,0.14843664220858732,-0.700302145272468,0.0,0.700302145272468,-0.13559393525382918,0,0.13559393525382918,-0.0021301240370002424,-0.001407418358310727,0.008131752034183176,0.4,0.03344559669494629,0.6026630401611328,STABILIZE
0.03,0.005,0.04,-0.09782950997080228,-0.00445160545012758,-0.0004891475498540114,0.0022597238509663915,-0.0026810291490152005,0.03,0.005,0.04,-0.08828373806056651,-0.0036474913679176526,-0.00044141869030283254,0.003892501704168505,-0.00019640835405198035,0.002,8e-05,0,-0.28967791286669303,-0.0015156413013806497,-2.3174233029335444e-05,-0.0,-0.001538815534409985,0.05,0.02,0.005,-0.09261536868125235,-0.006739580322176367,-0.001852307373625047,0.00039082351058041155,-0.008201064185221003,-0.1215830455972551,0.0,0.1215830455972551,-0.148386848337586,0.0,0.148386848337586,-0.7578206506903248,0.0,0.7578206506903248,-0.13479160644352733,0,0.13479160644352733,-0.0026814837913938855,0.0001901005415627545,0.008201064185221003,0.4,0.03346824645996094,0.6361551284790039,STABILIZE
0.03,0.005,0.04,-0.10263780744794712,-0.004249837320160688,-0.0005131890372397357,0.0048444345831638955,8.140822576347198e-05,0.03,0.005,0.04,-0.09208496173000158,-0.0033597301933647955,-0.0004604248086500079,0.005995559341080781,0.0021754043390659773,0.002,8e-05,0,-0.3151764431031438,-0.001502466738288701,-2.5214115448251507e-05,-0.0,-0.0015276808537369525,0.05,0.02,0.005,-0.09696955583464058,-0.006414116136876188,-0.0019393911166928116,0.0007187651014874793,-0.007634742152081521,-0.11199100644549319,0.0,0.11199100644549319,-0.1416612440053563,0.0,0.1416612440053563,-0.7512333691443505,0.0,0.7512333691443505,-0.12828232273752377,0,0.12828232273752377,8.627863680935208e-05,-0.002175216617828982,0.007634742152081521,0.4,0.033942222595214844,0.6700699329376221,STABILIZE
0.03,0.005,0.04,-0.1072028664800394,-0.004093332578609161,-0.000536014332400197,0.006621658674038445,0.001992311763029086,0.03,0.005,0.04,-0.09554852470058013,-0.0031056586663755817,-0.00047774262350290064,0.008290741870217513,0.004707340580339031,0.002,8e-05,0,-0.3405021421910716,-0.0015139126485753875,-2.724017137528573e-05,-0.0,-0.0015411528199506732,0.05,0.02,0.005,-0.10108678350401794,-0.006152962475087348,-0.0020217356700803586,0.0008607148309991455,-0.00731398331416856,-0.10352195554585272,0.0,0.10352195554585272,-0.13644441928697204,0.0,0.13644441928697204,-0.7569563242876938,0.0,0.7569563242876938,-0.12305924950174695,0,0.12305924950174695,0.0020024175346814743,-0.004703050660710645,0.00731398331416856,0.4,0.033457279205322266,0.7035562992095947,STABILIZE
0.03,0.005,0.04,-0.11161804253617247,-0.003960207561665847,-0.0005580902126808623,0.005429163351067276,0.0009108655767205666,0.03,0.005,0.04,-0.09899219351522703,-0.0030888107532413473,-0.0004949609675761352,0.00455260355990502,0.0009688318390875372,0.002,8e-05,0,-0.3659348090742842,-0.0015207946172281603,-2.927478472594274e-05,-0.0,-0.001550069401954103,0.05,0.02,0.005,-0.1052634411080694,-0.006243779340379753,-0.002105268822161388,0.0005493606007880357,-0.007799687561753105,-0.10296035844137824,0.0,0.10296035844137824,-0.13200691872219492,0.0,0.13200691872219492,-0.7603973086140802,0.0,0.7603973086140802,-0.12487558680759504,0,0.12487558680759504,0.0009129749711088212,-0.0009668443170506184,0.007799687561753105,0.4,0.033446550369262695,0.7370102405548096,STABILIZE
0.03,0.005,0.04,-0.11584823729007182,-0.003796398776892532,-0.0005792411864503591,0.0052126468784584965,0.0008370069151156052,0.03,0.005,0.04,-0.1021682649544423,-0.002850373192876174,-0.0005108413247722115,0.0060617940881235325,0.002700579570475147,0.002,8e-05,0,-0.3918947241545884,-0.001553186012980525,-3.1351577932367075e-05,-0.0,-0.0015845375909128922,0.05,0.02,0.005,-0.1094289303679643,-0.006230547784609266,-0.002188578607359286,0.0003254707556436278,-0.008093655636324925,-0.09501243976253913,0.0,0.09501243976253913,-0.12654662589641774,0.0,0.12654662589641774,-0.7765930064902625,0.0,0.7765930064902625,-0.12461095569218532,0,0.12461095569218532,0.0008428783443728693,-0.002698752802500874,0.008093655636324925,0.4,0.03342795372009277,0.7704133987426758,STABILIZE
0.03,0.005,0.04,-0.1197061410375583,-0.0034625816440737975,-0.0005985307051877915,0.007863950363279821,0.003802838014018232,0.03,0.005,0.04,-0.10491478336275092,-0.002465080740263735,-0.0005245739168137547,0.009396140706421292,0.006406486049343803,0.002,8e-05,0,-0.418402318003691,-0.001586089474113433,-3.347218544029528e-05,-0.0,-0.0016195616595537283,0.05,0.02,0.005,-0.11336290993042561,-0.005884769861532052,-0.0022672581986085123,0.000508395129997815,-0.00764363293014275,-0.08216935800879117,0.0,0.08216935800879117,-0.11541938813579325,0.0,0.11541938813579325,-0.7930447370567164,0.0,0.7930447370567164,-0.11769539723064103,0,0.11769539723064103,0.0038159900070112154,-0.00639866085424829,0.00764363293014275,0.4,0.033425092697143555,0.8038351535797119,STABILIZE
0.03,0.005,0.04,-0.12339800133520276,-0.0033119699734464104,-0.0006169900066760138,0.0074797731511245785,0.003550813171002154,0.03,0.005,0.04,-0.10747267410647822,-0.002294685241472033,-0.0005373633705323911,0.00849412090817501,0.005662072296170585,0.002,8e-05,0,-0.44522580943890006,-0.0016042246284904416,-3.561806475511201e-05,-0.0,-0.0016398426932455535,0.05,0.02,0.005,-0.116913237023899,-0.005308334092435519,-0.00233826474047798,0.0006613669560881084,-0.0069852318768253915,-0.07648950804906778,0.0,0.07648950804906778,-0.11039899911488035,0.0,0.11039899911488035,-0.8021123142452208,0.0,0.8021123142452208,-0.10616668184871036,0,0.10616668184871036,0.0035612986522541995,-0.005655483071487106,0.0069852318768253915,0.4,0.03344106674194336,0.8372783660888672,STABILIZE
0.03,0.005,0.04,-0.1269967433831001,-0.003225283264082513,-0.0006349837169155005,0.006922958517912433,0.00306269153691442,0.03,0.005,0.04,-0.10975859136062473,-0.0020486966180818327,-0.0005487929568031237,0.00842873367207566,0.005831244097190704,0.002,8e-05,0,-0.4733504241629053,-0.001680399205626167,-3.786803393303243e-05,-0.0,-0.0017182672395591996,0.05,0.02,0.005,-0.12031356019312629,-0.005079092112473274,-0.002406271203862526,0.0006422235319684566,-0.0068431397843673435,-0.06828988726939443,0.0,0.06828988726939443,-0.10750944213608377,0.0,0.10750944213608377,-0.8401996028130835,0.0,0.8401996028130835,-0.10158184224946547,0,0.10158184224946547,0.0030730251499668892,-0.005825804974334416,0.0068431397843673435,0.4,0.03347373008728027,0.8707687854766846,STABILIZE
0.03,0.005,0.04,-0.13045817627915174,-0.0031047885720239,-0.0006522908813957587,0.00682227164595221,0.003065192192532551,0.03,0.005,0.04,-0.11198120428836775,-0.001993608839264402,-0.0005599060214418387,0.008733623319521574,0.006180108458815333,0.002,8e-05,0,-0.501591868878523,-0.0016887748984052854,-4.0127349510281845e-05,-0.0,-0.0017289022479155672,0.05,0.02,0.005,-0.12352635940913795,-0.004802954243534336,-0.002470527188182759,0.000861653438520002,-0.006411827993197092,-0.06645362797548006,0.0,0.06645362797548006,-0.10349295240079667,0.0,0.10349295240079667,-0.8443874492026426,0.0,0.8443874492026426,-0.0960590848706867,0,0.0960590848706867,0.0030755491240382236,-0.006174960835949574,0.006411827993197092,0.4,0.03344607353210449,0.9042162895202637,STABILIZE
0.03,0.005,0.04,-0.13388991646813345,-0.002989938153800673,-0.0006694495823406672,0.006404973705201386,0.0027455859690600454,0.03,0.005,0.04,-0.11421257015473402,-0.0019440999526589156,-0.00057106285077367,0.00721494541085573,0.004699782607423144,0.002,8e-05,0,-0.5308055413507984,-0.0016968470635381628,-4.2464443308063874e-05,-0.0,-0.0017393115068462268,0.05,0.02,0.005,-0.12665064683444702,-0.004536778068827317,-0.0025330129366889402,0.0010083427563081814,-0.006061448249208076,-0.06480333175529719,0.0,0.06480333175529719,-0.0996646051266891,0.0,0.0996646051266891,-0.8484235317690814,0.0,0.8484235317690814,-0.09073556137654634,0,0.09073556137654634,0.002753025260040216,-0.004695428711855498,0.006061448249208076,0.4,0.03443288803100586,0.9386358261108398,STABILIZE
0.03,0.005,0.04,-0.13704062663768976,-0.002826705416039152,-0.0006852031331884488,0.005043515623511427,0.001531607074283826,0.03,0.005,0.04,-0.11626007839292912,-0.0018369517711322527,-0.0005813003919646456,0.004995552375091368,0.0025773002119944695,0.002,8e-05,0,-0.5593984592799534,-0.0017101701229490696,-4.475187674239627e-05,-0.0,-0.0017549219996914659,0.05,0.02,0.005,-0.12965329034293888,-0.004489775432165466,-0.0025930658068587776,0.0008295582775178772,-0.006253282961506367,-0.06123172570440843,0.0,0.06123172570440843,-0.09422351386797173,0.0,0.09422351386797173,-0.8550850614745348,0.0,0.8550850614745348,-0.08979550864330932,0,0.08979550864330932,0.0015356444068622699,-0.002574896671405598,0.006253282961506367,0.4,0.033438682556152344,0.9720933437347412,STABILIZE
0.03,0.005,0.04,-0.1399633475898853,-0.0026166019595896496,-0.0006998167379494265,0.005514483568703742,0.0021980648711646656,0.03,0.005,0.04,-0.1182119160908574,-0.001747406758542454,-0.0005910595804542871,0.004349369063039906,0.002010902724043165,0.002,8e-05,0,-0.5878669455312185,-0.0016991175490235048,-4.702935564249749e-05,-0.0,-0.0017461469046660023,0.05,0.02,0.005,-0.1323246098805359,-0.003985886240420267,-0.002646492197610718,0.0007855530466687048,-0.00584682539136228,-0.058246891951415136,0.0,0.058246891951415136,-0.08722006531965498,0.0,0.08722006531965498,-0.8495587745117524,0.0,0.8495587745117524,-0.07971772480840535,0,0.07971772480840535,0.0022008605856366097,-0.002007842530181,0.00584682539136228,0.4,0.03350973129272461,1.0056209564208984,STABILIZE
0.03,0.005,0.04,-0.14279514275758562,-0.002520922374683282,-0.0007139757137879281,0.005581018009267289,0.0023461199207960794,0.03,0.005,0.04,-0.12023833123939454,-0.0018039564960812221,-0.0006011916561969727,0.0019422318109833634,-0.0004629163412948312,0.002,8e-05,0,-0.6165415082928125,-0.001701779085212237,-4.932332066342501e-05,-0.0,-0.0017511024058756621,0.05,0.02,0.005,-0.13485109920644997,-0.0037485547117140426,-0.0026970219841289996,0.0007894363653451682,-0.005656140330497874,-0.060131883202707404,0.0,0.060131883202707404,-0.08403074582277606,0.0,0.08403074582277606,-0.8508895426061185,0.0,0.8508895426061185,-0.07497109423428085,0,0.07497109423428085,0.0023455121899796077,0.0004659858243026924,0.005656140330497874,0.4,0.03369951248168945,1.039332628250122,STABILIZE
0.03,0.005,0.04,-0.1455175291170552,-0.0024297644390604755,-0.000727587645585276,0.005343506377458971,0.002186154292813219,0.03,0.005,0.04,-0.12232636641981419,-0.0018635979464279124,-0.0006116318320990709,0.00102985285529546,-0.001445376923231523,0.002,8e-05,0,-0.6451814884766369,-0.0017041030967554327,-5.161451907813096e-05,-0.0,-0.0017557176158335636,0.05,0.02,0.005,-0.13721703424611648,-0.0035193785068460028,-0.0027443406849223294,0.0007606739126011273,-0.005503045279167205,-0.06211993154759708,0.0,0.06211993154759708,-0.08099214796868252,0.0,0.08099214796868252,-0.8520515483777164,0.0,0.8520515483777164,-0.07038757013692006,0,0.07038757013692006,0.0021843770054799905,0.0014480615111680019,0.005503045279167205,0.4,0.033612966537475586,1.0729129314422607,STABILIZE
0.03,0.005,0.04,-0.14815667192955861,-0.0023667665715318086,-0.0007407833596477931,0.004956230883506141,0.0018486809523265398,0.03,0.005,0.04,-0.12418560004997023,-0.0016673489527256732,-0.0006209280002498511,0.002210828323212841,-7.744862976268377e-05,0.002,8e-05,0,-0.6736746469889247,-0.0017034989483390023,-5.389397175911397e-05,-0.0,-0.0017573929200981162,0.05,0.02,0.005,-0.13937868143185433,-0.0032309191924057568,-0.0027875736286370866,0.0007785271248281772,-0.005239965696214666,-0.05557829842418911,0.0,0.05557829842418911,-0.0788922190510603,0.0,0.0788922190510603,-0.8517494741695011,0.0,0.8517494741695011,-0.06461838384811514,0,0.06461838384811514,0.0018485924297987487,7.953352901662026e-05,0.005239965696214666,0.4,0.033452510833740234,1.1063897609710693,STABILIZE
0.03,0.005,0.04,-0.15067819924030335,-0.0022619829508507094,-0.0007533909962015167,0.004490021746401799,0.001474647799349573,0.03,0.005,0.04,-0.1257337546655026,-0.0013888008790120115,-0.000628668773327513,0.003577469920785866,0.0015600002684463417,0.002,8e-05,0,-0.7022096907890905,-0.0017065261016662627,-5.617677526312724e-05,0.0,-0.0017627028769293899,0.05,0.02,0.005,-0.14139523202448112,-0.003014973663390872,-0.0028279046404896223,0.0008795596933751096,-0.004963318610505385,-0.04629336263373372,0.0,0.04629336263373372,-0.07539943169502365,0.0,0.07539943169502365,-0.8532630508331314,0.0,0.8532630508331314,-0.060299473267817434,0,0.060299473267817434,0.0014762887646507107,-0.0015584474495616701,0.004963318610505385,0.4,0.03344225883483887,1.1398601531982422,STABILIZE
0.03,0.005,0.04,-0.15308731196082925,-0.002158215920919435,-0.0007654365598041463,0.0036443552032510685,0.0007207027225274872,0.03,0.005,0.04,-0.12720991008675925,-0.0013224213648301765,-0.0006360495504337963,0.0033934712551387824,0.0014350003398748098,0.002,8e-05,0,-0.7309137594818488,-0.0017143124249316335,-5.847310075854791e-05,-0.0,-0.0017727855256901813,0.05,0.02,0.005,-0.14334165076141564,-0.0029061819254289295,-0.002866833015228313,0.0006437921089241386,-0.005129222831733104,-0.04408071216100588,0.0,0.04408071216100588,-0.0719405306973145,0.0,0.0719405306973145,-0.8571562124658167,0.0,0.8571562124658167,-0.05812363850857859,0,0.05812363850857859,0.0007221580859042737,-0.0014342684855571594,0.005129222831733104,0.4,0.033487558364868164,1.1733734607696533,STABILIZE
0.03,0.005,0.04,-0.15530495264279687,-0.0019897871866982183,-0.0007765247632139843,0.004230554624683623,0.0014642426747714199,0.03,0.005,0.04,-0.12868670778375219,-0.001325062783486974,-0.000643433538918761,0.003819886519137217,0.0018513901967314819,0.002,8e-05,0,-0.7590356185899186,-0.0016821635525950747,-6.07228494871935e-05,0.0,-0.0017428864020822682,0.05,0.02,0.005,-0.14479682658141865,-0.0021761041096357405,-0.0028959365316283733,0.000939650706748283,-0.00413238993451583,-0.0441687594495658,0.0,0.0441687594495658,-0.06632623955660728,0.0,0.06632623955660728,-0.8410817762975373,0.0,0.8410817762975373,-0.043522082192714806,0,0.043522082192714806,0.001465648574920809,-0.001850277418661266,0.00413238993451583,0.4,0.03343534469604492,1.2067394256591797,STABILIZE
0.03,0.005,0.04,-0.1574733571636809,-0.0018926252924922975,-0.0007873667858184046,0.004261178259172491,0.0015811861808617887,0.03,0.005,0.04,-0.12995566216830348,-0.0011075678638788433,-0.0006497783108415174,0.005980459975654658,0.004223113800934298,0.002,8e-05,0,-0.7878922562720024,-0.0016791086659154113,-6.30313805017602e-05,0.0,-0.0017421400464171714,0.05,0.02,0.005,-0.1460645491900364,-0.0018441545768069193,-0.002921290983800728,0.000996443559158606,-0.003769002001449041,-0.036918928795961446,0.0,0.036918928795961446,-0.06308750974974325,0.0,0.06308750974974325,-0.8395543329577057,0.0,0.8395543329577057,-0.036883091536138383,0,0.036883091536138383,0.0015839044039588027,-0.004222095066825229,0.003769002001449041,0.4,0.034371376037597656,1.241112470626831,STABILIZE
0.03,0.005,0.04,-0.159509689534449,-0.001824830394915434,-0.000797548447672245,0.004299021350460926,0.0016766425078732468,0.03,0.005,0.04,-0.13102739076938666,-0.0009604143971934777,-0.0006551369538469334,0.005588234537168776,0.003972683186128365,0.002,8e-05,0,-0.8161879890651634,-0.0016904546621365035,-6.529503912521308e-05,0.0,-0.0017557497012617165,0.05,0.02,0.005,-0.1472157647847862,-0.0017194092334475702,-0.0029443152956957243,0.0008985104151380616,-0.003765214114005233,-0.03201381323978259,0.0,0.03201381323978259,-0.06082767983051447,0.0,0.06082767983051447,-0.8452273310682518,0.0,0.8452273310682518,-0.0343881846689514,0,0.0343881846689514,0.0016790265587334563,-0.003971676171545484,0.003765214114005233,0.4,0.033477067947387695,1.2746174335479736,STABILIZE
0.03,0.005,0.04,-0.16143738011285816,-0.0017293446440102055,-0.0008071869005642908,0.004224913237208389,0.0016883816926338922,0.03,0.005,0.04,-0.13194986322207783,-0.0008275564622123919,-0.0006597493161103891,0.004426554989656606,0.002939249211333825,0.002,8e-05,0,-0.8456326708581268,-0.0017610019409950524,-6.765061366865015e-05,-0.0,-0.0018286525546637026,0.05,0.02,0.005,-0.14823010838445913,-0.0015166245134009173,-0.0029646021676891826,0.000890644837378254,-0.003590581843711846,-0.02758521540707973,0.0,0.02758521540707973,-0.05764482146700685,0.0,0.05764482146700685,-0.8805009704975262,0.0,0.8805009704975262,-0.030332490268018344,0,0.030332490268018344,0.0016899374998610717,-0.002938354967139115,0.003590581843711846,0.4,0.03344082832336426,1.3080544471740723,STABILIZE
0.03,0.005,0.04,-0.16330885425875605,-0.0016351260259627775,-0.0008165442712937803,0.004130331399470866,0.0016786611022143083,0.03,0.005,0.04,-0.13279488112494328,-0.0007383007499240007,-0.0006639744056247164,0.004591152311030988,0.0031888771554822704,0.002,8e-05,0,-0.8756965505841989,-0.0017511411984777298,-7.005572404673592e-05,-0.0,-0.0018211969225244656,0.05,0.02,0.005,-0.14921516921179875,-0.0014344294660886686,-0.0029843033842359753,0.0008735468485089579,-0.003545186001815686,-0.02461002499746669,0.0,0.02461002499746669,-0.05450420086542592,0.0,0.05450420086542592,-0.8755705992388649,0.0,0.8755705992388649,-0.028688589321773372,0,0.028688589321773372,0.0016802575954875814,-0.0031880362328007414,0.003545186001815686,0.4,0.03433632850646973,1.3424460887908936,STABILIZE
0.03,0.005,0.04,-0.16511044055011215,-0.001561906720813313,-0.0008255522027505607,0.003351264537590383,0.0009638056140265092,0.03,0.005,0.04,-0.13348323537434942,-0.0005967769257605507,-0.0006674161768717471,0.00570284822984789,0.004438655127215592,0.002,8e-05,0,-0.9059532940691992,-0.0017487629735301693,-7.247626352553595e-05,-0.0,-0.0018212392370557052,0.05,0.02,0.005,-0.15015681574524178,-0.0013606194869042855,-0.0030031363149048357,0.0004794969356030984,-0.003884258866206023,-0.019892564192018358,0.0,0.019892564192018358,-0.05206355736044377,0.0,0.05206355736044377,-0.8743814867650846,0.0,0.8743814867650846,-0.02721238973808571,0,0.02721238973808571,0.0009659136258453677,-0.004438196871184573,0.003884258866206023,0.4,0.03460359573364258,1.3770010471343994,STABILIZE
0.03,0.005,0.04,-0.16667667642461778,-0.0013900175750028278,-0.000833383382123089,0.003953442330682971,0.0017300413735570545,0.03,0.005,0.04,-0.13385839247325731,-0.0003329479099268047,-0.0006692919623662866,0.006096729711025784,0.0050944898387326925,0.002,8e-05,0,-0.9354905282421442,-0.001747598612515354,-7.483924225937155e-05,-0.0,-0.0018224378547747255,0.05,0.02,0.005,-0.15103220980056195,-0.0012948380910719965,-0.003020644196011239,0.00032526248857614476,-0.003990219798507091,-0.011098263664226823,0.0,0.011098263664226823,-0.046333919166760926,0.0,0.046333919166760926,-0.873799306257677,0.0,0.873799306257677,-0.025896761821439927,0,0.025896761821439927,0.0017323438234336493,-0.005093707367780477,0.003990219798507091,0.4,0.03380322456359863,1.410841464996338,STABILIZE
0.03,0.005,0.04,-0.1681739033029355,-0.0013415848842392585,-0.0008408695165146775,0.0037991712705789473,0.0016167168698250113,0.03,0.005,0.04,-0.1342395404423836,-0.0003415262986815076,-0.000671197702211918,0.004856230788365121,0.0038435067874716955,0.002,8e-05,0,-0.9648035229279012,-0.0017510537270247087,-7.71842818342321e-05,-0.0,-0.0018282380088589407,0.05,0.02,0.005,-0.15187945822063637,-0.0012652899504054732,-0.003037589164412727,0.00026838764596942127,-0.0040344914688487795,-0.011384209956050254,0.0,0.011384209956050254,-0.044719496141308615,0.0,0.044719496141308615,-0.8755268635123543,0.0,0.8755268635123543,-0.02530579900810946,0,0.02530579900810946,0.0016184142718510246,-0.0038427923580629094,0.0040344914688487795,0.4,0.03348040580749512,1.4442646503448486,STABILIZE
0.03,0.005,0.04,-0.16961598338242118,-0.0012934695363130643,-0.0008480799169121059,0.0034213578421888875,0.0012798083889637175,0.03,0.005,0.04,-0.13463307535705413,-0.00035297999802025293,-0.0006731653767852706,0.003705465089296621,0.0026793197144910977,0.002,8e-05,0,-0.994158005266961,-0.0017552945082566717,-7.953264042135688e-05,0.0,-0.0018348271486780285,0.05,0.02,0.005,-0.15277988260894249,-0.0013460550637875016,-0.0030555976521788497,9.881323366838075e-05,-0.004302839482297971,-0.011765999934008432,0.0,0.011765999934008432,-0.04311565121043548,0.0,0.04311565121043548,-0.8776472541283358,0.0,0.8776472541283358,-0.02692110127575003,0,0.02692110127575003,0.0012810671577782396,-0.002678718085611949,0.004302839482297971,0.4,0.0334467887878418,1.47772216796875,STABILIZE
0.03,0.005,0.04,-0.17103888994724512,-0.001276472087592116,-0.0008551944497362256,0.0028251661719764323,0.0006934996346480908,0.03,0.005,0.04,-0.13499027561894322,-0.00032043998900127026,-0.0006749513780947161,0.003271755038556134,0.0022763636714601475,0.002,8e-05,0,-1.0232632521967335,-0.0017406640851327915,-8.18610601757387e-05,0.0,-0.0018225251453085302,0.05,0.02,0.005,-0.15360723440458843,-0.0012370119723824234,-0.0030721446880917686,0.00011615094989854244,-0.00419300571057565,-0.01068133296670901,0.0,0.01068133296670901,-0.042549069586403865,0.0,0.042549069586403865,-0.8703320425663957,0.0,0.8703320425663957,-0.024740239447648468,0,0.024740239447648468,0.0006944825006946109,-0.00227606400705901,0.00419300571057565,0.4,0.03344154357910156,1.5111603736877441,STABILIZE
0.03,0.005,0.04,-0.1724388339683124,-0.0012543523948627539,-0.000862194169841562,0.002437085596004434,0.0003205390313001182,0.03,0.005,0.04,-0.13536444221767965,-0.0003352539545437488,-0.0006768222110883983,0.0020631407515607964,0.0010510645859286493,0.002,8e-05,0,-1.0524649066412337,-0.0017443157076375343,-8.41971925312987e-05,0.0,-0.001828512900168833,0.05,0.02,0.005,-0.15436094889012641,-0.0011255492550058966,-0.0030872189778025283,0.00014007118740077106,-0.0040726970454076535,-0.011175131818124961,0.0,0.011175131818124961,-0.04181174649542513,0.0,0.04181174649542513,-0.8721578538187671,0.0,0.8721578538187671,-0.022510985100117932,0,0.022510985100117932,0.0003209519601640644,-0.0010509385679700913,0.0040726970454076535,0.4,0.03348207473754883,1.5446736812591553,STABILIZE
0.03,0.005,0.04,-0.17381457626145186,-0.001215094529130112,-0.0008690728813072593,0.001389297870879404,-0.0006948695395579672,0.03,0.005,0.04,-0.1356496530392089,-0.00025190626952234523,-0.0006782482651960445,0.0006362039207520271,-0.0002939506139663625,0.002,8e-05,0,-1.0822110514949523,-0.0017515091333946118,-8.65768841195962e-05,-0.0,-0.001838086017514208,0.05,0.02,0.005,-0.15505405529956837,-0.0010202853281676282,-0.0031010811059913675,0.00016313238379799926,-0.003958234050360996,-0.008396875650744842,0.0,0.008396875650744842,-0.04050315097100374,0.0,0.04050315097100374,-0.8757545666973059,0.0,0.8757545666973059,-0.02040570656335256,0,0.02040570656335256,-0.0006949741850473954,0.0002937031197900549,0.003958234050360996,0.4,0.0339663028717041,1.5786266326904297,STABILIZE
0.03,0.005,0.04,-0.17511371295186332,-0.0011375412411219364,-0.0008755685647593166,0.0016071533434188997,-0.0004059564624623534,0.03,0.005,0.04,-0.13571904070175486,-6.075675358385974e-05,-0.0006785952035087743,0.002192289924094078,0.0014529379670014443,0.002,8e-05,0,-1.1120537039685954,-0.0017420413717197925,-8.896429631748763e-05,0.0,-0.0018310056680372801,0.05,0.02,0.005,-0.15558978306882926,-0.0007818171816797261,-0.003111795661376585,0.00028468528405305144,-0.00360892755900326,-0.0020252251194619914,0.0,0.0020252251194619914,-0.037918041370731216,0.0,0.037918041370731216,-0.8710206858598962,0.0,0.8710206858598962,-0.01563634363359452,0,0.01563634363359452,-0.00040555993232698146,-0.0014530487007186554,0.00360892755900326,0.4,0.03426170349121094,1.6128718852996826,STABILIZE
0.03,0.005,0.04,-0.17635664500174797,-0.0011150747988106207,-0.0008817832250087399,0.001402695167244844,-0.0005941628565745163,0.03,0.005,0.04,-0.13578659828904754,-6.06081105282444e-05,-0.0006789329914452377,0.0022847940561699347,0.0015452529541964528,0.002,8e-05,0,-1.1412519502330594,-0.0017463131408774742,-9.130015601864475e-05,0.0,-0.001837613296896119,0.05,0.02,0.005,-0.1559727107901404,-0.0005725615381785686,-0.003119454215802808,0.00045813333917741657,-0.0032338824148039603,-0.00202027035094148,0.0,0.00202027035094148,-0.037169159960354026,0.0,0.037169159960354026,-0.8731565704387371,0.0,0.8731565704387371,-0.011451230763571373,0,0.011451230763571373,-0.0005938540078579404,-0.0015453716737201815,0.0032338824148039603,0.4,0.03343987464904785,1.6463398933410645,STABILIZE
0.03,0.005,0.04,-0.17757006959945568,-0.001088882188230824,-0.0008878503479972784,0.0014760824818858865,-0.0005006500543422159,0.03,0.005,0.04,-0.13580098936883794,-1.2914020766323996e-05,-0.0006790049468441897,0.0024057510450375403,0.0017138320774270266,0.002,8e-05,0,-1.170377366840261,-0.0017424045096990093,-9.36301893472209e-05,-0.0,-0.0018360346990462302,0.05,0.02,0.005,-0.15636350574631877,-0.0005844748104344943,-0.0031272701149263754,0.00038579217066385353,-0.0033259527546970163,-0.00043046735887746656,0.0,0.00043046735887746656,-0.03629607294102746,0.0,0.03629607294102746,-0.8712022548495046,0.0,0.8712022548495046,-0.011689496208689885,0,0.011689496208689885,-0.0005003003875674347,-0.001713934184480424,0.0033259527546970163,0.4,0.033431291580200195,1.6797614097595215,STABILIZE
0.03,0.005,0.04,-0.17876393929908266,-0.0010709753735615132,-0.0008938196964954133,0.0014426979616086874,-0.0005220971084482391,0.03,0.005,0.04,-0.1357943476887618,5.958000109094161e-06,-0.000678971738443809,0.002674219637087311,0.0020012058987525965,0.002,8e-05,0,-1.1993832882831736,-0.0017346743709426799,-9.59506630626539e-05,0.0,-0.0018306250340053337,0.05,0.02,0.005,-0.1568025309066755,-0.0006563881235152931,-0.00313605061813351,0.000276204495693665,-0.0035162342459551382,0.00019860000363647204,0.0,-0.00019860000363647204,-0.0356991791187171,0.0,0.0356991791187171,-0.8673371854713399,0.0,0.8673371854713399,-0.013127762470305861,0,0.013127762470305861,-0.0005216385730921271,-0.002001325470510634,0.0035162342459551382,0.4,0.03344249725341797,1.7132184505462646,STABILIZE
0.03,0.005,0.04,-0.17993010854185326,-0.0010461487155661966,-0.0008996505427092663,0.0013324568467442902,-0.0006133424115311726,0.03,0.005,0.04,-0.13565075083019795,0.00012881806828399827,-0.0006782537541509898,0.0029995569297039506,0.002450121243836959,0.002,8e-05,0,-1.228406934765875,-0.0017357715258543504,-9.827255478127e-05,0.0,-0.0018340440806356203,0.05,0.02,0.005,-0.15728714238008099,-0.0007245598835598489,-0.00314574284760162,0.00017345269834562394,-0.003696850032815845,0.00429393560946661,0.0,-0.00429393560946661,-0.03487162385220655,0.0,0.03487162385220655,-0.8678857629271752,0.0,0.8678857629271752,-0.014491197671196977,0,0.014491197671196977,-0.0006127227094315251,-0.00245027629148856,0.003696850032815845,0.4,0.033441781997680664,1.7466373443603516,STABILIZE
0.03,0.005,0.04,-0.18103679051429228,-0.0009929112117326286,-0.0009051839525714614,0.001153415246555097,-0.0007446799177489932,0.03,0.005,0.04,-0.13529702142050512,0.00031736479453940545,-0.0006764851071025256,0.0030154718268241387,0.0026563515142610187,0.002,8e-05,0,-1.2571879249153257,-0.001721480275625176,-0.00010057503399322606,0.0,-0.001822055309618402,0.05,0.02,0.005,-0.15789694580116737,-0.0009118558430042149,-0.0031579389160233473,-7.777872871223919e-05,-0.0041475734877398016,0.010578826484646848,0.0,-0.010578826484646848,-0.03309704039108762,0.0,0.03309704039108762,-0.860740137812588,0.0,0.860740137812588,-0.018237116860084297,0,0.018237116860084297,-0.0007438343693691299,-0.002656588409626279,0.0041475734877398016,0.4,0.033437490463256836,1.7800769805908203,STABILIZE
0.03,0.005,0.04,-0.18211392577192312,-0.0009657409460298106,-0.0009105696288596156,0.0011907931687786374,-0.0006855174061107887,0.03,0.005,0.04,-0.1349376425937655,0.00032221287499396904,-0.0006746882129688276,0.0030529238537447064,0.0027004485157698477,0.002,8e-05,0,-1.2858394892725222,-0.0017125666544059394,-0.00010286715914180179,0.0,-0.001815433813547741,0.05,0.02,0.005,-0.15856375234099893,-0.000996412125022849,-0.0031712750468199788,-0.00025347323345120665,-0.004421160405294035,0.010740429166465636,0.0,-0.010740429166465636,-0.03219136486766035,0.0,0.03219136486766035,-0.8562833272029696,0.0,0.8562833272029696,-0.01992824250045698,0,0.01992824250045698,-0.0006845781123613779,-0.002700686784593906,0.004421160405294035,0.4,0.033460378646850586,1.813551425933838,STABILIZE
0.03,0.005,0.04,-0.1831743984354212,-0.0009516423739437367,-0.000915871992177106,0.0010943259623304063,-0.0007731884037904364,0.03,0.005,0.04,-0.13443673882917095,0.0004494988546746176,-0.0006721836941458548,0.0036878077339873843,0.003465122894516147,0.002,8e-05,0,-1.3144824759094211,-0.0017135679675805914,-0.0001051585980727537,0.0,-0.001818726565653345,0.05,0.02,0.005,-0.1593110334230652,-0.0011176531110744653,-0.003186220668461304,-0.0003188786892005709,-0.00462275246873634,0.014983295155820586,0.0,-0.014983295155820586,-0.031721412464791224,0.0,0.031721412464791224,-0.8567839837902957,0.0,0.8567839837902957,-0.022353062221489306,0,0.022353062221489306,-0.0007718364808786229,-0.0034654242783014127,0.00462275246873634,0.4,0.03343081474304199,1.847010850906372,STABILIZE
0.03,0.005,0.04,-0.18420219165392568,-0.0009225863989098747,-0.0009210109582696285,0.0011833768519005413,-0.0006602205052789619,0.03,0.005,0.04,-0.13387090992614398,0.0005079096073453042,-0.0006693545496307199,0.004003384118400053,0.0038419391761146376,0.002,8e-05,0,-1.3431004504580644,-0.0017125723739998115,-0.00010744803603664516,0.0,-0.0018200204100364567,0.05,0.02,0.005,-0.16000670934050365,-0.0010407754009957829,-0.003200134186810073,-0.00022986596945019484,-0.00447077555725605,0.016930320244843474,0.0,-0.016930320244843474,-0.03075287996366249,0.0,0.03075287996366249,-0.8562861869999057,0.0,0.8562861869999057,-0.020815508019915656,0,0.020815508019915656,-0.0006588246885009857,-0.0038421787801164076,0.00447077555725605,0.4,0.03342103958129883,1.8803925514221191,STABILIZE
0.03,0.005,0.04,-0.1852296897756045,-0.0009213093553323515,-0.0009261484488780225,0.0009955860287910107,-0.0008518717754193632,0.03,0.005,0.04,-0.1333479968675726,0.0004688716044561908,-0.000666739984337863,0.0027125483385621835,0.0025146799586805114,0.002,8e-05,0,-1.3717260735392596,-0.0017111502065380515,-0.00010973808588314078,0.0,-0.0018208882924211922,0.05,0.02,0.005,-0.16062465435276826,-0.0009234704973639243,-0.0032124930870553654,-0.00011897435624124495,-0.004254937940660534,0.015629053481873028,0.0,-0.015629053481873028,-0.030710311844411718,0.0,0.030710311844411718,-0.8555751032690257,0.0,0.8555751032690257,-0.018469409947278484,0,0.018469409947278484,-0.0008510611190235996,-0.002514954430607413,0.004254937940660534,0.4,0.03345775604248047,1.9138591289520264,STABILIZE
0.03,0.005,0.04,-0.18621384521095424,-0.0008830878725898443,-0.0009310692260547712,0.0008758690100368774,-0.0009382880886077381,0.03,0.005,0.04,-0.13283890068591195,0.0004568146939579227,-0.0006641945034295598,0.0011127065990333596,0.0009053267895617226,0.002,8e-05,0,-1.4001939139887498,-0.001702956244293782,-0.00011201551311909999,0.0,-0.001814971757412882,0.05,0.02,0.005,-0.16122745052669082,-0.0009014869869029698,-0.0032245490105338166,6.20377887225565e-06,-0.0041198322185645305,0.01522715646526409,0.0,-0.01522715646526409,-0.029436262419661477,0.0,0.029436262419661477,-0.851478122146891,0.0,0.851478122146891,-0.018029739738059394,0,0.018029739738059394,-0.0009380031554419139,-0.000905622003654014,0.0041198322185645305,0.4,0.03343343734741211,1.9472928047180176,STABILIZE
0.03,0.005,0.04,-0.18718221340442842,-0.0008470318351998923,-0.0009359110670221422,0.000939671939387862,-0.0008432709628341725,0.03,0.005,0.04,-0.1322243253928049,0.0005375691208127797,-0.0006611216269640245,0.0017019439885947482,0.0015783914824435033,0.002,8e-05,0,-1.429319729923495,-0.0016984237668520232,-0.0001143455783938796,0.0,-0.0018127693452459027,0.05,0.02,0.005,-0.1616918969708018,-0.0006770856487551369,-0.003233837939416036,0.00018760084520411517,-0.0037233227429670584,0.017918970693759324,0.0,-0.017918970693759324,-0.028234394506663076,0.0,0.028234394506663076,-0.8492118834260116,0.0,0.8492118834260116,-0.013541712975102737,0,0.013541712975102737,-0.0008428978904392148,-0.0015785907433222184,0.0037233227429670584,0.4,0.03429746627807617,1.9815902709960938,STABILIZE
0.03,0.005,0.04,-0.1880864810814114,-0.0008105775757390052,-0.000940432405407057,0.0011176769280113734,-0.000633333053134689,0.03,0.005,0.04,-0.1315492077734332,0.0006051694837471293,-0.0006577460388671661,0.0012252597875948004,0.0011726832324747637,0.002,8e-05,0,-1.4575958670192883,-0.0016897653384259773,-0.00011660766936154307,0.0,-0.0018063730077875204,0.05,0.02,0.005,-0.16207446210077933,-0.0005715466845209683,-0.0032414892420155866,0.0003232027847021452,-0.0034898331418344096,0.020172316124904312,0.0,-0.020172316124904312,-0.027019252524633507,0.0,0.027019252524633507,-0.8448826692129886,0.0,0.8448826692129886,-0.011430933690419365,0,0.011430933690419365,-0.000633099081514596,-0.001172809563785077,0.0034898331418344096,0.4,0.03346753120422363,2.015059471130371,STABILIZE
0.03,0.005,0.04,-0.18896083828724183,-0.0007847612095673967,-0.0009448041914362092,0.0010918030921520847,-0.0006377623088515212,0.03,0.005,0.04,-0.1309080974817708,0.0005754152703222234,-0.000654540487408854,0.0005218198051656595,0.00044269458807902893,0.002,8e-05,0,-1.4856721443559122,-0.0016799521001192783,-0.00011885377154847299,0.0,-0.0017988058716677513,0.05,0.02,0.005,-0.1624441504780976,-0.0005530102499160204,-0.003248883009561952,0.0002882885367154373,-0.0035136047227625356,0.01918050901074078,0.0,-0.01918050901074078,-0.02615870698557989,0.0,0.02615870698557989,-0.8399760500596392,0.0,0.8399760500596392,-0.011060204998320408,0,0.011060204998320408,-0.0006376768405373203,-0.0004428176915485934,0.0035136047227625356,0.4,0.033425092697143555,2.0485005378723145,STABILIZE
0.03,0.005,0.04,-0.18982466447619856,-0.0007747898209366296,-0.0009491233223809928,0.0011611235520486618,-0.0005627895912689606,0.03,0.005,0.04,-0.1302426353782985,0.0005968715357103281,-0.0006512131768914925,0.001004026639464625,0.0009496849982834606,0.002,8e-05,0,-1.5138067892785045,-0.001682316557070168,-0.00012110454314228038,0.0,-0.0018034211002124485,0.05,0.02,0.005,-0.16266115551520585,-0.0003243964584405563,-0.003253223110304117,0.00035486739522928515,-0.003222752173515388,0.019895717857010938,0.0,-0.019895717857010938,-0.02582632736455432,0.0,0.02582632736455432,-0.8411582785350841,0.0,0.8411582785350841,-0.006487929168811126,0,0.006487929168811126,-0.0005626820493911512,-0.0009497487200824827,0.003222752173515388,0.4,0.0334475040435791,2.0819551944732666,STABILIZE
0.03,0.005,0.04,-0.19070831573986685,-0.00079269014240077,-0.0009535415786993342,0.0007135320844773615,-0.0010326996366227426,0.03,0.005,0.04,-0.12954677253586852,0.0006242322490066329,-0.0006477338626793426,0.001318364337539941,0.0012948627238672313,0.002,8e-05,0,-1.5420370165835762,-0.0016882846452016289,-0.0001233629613266861,0.0,-0.001811647606528315,0.05,0.02,0.005,-0.16286109989330572,-0.00029893757123570315,-0.003257221997866114,0.00035694225199105255,-0.003199217317110765,0.02080774163355443,0.0,-0.02080774163355443,-0.026423004746692333,0.0,0.026423004746692333,-0.8441423226008145,0.0,0.8441423226008145,-0.0059787514247140626,0,0.0059787514247140626,-0.0010325645135029387,-0.0012949704778859052,0.003199217317110765,0.4,0.03344249725341797,2.11539363861084,STABILIZE
0.03,0.005,0.04,-0.1916876794654233,-0.0008775866726488149,-0.0009584383973271166,-0.00024302052713343506,-0.0020790455971093666,0.03,0.005,0.04,-0.12881609391395715,0.0006547453247918435,-0.0006440804695697857,0.0009335305243425479,0.0009441953795646057,0.002,8e-05,0,-1.5700925450613699,-0.0016759968568532517,-0.0001256074036049096,0.0,-0.0018016042604581612,0.05,0.02,0.005,-0.16302619487209466,-0.00024656340527637685,-0.0032605238974418933,0.00025737389671214484,-0.003249713406006125,0.021824844159728116,0.0,-0.021824844159728116,-0.02925288908829383,0.0,0.02925288908829383,-0.8379984284266259,0.0,0.8379984284266259,-0.004931268105527537,0,0.004931268105527537,-0.0020789643254731753,-0.0009443743130035134,0.003249713406006125,0.4,0.03347921371459961,2.148869752883911,STABILIZE
0.03,0.005,0.04,-0.19267987637565234,-0.0008905829689187043,-0.0009633993818782617,-0.0006371768153877392,-0.0024911591661847055,0.03,0.005,0.04,-0.12794754236348696,0.0007796005112514773,-0.0006397377118174348,0.0013910595266707875,0.00153092232610483,0.002,8e-05,0,-1.598349640394511,-0.0016908799449898715,-0.0001278679712315609,-0.0,-0.0018187479162214324,0.05,0.02,0.005,-0.16315012443729282,-0.00018539592792037588,-0.0032630024887458564,0.0002309065168878827,-0.0032174918997783498,0.02598668370838258,0.0,-0.02598668370838258,-0.02968609896395681,0.0,0.02968609896395681,-0.8454399724949357,0.0,0.8454399724949357,-0.0037079185584075174,0,0.0037079185584075174,-0.0024910600867370175,-0.00153108353922902,0.0032174918997783498,0.4,0.03342294692993164,2.1822705268859863,STABILIZE
0.03,0.005,0.04,-0.1938355878493034,-0.0010361836466355424,-0.000969177939246517,-0.002003515288871464,-0.004008876874753524,0.03,0.005,0.04,-0.1272480967011408,0.0006271064825060907,-0.000636240483505704,0.00041312822996671426,0.00040399422896710105,0.002,8e-05,0,-1.6262343148144327,-0.001666716089867398,-0.00013009874518515462,0.0,-0.0017968148350525526,0.05,0.02,0.005,-0.163249031263726,-0.00014779587931653597,-0.0032649806252745203,0.00024228939924134435,-0.0031704871053497116,0.020903549416869692,0.0,-0.020903549416869692,-0.034539454887851415,0.0,0.034539454887851415,-0.8333580449336989,0.0,0.8333580449336989,-0.002955917586330719,0,0.002955917586330719,-0.004008856027156595,-0.0004042010483689307,0.0031704871053497116,0.4,0.03346061706542969,2.215754747390747,STABILIZE
0.03,0.005,0.04,-0.19500304437416396,-0.0010465872084229992,-0.0009750152218708199,-0.0021659159570898753,-0.004187518387383694,0.03,0.005,0.04,-0.12639050625317552,0.0007688022412769594,-0.0006319525312658776,0.0013711812517553702,0.0015080309617664521,0.002,8e-05,0,-1.6539924552157477,-0.0016589519783671667,-0.00013231939641725982,0.0,-0.0017912713747844265,0.05,0.02,0.005,-0.1633124934403837,-9.48196655068345e-05,-0.003266249868807674,0.00013725031932997848,-0.00322381921498453,0.025626741375898647,0.0,-0.025626741375898647,-0.03488624028076664,0.0,0.03488624028076664,-0.8294759891835833,0.0,0.8294759891835833,-0.0018963933101366899,0,0.0018963933101366899,-0.004187468471817993,-0.0015081695607102896,0.00322381921498453,0.4,0.033464670181274414,2.2492265701293945,STABILIZE
0.03,0.005,0.04,-0.19611671860149688,-0.0010000474429583267,-0.0009805835930074844,-0.0016517019727019082,-0.003632333008667719,0.03,0.005,0.04,-0.12558450527679504,0.0007237657078422088,-0.0006279225263839752,0.0007935299276959793,0.000889373109154213,0.002,8e-05,0,-1.681790179084303,-0.001664103798192735,-0.00013454321432674425,0.0,-0.0017986470125194794,0.05,0.02,0.005,-0.16319912341308881,0.00016967170937693898,-0.0032639824682617765,0.00028036195029636603,-0.0028139488085884715,0.024125523594740295,0.0,-0.024125523594740295,-0.03333491476527756,0.0,0.03333491476527756,-0.8320518990963676,0.0,0.8320518990963676,0.0033934341875387795,0,-0.0033934341875387795,-0.0036323856768419194,-0.0008891579768620357,0.0028139488085884715,0.4,0.03340864181518555,2.2826168537139893,STABILIZE
0.03,0.005,0.04,-0.1972172520529543,-0.0009865857976336114,-0.0009860862602647715,-0.0008682193751425279,-0.002840891433040911,0.03,0.005,0.04,-0.1248171380388817,0.0006879151356027086,-0.0006240856901944085,0.0002648120313064519,0.00032864147671475205,0.002,8e-05,0,-1.7094469605939533,-0.0016528825367699465,-0.0001367557568475163,0.0,-0.0017896382936174627,0.05,0.02,0.005,-0.1631530349382773,6.88609004772917e-05,-0.0032630606987655458,0.00018882570970788293,-0.0030053740885803712,0.022930504520090288,0.0,-0.022930504520090288,-0.032886193254453716,0.0,0.032886193254453716,-0.8264412683849732,0.0,0.8264412683849732,0.001377218009545834,0,-0.001377218009545834,-0.0028408993317716996,-0.0003285731901443044,0.0030053740885803712,0.4,0.033464908599853516,2.3160970211029053,STABILIZE
0.03,0.005,0.04,-0.19830876963229133,-0.000979955595077615,-0.0009915438481614565,-0.0007116162870369141,-0.0026831157302759858,0.03,0.005,0.04,-0.12416132830641614,0.0005887806378952923,-0.0006208066415320807,-0.001522481543195539,-0.0015545075468323274,0.002,8e-05,0,-1.7369078550611041,-0.0016436111635365143,-0.00013895262840488834,0.0,-0.0017825637919414027,0.05,0.02,0.005,-0.1629682640096716,0.0002764763920168422,-0.003259365280193432,0.00027648728982949847,-0.0027064015983470913,0.019626021263176408,0.0,-0.019626021263176408,-0.03266518650258717,0.0,0.03266518650258717,-0.8218055817682571,0.0,0.8218055817682571,0.005529527840336845,0,-0.005529527840336845,-0.0026829656946409835,0.0015547664829783036,0.0027064015983470913,0.4,0.03341531753540039,2.3495030403137207,STABILIZE
0.03,0.005,0.04,-0.19943800887584925,-0.0010133879661543077,-0.0009971900443792464,0.00018206963997290882,-0.001828508370560645,0.03,0.005,0.04,-0.12336292569224605,0.0007164926351628408,-0.0006168146284612302,0.0007115831319446004,0.000811261138646211,0.002,8e-05,0,-1.7644419123972068,-0.0016472849618589386,-0.00014115535299177656,0.0,-0.001788440314850715,0.05,0.02,0.005,-0.1627792815220308,0.00028265722532760365,-0.003255585630440616,0.00025771089688609027,-0.002715217508226922,0.023883087838761363,0.0,-0.023883087838761363,-0.03377959887181026,0.0,0.03377959887181026,-0.8236424809294692,0.0,0.8236424809294692,0.0056531445065520726,0,-0.0056531445065520726,-0.00182858840553939,-0.0008110807231187306,0.002715217508226922,0.4,0.033429622650146484,2.3829762935638428,STABILIZE
0.03,0.005,0.04,-0.20047976259794723,-0.0009343446912078482,-0.0010023988129897361,0.0008951367628435118,-0.0010416067413540724,0.03,0.005,0.04,-0.12276918259065468,0.0005325257814255229,-0.0006138459129532734,-0.001884192990749538,-0.0019655131222772885,0.002,8e-05,0,-1.7916830242397948,-0.0016288295203759778,-0.0001433346419391836,0.0,-0.0017721641623151614,0.05,0.02,0.005,-0.16254428576162339,0.00035127790848498363,-0.0032508857152324677,0.0002670803246090343,-0.0026325274821384498,0.01775085938085076,0.0,-0.01775085938085076,-0.031144823040261605,0.0,0.031144823040261605,-0.8144147601879889,0.0,0.8144147601879889,0.007025558169699672,0,-0.007025558169699672,-0.0010413657240311222,0.001965640828404722,0.0026325274821384498,0.4,0.03344869613647461,2.416416883468628,STABILIZE
0.03,0.005,0.04,-0.20152269987312357,-0.0009342209091536919,-0.001007613499365618,0.0005246434950008057,-0.0014171909135185041,0.03,0.005,0.04,-0.1221762851324929,0.0005310934948654092,-0.0006108814256624646,-0.0015361171843699623,-0.0016159051151670176,0.002,8e-05,0,-1.8189229177606798,-0.0016266927836753554,-0.0001455138334208544,0.0,-0.0017722066170962098,0.05,0.02,0.005,-0.16214963628389437,0.0005891849916840032,-0.0032429927256778872,0.0002508149004960349,-0.0024029928334978494,0.017703116495513642,0.0,-0.017703116495513642,-0.03114069697178973,0.0,0.03114069697178973,-0.8133463918376777,0.0,0.8133463918376777,0.011783699833680064,0,-0.011783699833680064,-0.0014168585494572004,0.0016161965466527835,0.0024029928334978494,0.4,0.03349113464355469,2.449897289276123,STABILIZE
0.03,0.005,0.04,-0.20258576448178767,-0.0009536486690384495,-0.0010129288224089384,0.00026245679882665825,-0.0017041206926207294,0.03,0.005,0.04,-0.12146917845734712,0.0006343277107761019,-0.0006073458922867356,-0.00042725062211431726,-0.000400268803624951,0.002,8e-05,0,-1.8462694842471021,-0.0016354613833754004,-0.00014770155873976819,0.0,-0.0017831629421151685,0.05,0.02,0.005,-0.16182282333284784,0.000488626205861101,-0.003236456466656957,0.00025092438786874594,-0.00249690587292711,0.021144257025870063,0.0,-0.021144257025870063,-0.03178828896794832,0.0,0.03178828896794832,-0.8177306916877002,0.0,0.8177306916877002,0.00977252411722202,0,-0.00977252411722202,-0.0017040523968965173,0.0004005594572653829,0.00249690587292711,0.4,0.033442020416259766,2.4833295345306396,STABILIZE
0.03,0.005,0.04,-0.2036602871738451,-0.0009638930695697395,-0.0010183014358692256,0.0001278593788026486,-0.0018543351266363164,0.03,0.005,0.04,-0.12079482691370688,0.0006049223382373535,-0.0006039741345685344,0.00012940947531865833,0.0001303576789874774,0.002,8e-05,0,-1.873453750129921,-0.0016256970454245124,-0.0001498763000103937,0.0,-0.001775573345434906,0.05,0.02,0.005,-0.1615711239983095,0.000376308547615484,-0.00323142247996619,5.949154254534324e-05,-0.0027956223898053627,0.02016407794124512,0.0,-0.02016407794124512,-0.03212976898565798,0.0,0.03212976898565798,-0.8128485227122562,0.0,0.8128485227122562,0.0075261709523096795,0,-0.0075261709523096795,-0.0018543522339620963,-0.00013011409895975217,0.0027956223898053627,0.4,0.03344321250915527,2.51678204536438,STABILIZE
0.03,0.005,0.04,-0.20472055825089258,-0.0009511494427429207,-0.001023602791254463,0.0004961663727615494,-0.0014785858612358343,0.03,0.005,0.04,-0.12017376844537078,0.0005571399888730512,-0.000600868842226854,-0.001270362815874672,-0.0013140916692284748,0.002,8e-05,0,-1.900582287790218,-0.0016224337364664637,-0.00015204658302321746,0.0,-0.0017744803194896812,0.05,0.02,0.005,-0.16139586589278412,0.0002620346390893886,-0.0032279173178556826,-1.2548272795852608e-05,-0.0029784309515621466,0.01857133296243504,0.0,-0.01857133296243504,-0.03170498142476402,0.0,0.03170498142476402,-0.8112168682332318,0.0,0.8112168682332318,0.005240692781787772,0,-0.005240692781787772,-0.0014784656585759494,0.001314226906053052,0.0029784309515621466,0.4,0.033441781997680664,2.5502219200134277,STABILIZE
