Mode,Time,Freq,North-Vision,East-Vision,Down-Vision,Yaw-Vision,North-Desired,East-Desired,Down-Desired,Roll-UAV,Pitch-UAV,Yaw-UAV,Roll-Control,Pitch-Control,Yaw-Control,Thrust-Control,northVraw,eastVraw,downVraw,N-Velocity,E-Velocity,D-Velocity,yawVraw,yawRate,Q-Size
GUIDED_NOGPS,0.006818294525146484,147.0447342588697,-21.131925679270125,56.7770775720742,82.59033547073517,5.578763753716291,-20.739196741490506,53.3237379160884,79.09407445932953,-0.31248499650949146,1.2457774126256662,129.00885893001097,-3.592197921633827,-4.369910078229254,10.0,0.4930066521058261,-22.57972250494074,51.7388117329121,74.4359246555421,-11.400268971920013,-24.683791399002075,-24.20179396867752,5.569605587230621,-10.092476201586662,0
GUIDED_NOGPS,0.034980058670043945,35.51575399883147,-19.32572793896221,54.271095929920364,77.9177568216293,4.948325057423893,-20.73904696167726,53.323552089622524,79.09383775688046,-0.31768095619887293,1.176543200103832,129.16447796006054,3.64006262788743,4.3301205601065265,-1.4615728848747573,0.5023526747835937,-23.484307385928705,51.21968966035779,73.08470012736616,-7.727334648370743,-24.290618300437927,-21.846570074558258,5.13253831621228,-9.453564084924391,0
GUIDED_NOGPS,0.06990337371826172,28.638467263428858,-19.97817711032938,53.31228460251826,76.68852376629982,4.6956108112973896,-20.738018765694473,53.32227644358206,79.09219994127278,-0.3334758220153803,1.118162264894854,129.5331715714578,1.8778597161142188,-1.0908555665447912,1.3706376174729207,0.5048112242515824,-23.940172350225854,50.515030433745466,72.28248611201299,-7.254749536514282,-25.24876892566681,-25.84042251110077,4.809618376016406,-11.011128960990561,0
GUIDED_NOGPS,0.10191011428833008,31.248539754440337,-20.576770983119935,52.35512447263692,75.55653700766523,4.423418407215139,-20.735288836711977,53.31888951817527,79.08781207962576,-0.7029702730928525,0.699196380133009,129.9556870735148,2.1068322098835432,-1.1438373935109412,0.9504657437071313,0.5070709357555594,-24.149621167987465,50.44063684181995,71.85723429687431,-8.33493396639824,-26.942938566207886,-22.86725789308548,4.659039704154976,-10.551486258152675,0
GUIDED_NOGPS,0.13860869407653809,27.25680233427129,-21.220139840951212,51.491806900396284,74.57793410521647,4.126484999134363,-20.730092707455785,53.31244286615332,79.0793814580578,-0.7619505574014994,0.5065306708295537,130.2419949431434,1.7675802133597618,-1.1766377966128352,0.8319990481510038,0.5090177850275738,-25.500901298742505,50.355442493072225,72.17387399295296,-8.16340446472168,-28.051042556762695,-25.339922308921814,4.374983726718655,-11.847779322992933,0
GUIDED_NOGPS,0.18395662307739258,22.053810763204247,-21.96090048665303,50.511513574961896,73.43576335935492,3.8391701834552316,-20.721723375512664,53.30205933486815,79.06567080625189,-0.7193311374759719,0.07388909316290372,130.61057927151398,1.662626668375899,-1.1446791882438998,1.052199570096871,0.5112850467966774,-27.331601342840898,49.77801672322563,69.60101905186295,-7.9792410135269165,-31.25465214252472,-22.49913662672043,3.9609659470059757,-8.807944722497167,0
GUIDED_NOGPS,0.2045726776123047,48.51991439643704,-22.704932145216866,49.41086931575083,72.37585551976301,3.54027149438186,-20.709529918634676,53.28693134833022,79.04549752202121,-0.12538082209857204,-0.237769557178722,130.98005152447664,3.9418367836146992,-2.5561118454667713,-0.8289540391819639,0.5133699164311025,-27.63982694103805,48.226601166753184,68.43927196114413,-12.188463658094406,-37.37401366233826,-21.976368129253387,3.373760766843702,-9.009771689829167,0
GUIDED_NOGPS,0.23917365074157715,28.905103855112813,-23.26079767103606,48.637950240130984,71.68786989526079,3.371106926541215,-20.69291611004376,53.26631918926638,79.01773289587463,0.24689621069416642,-0.4694318580223948,131.1688379531358,1.8239572209617851,-1.2722784261801683,1.0550231257888432,0.5147006097757266,-28.177475417439695,47.52828582665784,67.71079084267878,-7.956516742706299,-37.00138330459595,-18.01706999540329,3.0240330692594695,-7.090127386803219,0
GUIDED_NOGPS,0.27443623542785645,28.365574236132716,-23.79741706416812,47.61709134722227,70.72900906859402,3.054886710740011,-20.67133903373628,53.23954928117767,78.98130133558224,0.844625461632008,-0.8515778471551405,131.43755125546244,2.4506049981149083,-1.334354912557611,-0.07949240511029276,0.516556384469547,-28.946681470415342,46.94104975388343,66.91643304283411,-2.196062356233597,-34.212201833724976,-19.068607687950134,2.708651539689284,-8.897653280829761,0
GUIDED_NOGPS,0.30576276779174805,31.925709979676807,-24.35202955949181,46.603195060012645,69.84916592979788,2.82529944372392,-20.64430769978759,53.206012470397106,78.93517959074086,1.5091845117408542,-1.1344060555667308,131.68689414130293,2.472997365430667,-1.4301375758197659,0.32341418350372586,0.5182359927949088,-30.133726801950736,46.12620916921731,65.9620247813229,-2.1566439419984818,-35.66251993179321,-16.44185483455658,2.37626076097011,-4.520683645577999,0
GUIDED_NOGPS,0.3465559482574463,24.518630236283073,-25.079325636153932,45.5685243108486,68.94497930611547,2.550182168088908,-20.611381659656576,53.16516230814751,78.87839597733961,1.9859556214698393,-1.5062143399472507,131.88024313632764,2.2296553911466708,-1.6107866377031779,0.17984134819179554,0.5199469902952553,-31.796400465881668,46.173529765230256,65.07202412573649,-8.869083970785141,-39.492958784103394,-17.869487404823303,2.2572053620073382,-7.633663595669079,0
GUIDED_NOGPS,0.37990641593933105,29.98908916710162,-25.778802267031256,44.375726502328746,68.08422243912251,2.286586209736746,-20.572169621490257,53.11651333259935,78.81002960232539,2.1481871284096283,-1.6224023677532204,132.04960450698727,2.9600085739956836,-1.899734186366123,-0.20551853611852566,0.5215461095750854,-32.35895501141809,44.909240350978756,64.84815091893634,-5.654964596033096,-35.88483929634094,-10.889822989702225,1.9433263662343863,-3.983035913550337,0
GUIDED_NOGPS,0.41408777236938477,29.258775601317037,-26.352853442414943,43.34490903956664,67.41268996061265,2.1195400389293892,-20.526328065428302,53.0596393509285,78.72920958816846,2.269855635972593,-1.722844675088195,132.18775191313995,2.643101637836924,-1.6956342928024457,0.29606877893364103,0.522743034907496,-32.313966926187135,43.187398462943925,64.19750993693431,-4.681049287319183,-35.40957570075989,-9.83443558216095,1.655028416604842,-1.7550623572380277,0
GUIDED_NOGPS,0.4492344856262207,28.457374702318354,-26.967578535244574,42.325006937034544,66.77758091516209,1.9703798288105323,-20.47355985890762,52.99417172137411,78.63511429742795,2.3122454975089846,-1.792564364649629,132.28505478805596,2.6331332068192044,-1.8267041649540936,0.3324964628170257,0.5238417140044558,-32.96517617225423,42.79900072544358,63.735040223105045,-7.192943245172501,-36.01827919483185,-8.656185865402222,1.504402446688977,-0.876367485139173,0
GUIDED_NOGPS,0.48255419731140137,30.016560154008,-27.616061262705657,41.31235842370137,66.12571507907805,1.735199229803344,-20.4136128719669,52.919797635296376,78.52697055731737,2.292351931221088,-1.9049636651786512,132.3684104166868,2.7696031539750754,-2.057289929358083,-0.3731112840425175,0.524945656406718,-34.2863405219149,42.09648827190413,62.61138410887609,-6.773151457309723,-35.11810898780823,-7.970745116472244,1.3393910203496904,-5.7750803300493985,0
GUIDED_NOGPS,0.516376256942749,29.57004575481342,-28.214963150539994,40.382585313386976,65.54318089268193,1.5962704936264613,-20.34627859255119,52.83625839923438,78.40405288427019,2.3283081814461504,-2.0965306211602335,132.40329902296722,2.6152553209006295,-2.0125692245067204,0.13836631664758925,0.5258823339387497,-35.46885213039911,40.93994235785077,61.94031724260594,-2.9998259618878365,-32.09046423435211,-6.356724351644516,1.1981977850720231,-1.339620583283645,0
GUIDED_NOGPS,0.5501947402954102,29.574007220216608,-28.811850679230563,39.45614954984682,64.9624723141535,1.4381633122934159,-20.271390741816436,52.74334771696388,78.26568270850528,2.3647655968015626,-2.192322103278958,132.44224476161463,2.6533380624456755,-2.0936752165375303,-0.07154324712413429,0.5267850179384842,-35.46885213039911,40.93994235785077,61.94031724260594,-5.199047923088074,-33.42832326889038,-8.0423042178154,1.1981977850720231,-2.899881889968089,0
GUIDED_NOGPS,0.5864744186401367,27.566357547994453,-29.39767538804808,38.59556432612275,64.48963212058057,1.3385970382288432,-20.18882388943407,52.64090997155515,78.11122759859255,2.4295836651381606,-2.2650659658171213,132.54553088224355,2.464473205188673,-2.0640807947611663,0.2538215638902883,0.527441539221791,-36.59565394839069,40.39793154054389,62.026989877502274,-3.3752042800188065,-31.58658742904663,-4.6737924218177795,1.1933079701559068,-0.23334861051672548,0
GUIDED_NOGPS,0.6164698600769043,33.34582054666009,-29.94904712690063,37.72464781226141,64.04424834865489,1.2742317577492746,-20.09849206889554,52.528838507430784,77.9401004860184,2.385932993369667,-2.4638097430690946,132.59634748966846,2.8153191101337214,-2.3284751890826745,0.33404775181583113,0.5280066737435603,-37.05644799181283,39.03186415676909,61.35723658854258,-2.3402173072099686,-31.225964426994324,-3.8462072610855103,0.9431215989169148,2.631390995676296,0
GUIDED_NOGPS,0.6505930423736572,29.311324644466964,-30.476155600515543,36.96235731308731,63.709444939840594,1.1509356569334472,-20.000347392816888,52.40707391242348,77.75175888975126,2.4316660190613684,-2.5443329776284904,132.6921613833454,2.423041021397973,-2.1760893289469383,-0.03029353870336604,0.5283188119149109,-37.431826944576194,38.68859428002393,61.22283556694041,-3.295084461569786,-31.25508725643158,-1.287033874541521,0.94041541867366,-3.0835542144861945,0
GUIDED_NOGPS,0.6850807666778564,29.000435597286852,-30.92136527605527,36.22087426734302,63.4410174031683,1.0290268514039098,-19.894378668243316,52.275602299833906,77.54570414080719,2.5162425440063436,-2.757582369130278,132.75232168955486,2.400396576709961,-2.0756883017263,-0.09270484001906798,0.5284629286750702,-37.91664905870226,38.475948079173826,61.02166416175016,3.117280639708042,-25.076448917388916,4.933978617191315,0.9579674122189953,-2.4093821000073787,0
GUIDED_NOGPS,0.7211990356445312,27.6899269841689,-31.43710902960359,35.40326356419826,63.249051483651876,0.9473358013609062,-19.78061001195373,52.134453590488484,77.32148060681529,2.546126756059265,-2.7359669548413037,132.82903837431246,2.5090979092685495,-2.2260504587517893,0.11772033942562066,0.5284188197406126,-39.43049071872652,36.50288213578063,61.02556712772568,1.348572876304388,-26.325425505638123,7.459651678800583,0.7854558214212101,-0.11533820286283188,0
GUIDED_NOGPS,0.7512168884277344,33.32224261346934,-31.978338939521585,34.49094928359152,63.15611901843689,0.8538434397745156,-19.65909946576531,51.98369979479719,77.07867491658334,2.477266069507666,-2.7666989641249526,132.87186366040842,3.0174776710265427,-2.6240496020607442,-0.11530134666208214,0.5281356652250702,-40.194598976873436,35.23632758855225,62.885211449999815,1.348572876304388,-26.325425505638123,7.459651678800583,0.5917437427614847,-0.11533820286283188,0
GUIDED_NOGPS,0.7847802639007568,29.797556123898836,-32.42908752512474,33.802876391914175,63.131814329205504,0.795313830422642,-19.529937611838065,51.823453294811394,76.81691518466326,2.5097363619350834,-2.749689018327271,132.86921354701047,2.4048354353608823,-2.3326718059808726,0.13064786640598286,0.5276792461100592,-40.194598976873436,35.23632758855225,62.885211449999815,2.0431984215974808,-26.295140385627747,6.483445316553116,0.5917437427614847,-0.0003927358772757332,0
GUIDED_NOGPS,0.8203756809234619,28.098585793623677,-32.96972321986987,33.02022689303608,62.99767685442285,0.7881629670905507,-19.3932461879794,51.653865126281666,76.53587023591666,2.3489658751474423,-2.8129606891470953,132.80641678778136,2.5564698058979562,-2.521329313463632,0.4327533671009168,0.527404723464702,-41.76050743795536,34.66089049775023,61.229011529633674,0.9366927668452263,-26.38401687145233,6.3516490161418915,0.6551769645210997,3.3550474038050315,0
GUIDED_NOGPS,0.8553802967071533,28.580314128990494,-33.45502615147508,32.21798250859366,62.96735376361743,0.7691669337332349,-19.249176702948674,51.475123260715584,76.23524883008041,2.352671893102409,-2.841857085091304,132.7047562521749,2.6589102658385233,-2.523738936548871,0.3513923138935345,0.5268824388722019,-41.768279646084885,33.850045589107125,63.024456098558375,3.1051015481352806,-24.88105744123459,6.626348197460175,0.5981222623708152,2.7397837499268713,0
GUIDED_NOGPS,0.8853578567504883,33.35457140812253,-33.91570113977486,31.49441094278191,62.970971468713415,0.7461261892315413,-19.097909051761757,51.28745088743555,75.91479888633208,2.3060396303177932,-2.800543618679424,132.6725040989141,2.6711190795201465,-2.7109586482642776,0.2962357680309933,0.5262500582246832,-41.768279646084885,33.850045589107125,63.024456098558375,2.433638647198677,-24.475882947444916,7.254067808389664,0.5981222623708152,1.9062263964014574,0
GUIDED_NOGPS,0.9212863445281982,27.83805453049088,-34.37653629389001,30.812288240933277,63.02172199058284,0.7379183483443617,-18.939650130995595,51.091104695636595,75.57430670785556,2.3232192636276676,-2.9667165716571335,132.52861933385861,2.4418385380715804,-2.5714315971658057,0.39696268564046117,0.5254855738531634,-42.8661658336803,31.803599935550153,63.22428755874179,2.433638647198677,-24.475882947444916,7.254067808389664,0.5861099626523495,1.9062263964014574,0
GUIDED_NOGPS,0.9526660442352295,31.873064121464505,-34.856575131584144,30.057894066126938,63.03384657494598,0.7132616455982469,-18.77463245409276,50.88637315644422,75.21359620640654,2.3023566642512754,-2.9781891550286392,132.45686136643846,2.7411386581190373,-2.8540011823258236,0.27117084561634247,0.5247552271004509,-44.04809153546916,30.597728704582757,62.92182962672355,4.285060986876488,-22.65942096710205,6.5386176109313965,0.40084256304621124,1.7271084206775753,0
GUIDED_NOGPS,0.9873313903808594,28.852213631235728,-35.24274906895174,29.43633747430187,63.1052299925766,0.7130866500201929,-18.60311276666603,50.673574804972176,74.83252812687805,2.2987673998424336,-3.0148326930389344,132.36633403917912,2.4079417113834976,-2.611275840059863,0.4268315960914909,0.5238664137771865,-44.04809153546916,30.597728704582757,62.92182962672355,7.691424340009689,-20.003150403499603,9.008736163377762,0.40084256304621124,2.6712383192941505,0
GUIDED_NOGPS,1.0211536884307861,29.57004575481342,-35.59045801453328,28.775603751477707,63.280134373224556,0.632452566275687,-18.425370661802926,50.45305652238029,74.430999271866,2.467845957981749,-2.9965136987981373,132.31368694105666,2.4993182712736304,-2.5981867859112215,-0.09187630175358152,0.5227288080486956,-43.93648952346743,29.65210687232178,65.10884928473578,9.321137517690659,-17.258615791797638,9.128909558057785,0.49883571291310297,-2.429856872704961,0
GUIDED_NOGPS,1.0533533096313477,31.06017565426028,-36.00314172696887,28.095453414233887,63.44002937953216,0.5801765128314963,-18.241707195370296,50.225191817932284,74.0089417262347,2.450573903674668,-2.9947675182481412,132.29437116608386,2.610198239085327,-2.8738892172130814,0.023631941831325,0.5215785250183226,-43.93648952346743,29.65210687232178,65.10884928473578,3.017064742743969,-22.38931804895401,7.779201865196228,0.49883571291310297,-0.94864347971919,0
GUIDED_NOGPS,1.0866224765777588,30.061523465496975,-36.39550535885133,27.46788356843347,63.65228368432793,0.5568553552516844,-18.052443501318848,49.99037911105359,73.56632208168236,2.404970865020608,-2.9588731666124315,132.29782724180387,2.494725745630178,-2.858527302425968,0.19375142530705447,0.520281954885756,-44.13602862364663,29.310019854922395,66.0756908572234,3.017064742743969,-22.38931804895401,7.779201865196228,0.9488460963525314,-0.94864347971919,0
GUIDED_NOGPS,1.1233103275299072,27.260699731572412,-36.725759070626914,26.86155943320754,63.810548757282746,0.5471935502057141,-17.85791940698774,49.74904001338916,73.1031406613067,2.3911239371388766,-2.8946188023257715,132.29620165678142,2.3981409648603407,-2.6824469283571335,0.27570802747445183,0.5190527150371977,-44.721307857838276,28.592708834714426,65.99242926473102,7.918520271778107,-19.061362743377686,4.878430813550949,0.946024114423591,-0.10853106558126792,0
GUIDED_NOGPS,1.1548798084259033,31.683819308052577,-37.021687452883825,26.31231009504974,64.03091556594178,0.542499004819488,-17.658492048409123,49.50161761086127,72.6194307441704,2.3597624832345283,-2.842000519063874,132.3615529067601,2.4002271334628182,-2.829804703871409,0.2956531025519604,0.5176553687339224,-44.721307857838276,28.592708834714426,65.99242926473102,8.856827765703201,-17.1190083026886,9.042911976575851,0.946024114423591,0.39165980231633885,0
GUIDED_NOGPS,1.1978209018707275,23.29288935291112,-37.25662009195709,25.87693280166437,64.24468220041784,0.5295691346913721,-17.454534485612697,49.24857474572734,72.11525778986666,2.359046807475558,-2.6953426972053602,132.46683344262667,2.063416202436232,-2.4874583693342953,0.2574588008116699,0.5162329946653195,-44.977234275264166,27.87329211350773,66.49196510820576,11.487312614917755,-14.136508107185364,6.823565810918808,1.0976215364983302,-1.241210363948455,0
GUIDED_NOGPS,1.2255034446716309,36.128516546936105,-37.54122616595242,25.114696688834833,64.54812956522676,0.4256315493160035,-17.24643431793028,48.99039229863775,71.59071866308474,2.367351463732647,-2.6136258870885047,132.68900583594885,3.004169841262477,-3.0539367049686557,-0.49271128154948984,0.514584849504983,-45.67374352391539,26.145902629214387,66.94070917117378,10.608138889074326,-14.815573394298553,11.253802478313446,1.0397080586347696,-5.613370905694293,0
GUIDED_NOGPS,1.2594804763793945,29.43577794932978,-37.77298726473238,24.736238971025443,64.84488309817473,0.3472162347930998,-17.034592299300378,48.72756747069366,71.04594085817548,2.3469753018912067,-2.6160798459912433,132.88848834084826,2.0494643525319813,-2.776211646312042,-0.252876453500544,0.5129102213715717,-45.67374352391539,26.145902629214387,66.94070917117378,10.608138889074326,-14.815573394298553,11.253802478313446,1.0397080586347696,-5.613370905694293,0
GUIDED_NOGPS,1.2975375652313232,26.279935589376006,-38.02092552193234,24.25833540409339,65.11051253732727,0.30784741052448283,-16.819420953572717,48.460612065504804,70.48108172371681,2.2688714484018764,-2.7236566060794134,133.17741900311813,2.204240728907874,-2.760150083003922,-0.022790836915274837,0.5112573958860314,-45.67374352391539,26.145902629214387,66.94070917117378,9.689420461654663,-13.899807631969452,9.377249330282211,1.0397080586347696,-2.627783802020883,0
GUIDED_NOGPS,1.3274405002593994,33.447667046786655,-38.22756738146907,23.707396328958904,65.32421319759936,0.16170397177690515,-16.601343189812834,48.190050771247336,69.89632768707932,2.275920417068741,-2.8117222904732073,133.44849555089758,2.4671726122308675,-2.943312764278187,-0.8801492755171597,0.509665956847624,-45.517791608666755,25.111681498890754,67.64492333324316,11.487508565187454,-12.677690386772156,3.991621732711792,0.9050350860736319,-8.442089908473665,0
GUIDED_NOGPS,1.3606007099151611,30.161395636478694,-38.427284920573406,23.335945562210682,65.50003444205832,0.007849846149993692,-16.380790917606618,47.91641944272159,69.29189347899175,2.246846009319289,-2.9391862135469276,133.78123504650392,2.049388588533089,-2.88047996186597,-0.9221148051090405,0.5081104815713705,-45.517791608666755,25.111681498890754,67.64492333324316,9.67482402920723,-13.336490094661713,2.9130959883332253,0.9050350860736319,-9.992281595330807,0
GUIDED_NOGPS,1.3940982818603516,29.8582228739838,-38.62193295154401,22.916273957275386,65.65485220939212,-0.17520255378287503,-16.158203662364876,47.64026338340995,68.66802135810656,2.199957187553975,-3.0819813499863877,134.04191604636662,2.13807759506747,-2.910112662045008,-1.196706799057758,0.5065571441202431,-46.28841471683785,24.552687987152577,66.80525599571385,11.856434494256973,-11.489365249872208,4.057671129703522,0.6858444963575218,-10.765564877308385,0
GUIDED_NOGPS,1.4279847145080566,29.514281090133768,-38.76050536967651,22.52561057417603,65.77482566104206,-0.35003454804981543,-15.934027180627904,47.36213562753464,68.0249803355654,2.1592040100974477,-3.28209884903518,134.42134671513918,2.0764957621611004,-2.828059548245134,-1.2419707606789807,0.5050341649244033,-46.09323353970211,23.900212783718786,67.31646592430477,14.079686999320984,-9.110626578330994,0.6611824966967106,0.3947353195155929,-9.488937634635887,0
GUIDED_NOGPS,1.4617888927459717,29.58694149348909,-38.921077628959544,22.12935487549908,65.83799304728433,-0.5186644887190582,-15.708712075370014,47.082595222115515,67.36306539956472,2.1252729109612933,-3.440328078564753,134.77497292922743,2.085440527055994,-2.9198575954370987,-1.3096109610830573,0.5035860609345673,-46.09323353970211,23.900212783718786,67.31646592430477,11.676712334156036,-10.521549731492996,-2.6096533983945847,0.3947353195155929,-9.21453819982521,0
GUIDED_NOGPS,1.495453119277954,29.70912104491461,-38.965340043104554,21.75753511632028,65.91226364424897,-0.6912119307609113,-15.482712411304139,46.802205509027914,66.68259673992122,2.1273966729063445,-3.576571142599467,135.18064518479116,2.038614536024687,-2.712877853854322,-1.4399011115915816,0.5020776196619463,-46.1680393553409,21.93459401504446,68.00044537491897,18.794985115528107,-5.690566822886467,-3.4390147775411606,-0.016531841315374315,-8.552703968308375,0
GUIDED_NOGPS,1.5304546356201172,28.57622499591214,-38.98795776053262,21.42423168926341,66.04254391870279,-0.9180546299020688,-15.256484330186364,46.52153240706047,65.98391897263745,2.1349470201469702,-3.6834522906093534,135.56566294830478,1.9546430203369922,-2.6803986966767748,-1.8522597631939546,0.5004196218304137,-46.1680393553409,21.93459401504446,68.00044537491897,19.3945974111557,-5.059508234262466,0.48584253527224064,-0.016531841315374315,-12.142735919658056,0
GUIDED_NOGPS,1.5641865730285645,29.650525244242107,-39.02665186147918,21.065034631499078,66.09586952375084,-1.1797981450812405,-15.030484666120488,46.241142693972876,65.26740036446729,2.0502712440156183,-3.7564029798133207,135.8735542157106,2.000409579413817,-2.7619084340381024,-2.2524350021204063,0.49887881025188013,-46.457724657994284,21.03668181505013,67.85215110613483,18.389855325222015,-5.777556821703911,-3.547266870737076,-0.3916055186707807,-13.348639968569657,0
GUIDED_NOGPS,1.59967041015625,28.185822094093773,-39.05409446473224,20.738157942543843,66.14970547848966,-1.4051372391832473,-14.8051695608626,45.961602288553756,64.53343205748148,2.0091436868152095,-3.818978611668039,136.30403371833984,1.9300694239228682,-2.744683930919838,-2.116007634250524,0.4973009127671467,-46.457724657994284,21.03668181505013,67.85215110613483,18.437965214252472,-5.299138650298119,-3.147796541452408,-0.3916055186707807,-11.473835857444843,0
GUIDED_NOGPS,1.630002737045288,32.97382882210046,-39.07298867255508,20.37452267009069,66.19565739386613,-1.644333363997909,-14.580993079125626,45.68347453267844,63.78242729363316,2.1177861698573133,-3.795059289194654,136.56172309534608,2.0191783227045,-2.838390491368508,-2.5613436015294164,0.49570406694251307,-46.34869719650093,20.247752742511828,67.35115244888178,17.773829400539398,-5.191065743565559,-1.989440806210041,-1.0408253862327035,-10.357376550809144,0
GUIDED_NOGPS,1.6647212505340576,28.807032967032967,-39.01882374947071,20.141853367564,66.24370988707295,-1.8634502429999997,-14.358405823883885,45.4073184733668,63.01482063932347,2.0654786602026514,-3.6365237683694884,137.07942411367637,1.7479224097624666,-2.6333679587190986,-2.3825933259015217,0.4940682726258729,-45.6486037060715,20.296653345261184,67.98375603651166,20.73063552379608,-2.9400592669844627,-3.066995181143284,-0.9122072280210227,-11.46692626732573,0
GUIDED_NOGPS,1.6976616382598877,30.362484707653774,-38.92870126734778,19.89712996111137,66.33570219927118,-2.066746368064404,-14.13785355167767,45.133687144841055,62.23106720996693,1.9993141908259149,-3.5500610439965317,137.45747508423656,1.7634858309040793,-2.5890126615780713,-2.4712563089727118,0.49231135911134516,-45.6486037060715,20.296653345261184,67.98375603651166,22.05164134502411,-1.1793600395321846,-0.32381259370595217,-0.9122072280210227,-9.532939420816401,0
GUIDED_NOGPS,1.7315826416015625,29.4846120319991,-38.79256023938157,19.58473385080942,66.3386549212363,-2.3729861578335987,-13.919775787917786,44.863125850583586,61.43164189455711,2.0335144421040496,-3.484705952036441,137.7501486901716,1.8944460401313952,-2.5049605752419617,-3.2300575942917753,0.49069994743782425,-44.64754177530082,17.440176298424717,67.23709717699587,22.09964394569397,-0.3809672547504306,-3.355614095926285,-2.8140799097698643,-11.303239076319082,0
GUIDED_NOGPS,1.7657470703125,29.27450008724481,-38.63157905731366,19.251030894849034,66.1601598579184,-2.682359716886858,-13.704604442190128,44.59617044539473,60.61703858023208,1.8011919607884128,-3.3664696145314084,138.12992086840268,1.9358161541511056,-2.465123045336592,-3.422108181453031,0.489420162546583,-44.993143951256215,16.7770685163998,66.50157078495502,24.165593087673187,-0.36753176245838404,-12.437653541564941,-3.1890296390622517,-10.640883189104388,0
GUIDED_NOGPS,1.7982475757598877,30.77349298585432,-38.435499734234625,18.958996414752697,66.05921210434975,-2.9342484325865326,-13.492762423560219,44.33334561745064,59.78776937683996,1.6516263993341778,-3.2392714285050843,138.45051628766473,1.8629142806618793,-2.3950991120031637,-3.3088488541090575,0.48795535737417844,-44.745388872220545,16.377708573022208,66.60194772773926,25.738710165023804,1.206984929740429,-7.704447954893112,-3.34174435117136,-7.553676957846352,0
GUIDED_NOGPS,1.8322529792785645,29.411834004179347,-38.12897856350624,18.686604769697936,65.97662294674947,-3.18313777903068,-13.284662255877809,44.07516317036105,58.94436384150448,1.4664657339072442,-3.219794076869735,138.6643695105778,1.8366728438448008,-2.1567864270371544,-3.376203206443414,0.4864241755231255,-43.11627573633265,15.595280933254736,66.90145634056833,28.51189374923706,2.7350079268217087,-7.362840324640274,-3.9135586446585835,-6.7432720246165765,0
GUIDED_NOGPS,1.865476131439209,30.104676868306967,-37.81004152195634,18.356561566272216,65.91495459371492,-3.395103625405771,-13.080704693081383,43.82212030522712,58.08736820319044,1.4575484950589694,-3.046828927649271,138.8851075641743,1.960915445366379,-2.1226157569652924,-3.311100175464766,0.4848231025444873,-42.272992665055696,15.246047621007339,66.7454565011266,26.317548751831055,-0.31093559227883816,-5.483797192573547,-4.311176802702548,-3.496128803093053,0
GUIDED_NOGPS,1.9041073322296143,25.889646743659224,-37.501826912387386,18.011232137022642,65.83255560758441,-3.613549337990201,-12.881277334502762,43.57469790269923,57.21734458726934,1.446168973014905,-2.8063552558894584,139.12365875112616,1.975040639830504,-2.1647480632824023,-3.3129706344889955,0.48323470242215194,-42.11833245525436,14.523422402060948,66.01157827819796,25.63125789165497,-1.1607213877141476,-4.6703338623046875,-4.769058487575628,-3.560404298277458,0
GUIDED_NOGPS,1.9354157447814941,31.943216176078597,-37.05867587937493,17.66721336423731,65.78519220984099,-3.8226180198295028,-12.686753240171655,43.3333588050348,56.33487024008478,1.4271513784880625,-2.6558505434243465,139.19868154896957,2.0430404532311317,-1.8066154477693284,-3.6084570144967576,0.4815524596116302,-40.78555444610757,13.13293138593741,65.93107930247635,30.791598558425903,1.8702328205108643,-2.2672224789857864,-5.229807405971746,-2.148716681513716,0
GUIDED_NOGPS,1.9687345027923584,30.022361244327374,-36.65550594462477,17.323906124524978,65.64413701795189,-4.013318691522983,-12.497489546120207,43.09854609815611,55.440536753518124,1.3988159118294414,-2.530412838656593,139.27143672400857,2.0439426271337835,-1.8895988262231986,-3.562052203669272,0.4800324144219804,-40.79073724531828,12.485675173334137,65.72896611625984,29.764387011528015,1.1669207364320755,-7.775183022022247,-5.408310885183628,-2.023275775094789,0
GUIDED_NOGPS,2.00380802154541,28.514640397571604,-36.21756540110535,16.950804538193317,65.50952088445929,-4.241858804527497,-12.31382607968758,42.870681393708104,54.53494928955394,1.5346895053187397,-2.248884180456303,139.34346789899553,2.109214789689001,-1.8261585678741896,-3.8484631104653166,0.47847507676191836,-39.88865935036651,12.521324374215842,66.06894776172999,28.855815529823303,-1.2954367324709892,-8.337046205997467,-5.379410792353084,-4.687526810868016,0
GUIDED_NOGPS,2.0358593463897705,31.20460074546361,-35.75159694189215,16.54884631322653,65.42490860333574,-4.365431697631095,-12.13608397482447,42.65016311111621,53.618725804845546,1.6367372272737846,-2.2021816947892834,139.3530848053469,2.2260039897452164,-1.696896579041126,-3.384546284030135,0.4767966033583631,-39.62959882891924,11.96605731226288,65.2144591259272,29.509514570236206,-2.0239051431417465,-2.624758705496788,-5.578577473611771,2.2795619751134155,0
GUIDED_NOGPS,2.0694992542266846,29.731865514528145,-35.30537129329404,16.183994791924857,65.1903176804556,-4.4962049807457865,-11.964564287397732,42.43736475964416,52.69249627528059,1.7128539226014645,-1.9482820055553416,139.32926110552188,2.1609963954672273,-1.725651917614283,-3.4759565487387323,0.4753965252130334,-39.308799552717275,11.52599183304293,64.93501287822698,29.689273238182068,-1.2557693757116795,-11.748182028532028,-5.642878669745429,0.35090801224198664,0
GUIDED_NOGPS,2.107630491256714,26.2293179245696,-34.7748040044704,15.83597827093208,64.93024478719754,-4.639708766397492,-11.799546610494914,42.232633220451795,51.75690192054648,1.8241034034723975,-1.9644712614355642,139.22941740023464,2.1289824128210824,-1.5972924672000326,-3.536410052028912,0.4740253870174617,-38.44028043752781,10.626612532218546,64.97675226808111,32.436034083366394,1.8714342266321182,-13.46169114112854,-5.7427112866255445,-0.3557356753247163,0
GUIDED_NOGPS,2.14165997505188,29.389164494520585,-34.05771277049795,15.412838112434722,64.67052437626316,-4.772277013320279,-11.641287689728738,42.03628702865284,50.81259442869603,1.9516004102749098,-1.8419835580590216,139.1325106762905,2.374579012076056,-1.0941066708342972,-3.641664027679793,0.4726373293749603,-35.631204719285144,9.629792589139686,64.84528396738898,33.28291475772858,1.0639051906764507,-12.321864068508148,-5.725765839163852,0.9282850336809092,0
GUIDED_NOGPS,2.175037145614624,29.965949603126408,-33.44359480009581,15.002501736096661,64.37581185998738,-4.781624381631326,-11.490020038541832,41.8486146553728,49.86023518071293,2.094155636319773,-1.8343277697730835,138.95466621068172,2.3814550835232873,-1.231486912053407,-2.9250152014478665,0.4713026667387495,-35.933971932394655,9.068670776798774,64.11607218384738,32.14294612407684,-0.15534700360149145,-13.389936089515686,-5.768563835617391,6.662413683901027,0
GUIDED_NOGPS,2.208496570587158,29.893335423957122,-32.87216521189657,14.568474772058904,64.06077166383714,-4.769543342604771,-11.345950553511106,41.669872789806725,48.90049447507722,2.1502517665296765,-1.8122370170065583,138.73110045876885,2.4646982833025826,-1.2698575890795905,-2.788918915726752,0.46999314109721413,-35.46134723071752,8.760516340609009,63.52894858201671,29.749566316604614,-2.5708982720971107,-13.489910960197449,-5.671881811075012,6.925466040066198,0
GUIDED_NOGPS,2.2422595024108887,29.62162772959688,-32.257418323908674,14.159976025663186,63.8520476973554,-4.757006778017763,-11.209259129652441,41.500284621277,47.93405075233092,2.0398479484553556,-1.7298241679245958,138.4787932708286,2.4502753282329994,-1.1432184001404184,-2.7805255277189955,0.46845603372869793,-34.7103385177881,8.431304495767732,62.923373625288846,31.373628973960876,-1.295284926891327,-5.646146833896637,-5.587383039681059,6.198245126964362,0
GUIDED_NOGPS,2.2761898040771484,29.47943125830235,-31.626019843247043,13.764265602586748,63.608086518216645,-4.647471621990917,-11.08009727572519,41.34003812129118,46.96158981964355,2.104589604050614,-1.6959019266900217,138.26686616126142,2.475428631716097,-1.038562459629847,-2.140343782742578,0.46697652823350383,-34.511522456889196,8.037413455348585,62.53395040254277,32.42737054824829,-0.27184521313756704,-6.938481330871582,-5.502357471559918,11.54327668318907,0
GUIDED_NOGPS,2.3114757537841797,28.343147523702047,-31.040222086437627,13.337395298136778,63.267562137176654,-4.525140666026898,-10.95858672953678,41.1892843255999,45.98380407537759,2.1230121183460193,-1.4912826926479568,137.8211689971614,2.546636845174023,-1.1197105650929489,-2.023914786797867,0.4656775329190545,-33.64366406285783,7.958369115712642,62.81858234876982,28.544077277183533,-3.5061925649642944,-14.385780692100525,-5.377508221710583,11.475547673605579,0
GUIDED_NOGPS,2.348590135574341,26.948407242261087,-30.395359100743168,12.906617220903636,62.95187306869516,-4.351695598251384,-10.844818073247186,41.04813561625448,45.00139173365403,2.153323003778655,-1.2502033752078345,137.51189803154324,2.688913456575251,-0.807429827394356,-1.5053217916481734,0.46432155993731045,-32.382905005821705,6.504363865565805,62.24811442444245,30.43559193611145,-1.0443104431033134,-11.908429116010666,-5.218988067514923,13.751643327715213,0
GUIDED_NOGPS,2.3762612342834473,36.14377181265888,-29.718765605207253,12.5548080770276,62.61538566300729,-4.162523825635591,-10.738849348673615,40.9166640036649,44.01505604891796,2.041436607767618,-1.1238265194292043,137.16451461035638,2.5421982673287125,-0.7260971115247561,-1.36515533638391,0.4629970044258132,-31.77857094955948,6.087883850081862,61.596280321756325,34.551745653152466,2.8404003009200096,-12.714013457298279,-4.956628853871793,13.749598539832439,0
GUIDED_NOGPS,2.4108495712280273,28.917060794506572,-28.961089975952223,12.164517176575863,62.26389513368911,-4.002530828732554,-10.64070467259496,40.794899408657606,43.025504540504016,2.0402494355125054,-0.9066369625499654,136.74878831633438,2.656129036264467,-0.5247816290656714,-1.4740581915468698,0.4616943324773077,-30.144722464156764,5.444906093832206,61.8245334330809,33.984002470970154,1.9918818026781082,-14.15138989686966,-4.645387732737273,11.00657151726687,0
GUIDED_NOGPS,2.444652557373047,29.589863701780626,-28.223406691908394,11.732768315243256,61.8073960143805,-3.7658701323137946,-10.55037285205643,40.68282794453324,42.03344821720201,1.9631314771411839,-0.7381428658323621,136.33515206019842,2.794403131494608,-0.4643102009868764,-0.8613083164809452,0.4605964426712765,-28.914205153339132,4.6826470026729226,60.62090812170726,30.199074745178223,0.49648191779851913,-17.508448660373688,-3.89858185671547,13.41602490737371,0
GUIDED_NOGPS,2.4765779972076416,31.330937992545064,-27.478400528242336,11.301223448687555,61.51421286953342,-3.5915982263727093,-10.467805999674066,40.580390199124516,41.039600801822324,1.9750367103079278,-0.6474777608508493,135.93290855959802,2.8900728148409485,-0.2844315466210804,-1.060321902516023,0.4591690368128184,-28.521602753976705,4.22241536512057,60.03319945860494,32.475048303604126,0.01897645415738225,-6.7489080131053925,-3.499050980878332,8.560960813241275,0
GUIDED_NOGPS,2.5118942260742188,28.318079317282635,-26.763315171403864,10.877661969756902,61.2136851645722,-3.346557504017764,-10.392918148939312,40.487479516853995,40.04467795576155,1.933906805229992,-0.6520174354105277,135.50794784981818,2.8440008286695213,-0.4034191736645182,-0.6242937327116989,0.4577502545330917,-27.99178470346802,4.122183310009773,59.97807931572692,31.156209111213684,-0.798655953258276,-8.306416869163513,-3.346892682761252,12.772125898843683,0
GUIDED_NOGPS,2.5472710132598877,28.27074318221647,-26.033877428530285,10.411604470995362,60.83493947564272,-3.0474546112397163,-10.325583869523594,40.40394028079199,39.04939650356806,1.9131586115221972,-0.7062924130721233,135.19839001625485,2.976262882193891,-0.29233995151503667,-0.13889490302409846,0.4564863297665273,-27.215720537595725,3.708964333920862,59.10200458506871,29.023975133895874,-2.6884689927101135,-9.986108541488647,-2.799593047010517,14.13306499663082,0
GUIDED_NOGPS,2.5805962085723877,30.010976037321388,-25.30876797625052,9.90233552168485,60.49303259026157,-2.716722012918109,-10.265636882582886,40.32956619471427,38.0544736575073,2.1340347630059506,-0.6769994392692311,134.81130953561188,3.166375328552591,-0.13266933548585563,0.3599580559697859,0.45515046389349717,-26.96310768611638,3.3603542783993707,58.75847660051032,27.611199021339417,-5.011918395757675,-7.421886175870895,-2.494477987159708,15.25548705841194,0
GUIDED_NOGPS,2.616312265396118,28.00272395882015,-24.630021103574254,9.406603744188237,60.15795248197563,-2.410937197300152,-10.212868676062204,40.26409856515989,37.0606262421276,2.1734788920193626,-0.7655420629661626,134.21943266289526,3.2003870768249336,-0.1281572753803972,0.4150046339116227,0.45380257716487477,-26.59525984923294,2.7704263219652443,58.46652460847227,27.952155470848083,-4.630036652088165,-8.015032857656479,-2.3449819147676996,14.03357731495406,0
GUIDED_NOGPS,2.648876905441284,30.713551353963766,-23.976936179871185,8.898286743214259,59.87407079702268,-2.083034728427496,-10.167027120000238,40.20722458348903,36.068569918825574,2.273565282465556,-0.8137815546398469,133.70309768239898,3.244956292749588,-0.1426221477290413,0.6760911474312326,0.4523538032184157,-24.83238407511662,1.951432713537769,58.81852089388008,26.773229241371155,-5.581732839345932,-7.729784399271011,-2.052404809980819,15.272603512471992,0
GUIDED_NOGPS,2.6818928718566895,30.294938930580937,-23.272358352836928,8.428076856674082,59.5724655587203,-1.752890044677123,-10.12781508183392,40.15857560794087,35.079018410411635,2.3746245479816532,-0.8914811996685302,133.2106547036194,3.2843234041204976,0.1475693924169647,1.019861816668298,0.45094668303738333,-24.29559979847111,1.8166973736531393,58.32769476784311,29.342755675315857,-3.746425360441208,-7.9357825219631195,-1.432598353277427,14.130080203963523,0
GUIDED_NOGPS,2.7206966876983643,25.774937318715892,-22.565430934594698,7.993138038764041,59.296306608442485,-1.4067768729554535,-10.094889041702903,40.11772544569127,34.09268272567556,2.5078808983583674,-0.9058275851333188,132.57973646960698,3.0716509339509006,-0.07981457692456072,0.8411887889051524,0.4494849195425517,-23.60802918823414,1.7413032979844574,58.42123634200492,30.009162425994873,-2.7323944494128227,-7.49574676156044,-1.2922064931156574,15.297981080333175,0
GUIDED_NOGPS,2.7503185272216797,33.76648552912289,-21.87554117957231,7.465307475402268,58.947440699265044,-0.9588305041335219,-10.067857707754232,40.08418863491071,33.11027038395201,2.287777625467883,-1.060298716515504,132.04423597829964,3.7296376831015783,0.6232854183206329,2.859918720786673,0.44819087369825616,-23.158164276369693,0.0033760752470364183,57.18248134524504,26.55848264694214,-4.244185984134674,-8.66769403219223,-0.43446536132698943,16.967532030483582,0
GUIDED_NOGPS,2.7827377319335938,30.8547636037282,-21.400726036681014,7.003001431244456,58.58091334602331,-0.5965801791488208,-10.046280631446738,40.057418726822,32.13248463968604,2.2269797637880724,-1.022978242725437,131.44200453880129,3.35977731048616,-0.14558687104160847,1.7941747646055974,0.4469327420281604,-23.089270929401444,0.12561405152381325,56.603286203424005,24.928420782089233,-5.642294883728027,-12.844842672348022,0.19919878159008406,15.793022946091943,0
GUIDED_NOGPS,2.8146276473999023,31.35975117384933,-20.688852737339335,6.500175473403067,58.22437109593629,-0.10481012541350443,-10.029666822855834,40.036806567758184,31.160023706998686,2.093166539550591,-0.9129802872982031,130.9477447297025,3.4689023161157997,0.4174453691923805,2.79570835409166,0.44566365716696477,-21.658470431625656,-0.7095452414847787,56.566682965479714,26.94486379623413,-3.2734278589487076,-9.046852588653564,0.5797713820927033,20.19969024385492,0
GUIDED_NOGPS,2.849562644958496,28.628498102492696,-19.92675185065011,6.016708709995045,57.879673155042674,0.36603674454675694,-10.017473365977839,40.021678581220264,30.193579984252395,1.9945650749186405,-0.5749637768669396,130.21285735614413,3.458849799251637,0.5979814344013709,2.909326174237372,0.4443813928321503,-20.671215825021967,-1.157087919085347,56.00382944570076,29.471054673194885,-1.9356004893779755,-7.354941964149475,1.38892145717858,16.96926348343818,0
GUIDED_NOGPS,2.885241746902466,28.033793177200298,-19.19888713803743,5.518391117320728,57.59194581070973,0.8515131532856094,-10.00910403403471,40.011295049935036,29.23383927861667,1.9667566000431682,-0.40977986729755955,129.7822139289748,3.510965130988333,0.605052441586089,3.2325476947942775,0.44299689876569254,-20.671215825021967,-1.157087919085347,56.00382944570076,27.39877998828888,-3.8147125393152237,-4.14886400103569,1.38892145717858,18.20837420454709,0
GUIDED_NOGPS,2.9190256595611572,29.60552822344413,-18.439960478920757,5.025155414449121,57.259890278261956,1.3148734825842698,-10.003907904778519,40.004848397913115,28.28148003063356,1.8809546964724102,0.13506181483427174,129.05128806513508,3.586709968041368,0.8544452745098966,3.5346420441416853,0.4417171687563033,-19.907034518675125,-1.0867856347588405,55.94333081768015,27.388477325439453,-4.462719336152077,-7.405515015125275,2.016960788274078,15.443949053085516,0
GUIDED_NOGPS,2.953464984893799,29.040393270096242,-17.735240956979847,4.540666396249911,56.93682620618313,1.778237363995911,-10.001177975796015,40.001461472506286,27.337172538783108,1.8795628319856086,0.5437058430171993,128.42415375592284,3.590842336031884,0.8126657741232529,3.7622271775199234,0.4404339725694739,-19.46354863234447,-1.6879493451965528,55.51931527401062,27.388477325439453,-4.462719336152077,-7.405515015125275,2.6833929130173084,15.443949053085516,0
GUIDED_NOGPS,2.9871835708618164,29.665414783537383,-17.091203553185736,4.034303533234201,56.575760491256275,2.330769278110088,-10.000149779813231,40.00018582646583,26.401578184048986,1.79074539989629,0.9253161425477751,127.79785272978935,3.684923114368065,0.8115907196546308,4.667869074197395,0.43924411964436183,-19.576898989600338,-2.042740659188935,54.903320385705825,25.767147541046143,-6.267757713794708,-9.061054140329361,3.34259955240128,19.68772487688015,0
GUIDED_NOGPS,3.0269293785095215,25.162754143994434,-16.556366877167996,3.474353569283497,56.23052706649799,2.8728745451861886,-9.99999999999999,39.99999999999999,25.475348654484065,1.8669954973561966,1.5286828875522425,127.16438000502735,3.681317270228165,0.5041162702142755,4.451471561633745,0.4380332298054055,-19.138353503278985,-2.260941564613855,54.667599244389166,20.156754553318024,-10.753757506608963,-8.630186319351196,3.5773641545783583,20.070469894947447,0
GUIDED_NOGPS,3.0589077472686768,31.27580215797833,-15.858130286637934,2.8475792853593074,55.82127439300991,3.4805624316311308,-10.0,40.0,24.559125169775655,1.8098744118839685,1.9090493989627884,126.57799460440343,3.93351127291466,1.21469900887384,5.901864099164156,0.43697943503666814,-17.668248478961345,-3.0036994262777093,54.51892409999823,20.22937685251236,-10.867282003164291,-9.74806547164917,4.396449837454714,18.393337434818328,0
GUIDED_NOGPS,3.0930726528167725,29.273682814648343,-15.296524649524356,2.2726013348552816,55.43738908662018,4.023286823932053,-10.0,40.0,23.65353770581146,1.8531968076854783,2.196053520999901,126.09255939971227,3.9157615113316697,0.9160569290232691,5.585371334407056,0.4358925171298962,-16.8809870715477,-3.6008907449054117,54.001355552604636,20.720230042934418,-10.949629545211792,-11.642137914896011,5.742542753909229,17.04419236618051,0
GUIDED_NOGPS,3.1261353492736816,30.249929681583787,-14.7098050500079,1.6729356762414325,55.0279771600228,4.59440027305197,-10.0,40.0,22.759204219244822,1.8819361092787765,2.3725573485406666,125.53346743501172,3.924394002322382,1.101305230172665,6.205997464300562,0.4348799318325426,-16.666654288631413,-4.22066668199461,53.53350125005589,20.720230042934418,-10.949629545211792,-11.642137914896011,6.199752830595441,17.04419236618051,0
GUIDED_NOGPS,3.160193681716919,29.365501886845294,-14.127171482358953,1.0454382592890306,54.6741610687701,5.158429349665918,-10.0,40.0,21.876729872060224,2.0090918200661996,2.667940405142092,125.14167412384144,3.912350673924749,1.1510928901685786,6.411883402000256,0.43377799746977647,-15.431469514641131,-5.176498445586301,53.313996310549015,19.800595939159393,-11.816280335187912,-9.022609144449234,6.755925008622517,17.10589117250053,0
GUIDED_NOGPS,3.194575548171997,29.089537125657138,-13.608695012110072,0.40228821367160644,54.385625336941644,5.636803906000964,-10.0,40.0,21.006706256139182,2.0307625161987692,2.74314996597063,124.83666519626536,3.912175276415594,1.0867404593753447,6.163639328010573,0.43256909742049054,-15.352928262588911,-5.273250055087404,53.14511012552698,16.10753983259201,-13.355499505996704,-4.963322356343269,7.05391170705545,11.786109544976888,0
GUIDED_NOGPS,3.227543354034424,30.337668349559507,-13.184860362730735,-0.2081872007464204,54.0260850428469,6.0565486573954175,-10.0,40.0,20.149710617825093,2.06958915342253,2.994330599584672,124.29805013869648,3.9164963556486683,0.99862192594836,6.1796398090572655,0.4315295015890367,-15.592176519844802,-4.627396968620333,52.80271933242838,13.032695651054382,-14.731262624263763,-9.336712956428528,7.669133762390716,7.663049630799412,0
GUIDED_NOGPS,3.2612152099609375,29.703230009843704,-12.806048994933589,-0.8564447647267736,53.640946479350035,6.556430302476805,-10.0,40.0,19.306305082489644,1.9911444308049335,3.043795896770962,123.97375275690428,3.915347901368283,0.9656444074155953,6.9429437306109,0.4305673371526546,-14.601361777931396,-5.823344025875729,52.49478246166524,10.738648474216461,-16.09661430120468,-11.90456971526146,8.46661185832302,12.713411031417316,0
GUIDED_NOGPS,3.2946410179138184,29.92105807574601,-12.426584734653465,-1.524245101599667,53.25102490766775,7.055047440145283,-10.0,40.0,18.477035879097514,1.9307350361341673,3.1082654120164777,123.6816802076162,3.9040871995484756,1.0215700534647056,7.184143384383004,0.4296416388890996,-14.309453136909276,-6.598162522949975,52.21706378394996,10.738648474216461,-16.09661430120468,-11.90456971526146,8.794406415598068,12.713411031417316,0
GUIDED_NOGPS,3.328550338745117,29.4939420149217,-12.045043702013672,-2.1908519579861143,52.86215769386553,7.532491576582924,-10.0,40.0,17.6624325647725,1.8674853499857336,3.1402951572424294,123.3516181461645,3.8907384578570885,1.0896155145586652,7.335520048761416,0.4287424230728417,-14.258380218161136,-7.1360819531711535,51.75198558908477,11.934065073728561,-15.748198330402374,-11.39010414481163,9.166253867151234,11.490806316211387,0
GUIDED_NOGPS,3.3624579906463623,29.496223575577716,-11.776381191900574,-2.882565191265756,52.42302742460504,7.999312892781547,-10.0,40.0,16.86300724936268,1.8172414112340618,2.9639936740558257,123.11088129867824,3.9107240054235697,0.9149701340464158,7.555671085518878,0.42797364815210337,-14.29574930311625,-7.475859478136364,51.371233570169906,6.481663882732391,-18.026816844940186,-14.41107839345932,9.395638333910503,11.475421315105933,0
GUIDED_NOGPS,3.3953144550323486,30.4411542704523,-11.518538451664863,-3.5395718517166435,52.05162367359561,8.326023301072286,-10.0,40.0,16.07925382000616,1.7992481316393096,2.892137736109764,122.96482453346668,3.9025299819116928,0.9571604249904551,6.994378207304516,0.42710190953991206,-14.335458022857658,-7.747666300967886,51.23576999022687,7.7342405915260315,-16.937007009983063,-11.176463961601257,9.713576803119814,3.9993259147208176,0
GUIDED_NOGPS,3.428312063217163,30.30938771380878,-11.241461419504908,-4.191610463215473,51.68411510297167,8.616743521014893,-10.0,40.0,15.3116471656964,1.7384827133580565,2.6826709887476943,122.8065417296408,3.8893267617834515,1.0316983862742406,6.916492662861234,0.4262532757636045,-14.096135885036901,-8.460978374884974,50.82532580292445,10.066355019807816,-16.466155648231506,-10.982700437307358,10.071470604889178,2.4432664550364005,0
GUIDED_NOGPS,3.4638912677764893,28.111391862093924,-11.064546284006585,-4.921136279158551,51.233926298233854,8.87572312755371,-10.0,40.0,14.560642401848156,1.7027531400360736,2.558350233352649,122.7658611229442,3.918263579433153,0.8338509663549661,6.783639443105846,0.42559953798129047,-14.247786508103903,-9.437394820966853,50.25497453269119,4.158675670623779,-19.428540766239166,-14.911982417106628,10.313134964162083,0.4479839434506441,0
GUIDED_NOGPS,3.495912790298462,31.232949341355713,-10.964657355828903,-5.749817061720358,50.722751515300445,9.16229896173556,-10.0,40.0,13.826674094862312,1.7567812170313437,2.2714212433964067,122.72789893153727,3.9333352605753786,0.7338314507277883,7.288634861315169,0.4251067280808002,-14.39162730638485,-10.879431909917376,49.28404815472192,-0.27719561476260424,-22.194652259349823,-15.693968534469604,10.599312512236741,1.1900037954106346,0
GUIDED_NOGPS,3.529343843460083,29.915722803914296,-10.958937411803106,-6.5344767628069835,50.234253014078824,9.384328087919158,-10.0,40.0,13.110155486692179,1.8987648416200416,2.163809051701917,122.75625787697116,3.964062337131968,0.5457600532015466,6.957893184196393,0.42460100713931226,-14.607206405844554,-10.989364337954296,49.10034777627365,-2.0008159801363945,-23.38009774684906,-17.15921014547348,10.71379638572339,0.5092459911897511,0
GUIDED_NOGPS,3.562835216522217,29.863112402190087,-10.965852250263998,-7.321026851686156,49.76471376184669,9.580042077499066,-10.0,40.0,12.411477719408367,1.7949120287334093,2.047635858213051,122.83408105237429,3.9666762559810156,0.5326278523072033,6.915255660421395,0.4240926248291381,-15.182364040927798,-11.315818197331417,48.71783594620318,-1.8177630379796028,-22.724440693855286,-14.832356572151184,10.935899374871948,-1.603745919478742,0
GUIDED_NOGPS,3.5966732501983643,29.56170929568729,-11.033443442349387,-8.111570096583856,49.27929537389241,9.731355340965397,-10.0,40.0,11.731009059764915,1.7447556017804784,1.8956910430501244,122.95509834408858,3.9877603847025234,0.4118768354454819,6.743658300723191,0.42365229200831056,-16.476001427899426,-12.098653590288274,47.747639112128276,-1.376348827034235,-22.392413020133972,-13.957622647285461,11.110996900348503,-3.8555747652409673,0
GUIDED_NOGPS,3.6376452445983887,24.41004033126342,-11.145465685861389,-8.894266915243223,48.757325927478654,9.832637528452358,-10.0,40.0,11.069094123764216,1.6908884611175266,1.7047011313317022,123.13333896066924,3.9970526179559864,0.36107439426710275,6.390562648372878,0.4233102046783479,-16.697344873944736,-12.291749855898477,47.614852653360145,-2.828533947467804,-23.151525855064392,-17.28350967168808,10.90637339347437,-5.159057031069486,0
GUIDED_NOGPS,3.670356512069702,30.57362578086845,-11.20244081369337,-9.835268177085606,48.18500406440569,9.968140110951124,-10.0,40.0,10.42605310122309,1.664145282309165,1.4303913427538815,123.31942063441706,3.9852137598069013,0.4329645177512,6.806586183036955,0.4231191946287264,-16.768941349435632,-13.423764492686958,46.811933717497894,-3.1793955713510513,-23.874226212501526,-13.944268226623535,10.863451498984631,-5.32670829311568,0
GUIDED_NOGPS,3.704674482345581,29.145326940448893,-11.388317688490412,-10.632003368839765,47.70824403884884,10.019675352747784,-10.0,40.0,9.802180980337823,1.684601698873353,1.246732145005587,123.56312178400312,4.0327921820534165,0.16504573672095024,6.313189712326579,0.42277311646095034,-17.530643090994587,-13.848002713290779,46.39758304083229,-3.1793955713510513,-23.874226212501526,-13.944268226623535,10.772235879390458,-5.32670829311568,0
GUIDED_NOGPS,3.738196849822998,29.835496973275195,-11.567242138316209,-11.434430393392883,47.25298757508432,10.052681046246773,-10.0,40.0,9.197746772250213,1.7030032957144252,1.0640981159630294,123.77696134653787,4.034364623509833,0.15795867885771653,6.228660607031066,0.4224237677422523,-17.530643090994587,-13.848002713290779,46.39758304083229,-2.84788329154253,-24.930809438228607,-13.031178712844849,10.772235879390458,-6.136229997508408,0
GUIDED_NOGPS,3.77121901512146,30.286407486569235,-11.796078910517197,-12.238661062635957,46.833575066530265,10.051688440089354,-10.0,40.0,8.612992735612806,1.8067165166098953,1.012707025595913,123.98504988979148,4.057063007456053,0.029850919239921447,6.025023750012167,0.4220424104551479,-17.530643090994587,-13.848002713290779,46.39758304083229,-5.41878268122673,-27.627500891685486,-12.521833181381226,10.772235879390458,-7.232752835730486,0
GUIDED_NOGPS,3.8057479858398438,28.96878863433872,-12.036803964815025,-13.045072753531164,46.27607515292384,10.039385255458628,-10.0,40.0,8.04813360115412,1.9333571884452174,0.9007727115389805,124.19674477292686,4.0622658716251925,-0.0003733421904065226,5.951878688319161,0.42197525334968433,-17.746520071561534,-14.309276667605769,46.100361528341296,-5.427674576640129,-28.207427263259888,-21.34975492954254,10.655023913268717,-6.910545064937482,0
GUIDED_NOGPS,3.843430757522583,26.53967691519182,-12.265068901278168,-13.84395064564723,45.819239042685275,10.005710264130368,-10.0,40.0,7.5033557962448185,1.976254404970894,0.8416549696732872,124.38304501272812,4.053768256640169,0.045398182691416156,5.825609723253015,0.42174131966664874,-18.20692960635524,-14.615530035689048,45.69722317201746,-3.3522259443998337,-28.22655439376831,-14.887803792953491,10.575556808474499,-7.576032166999803,0
GUIDED_NOGPS,3.872856855392456,33.996385005065854,-12.529800307581445,-14.680722314035494,45.27518224918974,9.938666526919665,-10.0,40.0,6.978816669462901,1.9434315040275747,0.7986162935265972,124.65185393770315,4.095195469875293,-0.19548304217211754,5.501759458065482,0.42173584166926487,-18.780167368113403,-15.088781984107381,45.48278478188197,-4.624597355723381,-28.508076071739197,-18.935292959213257,10.286236088601358,-8.909177517506865,0
GUIDED_NOGPS,3.9090347290039062,27.643390518622017,-12.831596190186882,-15.370744797196538,44.883132957036516,9.913598759072084,-10.0,40.0,6.474643715159232,1.9669869054842446,0.6593577543341758,124.91987056073445,4.089809009890937,-0.16694650306351544,5.8105849655083714,0.4214556062621821,-18.780167368113403,-15.088781984107381,45.48278478188197,-5.064255744218826,-29.881015419960022,-16.579316556453705,10.286236088601358,-4.4288918795485515,0
GUIDED_NOGPS,3.9391212463378906,33.24353842861559,-13.117655451217962,-16.158102555613475,44.451397979934605,9.860122187006576,-10.0,40.0,5.990933798022866,2.109377993545616,0.5443675175930442,125.07445140203018,4.108510887138878,-0.27926938702882187,5.561405886351226,0.4213052639900393,-18.780167368113403,-15.088781984107381,45.48278478188197,-5.713274702429771,-31.2518447637558,-16.005955636501312,10.286236088601358,-6.721943478272743,0
GUIDED_NOGPS,3.9740796089172363,28.609946590451763,-13.429901765351355,-16.846796676050324,44.095177075441896,9.821521872380915,-10.0,40.0,5.527752377647289,2.173335031159969,0.306611780875221,125.31371292865572,4.108211086909096,-0.28139765041655085,5.668562571514976,0.4210382576517321,-18.780167368113403,-15.088781984107381,45.48278478188197,-6.984587013721466,-31.59957230091095,-15.369690954685211,10.286236088601358,-5.097935375734335,0
GUIDED_NOGPS,4.008518218994141,29.040795413631706,-13.7079585594501,-17.57747689165827,43.703576861680936,9.743919336263742,-10.0,40.0,5.085132733094952,2.382365927075628,0.2410206738627952,125.59385996765296,4.098787601266385,-0.23432668667899237,5.402468164239713,0.42088220660673414,-18.780167368113403,-15.088781984107381,45.48278478188197,-5.618001893162727,-31.023696064949036,-15.598353743553162,10.286236088601358,-7.694505213248259,0
GUIDED_NOGPS,4.039974212646484,31.796709877947084,-13.978491716355588,-18.315254452012955,43.32037934147668,9.653859175591995,-10.0,40.0,4.663075187463562,2.6034371658375495,0.03272518388146326,125.79694881243412,4.110203614133535,-0.3100759158063071,5.219222856546319,0.42075588732110714,-18.780167368113403,-15.088781984107381,45.48278478188197,-5.351778119802475,-31.78791105747223,-15.365603566169739,10.286236088601358,-8.211128769236977,0
GUIDED_NOGPS,4.073587656021118,29.753589467113105,-14.276575789153938,-18.965471010441153,42.969849506428865,9.527334962694315,-10.0,40.0,4.2615463324514735,2.816909392261009,-0.12361524487855019,126.01529629982109,4.116877378373183,-0.36305539240768947,4.964355328564523,0.42060179097998784,-18.780167368113403,-15.088781984107381,45.48278478188197,-7.1303293108940125,-32.69059360027313,-17.2995388507843,10.286236088601358,-10.082257384814676,0
GUIDED_NOGPS,4.108150243759155,28.937609957017585,-14.56816752766287,-19.624848531599167,42.53526119314923,9.452727511423722,-10.0,40.0,3.8804782529230692,3.106872053425795,-0.32703385973057403,126.30086650901933,4.115990711739503,-0.36595075857203196,5.239396921661507,0.42065545484926314,-18.780167368113403,-15.088781984107381,45.48278478188197,-7.121078670024872,-31.883296370506287,-21.780695021152496,10.286236088601358,-6.844551350289995,0
GUIDED_NOGPS,4.1419358253479,29.60469236361583,-14.835617918291513,-20.242379121922365,42.1496411805878,9.27797586458268,-10.0,40.0,3.519767751473978,3.395357259295743,-0.7550871777809887,126.76963605213564,4.112738075152359,-0.3655416672994596,4.532639219082628,0.42065305198372455,-18.780167368113403,-15.088781984107381,45.48278478188197,-5.7933807373046875,-30.591246485710144,-19.402317702770233,10.286236088601358,-12.822257779804286,0
GUIDED_NOGPS,4.17882227897644,27.113553208269227,-15.141447675627113,-20.817482063054886,41.81894979179947,9.120541009034634,-10.0,40.0,3.1792755729975397,3.6529362860582055,-1.0106230708471187,127.30624303408852,4.12051270809037,-0.43162169062318256,4.616648350421013,0.42057657626305,-18.780167368113403,-15.088781984107381,45.48278478188197,-8.68401825428009,-31.17751181125641,-18.018701672554016,10.286236088601358,-11.724596861311753,0
GUIDED_NOGPS,4.2079668045043945,34.31653357769341,-15.380192085764145,-21.33049133348032,41.547417169395516,8.912162968053273,-10.0,40.0,2.858825629249111,3.819383300376362,-1.1336841899488252,127.64252056768493,4.120593077430617,-0.4573012565679414,3.923356610724462,0.42043344844065555,-18.780167368113403,-15.088781984107381,45.48278478188197,-4.64666374027729,-28.432708978652954,-15.015891194343567,10.286236088601358,-14.795297940440452,0
GUIDED_NOGPS,4.242329359054565,29.10609004607783,-15.65606194287228,-21.733758663311093,41.234704435746146,8.678715551955095,-10.0,40.0,2.558204223412929,4.012442012361357,-1.1364313133773454,128.1850288330807,4.121139143007306,-0.4900946022367033,3.8478659671160624,0.4204044948751536,-18.780167368113403,-15.088781984107381,45.48278478188197,-7.901602238416672,-27.97296643257141,-21.44990861415863,10.286236088601358,-16.892449468484923,0
GUIDED_NOGPS,4.2770164012908936,28.83892215980583,-15.92318793322513,-22.196192700773256,40.90820356868063,8.43717570572733,-10.0,40.0,2.277159274666303,4.4512163528507385,-1.168777595182645,128.73711302369284,4.11924502666111,-0.5088696769870789,3.6685902725318744,0.4204418466339385,-18.780167368113403,-15.088781984107381,45.48278478188197,-7.2824083268642426,-26.69297158718109,-19.359809160232544,10.286236088601358,-16.76229167611387,0
GUIDED_NOGPS,4.323932886123657,21.316636342383184,-16.1590434661044,-22.608805334297273,40.57227519066468,8.138328468797118,-10.0,40.0,2.015399542746252,4.8124680462604745,-1.194212472599832,129.34482227490554,4.115475307248092,-0.522939182656795,3.0344325359579667,0.42054031770628436,-18.780167368113403,-15.088781984107381,45.48278478188197,-5.621331557631493,-24.4960755109787,-20.246252417564392,10.286236088601358,-20.154351448144375,0
GUIDED_NOGPS,4.345058917999268,47.34351472463965,-16.385430919215167,-22.956960231153882,40.27935437930315,7.850815077438815,-10.0,40.0,1.7725938525143192,4.915460041868274,-1.1154586839222924,129.74173822795333,4.106587574467697,-0.4985342016570272,3.0971768943954148,0.42058564866921894,-18.780167368113403,-15.088781984107381,45.48278478188197,-5.621331557631493,-24.4960755109787,-20.246252417564392,10.286236088601358,-20.154351448144375,0
