Mode,Time,Freq,time2delay,actualDelay,North-Desired,East-Desired,Down-Desired,Roll-UAV,Pitch-UAV,Yaw-UAV,Roll-Control,Pitch-Control,Yaw-Control,Thrust-Control,North-Pos,East-Pos,Down-Pos,Yaw-Ang,North-Vel,East-Vel,Down-Vel,Yaw-Vel,North-Acc,East-Acc,Down-Acc,North-Avg,East-Avg,Down-Avg,Yaw-Avg,North-Dif,East-Dif,Down-Dif,Yaw-Dif,North-One,East-One,Down-One,Yaw-One,North-Two,East-Two,Down-Two,Yaw-Two,Landing-State,Q-Size,Kalman-Time,Kalman-Dt
STABILIZE,0.034352779388427734,29.1182138790925,0.03330591519673665,0.03347325325012207,0.0,0.0,0.0,1.2685509708657814,-0.8913091109179576,25.21449709474832,-0.003498090694372998,0.0034497957732742353,0.04434977235703878,0.4,0.08638017570649191,0.08731864697483249,0.12369978809264925,0.08869954471407757,-0.07931250147521496,0.021316148922778666,1.9081741571426392,0.17273060159158296,2.5701332837343216,0.11492318008095026,27.205967903137207,0.0,0.0,0.0,0.0,0.0,0.0,0.0,0.0,0.0,0.0,0.0,0.0,0.0,0.0,0.0,0.0,False,0,0.14464712142944336,0.03487060546875
STABILIZE,0.0676877498626709,29.99852664554382,0.03236559232076009,0.03248405456542969,0.0,0.0,0.0,1.2675170509801705,-0.8918230292921482,25.214683217403206,-0.004123856510055595,0.004071274533451766,0.051959127507839015,0.4,0.10196868340753731,0.10291163991768099,0.15731635849183984,0.10391825501567803,-0.006575964653166011,-0.0466379540739581,2.0094558596611023,-0.18685377860872973,0.8968578651547432,0.0540277105756104,30.023393034934998,0.0,0.0,0.0,0.0,0.0,0.0,0.0,0.0,0.0,0.0,0.0,0.0,0.0,0.0,0.0,0.0,False,0,0.1732625961303711,0.034926025390625
STABILIZE,0.10114192962646484,29.891418064681652,0.03249862988789876,0.03263711929321289,0.0,0.0,0.0,1.2685476624929022,-0.8917104912534016,25.214775424957,-0.004647871383307962,0.004595622665692888,0.058134973996672966,0.4,0.11512612728870139,0.11596339882160135,0.19125651978828956,0.11626994799334593,-0.006575964653166011,-0.0466379540739581,2.0094558596611023,-0.18685377860872973,0.8968578651547432,0.0540277105756104,30.023393034934998,0.0,0.0,0.0,0.0,0.0,0.0,0.0,0.0,0.0,0.0,0.0,0.0,0.0,0.0,0.0,0.0,False,0,0.20189213752746582,0.034926025390625
STABILIZE,0.13764166831970215,27.39799331103679,0.032477410634358723,0.035662174224853516,0.0,0.0,0.0,1.2685452078936692,-0.8920166758272886,25.21474810420032,-0.0050846343130474935,0.005062211774980944,0.06386983595423479,0.4,0.12683838160451044,0.12683338991392754,0.22495424734778627,0.12773967190846958,0.1012256252579391,-0.030845345463603735,1.9442524760961533,0.05756832946073181,4.266864433884621,-1.8527444452047348,27.430960536003113,0.0,0.0,0.0,0.0,0.0,0.0,0.0,0.0,0.0,0.0,0.0,0.0,0.0,0.0,0.0,0.0,False,1,0.23055529594421387,0.0349248046875
STABILIZE,0.17110633850097656,29.882260741943988,0.03251198132832845,0.03264951705932617,0.0,0.0,0.0,1.2686553446940356,-0.8917960820614383,25.215803368427085,-0.0056286822414725055,0.005560536959614744,0.07113411716308629,0.4,0.13936240244637613,0.1403714454352015,0.28539279643609744,0.14226823432617258,-0.01752278330968693,0.04680362471845001,1.965186931192875,0.16491966662586516,-5.449137836694717,0.04375704447738826,23.58817458152771,0.0,0.0,0.0,0.0,0.0,0.0,0.0,0.0,0.0,0.0,0.0,0.0,0.0,0.0,0.0,0.0,False,0,0.2879016399383545,0.034925048828125
STABILIZE,0.20451712608337402,29.929171334584453,0.03250244458516439,0.03263449668884277,0.0,0.0,0.0,1.2678319867339316,-0.891741067022108,25.216648604336875,-0.005895947734159053,0.005865474463886948,0.07392830194990027,0.4,0.1470167477093525,0.14701979415878944,0.3179490079849742,0.14785660389980054,0.16966309631243348,0.054143054876476526,1.8237194046378136,-0.0754451223136237,-1.0709930211305618,0.04917524056509137,20.853713154792786,0.0,0.0,0.0,0.0,0.0,0.0,0.0,0.0,0.0,0.0,0.0,0.0,0.0,0.0,0.0,0.0,False,0,0.3165552616119385,0.03492578125
STABILIZE,0.23803973197937012,29.831677323451803,0.032544644673665364,0.03268027305603027,0.0,0.0,0.0,1.2672944295019106,-0.8920747324352337,25.216838142086342,-0.006117407031788424,0.00611579392506026,0.0768532387729736,0.4,0.15330457422505794,0.15252445738523454,0.35015244237251664,0.1537064775459472,0.14518473763018847,0.0711339118424803,1.8353605642914772,0.10512533582594387,0.3689028788357973,0.1902230316773057,26.56087875366211,0.0,0.0,0.0,0.0,0.0,0.0,0.0,0.0,0.0,0.0,0.0,0.0,0.0,0.0,0.0,0.0,False,0,0.3452296257019043,0.02993603515625
STABILIZE,0.27141284942626953,29.96530734718372,0.03247526486714681,0.03259634971618652,0.0,0.0,0.0,1.2665013805062486,-0.8933788183190301,25.21691156661992,-0.006188345353748599,0.006091639554644239,0.0780674737268796,0.4,0.1527120145764541,0.15429305648539712,0.3752416078650471,0.1561349474537592,-0.18799705430865288,0.04463618388399482,1.8232813104987144,0.10689720295650021,-3.543560579419136,0.16145993722602725,27.25186049938202,0.0,0.0,0.0,0.0,0.0,0.0,0.0,0.0,0.0,0.0,0.0,0.0,0.0,0.0,0.0,0.0,False,0,0.37391209602355957,0.03492578125
STABILIZE,0.30486083030700684,29.89461380013257,0.03252867062886556,0.03264188766479492,0.0,0.0,0.0,1.2658572082901518,-0.89309712637662,25.217478472321034,-0.006293240125774808,0.006144169437077981,0.0791473388609779,0.4,0.15403831747820246,0.15690603109377382,0.40733106134624897,0.1582946777219558,-0.1243048463948071,-0.016128279094118625,1.8964728340506554,-0.06288113607773069,-1.2195384129881859,-0.03656910266727209,23.138390481472015,0.0,0.0,0.0,0.0,0.0,0.0,0.0,0.0,0.0,0.0,0.0,0.0,0.0,0.0,0.0,0.0,False,0,0.4026522636413574,0.034925048828125
STABILIZE,0.338395357131958,29.82064827125296,0.03253749211629232,0.03271651268005371,0.0,0.0,0.0,1.264497146871673,-0.8931079586297568,25.220087604583977,-0.006356017019040962,0.006150173539152525,0.07966514992621833,0.4,0.15419561980769925,0.15847224567613843,0.4388143719797666,0.15933029985243666,-0.1243048463948071,-0.016128279094118625,1.8964728340506554,-0.06288113607773069,-1.2195384129881859,-0.03656910266727209,23.138390481472015,0.0,0.0,0.0,0.0,0.0,0.0,0.0,0.0,0.0,0.0,0.0,0.0,0.0,0.0,0.0,0.0,False,1,0.43176865577697754,0.034925048828125
STABILIZE,0.37183308601379395,29.906763829271423,0.032503636678059895,0.03263044357299805,0.0,0.0,0.0,1.2645688638579582,-0.8915387226679464,25.21940800076156,-0.0062743179056320335,0.006146004822667277,0.07881498132853934,0.4,0.15408108014325037,0.1564346382043611,0.49563330711389925,0.15762996265707868,0.13073584996163845,-0.08793078595772386,2.271895669400692,-0.18652889105590456,5.748646333813667,0.0995521666482091,29.575103521347046,0.0,0.0,0.0,0.0,0.0,0.0,0.0,0.0,0.0,0.0,0.0,0.0,0.0,0.0,0.0,0.0,False,0,0.48877835273742676,0.03492578125
STABILIZE,0.4053823947906494,29.808568098473433,0.032508166631062825,0.03265833854675293,0.0,0.0,0.0,1.2640458207779233,-0.8918467215108317,25.220172981948604,-0.0063080077684098046,0.006073948762528353,0.07973175931793114,0.4,0.15228703580150585,0.15727696418063652,0.5225661421609095,0.15946351863586228,-0.09901275625452399,0.10173702612519264,1.6817623749375343,0.17847884610838338,-8.779259771108627,0.1323506934568286,21.93792015314102,0.0,0.0,0.0,0.0,0.0,0.0,0.0,0.0,0.0,0.0,0.0,0.0,0.0,0.0,0.0,0.0,False,0,0.5173215866088867,0.034925048828125
STABILIZE,0.4387838840484619,29.936861639484672,0.03242519696553548,0.032567501068115234,0.0,0.0,0.0,1.2637877676933438,-0.8916388809888223,25.22099089710171,-0.006356140302765311,0.005941597038738649,0.08001134778193583,0.4,0.1489831513027227,0.1584880277888551,0.5494743071126348,0.16002269556387166,-0.15805563889443874,0.16730655916035175,1.7637372016906738,0.1174915934214503,-2.0407667383551598,4.097378626465797,26.05503797531128,0.0,0.0,0.0,0.0,0.0,0.0,0.0,0.0,0.0,0.0,0.0,0.0,0.0,0.0,0.0,0.0,False,0,0.5463423728942871,0.02993701171875
STABILIZE,0.4722259044647217,29.902499536594757,0.032486708958943684,0.03261613845825195,0.0,0.0,0.0,1.2639680206544086,-0.8909652535819298,25.22046497253562,-0.006293487711682628,0.005749937101301666,0.07893063595944602,0.4,0.14418137664793923,0.15694054059315304,0.5708333071443973,0.15786127191889204,-0.13302713632583618,0.09851108770817518,1.9242644309997559,0.05582842881611031,-0.6237196736037731,0.11333882575854659,28.08983027935028,0.0,0.0,0.0,0.0,0.0,0.0,0.0,0.0,0.0,0.0,0.0,0.0,0.0,0.0,0.0,0.0,False,0,0.5747568607330322,0.0349248046875
STABILIZE,0.505786657333374,29.797979510933658,0.03250315984090169,0.03264355659484863,0.0,0.0,0.0,1.2643100637214382,-0.8909323299356962,25.22103700087861,-0.006277248566976538,0.005591880724895319,0.07841393708733972,0.4,0.1402260401783525,0.15654797959112907,0.5984234348881374,0.15682787417467944,-0.13302713632583618,0.09851108770817518,1.9242644309997559,0.05582842881611031,-0.6237196736037731,0.11333882575854659,28.08983027935028,0.0,0.0,0.0,0.0,0.0,0.0,0.0,0.0,0.0,0.0,0.0,0.0,0.0,0.0,0.0,0.0,False,0,0.6036732196807861,0.0349248046875
STABILIZE,0.5391674041748047,29.9576024227187,0.03238991101582845,0.032523393630981445,0.0,0.0,0.0,1.2639403797326112,-0.890449467577888,25.223460010486672,-0.006118789670633544,0.005489324480067,0.07693467061714959,0.4,0.137643420955863,0.15260064742044419,0.6243331356440817,0.15386934123429918,-0.0055452692322432995,-0.12001162394881248,1.8764711916446686,-0.04810103360064622,5.99127858877182,-0.08565416792407632,28.413531184196472,0.0,0.0,0.0,0.0,0.0,0.0,0.0,0.0,0.0,0.0,0.0,0.0,0.0,0.0,0.0,0.0,False,1,0.632286548614502,0.03492626953125
STABILIZE,0.5726351737976074,29.87842910976713,0.032469781239827473,0.03262209892272949,0.0,0.0,0.0,1.263329077801895,-0.8912998261295546,25.223591491628195,-0.00601421234015481,0.005235708953670504,0.07168089630198214,0.4,0.13126852303594863,0.1500273268773744,0.6640609840794719,0.14336179260396428,-0.10932604782283306,0.11524675646796823,1.943899318575859,-0.07013076823189099,-4.7069549560546875,-0.1811090623959899,22.494639456272125,0.0,0.0,0.0,0.0,0.0,0.0,0.0,0.0,0.0,0.0,0.0,0.0,0.0,0.0,0.0,0.0,False,0,0.6894595623016357,0.03492578125
STABILIZE,0.6060163974761963,29.95738845359941,0.03247955640157064,0.03258514404296875,0.0,0.0,0.0,1.2638375000082378,-0.891984285789584,25.225259765332968,-0.005892074951087454,0.004956892938309079,0.0695092796066557,0.4,0.12427936152469449,0.14700076383626698,0.6857916569014986,0.1390185592133114,-0.25307564064860344,0.0006942855179659091,1.781277358531952,-0.07294082411628927,-2.6627182960510254,-0.3768934402614832,18.71524602174759,0.0,0.0,0.0,0.0,0.0,0.0,0.0,0.0,0.0,0.0,0.0,0.0,0.0,0.0,0.0,0.0,False,0,0.7182044982910156,0.034925048828125
STABILIZE,0.6394600868225098,29.899728398406033,0.03252223332722982,0.032633304595947266,0.0,0.0,0.0,1.2641127352874482,-0.8915157241403505,25.22482434077338,-0.005758788700037835,0.004664524126401678,0.06720241226071856,0.4,0.11695050713119265,0.1436957698322174,0.7063887573441159,0.13440482452143712,-0.25307564064860344,0.0006942855179659091,1.781277358531952,-0.07294082411628927,-2.6627182960510254,-0.3768934402614832,18.71524602174759,0.0,0.0,0.0,0.0,0.0,0.0,0.0,0.0,0.0,0.0,0.0,0.0,0.0,0.0,0.0,0.0,False,0,0.7468628883361816,0.034925048828125
STABILIZE,0.6729545593261719,29.856310016158538,0.032502206166585286,0.03264188766479492,0.0,0.0,0.0,1.2630936497189411,-0.8915787966684673,25.22492508606364,-0.0056520115709497235,0.00457272759620584,0.0653099039381115,0.4,0.11464002128578762,0.1410393059101847,0.7256951193753367,0.130619807876223,0.08290179539471865,0.056699360720813274,1.77008006721735,-0.00634220625473539,2.116508036851883,1.7418848350644112,23.186051845550537,0.0,0.0,0.0,0.0,0.0,0.0,0.0,0.0,0.0,0.0,0.0,0.0,0.0,0.0,0.0,0.0,False,0,0.7772955894470215,0.029936279296875
STABILIZE,0.7064101696014404,29.891205039944698,0.03248599370320638,0.03261232376098633,0.0,0.0,0.0,1.2639465695915464,-0.8915656698986563,25.226212576722187,-0.0055002969151601985,0.004336171435343701,0.06405038809221308,0.4,0.10871145107634232,0.13726471123210504,0.7401157475757267,0.12810077618442617,-0.1185182249173522,0.04165407444816083,1.938815787434578,0.11842009894217535,-1.9442681223154068,0.02556628896854818,28.374987840652466,0.0,0.0,0.0,0.0,0.0,0.0,0.0,0.0,0.0,0.0,0.0,0.0,0.0,0.0,0.0,0.0,False,0,0.8049755096435547,0.069851806640625
STABILIZE,0.739842414855957,29.91060273269247,0.032471688588460286,0.03260445594787598,0.0,0.0,0.0,1.2634514875984264,-0.8911865943997205,25.226190378607384,-0.005559438114790462,0.0041987462646482735,0.06502918666555883,0.4,0.10528387663530478,0.13874732173115503,0.8053586231380458,0.13005837333111767,-0.1185182249173522,0.04165407444816083,1.938815787434578,0.11842009894217535,-1.9442681223154068,0.02556628896854818,28.374987840652466,0.0,0.0,0.0,0.0,0.0,0.0,0.0,0.0,0.0,0.0,0.0,0.0,0.0,0.0,0.0,0.0,False,1,0.8339123725891113,0.069851806640625
STABILIZE,0.7735211849212646,29.69334673708355,0.03250315984090169,0.03286910057067871,0.0,0.0,0.0,1.262423330684928,-0.8923620272671974,25.2251163313604,-0.00528578292531854,0.0038551580507226917,0.06322439086354971,0.4,0.09667035246430637,0.13193154820001318,0.861267751980179,0.12644878172709942,-0.1575375208631158,0.055876816622912884,1.6667887568473816,0.13358258529107475,-5.535869300365448,-0.0934731331653893,24.38545525074005,0.0,0.0,0.0,0.0,0.0,0.0,0.0,0.0,0.0,0.0,0.0,0.0,0.0,0.0,0.0,0.0,False,0,0.8912205696105957,0.034925048828125
STABILIZE,0.8074686527252197,29.45645059344055,0.032514365514119466,0.033116817474365234,0.0,0.0,0.0,1.2615198247237822,-0.8919791631477064,25.22504973701599,-0.005108040852064224,0.003552511990045895,0.06188816492226404,0.4,0.08908846538566091,0.12750886077578463,0.8666596540805315,0.12377632984452808,-0.1575375208631158,0.055876816622912884,1.6667887568473816,0.13358258529107475,-5.535869300365448,-0.0934731331653893,24.38545525074005,0.0,0.0,0.0,0.0,0.0,0.0,0.0,0.0,0.0,0.0,0.0,0.0,0.0,0.0,0.0,0.0,False,0,0.9197347164154053,0.034925048828125
STABILIZE,0.8409364223480225,29.87842910976713,0.032491238911946614,0.032608747482299805,0.0,0.0,0.0,1.2616445823978406,-0.8921875906390976,25.224887520023202,-0.004880214670562272,0.0031962501781214393,0.06003334002200292,0.4,0.0801617482479228,0.12183765073975283,0.8762800134833926,0.12006668004400584,-0.23535520303994417,-0.014876193017698824,1.913936622440815,0.07428948632256928,-6.075235456228256,-0.20601116120815277,23.47925156354904,0.0,0.0,0.0,0.0,0.0,0.0,0.0,0.0,0.0,0.0,0.0,0.0,0.0,0.0,0.0,0.0,False,0,0.9484896659851074,0.034926025390625
STABILIZE,0.8743648529052734,29.915509432616524,0.032462151845296223,0.03258371353149414,0.0,0.0,0.0,1.261948098929083,-0.8932178819867117,25.224791897374825,-0.004634215400102268,0.0030100261929983754,0.05636107724429268,0.4,0.07547843977279857,0.11570711479913341,0.8821450699467149,0.11272215448858536,-0.02142973244190216,-0.044951390009373426,1.7420284450054169,-0.12152368620821889,1.3175111263990402,-0.3238598117604852,21.075409650802612,0.0,0.0,0.0,0.0,0.0,0.0,0.0,0.0,0.0,0.0,0.0,0.0,0.0,0.0,0.0,0.0,False,0,0.9776816368103027,0.06486181640625
STABILIZE,0.9078030586242676,29.90697707583158,0.0324738343556722,0.03259611129760742,0.0,0.0,0.0,1.2615917551534788,-0.8933575806995796,25.22547833138641,-0.0044650153392615955,0.002930581956978337,0.053468387563298275,0.4,0.07347275868076791,0.11148844827309619,0.9247444139401783,0.10693677512659655,0.1268915133550763,-0.019338552374392748,1.8640892580151558,-0.1127174112535304,0.33642491325736046,1.7213145270943642,24.558426439762115,0.0,0.0,0.0,0.0,0.0,0.0,0.0,0.0,0.0,0.0,0.0,0.0,0.0,0.0,0.0,0.0,False,0,1.006422519683838,0.034925048828125
STABILIZE,0.9439043998718262,27.704741962970548,0.032479079564412434,0.0352168083190918,0.0,0.0,0.0,1.26105793318116,-0.89275433625765,25.226105001242757,-0.0041084393435387575,0.0027784306567404044,0.044017677470141105,0.4,0.0696185004880052,0.10260413544764742,0.929031070978615,0.08803535494028221,0.07851185509935021,0.11481301626190543,1.7518088221549988,-0.3098239174562575,-5.168202519416809,-0.1112770289182663,27.357453107833862,0.0,0.0,0.0,0.0,0.0,0.0,0.0,0.0,0.0,0.0,0.0,0.0,0.0,0.0,0.0,0.0,False,0,1.0638067722320557,0.02993701171875
STABILIZE,0.9773907661437988,29.859923397832926,0.032407553990681966,0.032546043395996094,0.0,0.0,0.0,1.260008005039682,-0.8933736423162998,25.22609817105359,-0.0039128839124546455,0.002424066877023689,0.04094658557021155,0.4,0.06074142763560669,0.09773537961854935,0.9306158528399047,0.0818931711404231,-0.2626406727358699,0.017176590336021036,2.075660787522793,-0.06993190567338048,-5.535362288355827,-0.2883391920477152,23.410217463970184,0.0,0.0,0.0,0.0,0.0,0.0,0.0,0.0,0.0,0.0,0.0,0.0,0.0,0.0,0.0,0.0,False,0,1.0924975872039795,0.044904052734375
STABILIZE,1.0107781887054443,29.949901459541287,0.032399924596150716,0.03251457214355469,0.0,0.0,0.0,1.259510895334152,-0.8937047997693396,25.22656433146444,-0.003825881136478874,0.002469263091017316,0.03906629400235916,0.4,0.06186195090768244,0.09556275794915496,0.9422757768478209,0.07813258800471833,0.24388493038713932,0.12415871024131775,1.7053371295332909,0.049401984534335315,4.239270463585854,1.7072446644306183,21.149510145187378,0.0,0.0,0.0,0.0,0.0,0.0,0.0,0.0,0.0,0.0,0.0,0.0,0.0,0.0,0.0,0.0,False,0,1.1210861206054688,0.024947021484375
STABILIZE,1.0442447662353516,29.881196301098555,0.03237155278523763,0.03249406814575195,0.0,0.0,0.0,1.2583096358138761,-0.8939076243711772,25.228119907047912,-0.003627945231859315,0.0022636851060958353,0.037555420270005184,0.4,0.05671097867991293,0.09062436448189992,0.9333653443450625,0.07511084054001037,-0.09543566848151386,0.0012593998690135777,1.871529407799244,0.06279229025766764,1.2439042329788208,-2.1016957238316536,26.482582092285156,0.0,0.0,0.0,0.0,0.0,0.0,0.0,0.0,0.0,0.0,0.0,0.0,0.0,0.0,0.0,0.0,False,0,1.1502008438110352,0.034894287109375
STABILIZE,1.0777573585510254,29.83889303880767,0.03242090543111165,0.03254985809326172,0.0,0.0,0.0,1.2581657749544828,-0.8934616877235695,25.22803452968329,-0.0034407536954999653,0.0021028659959981015,0.034926605501855085,0.4,0.05267648226867115,0.08595468477451924,0.9353806798584581,0.06985321100371017,-0.04400412435643375,-0.010553240281296894,1.8026739358901978,-0.05837358475149251,-2.372872084379196,-0.19547678530216217,26.91728174686432,0.0,0.0,0.0,0.0,0.0,0.0,0.0,0.0,0.0,0.0,0.0,0.0,0.0,0.0,0.0,0.0,False,0,1.179060697555542,0.029936279296875
STABILIZE,1.1111018657684326,29.989518014571818,0.032372268040974934,0.03248095512390137,0.0,0.0,0.0,1.2596112137375868,-0.8929021991810102,25.228066973081845,-0.003329365919568088,0.0017548777534532214,0.031987324189240156,0.4,0.04396485307603301,0.08318511009471215,0.9343063609745513,0.06397464837848031,-0.30992485117167234,0.08410584996454418,1.9367504864931107,-0.10943398457303187,-1.9519764930009842,1.7607780173420906,27.599292993545532,0.0,0.0,0.0,0.0,0.0,0.0,0.0,0.0,0.0,0.0,0.0,0.0,0.0,0.0,0.0,0.0,False,0,1.207575798034668,0.034925048828125
STABILIZE,1.146535873413086,28.220146944048228,0.03246358235677083,0.03458571434020996,0.0,0.0,0.0,1.2596112137375868,-0.8929021991810102,25.228066973081845,-0.002984336692232294,0.0015567050581778155,0.029495802461335166,0.4,0.03899442247075648,0.07456830826763741,0.9350063154396552,0.05899160492267033,0.016989026335068047,-0.015804926806595176,1.7007870599627495,0.06309504639675638,0.7830757647752762,-0.5609003361314535,17.830489575862885,0.0,0.0,0.0,0.0,0.0,0.0,0.0,0.0,0.0,0.0,0.0,0.0,0.0,0.0,0.0,0.0,False,0,1.2650701999664307,0.03492578125
STABILIZE,1.179995059967041,29.886732221747184,0.03247216542561849,0.032623291015625,0.0,0.0,0.0,1.2597219908681878,-0.8939769401190822,25.228922454275388,-0.002861668410221818,0.0013869195809884018,0.025687369719847787,0.4,0.03473712404991199,0.0715105916743114,0.9353118913601475,0.051374739439695574,-0.09216087055392563,0.04018775653094053,1.71293206512928,-0.2305372673017512,-0.39224792271852493,-0.3598713781684637,24.933703243732452,0.0,0.0,0.0,0.0,0.0,0.0,0.0,0.0,0.0,0.0,0.0,0.0,0.0,0.0,0.0,0.0,False,0,1.2936949729919434,0.02993603515625
STABILIZE,1.213493824005127,29.854822407288776,0.03247812589009603,0.0326077938079834,0.0,0.0,0.0,1.259059249075285,-0.8929370438179478,25.22900441654543,-0.002638674539179461,0.001159428800987468,0.025212315928867187,0.4,0.029043764635437536,0.06594132830381903,0.9374275142214028,0.050424631857734374,-0.19317892147228122,-0.10795838898047805,2.111503668129444,0.11626237281425957,1.861349679529667,-0.44755516573786736,24.462273716926575,0.0,0.0,0.0,0.0,0.0,0.0,0.0,0.0,0.0,0.0,0.0,0.0,0.0,0.0,0.0,0.0,False,0,1.3224596977233887,0.0399150390625
STABILIZE,1.2470033168792725,29.84335154826958,0.03242185910542806,0.032601118087768555,0.0,0.0,0.0,1.2597735374520802,-0.8931493666516,25.22840335989847,-0.002491181471736833,0.0008964763116119203,0.021319104483307594,0.4,0.022458248587341773,0.06226284112047121,0.9482613172132358,0.04263820896661519,-0.2225038129836321,-0.007709215424256399,1.9883869215846062,-0.2513875136406994,-3.229811415076256,1.5896975994110107,27.173930406570435,0.0,0.0,0.0,0.0,0.0,0.0,0.0,0.0,0.0,0.0,0.0,0.0,0.0,0.0,0.0,0.0,False,0,1.3511242866516113,0.029935791015625
STABILIZE,1.2804169654846191,29.926181727373265,0.03242519696553548,0.03254556655883789,0.0,0.0,0.0,1.2592899814031846,-0.8926173589482795,25.227035614517174,-0.002354010768216556,0.0006648240159200064,0.017738166567799054,0.4,0.016657036049877613,0.05883996680125481,0.9477476274808262,0.03547633313559811,-0.2225038129836321,-0.007709215424256399,1.9883869215846062,-0.2513875136406994,-3.229811415076256,1.5896975994110107,27.173930406570435,0.0,0.0,0.0,0.0,0.0,0.0,0.0,0.0,0.0,0.0,0.0,0.0,0.0,0.0,0.0,0.0,False,0,1.379908800125122,0.029935791015625
STABILIZE,1.3139991760253906,29.77915042563917,0.032445700963338216,0.03257918357849121,0.0,0.0,0.0,1.2586625644948954,-0.8921000788403568,25.226641171092606,-0.002319422028381697,0.0007135186170510397,0.01596825811123354,0.4,0.017870283646413646,0.057975598867408475,0.9459636883944683,0.03193651622246708,0.16444134525954723,0.12827148893848062,1.8950624391436577,-0.06102132359150382,1.9540255889296532,1.7966385930776596,29.876741766929626,0.0,0.0,0.0,0.0,0.0,0.0,0.0,0.0,0.0,0.0,0.0,0.0,0.0,0.0,0.0,0.0,False,0,1.4085171222686768,0.029937255859375
STABILIZE,1.347257137298584,30.063462710102858,0.03230884869893392,0.03243064880371094,0.0,0.0,0.0,1.2582526464229888,-0.8925065818176784,25.22740956737423,-0.002158636833438996,0.000861600425344698,0.015279854575926228,0.4,0.021568791239001794,0.05395442441783085,0.9448448220478207,0.030559709151852455,0.30631020199507475,-0.060463929548859596,1.911953091621399,0.054064235643210314,5.822935700416565,-0.46720951795578003,23.026420176029205,0.0,0.0,0.0,0.0,0.0,0.0,0.0,0.0,0.0,0.0,0.0,0.0,0.0,0.0,0.0,0.0,False,0,1.438253402709961,0.034925048828125
STABILIZE,1.380807638168335,29.807720734550003,0.03252271016438802,0.03265380859375,0.0,0.0,0.0,1.2587330008207112,-0.892647881356133,25.22806355798726,-0.0020936566953775994,0.000723007786496198,0.0156837562690236,0.4,0.018103847118108248,0.05233151397982053,0.9527609219393444,0.0313675125380472,-0.10045650415122509,0.07420946494676173,2.110612206161022,0.18912162819679876,0.09163599461317062,-0.028697209199890494,34.94159281253815,0.0,0.0,0.0,0.0,0.0,0.0,0.0,0.0,0.0,0.0,0.0,0.0,0.0,0.0,0.0,0.0,False,0,1.4717066287994385,0.03492578125
STABILIZE,1.4142279624938965,29.92212535848303,0.03241732915242513,0.03253626823425293,0.0,0.0,0.0,1.2593869914337399,-0.8927780284763335,25.228678275012562,-0.0018262819641755535,0.0002484058499682211,0.01682122446891077,0.4,0.0062369536952456076,0.0456533948130964,0.9475671781659002,0.03364244893782154,-0.42886571027338505,-0.08923238492570817,1.7150618135929108,0.07214890236864463,-5.47911711037159,-0.5354351364076138,19.874244928359985,0.0,0.0,0.0,0.0,0.0,0.0,0.0,0.0,0.0,0.0,0.0,0.0,0.0,0.0,0.0,0.0,False,0,1.5337867736816406,0.0399150390625
STABILIZE,1.4495952129364014,28.273792350316153,0.03243830998738607,0.03451085090637207,0.0,0.0,0.0,1.2588812372700415,-0.891969131307363,25.228871227856615,-0.0018262819641755535,0.0002484058499682211,0.01682122446891077,0.4,0.0062369536952456076,0.0456533948130964,0.9475671781659002,0.03364244893782154,-0.42886571027338505,-0.08923238492570817,1.7150618135929108,0.07214890236864463,-5.47911711037159,-0.5354351364076138,19.874244928359985,0.0,0.0,0.0,0.0,0.0,0.0,0.0,0.0,0.0,0.0,0.0,0.0,0.0,0.0,0.0,0.0,False,1,1.5337867736816406,0.0399150390625
STABILIZE,1.4830164909362793,29.921484979704232,0.03246763547261556,0.03258514404296875,0.0,0.0,0.0,1.2595590268234595,-0.8910933196288675,25.228505812736017,-0.001580895357882471,0.00012103175346769773,0.013875042601556021,0.4,0.003044935371282829,0.03952091382781834,0.965148168476087,0.027750085203112042,-0.0025569032004568726,-0.029467817512340844,2.044159360229969,-0.05366342226682825,-0.42046671733260155,-0.37190932780504227,24.833276867866516,0.0,0.0,0.0,0.0,0.0,0.0,0.0,0.0,0.0,0.0,0.0,0.0,0.0,0.0,0.0,0.0,False,0,1.5909371376037598,0.03492578125
STABILIZE,1.5164592266082764,29.900581001603992,0.03248170216878255,0.03263044357299805,0.0,0.0,0.0,1.2594415262253942,-0.8913069764838419,25.22878755803928,-0.001473112665041433,4.152978468459391e-05,0.012913637856562523,0.4,0.0010548454227250624,0.03682734487388473,0.9628844391029624,0.025827275713125045,-0.0472247542347759,-0.020070177561137825,1.5841037034988403,-0.0055104952367457955,0.6020362488925457,1.5425857156515121,23.645952343940735,0.0,0.0,0.0,0.0,0.0,0.0,0.0,0.0,0.0,0.0,0.0,0.0,0.0,0.0,0.0,0.0,False,0,1.6198785305023193,0.024947021484375
STABILIZE,1.5499701499938965,29.840803665442955,0.032509597142537434,0.032659292221069336,0.0,0.0,0.0,1.2596018222274779,-0.891342141285897,25.228387991972834,-0.0013747158755364238,-9.572049299961797e-07,0.012235767302940953,0.4,-9.25128853167766e-06,0.03436790397444805,0.9567480743624899,0.024471534605881907,-0.03418959677219391,-0.028808542992919683,1.9658353179693222,0.005910714973639452,1.1926562525331974,-0.44825607910752296,20.890195667743683,0.0,0.0,0.0,0.0,0.0,0.0,0.0,0.0,0.0,0.0,0.0,0.0,0.0,0.0,0.0,0.0,True,0,1.6484081745147705,0.044904052734375
STABILIZE,1.5833766460418701,29.935579647565145,0.032471688588460286,0.03258776664733887,0.0,0.0,0.0,1.2601801471511076,-0.8918691864298987,25.225150482306248,-0.0012808609246354682,-2.139733579490163e-05,0.00983384464470029,0.4,-0.0005239414655204221,0.03202170485372265,0.9698506243701156,0.01966768928940058,0.06047618808224797,0.0034172731830039993,1.844346523284912,-0.16731194038266212,-0.10527502745389938,-0.42130155488848686,21.411752700805664,0.0,0.0,0.0,0.0,0.0,0.0,0.0,0.0,0.0,0.0,0.0,0.0,0.0,0.0,0.0,0.0,True,1,1.6770391464233398,0.029978271484375
STABILIZE,1.6168689727783203,29.85758522747496,0.03250149091084798,0.032636404037475586,0.0,0.0,0.0,1.2589690692338997,-0.8919416504681242,25.221827595275037,-0.0009521128217333636,-0.00014173730927635682,0.008278686303773273,0.4,-0.0035365540290803847,0.023803843532991184,1.0002908380012228,0.016557372607546545,-0.014377511979546398,-0.10154928313568234,2.028205431997776,0.016181064989304,2.259022556245327,-4.097448289394379,31.132236123085022,0.0,0.0,0.0,0.0,0.0,0.0,0.0,0.0,0.0,0.0,0.0,0.0,0.0,0.0,0.0,0.0,True,0,1.734452486038208,0.059873046875
STABILIZE,1.6503262519836426,29.889500951349348,0.03246644337972005,0.03258967399597168,0.0,0.0,0.0,1.2591009772622455,-0.8912694638042598,25.22143315185047,-0.0007102032240285923,-0.00025058367311942947,0.008418323823065703,0.4,-0.006259374139503696,0.01775692071533962,1.023962636800963,0.016836647646131405,-0.05659119342453778,-0.1695954124443233,1.8084853887557983,0.12101070164895392,0.8128301240503788,-0.4680053796619177,21.775580942630768,0.0,0.0,0.0,0.0,0.0,0.0,0.0,0.0,0.0,0.0,0.0,0.0,0.0,0.0,0.0,0.0,True,0,1.7631537914276123,0.034925048828125
STABILIZE,1.6839525699615479,29.73692457124221,0.03245714505513509,0.03258705139160156,0.0,0.0,0.0,1.2582636387586843,-0.8894977767665819,25.218349321440208,-0.000658732866636365,-0.0003900856804454802,0.010913610767448432,0.4,-0.009745867583154297,0.016472035616427537,1.0241558520886855,0.021827221534896864,-0.1626542303711176,0.018234284652862698,2.051832340657711,0.3190158579752137,-4.599641263484955,5.432891100645065,24.541939795017242,0.0,0.0,0.0,0.0,0.0,0.0,0.0,0.0,0.0,0.0,0.0,0.0,0.0,0.0,0.0,0.0,True,0,1.7918484210968018,0.03492626953125
STABILIZE,1.7172088623046875,30.070791003792632,0.032282384236653645,0.03241920471191406,0.0,0.0,0.0,1.2577297100646596,-0.889995366719788,25.223519774641908,-0.0005057785099859989,-0.0005752419906685342,0.011564745378158135,0.4,-0.014375944205412126,0.012650267144327404,1.0142010756976765,0.02312949075631627,-0.2267178613692522,-0.11971121421083808,1.510625146329403,0.1263586330473681,1.0400563478469849,-2.7791444212198257,10.604073852300644,0.0,0.0,0.0,0.0,0.0,0.0,0.0,0.0,0.0,0.0,0.0,0.0,0.0,0.0,0.0,0.0,True,0,1.8205392360687256,0.029935791015625
STABILIZE,1.7506928443908691,29.865238783546115,0.03248647054036458,0.03261375427246094,0.0,0.0,0.0,1.2574562890544476,-0.890102301868981,25.227583737198067,-0.0003818286779752492,-0.0005746010101314589,0.013745336756759399,0.4,-0.014360443538571414,0.009552608229209694,1.0017838499398535,0.027490673513518797,-0.005049120227340609,-0.10267143370583653,1.6209809109568596,0.2908774529463181,0.5092301871627569,-4.318830370903015,20.187869668006897,0.0,0.0,0.0,0.0,0.0,0.0,0.0,0.0,0.0,0.0,0.0,0.0,0.0,0.0,0.0,0.0,True,0,1.849609613418579,0.034926025390625
STABILIZE,1.7840380668640137,29.989518014571818,0.03243378003438314,0.03254365921020508,0.0,0.0,0.0,1.2555862046040394,-0.8900257290450828,25.215180113665323,-0.0006314268755040663,-0.00038105612023909337,0.004255578935277041,0.4,-0.009524057975185289,0.015787086838952295,0.99266620141308,0.008511157870554082,0.2658156445249915,0.40202424861490726,1.4881519600749016,-0.9564645799273835,2.2044651210308075,1.9927436485886574,31.979185342788696,0.0,0.0,0.0,0.0,0.0,0.0,0.0,0.0,0.0,0.0,0.0,0.0,0.0,0.0,0.0,0.0,True,0,1.8783483505249023,0.034925048828125
STABILIZE,1.8176095485687256,29.788456211870486,0.032538445790608723,0.032674551010131836,0.0,0.0,0.0,1.2558513013212005,-0.887580147796248,25.218627651648887,-0.0006750975046655366,-0.000232460255719583,-0.0033592018174079252,0.4,-0.005813485372066485,0.016876756053461492,0.9748258009912971,-0.0067184036348158505,-0.06091486429795623,-0.22027883678674698,1.4722156338393688,0.24527073239340919,-10.405301302671432,-8.096887171268463,26.117578148841858,0.0,0.0,0.0,0.0,0.0,0.0,0.0,0.0,0.0,0.0,0.0,0.0,0.0,0.0,0.0,0.0,True,0,1.9358775615692139,0.02993701171875
STABILIZE,1.851114273071289,29.845687489771088,0.03241566022237142,0.03256368637084961,0.0,0.0,0.0,1.257300368642301,-0.8877621616654583,25.22057425556234,-0.0005253473656298196,-0.0009259688997182668,-0.0029849170007283385,0.4,-0.023150590808652408,0.01313127207652097,0.9597022574284926,-0.005969834001456677,-0.9571454487740993,-0.15030596405267715,1.3640589080750942,0.06538916286466086,-23.07228446006775,3.8658902049064636,32.190683484077454,0.0,0.0,0.0,0.0,0.0,0.0,0.0,0.0,0.0,0.0,0.0,0.0,0.0,0.0,0.0,0.0,True,0,1.9644944667816162,0.034925048828125
STABILIZE,1.88450288772583,29.9492598913222,0.03238061269124349,0.03251528739929199,0.0,0.0,0.0,1.2608822692534438,-0.8906671264968293,25.202889188253884,-0.0007070557149156841,-0.0007248535962498635,-0.00010185782765777512,0.4,-0.018121402754704634,0.01767632844219464,0.958269405005478,-0.00020371565531555023,0.27866747695952654,0.30727877747267485,1.8289044499397278,0.3572665448332983,35.820117592811584,3.9700746536254883,29.205027222633362,0.0,0.0,0.0,0.0,0.0,0.0,0.0,0.0,0.0,0.0,0.0,0.0,0.0,0.0,0.0,0.0,True,0,1.9931042194366455,0.034926025390625
STABILIZE,1.9179553985595703,29.892696276868694,0.032453091939290364,0.03261160850524902,0.0,0.0,0.0,1.259138329859269,-0.8900647891893988,25.219454104538457,-6.17527066245558e-05,-0.0001496038000926938,0.0029744769032315943,0.4,-0.00373993468937427,0.0015442059869835052,0.9521661494370709,0.005948953806463189,0.79239122569561,-0.8406535722315311,1.5600827522575855,0.37397492177086844,19.53098773956299,-27.782616019248962,22.267332673072815,0.0,0.0,0.0,0.0,0.0,0.0,0.0,0.0,0.0,0.0,0.0,0.0,0.0,0.0,0.0,0.0,True,0,2.0221962928771973,0.029935791015625
STABILIZE,1.95135498046875,29.940280821477774,0.03247121175130208,0.03258872032165527,0.0,0.0,0.0,1.2565926970112642,-0.8933318607684864,25.213585264494125,4.062485889718248e-05,-0.0005618003494454334,0.0028608493476279338,0.4,-0.014045110088583666,-0.001014218897949134,0.9467767663602942,0.0057216986952558675,-0.5898530129343271,-0.10585351847112179,1.8330290913581848,0.012890407913238791,-33.1529825925827,21.083445847034454,27.655029296875,0.0,0.0,0.0,0.0,0.0,0.0,0.0,0.0,0.0,0.0,0.0,0.0,0.0,0.0,0.0,0.0,True,0,2.050525426864624,0.0399150390625
STABILIZE,1.9848248958587646,29.87736494187372,0.03252557118733724,0.0326380729675293,0.0,0.0,0.0,1.2579315208102924,-0.8927192248164479,25.18715584750076,0.00016191649807630444,-0.0009870182467465244,0.0027003277780859323,0.4,-0.02467583761211958,-0.004045586544646869,0.9507835664382409,0.0054006555561718645,-0.5898530129343271,-0.10585351847112179,1.8330290913581848,0.012890407913238791,-33.1529825925827,21.083445847034454,27.655029296875,0.0,0.0,0.0,0.0,0.0,0.0,0.0,0.0,0.0,0.0,0.0,0.0,0.0,0.0,0.0,0.0,True,0,2.079164743423462,0.0399150390625
STABILIZE,2.018261194229126,29.908469886906545,0.03248480161031087,0.03259682655334473,0.0,0.0,0.0,1.2550361609324416,-0.8968299848405906,25.20202516932388,-9.005631134932316e-05,-0.0006473547455095906,-0.004992770394841508,0.4,-0.016184260768574855,0.002248587215795638,0.94704223742114,-0.009985540789683016,0.5619142670184374,-0.8479203097522259,1.890379749238491,0.09072092043363655,15.383841097354889,-54.92824912071228,33.97425413131714,0.0,0.0,0.0,0.0,0.0,0.0,0.0,0.0,0.0,0.0,0.0,0.0,0.0,0.0,0.0,0.0,True,0,2.1368045806884766,0.02993603515625
STABILIZE,2.051804304122925,29.811534251638307,0.03248170216878255,0.032610177993774414,0.0,0.0,0.0,1.2525751583971214,-0.9003825369826436,25.20161877306826,0.0005627757853983465,-0.001146340781734468,0.00463938815912611,0.4,-0.02866079763843922,-0.01406475334088319,0.938622695060829,0.00927877631825222,-0.738129997625947,-0.9042199701070786,1.6279775649309158,1.1060906525887968,-36.079809069633484,15.22236168384552,32.20527172088623,0.0,0.0,0.0,0.0,0.0,0.0,0.0,0.0,0.0,0.0,0.0,0.0,0.0,0.0,0.0,0.0,True,0,2.165205478668213,0.0348740234375
STABILIZE,2.085111379623413,30.023650680028634,0.03238991101582845,0.03250837326049805,0.0,0.0,0.0,1.2564119104416704,-0.8937144047228599,25.178003394012944,-3.6217724365432554e-05,-0.000615288808261051,-0.018657038331176493,0.4,-0.015382806617435043,0.0008954251931587685,0.9406468561900057,-0.03731407666235299,0.7420853246003389,0.8895850740373135,1.9409088417887688,-2.646174940134789,40.501272678375244,15.712566673755646,47.20574617385864,0.0,0.0,0.0,0.0,0.0,0.0,0.0,0.0,0.0,0.0,0.0,0.0,0.0,0.0,0.0,0.0,True,0,2.1942999362945557,0.0349248046875
STABILIZE,2.118542432785034,29.912735882696943,0.03249958356221517,0.03260397911071777,0.0,0.0,0.0,1.251280837549404,-0.8906817473705214,25.197447235032676,0.0005920514693172436,-0.0006171986109014456,0.005150022236408359,0.4,-0.015432625845910661,-0.014798512653717717,0.9424109793663559,0.010300044472816718,-0.026205912581644952,-0.8722370490431786,1.9171608611941338,2.747665788229066,12.622754275798798,-33.37983191013336,42.511969804763794,0.0,0.0,0.0,0.0,0.0,0.0,0.0,0.0,0.0,0.0,0.0,0.0,0.0,0.0,0.0,0.0,True,0,2.222496509552002,0.029936279296875
STABILIZE,2.1520800590515137,29.817892282318148,0.03250721295674642,0.032639503479003906,0.0,0.0,0.0,1.2527339602953242,-0.8884343483293227,25.19056752699118,0.0003156157368999908,-0.0005252798620941071,-0.014816265423960046,0.4,-0.013127914001328657,-0.007897184041577679,0.933220095382006,-0.029632530847920092,0.10389604140073061,0.4072385374456644,1.5375776216387749,-2.3057702647324008,-14.943718910217285,36.44126653671265,20.631740987300873,0.0,0.0,0.0,0.0,0.0,0.0,0.0,0.0,0.0,0.0,0.0,0.0,0.0,0.0,0.0,0.0,True,0,2.251364231109619,0.034926025390625
STABILIZE,2.187285900115967,28.405146959230667,0.03243258794148763,0.03256821632385254,0.0,0.0,0.0,1.2539133418659152,-0.8886558492296721,25.192681470539302,4.860018233976354e-05,-0.0004365786544208773,-0.03483481053263905,0.4,-0.010912980889851978,-0.0012282752581778376,0.9290113803865481,-0.0696696210652781,0.10389604140073061,0.4072385374456644,1.5375776216387749,-2.3057702647324008,-14.943718910217285,36.44126653671265,20.631740987300873,0.0,0.0,0.0,0.0,0.0,0.0,0.0,0.0,0.0,0.0,0.0,0.0,0.0,0.0,0.0,0.0,True,1,2.2799935340881348,0.034926025390625
STABILIZE,2.2190873622894287,31.443209163899155,0.03066733678181966,0.030947446823120117,0.0,0.0,0.0,1.262218211566416,-0.8887890379184874,25.186737498414097,0.0001961207825794017,-0.0012823699120872248,-0.02555907160170024,0.4,-0.032054860667885696,-0.004931620226029225,0.9241674728431865,-0.05111814320340048,0.7110064849257469,-0.0019488226826069877,1.0888093151152134,0.2674714885581687,41.89916551113129,16.896656155586243,13.320143520832062,0.0,0.0,0.0,0.0,0.0,0.0,0.0,0.0,0.0,0.0,0.0,0.0,0.0,0.0,0.0,0.0,True,0,2.3373656272888184,0.02993603515625
STABILIZE,2.252579689025879,29.859923397832926,0.03248599370320638,0.0326228141784668,0.0,0.0,0.0,1.2651824069444957,-0.8958296822923011,25.191849895007852,-8.678509143086589e-05,-0.0004611809822179,-0.03164199423023808,0.4,-0.01153191390586333,0.0021568914440897764,0.9123660759885697,-0.06328398846047616,1.1604794301092625,0.42026820592582226,1.3360487297177315,-0.7663878324844805,-10.091659426689148,-31.88927173614502,16.250452399253845,0.0,0.0,0.0,0.0,0.0,0.0,0.0,0.0,0.0,0.0,0.0,0.0,0.0,0.0,0.0,0.0,True,0,2.36598801612854,0.034926025390625
STABILIZE,2.285954475402832,29.9605983113562,0.03244927724202474,0.03260374069213867,0.0,0.0,0.0,1.2500602614003817,-0.8904350067867547,25.24017689848028,-0.0003678307368013495,0.00035520612593646476,-0.03804597897267424,0.4,0.00886793283283148,0.009207553640708483,0.9053107441236977,-0.07609195794534848,1.1604794301092625,0.42026820592582226,1.3360487297177315,-0.7663878324844805,-10.091659426689148,-31.88927173614502,16.250452399253845,0.0,0.0,0.0,0.0,0.0,0.0,0.0,0.0,0.0,0.0,0.0,0.0,0.0,0.0,0.0,0.0,True,0,2.394824266433716,0.034926025390625
STABILIZE,2.3195226192474365,29.792053187106674,0.03255751927693685,0.03269004821777344,0.0,0.0,0.0,1.269449140741638,-0.895445484151488,25.20667652814866,0.0002942705772101212,-0.0006639031219250008,-0.0290958712834513,0.4,-0.016590097683174484,-0.007373617755794388,0.9039986828776561,-0.0581917425669026,-1.532081514596939,-0.966848898679018,1.6717229038476944,1.0250079828476946,-74.20831322669983,3.9651114493608475,34.330153465270996,0.0,0.0,0.0,0.0,0.0,0.0,0.0,0.0,0.0,0.0,0.0,0.0,0.0,0.0,0.0,0.0,True,0,2.423429489135742,0.034925048828125
STABILIZE,2.3530173301696777,29.85673507449406,0.03243616422017415,0.03256487846374512,0.0,0.0,0.0,1.2804124481331547,-0.8859241470876372,25.198775706826243,-0.0005859425765365304,-0.0014244796418907966,-0.026757592718640213,0.4,-0.035625657507835654,0.014615295852603983,0.8906625673618491,-0.05351518543728043,-1.1377875693142414,1.2970084324479103,0.9642037563025951,0.2293151703684214,52.61831283569336,45.859500765800476,-21.083946526050568,0.0,0.0,0.0,0.0,0.0,0.0,0.0,0.0,0.0,0.0,0.0,0.0,0.0,0.0,0.0,0.0,True,0,2.452091693878174,0.02993701171875
STABILIZE,2.3864238262176514,29.933015993091782,0.032373698552449544,0.032501220703125,0.0,0.0,0.0,1.2593924342407348,-0.8729824327143441,25.256639361927302,-0.0006560206562048194,0.001196621443462114,-0.04433627643428179,0.4,0.02989011837209387,0.016446794867167543,0.8987723388307989,-0.08867255286856358,3.835180401802063,0.1202025800012052,2.4553943425416946,-2.161788382924651,135.88627576828003,-80.23167252540588,28.609955310821533,0.0,0.0,0.0,0.0,0.0,0.0,0.0,0.0,0.0,0.0,0.0,0.0,0.0,0.0,0.0,0.0,True,0,2.4812543392181396,0.0349248046875
STABILIZE,2.4197988510131836,29.9605983113562,0.032434972127278645,0.032547950744628906,0.0,0.0,0.0,1.2643390920254107,-0.8917308750992059,25.19032164018106,-0.00208432290458528,-0.002143491986737342,-0.03134373762151029,0.4,-0.05364427917380633,0.05204941142115814,0.9138891752302999,-0.06268747524302058,-4.749386012554169,4.0757253766059875,2.0835082978010178,-1.0515444417119577,-30.022987723350525,109.77820158004761,17.11764484643936,0.0,0.0,0.0,0.0,0.0,0.0,0.0,0.0,0.0,0.0,0.0,0.0,0.0,0.0,0.0,0.0,True,0,2.5386874675750732,0.03492626953125
STABILIZE,2.4534263610839844,29.7371354026346,0.03250149091084798,0.032801151275634766,0.0,0.0,0.0,1.2485085277983194,-0.8845367115516255,25.19353353663826,-0.002404387955405121,0.0008761749390679645,-0.03175121452111788,0.4,0.02183773886644378,0.06013393915808685,0.912323491168086,-0.06350242904223576,4.443667829036713,0.45878002420067787,1.6069624572992325,-0.1163022733920086,177.70256996154785,-77.54573225975037,23.750130832195282,0.0,0.0,0.0,0.0,0.0,0.0,0.0,0.0,0.0,0.0,0.0,0.0,0.0,0.0,0.0,0.0,True,0,2.5674729347229004,0.029935791015625
STABILIZE,2.4868927001953125,29.881196301098555,0.0324895699818929,0.03261852264404297,0.0,0.0,0.0,1.238048946858091,-0.8842981351783511,25.31745195120251,0.001664788416239445,0.002501276566141712,-0.017248951763387324,0.4,0.06255696212822154,-0.04158205227345628,0.8934303883683395,-0.03449790352677465,2.41121556609869,-6.003326922655106,0.836667139083147,1.6201637732527487,-19.96750831604004,-131.47876262664795,18.39597076177597,0.0,0.0,0.0,0.0,0.0,0.0,0.0,0.0,0.0,0.0,0.0,0.0,0.0,0.0,0.0,0.0,True,0,2.6012308597564697,0.034925048828125
STABILIZE,2.520372152328491,29.869492454832255,0.03248170216878255,0.032624006271362305,0.0,0.0,0.0,1.2601001058717716,-0.8732643914610186,25.25088834264615,0.00012164746493903165,0.00035473040296716234,-0.038747080116738886,0.4,0.008872365252240388,-0.0030291892732088876,0.8850352985479571,-0.07749416023347777,-3.231114149093628,2.334321290254593,1.1861206032335758,-2.637326003178214,-97.6211667060852,194.44897174835205,59.022390842437744,0.0,0.0,0.0,0.0,0.0,0.0,0.0,0.0,0.0,0.0,0.0,0.0,0.0,0.0,0.0,0.0,True,0,2.6299357414245605,0.034926025390625
STABILIZE,2.553828001022339,29.889500951349348,0.03246119817097982,0.03259873390197754,0.0,0.0,0.0,1.262577116662959,-0.8978115043686626,25.182140781102678,-0.003495305927681589,-0.0005277301191369367,-0.09237868979999914,0.4,-0.013474960133308683,0.08733965066687754,0.8754001162724198,-0.18475737959999827,-1.3248399831354618,5.355730280280113,1.117594912648201,-6.40418258751624,-35.44647693634033,90.31890630722046,33.82616639137268,0.0,0.0,0.0,0.0,0.0,0.0,0.0,0.0,0.0,0.0,0.0,0.0,0.0,0.0,0.0,0.0,True,0,2.6585092544555664,0.029933837890625
STABILIZE,2.5872325897216797,29.93707531547993,0.032466920216878255,0.032581329345703125,0.0,0.0,0.0,1.2463397292934288,-0.8982866294028017,25.319569309845214,-0.0005349510631487308,-0.0012208290169132283,-0.03173994947175446,0.4,-0.03053552393914874,0.013339953451004694,0.8623278995395678,-0.06347989894350892,-1.0236479341983795,-4.373195394873619,1.1383009143173695,7.081641730533124,66.15898013114929,-198.09865951538086,51.055002212524414,0.0,0.0,0.0,0.0,0.0,0.0,0.0,0.0,0.0,0.0,0.0,0.0,0.0,0.0,0.0,0.0,True,0,2.687258720397949,0.034926025390625
STABILIZE,2.6206846237182617,29.892483233912753,0.03249815305074056,0.032624006271362305,0.0,0.0,0.0,1.2428914442579244,-0.8918952798869623,25.30793749768868,-0.0006328911947384673,0.0013321034607787399,-0.0798439487955341,0.4,0.033258359279251096,0.01591503525521905,0.8452482938151676,-0.1596878975910682,3.8122382014989853,0.17580809071660042,0.6477778777480125,-5.835723445255827,-29.63368594646454,147.607421875,40.49476087093353,0.0,0.0,0.0,0.0,0.0,0.0,0.0,0.0,0.0,0.0,0.0,0.0,0.0,0.0,0.0,0.0,True,0,2.716104745864868,0.03492626953125
STABILIZE,2.654214382171631,29.822980659840727,0.03248766263326009,0.03266429901123047,0.0,0.0,0.0,1.2586595762871335,-0.8895393448709839,25.14472500482935,-0.0017120238590737063,-0.0008160019859914059,-0.054655780264163234,0.4,-0.02048166944765693,0.042761598439769906,0.8477054773690602,-0.10931156052832647,-2.1996095776557922,-2.8541866689920425,1.6647376120090485,5.6405166387768615,52.69349813461304,-60.50592660903931,21.914297342300415,0.0,0.0,0.0,0.0,0.0,0.0,0.0,0.0,0.0,0.0,0.0,0.0,0.0,0.0,0.0,0.0,True,0,2.7743265628814697,0.034926025390625
STABILIZE,2.6876919269561768,29.873747337981925,0.03246882756551107,0.032595157623291016,0.0,0.0,0.0,1.249898471294417,-0.8938005825002784,25.28059625044112,0.00021712064297737434,-0.0023030317022573127,-0.006253170917266501,0.4,-0.05757460637464006,-0.005440583407223712,0.8483536179544781,-0.012506341834533002,-2.1996095776557922,-2.8541866689920425,1.6647376120090485,5.6405166387768615,52.69349813461304,-60.50592660903931,21.914297342300415,0.0,0.0,0.0,0.0,0.0,0.0,0.0,0.0,0.0,0.0,0.0,0.0,0.0,0.0,0.0,0.0,True,0,2.80301833152771,0.034926025390625
STABILIZE,2.721069097518921,29.95910029214077,0.03242662747701009,0.03255462646484375,0.0,0.0,0.0,1.2507482962375547,-0.8885392557661059,25.189211734440935,1.3569528428817913e-05,-0.0005128903276976076,-0.033435057975817424,0.4,-0.012821853533564097,-0.0003542028811884916,0.8502097024745302,-0.06687011595163485,2.6901623234152794,0.3587857587262988,1.7318816855549812,-3.4324684518207724,105.63325881958008,113.77038955688477,20.823338627815247,0.0,0.0,0.0,0.0,0.0,0.0,0.0,0.0,0.0,0.0,0.0,0.0,0.0,0.0,0.0,0.0,True,0,2.831526517868042,0.034925048828125
STABILIZE,2.7545459270477295,29.87204523926529,0.032457860310872395,0.032576799392700195,0.0,0.0,0.0,1.2513894802458896,-0.885663052434443,25.131018522712427,-0.0005960698074998367,-0.0006925264442367853,-0.06048102338362239,0.4,-0.017344582854871553,0.014865160702228616,0.8556684426589696,-0.12096204676724479,-0.2795454114675522,0.9474699385464191,1.9406475126743317,-3.3554277599644364,-84.38549041748047,-64.71740007400513,15.939430892467499,0.0,0.0,0.0,0.0,0.0,0.0,0.0,0.0,0.0,0.0,0.0,0.0,0.0,0.0,0.0,0.0,True,0,2.860267400741577,0.02993701171875
STABILIZE,2.7880306243896484,29.865238783546115,0.032468350728352864,0.03258776664733887,0.0,0.0,0.0,1.2488628438615137,-0.8932794604109476,25.22929640713245,0.0010476869966269447,-0.002971684291762929,-0.007569497568463757,0.4,-0.07428518406524955,-0.026211803856265307,0.8491107056566659,-0.015138995136927513,-3.431716561317444,-2.425084449350834,1.4515798538923264,6.156669338599671,-52.21414566040039,-40.442147850990295,41.04386270046234,0.0,0.0,0.0,0.0,0.0,0.0,0.0,0.0,0.0,0.0,0.0,0.0,0.0,0.0,0.0,0.0,True,0,2.889125347137451,0.034926025390625
STABILIZE,2.821470022201538,29.903565495754343,0.03242209752400716,0.03255891799926758,0.0,0.0,0.0,1.2477714009764869,-0.9125207436331082,25.25974368290507,-0.00020795368661292004,-0.0008863642533361983,-0.03664968050078078,0.4,-0.02216573915601961,0.005170489437411812,0.8546277566095873,-0.07329936100156156,3.127388283610344,1.9254401326179504,1.91819928586483,-3.6510281019588335,136.04609966278076,96.84423804283142,47.48013913631439,0.0,0.0,0.0,0.0,0.0,0.0,0.0,0.0,0.0,0.0,0.0,0.0,0.0,0.0,0.0,0.0,True,0,2.9176952838897705,0.0399140625
STABILIZE,2.8549201488494873,29.895466111661523,0.03244164784749349,0.03259563446044922,0.0,0.0,0.0,1.2485727742651997,-0.9049398739846287,25.180173686621714,-0.0016227095262342347,0.0016537716146919317,-0.07876147249494211,0.4,0.04123260161443229,0.04068125230573751,0.8552102351989833,-0.15752294498988423,3.6975454539060593,2.1085308864712715,1.3910776935517788,-5.0491567260030426,24.03625249862671,-11.529430747032166,15.257641673088074,0.0,0.0,0.0,0.0,0.0,0.0,0.0,0.0,0.0,0.0,0.0,0.0,0.0,0.0,0.0,0.0,True,0,2.946349620819092,0.02494677734375
STABILIZE,2.8883185386657715,29.940067099721606,0.032470019658406575,0.03258085250854492,0.0,0.0,0.0,1.2350337385046477,-0.8992539549440047,25.33965518864693,0.0006082614650848394,-2.0022247045280184e-05,-0.04159879128201342,0.4,-0.0004784746739950538,-0.015207247438763574,0.8556885688468685,-0.08319758256402685,-2.4707460775971413,-3.2941773533821106,2.112666331231594,4.177187455802534,-159.2720627784729,-118.69686841964722,63.26783299446106,0.0,0.0,0.0,0.0,0.0,0.0,0.0,0.0,0.0,0.0,0.0,0.0,0.0,0.0,0.0,0.0,True,0,2.9824280738830566,0.03492626953125
STABILIZE,2.921786069869995,29.880131936083664,0.032505305608113606,0.032622337341308594,0.0,0.0,0.0,1.2378178943650742,-0.9087035216607173,25.303333950188094,-0.002010370450568878,0.0013525067463256058,-0.09565955601257906,0.4,0.03364465733285621,0.050371886380849176,0.8497231799077696,-0.1913191120251581,3.2664302736520767,1.007115375250578,1.5920713543891907,-4.317703230049914,85.82763671875,-75.73705315589905,20.16170620918274,0.0,0.0,0.0,0.0,0.0,0.0,0.0,0.0,0.0,0.0,0.0,0.0,0.0,0.0,0.0,0.0,True,0,3.039520502090454,0.02993603515625
STABILIZE,2.955216646194458,29.912949214431915,0.03247669537862142,0.03259587287902832,0.0,0.0,0.0,1.231307336703877,-0.9110484109801473,25.261391466042337,-0.0026420911862519722,0.0035364906865736783,-0.1297393872341302,0.4,0.08811222668285659,0.06645199878048698,0.8461122760546028,-0.2594787744682604,3.2664302736520767,1.007115375250578,1.5920713543891907,-4.317703230049914,85.82763671875,-75.73705315589905,20.16170620918274,0.0,0.0,0.0,0.0,0.0,0.0,0.0,0.0,0.0,0.0,0.0,0.0,0.0,0.0,0.0,0.0,True,0,3.068781614303589,0.02993603515625
STABILIZE,2.9886748790740967,29.88886196821777,0.032486947377522786,0.03261828422546387,0.0,0.0,0.0,1.2213665299754524,-0.9144127060332018,25.342033802025384,-0.0012132513944694114,0.003467864747482076,-0.09460775513073813,0.4,0.0865959790541708,0.03061742877482402,0.8314218078298944,-0.18921551026147626,-0.07906559621915221,-2.126801200211048,0.897787231951952,4.016452614064624,-61.041080951690674,-37.47170865535736,7.288818806409836,0.0,0.0,0.0,0.0,0.0,0.0,0.0,0.0,0.0,0.0,0.0,0.0,0.0,0.0,0.0,0.0,True,0,3.0971314907073975,0.034926025390625
STABILIZE,3.0222036838531494,29.827222301237377,0.032470019658406575,0.03260064125061035,0.0,0.0,0.0,1.215907821446437,-0.9178118990840467,25.329638716229105,-0.002226853692084835,0.0033116980822739356,-0.11137832962875582,0.4,0.08257538577550431,0.055992804317448616,0.8237800415308895,-0.22275665925751165,-0.2979386830702424,1.561566535383463,1.0764041915535927,-2.167552422253907,-23.978307843208313,64.57803249359131,25.54354965686798,0.0,0.0,0.0,0.0,0.0,0.0,0.0,0.0,0.0,0.0,0.0,0.0,0.0,0.0,0.0,0.0,True,0,3.1257987022399902,0.0349248046875
STABILIZE,3.0555951595306396,29.94541105915111,0.03238991101582845,0.03253602981567383,0.0,0.0,0.0,1.2143333561210432,-0.9136515668275684,25.31565731899809,-0.0032537155297571404,0.0031360735770559933,-0.1281791886787313,0.4,0.07803710356365648,0.08169286603310218,0.8159768806856861,-0.2563583773574626,-0.2979386830702424,1.561566535383463,1.0764041915535927,-2.167552422253907,-23.978307843208313,64.57803249359131,25.54354965686798,0.0,0.0,0.0,0.0,0.0,0.0,0.0,0.0,0.0,0.0,0.0,0.0,0.0,0.0,0.0,0.0,True,0,3.1544349193573,0.0349248046875
STABILIZE,3.090296983718872,28.816928890415664,0.032473357518514,0.03386878967285156,0.0,0.0,0.0,1.2586898852515753,-0.902634898583161,25.291555288964407,-0.0031974232127258933,0.004493927632072061,-0.1373728001994075,0.4,0.1119635922806958,0.08047339299942001,0.8273848668891252,-0.274745600398815,2.028941735625267,-0.059594353660941124,2.23206989467144,-1.262357269949049,60.84592342376709,-32.76466429233551,42.10855960845947,0.0,0.0,0.0,0.0,0.0,0.0,0.0,0.0,0.0,0.0,0.0,0.0,0.0,0.0,0.0,0.0,True,1,3.1835904121398926,0.029924072265625
STABILIZE,3.123819589614868,29.82955571833951,0.032488377888997395,0.032628536224365234,0.0,0.0,0.0,1.2547387275384287,-0.8721802056519848,25.227604227765575,-0.001738988473081636,0.006403341551288387,-0.12301099166092463,0.4,0.15989538779751475,0.04416169062164461,0.8021941731796234,-0.24602198332184927,1.485469751060009,-1.025785505771637,0.8878838270902634,0.5788432709546539,-5.430128052830696,-10.573087632656097,13.119183480739594,0.0,0.0,0.0,0.0,0.0,0.0,0.0,0.0,0.0,0.0,0.0,0.0,0.0,0.0,0.0,0.0,True,0,3.2405922412872314,0.034925048828125
STABILIZE,3.1573047637939453,29.865238783546115,0.032434972127278645,0.03258204460144043,0.0,0.0,0.0,1.2490490732381023,-0.891611186706172,25.30425261063146,-0.0013150144357813383,0.003808955091262217,-0.09290754057793568,0.4,0.09511675911688741,0.0331840065932154,0.8039836993284233,-0.18581508115587136,-3.8548119366168976,-0.5872467998415232,1.6391796991229057,3.337192008654149,-107.87094831466675,-53.96878719329834,16.730155050754547,0.0,0.0,0.0,0.0,0.0,0.0,0.0,0.0,0.0,0.0,0.0,0.0,0.0,0.0,0.0,0.0,True,0,3.271850109100342,0.064862060546875
STABILIZE,3.190692663192749,29.950543055248104,0.032408984502156575,0.032521724700927734,0.0,0.0,0.0,1.2507064613288883,-0.8941228286908856,25.306139450389676,-0.0013154082995485421,0.0030637216003957623,-0.1715558582235842,0.4,0.0763947370933913,0.033343287089976574,0.8383224058575467,-0.3431117164471684,-1.2131504714488983,0.058594223810359836,2.2852759808301926,-8.697207719257396,130.76986074447632,-4.677490144968033,-21.01168930530548,0.0,0.0,0.0,0.0,0.0,0.0,0.0,0.0,0.0,0.0,0.0,0.0,0.0,0.0,0.0,0.0,True,0,3.298017978668213,0.03492578125
STABILIZE,3.2240827083587646,29.950115321722613,0.03246024449666341,0.03258204460144043,0.0,0.0,0.0,1.2568498963221975,-0.8951987969285741,25.23738164356245,-0.0016211358469449225,0.007436143569530345,-0.17522658247364203,0.4,0.1856522188201472,0.04166472171069323,0.9110702517206235,-0.35045316494728407,6.168459355831146,0.5361651070415974,5.658184736967087,-0.7108523647559002,-36.93418204784393,30.452072620391846,5.432083457708359,0.0,0.0,0.0,0.0,0.0,0.0,0.0,0.0,0.0,0.0,0.0,0.0,0.0,0.0,0.0,0.0,True,0,3.3268299102783203,0.034926025390625
STABILIZE,3.2576186656951904,29.817892282318148,0.032492669423421223,0.0326235294342041,0.0,0.0,0.0,1.2538921042464646,-0.897008530254363,25.28040329759707,-0.0013153414647870305,0.005826237360318244,-0.24763406138653143,0.4,0.14536624864862008,0.034141350971734895,0.9433566521240478,-0.49526812277306287,-2.109517529606819,-0.34175748005509377,3.3930759876966476,-8.326763871885293,-171.73649072647095,-59.36751961708069,121.92113399505615,0.0,0.0,0.0,0.0,0.0,0.0,0.0,0.0,0.0,0.0,0.0,0.0,0.0,0.0,0.0,0.0,True,0,3.355660915374756,0.029936279296875
STABILIZE,3.2923285961151123,28.80920948698047,0.032427342732747395,0.03303837776184082,0.0,0.0,0.0,1.2522801796023415,-0.8995819107458711,25.298149836608054,-0.001476803818799728,0.005333628317683657,-0.1651031585816475,0.4,0.1331257172842935,0.03768794557353712,0.9187058764903613,-0.330206317163295,-0.45950915664434433,0.27993840631097555,0.5409206729382277,8.583497022407732,51.22021436691284,65.43736457824707,0.7232986390590668,0.0,0.0,0.0,0.0,0.0,0.0,0.0,0.0,0.0,0.0,0.0,0.0,0.0,0.0,0.0,0.0,True,1,3.384340524673462,0.03492578125
STABILIZE,3.326148509979248,29.571296629229327,0.03164509137471517,0.03293585777282715,0.0,0.0,0.0,1.2561724269338967,-0.9003955570307489,25.24656312535424,-0.0019586065244425925,0.005699427642881285,-0.13381153471472806,0.4,0.14225542601468938,0.049630163491036314,0.9028264419940125,-0.26762306942945613,1.3010123744606972,0.5315938498824835,1.8031645566225052,-5.999497294287569,89.25955295562744,-24.931220710277557,31.80292546749115,0.0,0.0,0.0,0.0,0.0,0.0,0.0,0.0,0.0,0.0,0.0,0.0,0.0,0.0,0.0,0.0,True,0,3.4416325092315674,0.034926025390625
STABILIZE,3.3595118522644043,29.970232013090484,0.03243401845296224,0.0325469970703125,0.0,0.0,0.0,1.2527480475604875,-0.8920857247709292,25.273894127318044,-0.0011400030410378202,0.006486293527580872,-0.1170417196193623,0.4,0.16203954736571913,0.029162334469456958,0.8959534776842059,-0.2340834392387246,1.2812881730496883,-1.0750996880233288,1.2489547953009605,1.430274909372874,-33.77264440059662,-31.370696425437927,28.432393074035645,0.0,0.0,0.0,0.0,0.0,0.0,0.0,0.0,0.0,0.0,0.0,0.0,0.0,0.0,0.0,0.0,True,0,3.470478057861328,0.029936279296875
STABILIZE,3.3929266929626465,29.926181727373265,0.032515796025594075,0.03262019157409668,0.0,0.0,0.0,1.2564159658664902,-0.9017990541834807,25.265685947482982,-0.001389921204854321,0.004265169086966052,-0.09890750877194845,0.4,0.10650862352139996,0.03511596219169081,0.8846830081248623,-0.1978150175438969,-2.8934376314282417,0.41720177978277206,1.2600891292095184,1.5406423353455232,-88.41308951377869,49.956339597702026,9.164801239967346,0.0,0.0,0.0,0.0,0.0,0.0,0.0,0.0,0.0,0.0,0.0,0.0,0.0,0.0,0.0,0.0,True,0,3.49897837638855,0.0349248046875
STABILIZE,3.4263265132904053,29.941776959209605,0.03253010114034017,0.032628536224365234,0.0,0.0,0.0,1.2561392364833988,-0.9004635387573316,25.255976833577808,-0.0020393762251153893,0.004202556066055055,-0.11401525911901982,0.4,0.1048601581233414,0.051402142813180604,0.8841598230661615,-0.22803051823803963,0.10725973406806588,0.9981676936149597,1.5939636155962944,-2.178584031537124,55.89160919189453,-12.288328260183334,7.048996537923813,0.0,0.0,0.0,0.0,0.0,0.0,0.0,0.0,0.0,0.0,0.0,0.0,0.0,0.0,0.0,0.0,True,0,3.527880907058716,0.034926025390625
STABILIZE,3.4598886966705322,29.794804401412204,0.0325506051381429,0.032662391662597656,0.0,0.0,0.0,1.2532107928767557,-0.8971660514920965,25.27416904243214,-0.0009404715441535856,0.005441422012178687,-0.09399517393923429,0.4,0.1359576748457671,0.023958000762240906,0.8802065252192184,-0.18799034787846858,1.967458426952362,-1.4904663898050785,1.4052276499569416,1.829731479348488,42.08967983722687,-35.60156524181366,19.101904332637787,0.0,0.0,0.0,0.0,0.0,0.0,0.0,0.0,0.0,0.0,0.0,0.0,0.0,0.0,0.0,0.0,True,0,3.556630849838257,0.034926025390625
STABILIZE,3.4933199882507324,29.915082699151966,0.03242185910542806,0.03254556655883789,0.0,0.0,0.0,1.255351523573026,-0.8976680703960924,25.2677093910246,0.00016394129467324625,0.006687511610977362,-0.07389946227406216,0.4,0.16719780649405414,-0.0036672452858968717,0.8761426506543764,-0.14779892454812432,1.967458426952362,-1.4904663898050785,1.4052276499569416,1.829731479348488,42.08967983722687,-35.60156524181366,19.101904332637787,0.0,0.0,0.0,0.0,0.0,0.0,0.0,0.0,0.0,0.0,0.0,0.0,0.0,0.0,0.0,0.0,True,0,3.5862622261047363,0.034926025390625
STABILIZE,3.5270040035247803,29.684730528327258,0.03242996533711751,0.032872676849365234,0.0,0.0,0.0,1.2560870495692718,-0.8982526919003632,25.26304437182148,-0.00015178446394653974,0.005948661930020548,-0.08288238030502203,0.4,0.14870494752202656,0.004224853039265762,0.8711021928344721,-0.16576476061004405,-0.8584592491388321,0.5304672755300999,1.3544813729822636,-1.473277780387274,-85.03859639167786,38.76470923423767,34.883883595466614,0.0,0.0,0.0,0.0,0.0,0.0,0.0,0.0,0.0,0.0,0.0,0.0,0.0,0.0,0.0,0.0,True,0,3.6209826469421387,0.03492578125
STABILIZE,3.560525894165039,29.8321016806902,0.03251841862996419,0.032666683197021484,0.0,0.0,0.0,1.2551073443101979,-0.8958938220374758,25.27870087294644,-0.00013200413992511584,0.004631875020961375,-0.07716331199130332,0.4,0.11578756662858616,0.003611990927146206,0.8609314513410325,-0.15432662398260663,1.322829257696867,-1.0229477658867836,1.3638013042509556,0.6039585702238783,64.30303454399109,-8.336178213357925,17.63150691986084,0.0,0.0,0.0,0.0,0.0,0.0,0.0,0.0,0.0,0.0,0.0,0.0,0.0,0.0,0.0,0.0,True,0,3.678758144378662,0.03490771484375
STABILIZE,3.5939652919769287,29.904631530914898,0.03246668179829915,0.03261923789978027,0.0,0.0,0.0,1.255593141514915,-0.8936202228175077,25.266911966439,-0.00011503487568148,0.005918390757120553,-0.08212847910348761,0.4,0.1479509163017349,0.0033000342191685387,0.8526975679127204,-0.16425695820697522,2.0744532346725464,0.04396864678710699,1.148921251296997,-0.9796211623695482,19.752931594848633,24.640607833862305,11.429502069950104,0.0,0.0,0.0,0.0,0.0,0.0,0.0,0.0,0.0,0.0,0.0,0.0,0.0,0.0,0.0,0.0,True,0,3.707256555557251,0.02993603515625
STABILIZE,3.6274638175964355,29.853334946653664,0.03245285352071126,0.032637834548950195,0.0,0.0,0.0,1.2560173602953963,-0.8949441055777266,25.266893183418784,-0.0004300747476590388,0.004862486425832813,-0.07806242342439504,0.4,0.12153241169274845,0.011083072199677572,0.8515783616351896,-0.15612484684879008,-1.2736116535961628,0.49766297452151775,1.7890958115458488,0.06155150368561284,-42.1323299407959,-18.264931440353394,23.933985829353333,0.0,0.0,0.0,0.0,0.0,0.0,0.0,0.0,0.0,0.0,0.0,0.0,0.0,0.0,0.0,0.0,True,0,3.7360196113586426,0.034926025390625
