E-kp,E-ki,E-kd,E-I-Tot,E-P,E-I,E-D,E-PID,N-kp,N-ki,N-kd,N-I-Tot,N-P,N-I,N-D,N-PID,D-kp,D-ki,D-kd,D-I-Tot,D-P,D-I,D-D,D-PID,Y-kp,Y-ki,Y-kd,Y-I-Tot,Y-P,Y-I,Y-D,Y-PID,errorN,desiredN,actualN,errorE,desiredE,actualE,errorD,desiredD,actualD,errorY,desiredY,actualY,roll,pitch,yaw-rate,thrust,dt,Time,Mode
0.16,0.015,0.11,-0.0006575894379945082,-0.003226897355324399,-9.863841569917622e-06,-0.06804060913485782,-0.07127737033175213,0.17,0.015,0.08,0.0004966838129885656,0.002589639240434075,7.450257194828484e-06,0.03737581506643033,0.03997290456405923,0.002,8e-05,0,-0.01990182918940028,-0.0012207685423988293,-1.5921463351520225e-06,-0.0,-0.0012223606887339813,0.2,0.02,0.0,7.001668868512384e-05,0.00042947896987908434,1.4003337737024768e-06,0.0,0.0004308793036527868,0.01523317200255338,0.0,-0.01523317200255338,-0.020168108470777494,0.0,0.020168108470777494,-0.6103842711994146,0.0,0.6103842711994146,0.0021473948493954216,0,-0.0021473948493954216,-0.07127886843059636,-0.03997023312354908,-0.0004308793036527868,0.4,0.03260540962219238,0.03290557861328125,STABILIZE
0.16,0.015,0.11,-0.0011769744438407395,-0.0024640932126553656,-1.765461665761109e-05,-0.026245249174704326,-0.0287269970040173,0.17,0.015,0.08,0.0010386363446636964,0.00273185668837403,1.5579545169955445e-05,0.0196801360236002,0.022427572257144184,0.002,8e-05,0,-0.04033661833194126,-0.0012118472968366339,-3.2269294665553007e-06,-0.0,-0.001215074226303189,0.2,0.02,0.0,0.00010113650614491151,0.00018455030978608764,2.02273012289823e-06,0.0,0.00018657303990898586,0.016069745225729588,0.0,-0.016069745225729588,-0.015400582579096034,0.0,0.015400582579096034,-0.6059236484183169,0.0,0.6059236484183169,0.0009227515489304381,0,-0.0009227515489304381,-0.02872735819752507,-0.022427109604434798,-0.00018657303990898586,0.4,0.03372502326965332,0.06657075881958008,STABILIZE
0.16,0.015,0.11,-0.001761166186167146,-0.0027955849159427156,-2.6417492792507187e-05,-0.0197689011905041,-0.022590903599239324,0.17,0.015,0.08,0.0016105400280720572,0.002907830630852426,2.4158100421080856e-05,0.0139456826650848,0.016877671396358308,0.002,8e-05,0,-0.06067077350661919,-0.0012163356088018473,-4.853661880529536e-06,-0.0,-0.0012211892706823768,0.2,0.02,0.0,0.00020465985033187956,0.0006192493801447218,4.093197006637591e-06,0.0,0.0006233425771513594,0.0171048860638378,0.0,-0.0171048860638378,-0.01747240572464197,0.0,0.01747240572464197,-0.6081678044009237,0.0,0.6081678044009237,0.003096246900723609,0,-0.003096246900723609,-0.022591815630600327,-0.016876450565996938,-0.0006233425771513594,0.4,0.03343510627746582,0.10000729560852051,STABILIZE
0.16,0.015,0.11,-0.002329846997100574,-0.002721029218442337,-3.494770495650861e-05,-0.014443464689595224,-0.017199441612994068,0.17,0.015,0.08,0.0021925350586783914,0.0029587811714809273,3.288802588017587e-05,0.010638518336567444,0.013630187533928547,0.002,8e-05,0,-0.08101507746038486,-0.0012167951780411997,-6.481206196830789e-06,-0.0,-0.0012232763842380304,0.2,0.02,0.0,0.0004211055074379319,0.001294563984460399,8.422110148758638e-06,0.0,0.0013029860946091576,0.017404595126358394,0.0,-0.017404595126358394,-0.017006432615264605,0.0,0.017006432615264605,-0.6083975890205998,0.0,0.6083975890205998,0.006472819922301995,0,-0.006472819922301995,-0.01720098133304765,-0.013628244391299983,-0.0013029860946091576,0.4,0.03343915939331055,0.1334528923034668,STABILIZE
0.16,0.015,0.11,-0.002807308503621875,-0.002253932140290734,-4.2109627554328123e-05,-0.009659845385603147,-0.011955887153448209,0.17,0.015,0.08,0.00276391223521957,0.0028658555719106144,4.1458683528293545e-05,0.008252773546422905,0.011160087801861812,0.002,8e-05,0,-0.10145997450747352,-0.0012064169029852578,-8.116797960597882e-06,-0.0,-0.0012145337009458557,0.2,0.02,0.0,0.0007877732219123381,0.0021636407730597352,1.5755464438246763e-05,0.0,0.002179396237497982,0.016857973952415378,0.0,-0.016857973952415378,-0.014087075876817087,0.0,0.014087075876817087,-0.6032084514926289,0.0,0.6032084514926289,0.010818203865298675,0,-0.010818203865298675,-0.01195799411306432,-0.011157830172716012,-0.002179396237497982,0.4,0.033893585205078125,0.16734623908996582,STABILIZE
0.16,0.015,0.11,-0.00326027301557743,-0.0021657120140817707,-4.890409523366145e-05,0.0043107588358029395,0.0020961427264875074,0.17,0.015,0.08,0.0034189195694861044,0.003327450697950903,5.1283793542291566e-05,0.0020758321035733865,0.00545456659506658,0.002,8e-05,0,-0.12150552659894244,-0.0011980213639136005,-9.720442127915396e-06,0.0,-0.0012077418060415159,0.2,0.02,0.0,0.0011794566386894572,0.0023408938753518636,2.3589132773789143e-05,0.0,0.0023644830081256526,0.01957323939971119,0.0,-0.01957323939971119,-0.013535700088011067,0.0,0.013535700088011067,-0.5990106819568002,0.0,0.5990106819568002,0.011704469376759319,0,-0.011704469376759319,0.0020950284155605973,-0.005454994684490203,-0.0023644830081256526,0.4,0.03346443176269531,0.20085668563842773,STABILIZE
0.16,0.015,0.11,-0.0038640276249617377,-0.0028879858278599985,-5.796041437442606e-05,-0.0017683247528742219,-0.004714270995108646,0.17,0.015,0.08,0.004059398676333289,0.003255131247933995,6.089098014499934e-05,0.0014754517757933209,0.004791474003872315,0.002,8e-05,0,-0.141401833590669,-0.001189644180883656,-1.131214668725352e-05,0.0,-0.0012009563275709096,0.2,0.02,0.0,0.0015752180228910072,0.0023663448092634118,3.150436045782014e-05,0.0,0.002397849169721232,0.01914783087019997,0.0,-0.01914783087019997,-0.01804991142412499,0.0,0.01804991142412499,-0.594822090441828,0.0,0.594822090441828,0.011831724046317058,0,-0.011831724046317058,-0.004715260346141536,-0.004790500392778616,-0.002397849169721232,0.4,0.03344917297363281,0.23429012298583984,STABILIZE
0.16,0.015,0.11,-0.004491003820589665,-0.0029981445103379667,-6.736505730884497e-05,-0.0008577758528389435,-0.003923285420485755,0.17,0.015,0.08,0.004668104665762833,0.0030927016315422627,7.00215699864425e-05,0.0005232001117211023,0.003685923313249808,0.002,8e-05,0,-0.1613425674767086,-0.0011919352411111877,-1.290740539813669e-05,0.0,-0.0012048426465093244,0.2,0.02,0.0,0.001974689784752941,0.002387798129763725,3.949379569505882e-05,0.0,0.0024272919254587836,0.018192362538483896,0.0,-0.018192362538483896,-0.018738403189612292,0.0,0.018738403189612292,-0.5959676205555938,0.0,0.5959676205555938,0.011938990648818624,0,-0.011938990648818624,-0.003924053388456209,-0.003685105719826756,-0.0024272919254587836,0.4,0.03345942497253418,0.26778149604797363,STABILIZE
0.16,0.015,0.11,-0.0050557074664070835,-0.0027014791858815733,-7.583561199610625e-05,5.52920319442817e-05,-0.002722022765933398,0.17,0.015,0.08,0.005205809158588389,0.002733088143533012,7.808713737882584e-05,-0.0006321760006120507,0.0021789992802997873,0.002,8e-05,0,-0.18105694564657843,-0.0011788922978221955,-1.4484555651726276e-05,0.0,-0.0011933768534739216,0.2,0.02,0.0,0.0022677502111206975,0.0017524604451864283,4.535500422241395e-05,0.0,0.0017978154494088423,0.016076989079605954,0.0,-0.016076989079605954,-0.016884244911759834,0.0,0.016884244911759834,-0.5894461489110977,0.0,0.5894461489110977,0.00876230222593214,0,-0.00876230222593214,-0.002722355970691911,-0.0021785829730916377,-0.0017978154494088423,0.4,0.03344559669494629,0.3012242317199707,STABILIZE
0.16,0.015,0.11,-0.005625304154628849,-0.0027149006502073833,-8.437956231943273e-05,-0.0018946098233600208,-0.004693890035886837,0.17,0.015,0.08,0.005880364147883954,0.003416117369473769,8.820546221825931e-05,0.0015409007213098706,0.005045223553001899,0.002,8e-05,0,-0.20092088066149838,-0.001183482348186663,-1.607367045291987e-05,0.0,-0.0011995560186395828,0.2,0.02,0.0,0.00249676212327148,0.001364440405948529,4.99352424654296e-05,-0.0,0.0014143756484139586,0.020094808055728053,0.0,-0.020094808055728053,-0.016968129063796144,0.0,0.016968129063796144,-0.5917411740933315,0.0,0.5917411740933315,0.006822202029742645,0,-0.006822202029742645,-0.004694490736812932,-0.0050446646162793035,-0.0014143756484139586,0.4,0.033568620681762695,0.33478379249572754,STABILIZE
0.16,0.015,0.11,-0.006184718974051847,-0.002662965805503203,-9.27707846107777e-05,-0.002044634175374206,-0.004800370765488187,0.17,0.015,0.08,0.006229421134033098,0.0017654559910457782,9.344131701049647e-05,-0.004379435259736694,-0.002520537951680419,0.002,8e-05,0,-0.22047259586133897,-0.001163393138874457,-1.7637807668907117e-05,0.0,-0.001181030946543364,0.2,0.02,0.0,0.0026391708209158667,0.0008473798848956101,5.2783416418317335e-05,-0.0,0.0009001633013139274,0.010385035241445753,0.0,-0.010385035241445753,-0.01664353628439502,0.0,0.01664353628439502,-0.5816965694372285,0.0,0.5816965694372285,0.0042368994244780505,0,-0.0042368994244780505,-0.004800184364013611,0.0025208929218620544,-0.0009001633013139274,0.4,0.03361153602600098,0.36837267875671387,STABILIZE
0.16,0.015,0.11,-0.00665979635837599,-0.002270596784753773,-9.989694537563985e-05,0.002536011779371716,0.0001655180492423033,0.17,0.015,0.08,0.006597176277546369,0.0018675118067395169,9.895764416319553e-05,-0.0038890238991662342,-0.0019225544482635217,0.002,8e-05,0,-0.2398493116115693,-0.0011576195250840974,-1.9187944928925546e-05,0.0,-0.001176807470013023,0.2,0.02,0.0,0.0028157967066468233,0.0010552127439604785,5.631593413293647e-05,-0.0,0.001111528678093415,0.010985363569055981,0.0,-0.010985363569055981,-0.014191229904711082,0.0,0.014191229904711082,-0.5788097625420487,0.0,0.5788097625420487,0.005276063719802392,0,-0.005276063719802392,0.00016569508635808504,0.0019225391984351368,-0.001111528678093415,0.4,0.033476829528808594,0.4018898010253906,STABILIZE
0.16,0.015,0.11,-0.007113936369936093,-0.002173066302032493,-0.00010670904554904138,0.0033897611074422958,0.001109985759860761,0.17,0.015,0.08,0.006829056737181953,0.0011788981924386254,0.00010243585105772929,-0.005370377876453609,-0.004089043832957254,0.002,8e-05,0,-0.2593843408650173,-0.0011684423498068278,-2.075074726920139e-05,0.0,-0.0011891930970760291,0.2,0.02,0.0,0.002918641489600069,0.0006151421546402509,5.8372829792001376e-05,-0.0,0.0006735149844322522,0.006934695249638973,0.0,-0.006934695249638973,-0.013581664387703082,0.0,0.013581664387703082,-0.5842211749034139,0.0,0.5842211749034139,0.003075710773201254,0,-0.003075710773201254,0.0011102052633675838,0.004088984241609441,-0.0006735149844322522,0.4,0.03343772888183594,0.4353001117706299,STABILIZE
0.16,0.015,0.11,-0.007718893762702054,-0.002894481919073543,-0.00011578340644053081,-0.0007961705220144051,-0.003806435847528479,0.17,0.015,0.08,0.007150209813153886,0.0016326273869772942,0.00010725314719730828,-0.0030813981358087956,-0.0013415176016341932,0.002,8e-05,0,-0.27890836694120064,-0.0011676843101018092,-2.2312669355296053e-05,0.0,-0.0011899969794571053,0.2,0.02,0.0,0.0030509733824634565,0.000791444727740594,6.1019467649269135e-05,-0.0,0.0008524641953898632,0.009603690511631142,0.0,-0.009603690511631142,-0.018090511994209642,0.0,0.018090511994209642,-0.5838421550509046,0.0,0.5838421550509046,0.00395722363870297,0,-0.00395722363870297,-0.003806343184414757,0.0013417804959469106,-0.0008524641953898632,0.4,0.033440589904785156,0.4687459468841553,STABILIZE
0.16,0.015,0.11,-0.008327228246461461,-0.0029108474964078634,-0.0001249084236969219,-0.0008084913136416167,-0.003844247233746402,0.17,0.015,0.08,0.00739776568088901,0.001258575231836244,0.00011096648521333515,-0.006049268597362395,-0.004679726880312816,0.002,8e-05,0,-0.2983460028795435,-0.0011626004159249227,-2.3867680230363482e-05,0.0,-0.0011864680961552862,0.2,0.02,0.0,0.0032455238375559336,0.0011636417140765741,6.491047675111867e-05,-0.0,0.0012285521908276928,0.007403383716683788,0.0,-0.007403383716683788,-0.018192796852549147,0.0,0.018192796852549147,-0.5813002079624614,0.0,0.5813002079624614,0.00581820857038287,0,-0.00581820857038287,-0.0038437720021873285,0.004680117227558515,-0.0012285521908276928,0.4,0.03343820571899414,0.5021777153015137,STABILIZE
0.16,0.015,0.11,-0.008975407526325,-0.00309856429482061,-0.000134631112894875,-0.0017921213020015907,-0.005025316709717075,0.17,0.015,0.08,0.007514307394301248,0.0005919372979948197,0.00011271461091451873,-0.003301744936152032,-0.0025970930272426933,0.002,8e-05,0,-0.31774753576400516,-0.0011593416152016862,-2.5419802861120415e-05,0.0,-0.0011847614180628067,0.2,0.02,0.0,0.003383879116224178,0.0008267441196431665,6.767758232448356e-05,-0.0,0.0008944217019676501,0.0034819841058518807,0.0,-0.0034819841058518807,-0.019366026842628812,0.0,0.019366026842628812,-0.5796708076008431,0.0,0.5796708076008431,0.004133720598215832,0,-0.004133720598215832,-0.005025129324077356,0.0025974555821827103,-0.0008944217019676501,0.4,0.03346991539001465,0.5357108116149902,STABILIZE
0.16,0.015,0.11,-0.00947281992763118,-0.0023806005699022904,-0.00014209229891446772,-0.0004507622939166159,-0.002973455162733374,0.17,0.015,0.08,0.007680740366771747,0.0008463270715164281,0.0001152111055015762,-0.0028724898996743543,-0.00191095172265635,0.002,8e-05,0,-0.33701130214137454,-0.0011524474735653384,-2.6960904171309966e-05,0.0,-0.0011794083777366484,0.2,0.02,0.0,0.0033832134864631557,-3.982104648659994e-06,6.766426972926312e-05,-0.0,6.368216508060312e-05,0.00497839453833193,0.0,-0.00497839453833193,-0.014878753561889314,0.0,0.014878753561889314,-0.5762237367826692,0.0,0.5762237367826692,-1.991052324329997e-05,0,1.991052324329997e-05,-0.002973455826796918,0.0019109506893681175,-6.368216508060312e-05,0.4,0.033431053161621094,0.5690798759460449,STABILIZE
0.16,0.015,0.11,-0.010393121706452482,-0.0043248676087951025,-0.0001558968255967872,-0.008703835646840054,-0.013184600081231942,0.17,0.015,0.08,0.007736931605212111,0.00028056926777738093,0.00011605397407818166,-0.002498194213584318,-0.0021015709717287553,0.002,8e-05,0,-0.35619650754158017,-0.001126987300699624,-2.8495720603326417e-05,0.0,-0.0011554830213029504,0.2,0.02,0.0,0.0033814213590537792,-1.0527407913919794e-05,6.762842718107558e-05,-0.0,5.710101926715579e-05,0.0016504074575140054,0.0,-0.0016504074575140054,-0.027030422554969392,0.0,0.027030422554969392,-0.5634936503498119,0.0,0.5634936503498119,-5.263703956959897e-05,0,5.263703956959897e-05,-0.013184602011917878,0.0021015588591722476,-5.710101926715579e-05,0.4,0.03404688835144043,0.6031997203826904,STABILIZE
0.16,0.015,0.11,-0.011313990905564258,-0.0044062149005711935,-0.00016970986358346386,-0.006072038877682231,-0.010647963641836889,0.17,0.015,0.08,0.007769562664605442,0.00016589291565532368,0.00011654343996908162,-0.004097972550604227,-0.003815536194979822,0.002,8e-05,0,-0.3751146067800797,-0.0011315017761963815,-3.0009168542406377e-05,0.0,-0.0011615109447387878,0.2,0.02,0.0,0.0033727292841287254,-5.1987771564890295e-05,6.745458568257451e-05,-0.0,1.5466814117684214e-05,0.0009758406803254333,0.0,-0.0009758406803254333,-0.027538843128569957,0.0,0.027538843128569957,-0.5657508880981907,0.0,0.5657508880981907,-0.0002599388578244515,0,0.0002599388578244515,-0.010647980952009653,0.003815487887377054,-1.5466814117684214e-05,0.4,0.033438920974731445,0.6366000175476074,STABILIZE
0.16,0.015,0.11,-0.012194002095192823,-0.004213629901200205,-0.00018291003142789235,-0.005212289868683401,-0.009608829801311499,0.17,0.015,0.08,0.007601376899004458,-0.0008556307186175115,0.00011402065348506686,-0.005922322045957975,-0.00666393211109042,0.002,8e-05,0,-0.3940483520115542,-0.0011332213156676047,-3.152386816092434e-05,0.0,-0.001164745183828529,0.2,0.02,0.0,0.0034316579385222125,0.00035269940757044977,6.863315877044425e-05,-0.0,0.000421332566340894,-0.005033121874220656,0.0,0.005033121874220656,-0.026335186882501277,0.0,0.026335186882501277,-0.5666106578338024,0.0,0.5666106578338024,0.0017634970378522488,0,-0.0017634970378522488,-0.009608624688728824,0.0066642278564695645,-0.000421332566340894,0.4,0.033415794372558594,0.6699864864349365,STABILIZE
0.16,0.015,0.11,-0.012993024673760756,-0.0036019250185092082,-0.00019489537010641134,-0.002071380217177617,-0.005868200605793236,0.17,0.015,0.08,0.0074912410511696,-0.0005275131062203226,0.00011236861576754399,-0.003177657203529526,-0.003592801693982305,0.002,8e-05,0,-0.41403104029487203,-0.001126002987827865,-3.312248322358976e-05,0.0,-0.0011591254710514548,0.2,0.02,0.0,0.0034946598299989357,0.0003550088808662459,6.989319659997872e-05,-0.0,0.00042490207746622463,-0.0031030182718842507,0.0,0.0031030182718842507,-0.022512031365682552,0.0,0.022512031365682552,-0.5630014939139325,0.0,0.5630014939139325,0.0017750444043312294,0,-0.0017750444043312294,-0.005868089296654123,0.0035929834912795723,-0.00042490207746622463,0.4,0.03549313545227051,0.7055988311767578,STABILIZE
0.16,0.015,0.11,-0.0138410681722962,-0.004054170968841002,-0.00020761602258444298,-0.006882305022335796,-0.011144092013761242,0.17,0.015,0.08,0.007341659315121891,-0.0007597862652102167,0.00011012488972682836,-0.0045470164092779,-0.005196677784761288,0.002,8e-05,0,-0.4329411732914051,-0.00113002623603426,-3.463529386331241e-05,0.0,-0.0011646615298975724,0.2,0.02,0.0,0.0035245237812821175,0.00017846013281784564,7.049047562564236e-05,0.0,0.000248950608443488,-0.0044693309718248034,0.0,0.0044693309718248034,-0.025338568555256263,0.0,0.025338568555256263,-0.56501311801713,0.0,0.56501311801713,0.0008923006640892281,0,-0.0008923006640892281,-0.011144011081509189,0.005196851337589809,-0.000248950608443488,0.4,0.03346848487854004,0.7389919757843018,STABILIZE
0.16,0.015,0.11,-0.014675673268719167,-0.003996275519040181,-0.0002201350990307875,0.0012079439375734188,-0.0030084666804975502,0.17,0.015,0.08,0.007008554398622248,-0.0016946669965038448,0.00010512831597933372,-0.005616248493236021,-0.007205787173760532,0.002,8e-05,0,-0.4516187673632598,-0.0011179061250618089,-3.612950138906079e-05,0.0,-0.0011540356264508698,0.2,0.02,0.0,0.00348110573769432,-0.0002598691066861766,6.96221147538864e-05,-0.0,-0.0001902469919322902,-0.009968629391199087,0.0,0.009968629391199087,-0.024976721994001132,0.0,0.024976721994001132,-0.5589530625309045,0.0,0.5589530625309045,-0.001299345533430883,0,0.001299345533430883,-0.0030086300915399262,0.007205718946328409,0.0001902469919322902,0.4,0.03341531753540039,0.7723755836486816,STABILIZE
0.16,0.015,0.11,-0.015527725471256297,-0.0039672695053746465,-0.00023291588206884444,0.0016585056109217065,-0.002541679776521784,0.17,0.015,0.08,0.006500569574300316,-0.002513073424691404,9.750854361450473e-05,-0.007535014302140036,-0.009950579183216936,0.002,8e-05,0,-0.4708092193476401,-0.0011169165270227463,-3.766473754781121e-05,0.0,-0.0011545812645705575,0.2,0.02,0.0,0.003332269948125409,-0.0008662492854118397,6.664539896250818e-05,-0.0,-0.0007996038864493315,-0.014782784851125903,0.0,0.014782784851125903,-0.02479543440859154,0.0,0.02479543440859154,-0.5584582635113732,0.0,0.5584582635113732,-0.004331246427059198,0,0.004331246427059198,-0.002542431978425018,0.00995038701774619,0.0007996038864493315,0.4,0.0343632698059082,0.8067569732666016,STABILIZE
0.16,0.015,0.11,-0.016250597487015347,-0.003454076285190028,-0.0002437589623052302,0.002973390590701616,-0.0007244446567936423,0.17,0.015,0.08,0.006047257544703216,-0.0023014243056251518,9.070886317054823e-05,-0.004062938043348559,-0.006273653485803163,0.002,8e-05,0,-0.48954352355119113,-0.001118969099271904,-3.9163481884095294e-05,0.0,-0.0011581325811559995,0.2,0.02,0.0,0.0032525860628011337,-0.0004759387080460101,6.505172125602268e-05,-0.0,-0.0004108869867899874,-0.013537790033089128,0.0,0.013537790033089128,-0.021587976782437675,0.0,0.021587976782437675,-0.5594845496359521,0.0,0.5594845496359521,-0.0023796935402300504,0,0.0023796935402300504,-0.000724705222877138,0.006273623391678977,0.0004108869867899874,0.4,0.03348493576049805,0.8402538299560547,STABILIZE
0.16,0.015,0.11,-0.017079209907100774,-0.003967496322568542,-0.0002561881486065116,-0.0015089634024050534,-0.005732647873580107,0.17,0.015,0.08,0.005598662062620945,-0.0022821749197652055,8.397993093931417e-05,-0.004878795439985257,-0.007076990428811148,0.002,8e-05,0,-0.5082311320834979,-0.001118481577338105,-4.065849056667984e-05,0.0,-0.0011591400679047848,0.2,0.02,0.0,0.0031403382889203966,-0.0006718198691168779,6.280676577840794e-05,-0.0,-0.00060901310333847,-0.013424558351560032,0.0,0.013424558351560032,-0.02479685201605339,0.0,0.02479685201605339,-0.5592407886690525,0.0,0.5592407886690525,-0.003359099345584389,0,0.003359099345584389,-0.005733062768876529,0.007076654326733001,0.00060901310333847,0.4,0.033416032791137695,0.8736507892608643,STABILIZE
0.16,0.015,0.11,-0.017907226304346584,-0.003964048552022361,-0.00026860839456519875,0.00036320260232699825,-0.0038694543442605624,0.17,0.015,0.08,0.005174295653790364,-0.002158589032687271,7.761443480685546e-05,-0.0038775810517469233,-0.005958555649627339,0.002,8e-05,0,-0.5269331149939717,-0.001119174217485364,-4.2154649199517735e-05,0.0,-0.0011613288666848817,0.2,0.02,0.0,0.003065294126933379,-0.0004490833494539754,6.130588253866758e-05,-0.0,-0.0003877774669153078,-0.01269758254521924,0.0,0.01269758254521924,-0.02477530345013976,0.0,0.02477530345013976,-0.559587108742682,0.0,0.559587108742682,-0.0022454167472698767,0,0.0022454167472698767,-0.003869687856580387,0.005958404001463572,0.0003877774669153078,0.4,0.03342103958129883,0.9071121215820312,STABILIZE
0.16,0.015,0.11,-0.0186020142040039,-0.0033201428893757535,-0.0002790302130600585,0.0027692622833578153,-0.0008299108190779969,0.17,0.015,0.08,0.004625185359724457,-0.0027880018192267386,6.937778039586686e-05,-0.0030136522047537495,-0.005732276243584621,0.002,8e-05,0,-0.5456550191990575,-0.0011183160564675195,-4.36524015359246e-05,-0.0,-0.0011619684580034442,0.2,0.02,0.0,0.0029241018298038464,-0.000843384365179032,5.848203659607693e-05,-0.0,-0.000784902328582955,-0.016400010701333755,0.0,0.016400010701333755,-0.02075089305859846,0.0,0.02075089305859846,-0.5591580282337597,0.0,0.5591580282337597,-0.00421692182589516,0,0.00421692182589516,-0.0008303327076045319,0.005732215147311678,0.000784902328582955,0.4,0.03348231315612793,0.9405622482299805,STABILIZE
0.16,0.015,0.11,-0.019431981854500686,-0.003968096475730294,-0.0002914797278175103,-9.04423586870028e-06,-0.004268620439416504,0.17,0.015,0.08,0.00396040568574171,-0.003376974087342074,5.940608528612565e-05,-0.002428523471802189,-0.005746091473858138,0.002,8e-05,0,-0.5643837127732111,-0.001119279512312141,-4.515069702185689e-05,-0.0,-0.001164430209333998,0.2,0.02,0.0,0.002753084797500116,-0.001022045983912892,5.5061695950002326e-05,-0.0,-0.0009669842879628897,-0.019864553454953377,0.0,0.019864553454953377,-0.024800602973314337,0.0,0.024800602973314337,-0.5596397561560705,0.0,0.5596397561560705,-0.00511022991956446,0,0.00511022991956446,-0.004269132918276173,0.005745710731305596,0.0009669842879628897,0.4,0.03346562385559082,0.9740159511566162,STABILIZE
0.16,0.015,0.11,-0.020284633634748257,-0.004065052525539003,-0.00030426950452122387,-0.002513621133245767,-0.0068829431633059945,0.17,0.015,0.08,0.0032159602077272225,-0.0037709979245611263,4.823940311590833e-05,-0.00412843001596262,-0.007851188537407837,0.002,8e-05,0,-0.5833034309289093,-0.0011275067069140535,-4.666427447431275e-05,-0.0,-0.0011741709813883662,0.2,0.02,0.0,0.002481705276096358,-0.001617266324919891,4.963410552192716e-05,-0.0,-0.0015676322193979638,-0.022182340732712507,0.0,0.022182340732712507,-0.02540657828461877,0.0,0.02540657828461877,-0.5637533534570267,0.0,0.5637533534570267,-0.008086331624599454,0,0.008086331624599454,-0.006884051157418527,0.00785021704803565,0.0015676322193979638,0.4,0.03356027603149414,1.0076274871826172,STABILIZE
0.16,0.015,0.11,-0.021201362120592017,-0.004385808092949043,-0.00031802043180888023,-0.0017197650003968608,-0.006423593525154784,0.17,0.015,0.08,0.0025480744135416354,-0.003395002066529909,3.822111620312453e-05,-0.003124506942681164,-0.0064812878930079485,0.002,8e-05,0,-0.602110629364107,-0.0011247163742663243,-4.8168850349128565e-05,-0.0,-0.0011728852246154528,0.2,0.02,0.0,0.0021373476571216812,-0.002059342618193171,4.2746953142433625e-05,-0.0,-0.0020165956650507375,-0.019970600391352403,0.0,0.019970600391352403,-0.027411300580931518,0.0,0.027411300580931518,-0.5623581871331621,0.0,0.5623581871331621,-0.010296713090965855,0,0.010296713090965855,-0.0064247581836840975,0.006480133394433027,0.0020165956650507375,0.4,0.033443450927734375,1.041029453277588,STABILIZE
0.16,0.015,0.11,-0.022079945901038903,-0.003946714645671522,-0.0003311991885155835,-3.886185626209309e-05,-0.004316775690449198,0.17,0.015,0.08,0.0018951903744002226,-0.0031161441260187115,2.8427855616003338e-05,-0.0027356767770444074,-0.005823393047447115,0.002,8e-05,0,-0.6222952870557483,-0.0011334019290816413,-4.978362296445987e-05,-0.0,-0.0011831855520461011,0.2,0.02,0.0,0.0016520200273826325,-0.002725194948491232,3.304040054765265e-05,-0.0,-0.0026921545479435794,-0.01833025956481595,0.0,0.01833025956481595,-0.02466696653544701,0.0,0.02466696653544701,-0.5667009645408206,0.0,0.5667009645408206,-0.01362597474245616,0,0.01362597474245616,-0.004318160476767534,0.005822366275286306,0.0026921545479435794,0.4,0.035617828369140625,1.0766613483428955,STABILIZE
0.16,0.015,0.11,-0.022900930980674673,-0.003928173000656379,-0.0003435139647101201,-0.0026069137254992737,-0.006878600690865773,0.17,0.015,0.08,0.0011162541893826835,-0.003959917698338384,1.674381284074025e-05,-0.0033412477506234257,-0.007284421636121069,0.002,8e-05,0,-0.6410198932981821,-0.0011198969158197443,-5.128159146385457e-05,-0.0,-0.0011711785072835987,0.2,0.02,0.0,0.0012113652457184905,-0.00263550498492487,2.4227304914369812e-05,-0.0,-0.0026112776800105,-0.023293633519637553,0.0,0.023293633519637553,-0.024551081254102367,0.0,0.024551081254102367,-0.5599484579098721,0.0,0.5599484579098721,-0.013177524924624349,0,0.013177524924624349,-0.006880275861778931,0.0072828394258688724,0.0026112776800105,0.4,0.03343987464904785,1.1101171970367432,STABILIZE
0.16,0.015,0.11,-0.023818455554088465,-0.004390962769033802,-0.00035727683331132696,-0.0018479764190166396,-0.0065962160213617685,0.17,0.015,0.08,0.00035702032172987917,-0.003860526711061027,5.3553048259481876e-06,-0.0014050459175081287,-0.005260217323743207,0.002,8e-05,0,-0.6595812516344047,-0.0011103549125366671,-5.276650013075238e-05,0.0,-0.0011631214126674196,0.2,0.02,0.0,0.000884772639271081,-0.001953702409049192,1.769545278542162e-05,-0.0,-0.0019360069562637703,-0.022708980653300157,0.0,0.022708980653300157,-0.02744351730646126,0.0,0.02744351730646126,-0.5551774562683336,0.0,0.5551774562683336,-0.00976851204524596,0,0.00976851204524596,-0.00659711275413351,0.005259092640629829,0.0019360069562637703,0.4,0.03343319892883301,1.1435489654541016,STABILIZE
0.16,0.015,0.11,-0.024799121879008738,-0.0046907628673167785,-0.00037198682818513103,-0.002683094701558718,-0.007745844397060627,0.17,0.015,0.08,-0.0003751255354619605,-0.0037209065613580724,-5.626883031929407e-06,9.281387422768762e-05,-0.003633719570162314,0.002,8e-05,0,-0.6780057815779031,-0.001101611969210767,-5.4240462526232256e-05,0.0,-0.0011558524317369992,0.2,0.02,0.0,0.0005787030863501708,-0.0018300053458223595,1.1574061727003417e-05,-0.0,-0.001818431284095356,-0.021887685655047482,0.0,0.021887685655047482,-0.029317267920729865,0.0,0.029317267920729865,-0.5508059846053834,0.0,0.5508059846053834,-0.009150026729111797,0,0.009150026729111797,-0.007746424596371264,0.0036324825272519077,0.001818431284095356,0.4,0.03345012664794922,1.1769802570343018,STABILIZE
0.16,0.015,0.11,-0.02578434349639749,-0.00471137660107612,-0.00038676515244596234,-0.0014490481719053264,-0.0065471899254274084,0.17,0.015,0.08,-0.0011519145106209346,-0.00394680691176885,-1.7278717659314018e-05,-0.0016007766086874697,-0.005564862238115633,0.002,8e-05,0,-0.6964573848347798,-0.0011029555470371743,-5.571659078678239e-05,0.0,-0.0011586721378239568,0.2,0.02,0.0,0.00021887947625697543,-0.0021508670069595322,4.377589525139508e-06,-0.0,-0.0021464894174343927,-0.02321651124569912,0.0,0.02321651124569912,-0.02944610375672575,0.0,0.02944610375672575,-0.5514777735185872,0.0,0.5514777735185872,-0.01075433503479766,0,0.01075433503479766,-0.006548234326692169,0.005563633242005969,0.0021464894174343927,0.4,0.03345847129821777,1.21047043800354,STABILIZE
0.16,0.015,0.11,-0.026761484269568113,-0.004555387791286015,-0.00040142226404352166,-0.0025191873339853025,-0.007475997389314839,0.17,0.015,0.08,-0.0019134280918861215,-0.0037720271496514955,-2.8701421378291823e-05,-0.0018583360985378495,-0.005659064669567637,0.002,8e-05,0,-0.7151930266406084,-0.0010918093416985592,-5.721544213124867e-05,0.0,-0.001149024783829808,0.2,0.02,0.0,-0.0002688543753104682,-0.0028422425072104694,-5.3770875062093645e-06,-0.0,-0.0028476195947166787,-0.022188394997949973,0.0,0.022188394997949973,-0.02847117369553759,0.0,0.02847117369553759,-0.5459046708492796,0.0,0.5459046708492796,-0.014211212536052346,0,0.014211212536052346,-0.007477400791010026,0.0056572102055689605,0.0028476195947166787,0.4,0.03432035446166992,1.2447729110717773,STABILIZE
0.16,0.015,0.11,-0.027744337070584484,-0.004697003044694481,-0.00041616505605876724,-0.003177028891948966,-0.008290196992702214,0.17,0.015,0.08,-0.0025852412263483553,-0.003411220485605746,-3.877861839522533e-05,0.0015307731788551115,-0.00191922592514586,0.002,8e-05,0,-0.7336291299220666,-0.0011013148809740905,-5.8690330393765334e-05,0.0,-0.001160005211367856,0.2,0.02,0.0,-0.0007686146651932424,-0.0029854109394221572,-1.537229330386485e-05,-0.0,-0.003000783232726022,-0.020066002856504388,0.0,0.020066002856504388,-0.029356269029340503,0.0,0.029356269029340503,-0.5506574404870452,0.0,0.5506574404870452,-0.014927054697110786,0,0.014927054697110786,-0.008290696720089634,0.0019170660460859964,0.003000783232726022,0.4,0.033480167388916016,1.2783010005950928,STABILIZE
0.16,0.015,0.11,-0.028753113447015453,-0.004826905808323552,-0.0004312967017052318,-0.0018078878458087989,-0.007066090355837582,0.17,0.015,0.08,-0.0032154229733095158,-0.003203824213310787,-4.823134459964273e-05,0.0018347267859714167,-0.0014173287719390132,0.002,8e-05,0,-0.7519533402852832,-0.0010959965893046096,-6.015626722282266e-05,0.0,-0.0011561528565274322,0.2,0.02,0.0,-0.0012561997985522815,-0.0029163147146021797,-2.512399597104563e-05,-0.0,-0.0029414387105732255,-0.018846024784181098,0.0,0.018846024784181098,-0.030168161302022198,0.0,0.030168161302022198,-0.5479982946523048,0.0,0.5479982946523048,-0.014581573573010898,0,0.014581573573010898,-0.0070664508321716495,0.0014155304310143402,0.0029414387105732255,0.4,0.03343844413757324,1.3117752075195312,STABILIZE
0.16,0.015,0.11,-0.02978124090299246,-0.004924836409812123,-0.00044671861354488685,-0.0009786611821137802,-0.00635021620547079,0.17,0.015,0.08,-0.003800308068403298,-0.0029767635883316736,-5.7004621026049465e-05,0.002081672096582823,-0.0009520961127749,0.002,8e-05,0,-0.7700840611919346,-0.0010856002572702413,-6.160672489535478e-05,0.0,-0.001147206982165596,0.2,0.02,0.0,-0.0017259817003026745,-0.002812879620324599,-3.451963400605349e-05,-0.0,-0.0028473992543306525,-0.017510374049009843,0.0,0.017510374049009843,-0.030780227561325764,0.0,0.030780227561325764,-0.5428001286351206,0.0,0.5428001286351206,-0.014064398101622994,0,0.014064398101622994,-0.006350449725234958,0.0009505372961899775,0.0028473992543306525,0.4,0.033402204513549805,1.3451330661773682,STABILIZE
0.16,0.015,0.11,-0.03089697200591674,-0.004800662108926501,-0.0004634545800887511,-0.00043479602408507187,-0.005698912713100324,0.17,0.015,0.08,-0.004464829627451565,-0.003037942947921736,-6.697244441177346e-05,0.0025622776606437025,-0.0005426377316898072,0.002,8e-05,0,-0.7902472210348549,-0.0010844516792670334,-6.32197776827884e-05,0.0,-0.0011476714569498218,0.2,0.02,0.0,-0.0019908119390650543,-0.0014243580836730426,-3.981623878130109e-05,0.0,-0.0014641743224543438,-0.01787025263483374,0.0,0.01787025263483374,-0.030004138180790632,0.0,0.030004138180790632,-0.5422258396335167,0.0,0.5422258396335167,-0.0071217904183652125,0,0.0071217904183652125,-0.0056989801182355535,0.0005419293601068555,0.0014641743224543438,0.4,0.0371859073638916,1.382352590560913,STABILIZE
0.16,0.015,0.11,-0.031769401179200005,-0.004166445876054924,-0.0004765410176880001,0.0015431441795806774,-0.003099842714162247,0.17,0.015,0.08,-0.004979184108620564,-0.002609919014983135,-7.468776162930846e-05,0.0032853901991599355,0.0006007834225474919,0.002,8e-05,0,-0.8086229783889358,-0.0010969600855844778,-6.468983827111487e-05,-0.0,-0.0011616499238555926,0.2,0.02,0.0,-0.0022118581481290972,-0.0013195585016753985,-4.423716296258194e-05,0.0,-0.0013637956646379804,-0.015352464794018441,0.0,0.015352464794018441,-0.026040286725343278,0.0,0.026040286725343278,-0.5484800427922388,0.0,0.5484800427922388,-0.006597792508376992,0,0.006597792508376992,-0.0030997735114748435,-0.0006011403753796302,0.0013637956646379804,0.4,0.033503055572509766,1.4158382415771484,STABILIZE
0.16,0.015,0.11,-0.03254064881110479,-0.0036949358167165493,-0.00048810973216657186,0.004066018667418712,-0.00011702688146440939,0.17,0.015,0.08,-0.005489150424311291,-0.002595873261280362,-8.233725636466936e-05,0.0023106929413721643,-0.00036751757627286746,0.002,8e-05,0,-0.8269836066237211,-0.001099538917133755,-6.615868852989769e-05,0.0,-0.0011656976056636527,0.2,0.02,0.0,-0.002387306558492517,-0.0010506849366861552,-4.7746131169850345e-05,0.0,-0.0010984310678560055,-0.015269842713413894,0.0,0.015269842713413894,-0.023093348854478432,0.0,0.023093348854478432,-0.5497694585668774,0.0,0.5497694585668774,-0.005253424683430776,0,0.005253424683430776,-0.00011706057849646812,0.0003675068445850228,0.0010984310678560055,0.4,0.03339695930480957,1.4492261409759521,STABILIZE
0.16,0.015,0.11,-0.03340593058246988,-0.004136757358444323,-0.0005010889587370482,0.002784951354196917,-0.0018528949629844547,0.17,0.015,0.08,-0.005940118503890771,-0.0022907475718555166,-8.910177755836157e-05,0.002585033237443166,0.00020518388802928753,0.002,8e-05,0,-0.8453722075761856,-0.001098907645159268,-6.762977660609485e-05,-0.0,-0.0011665374217653627,0.2,0.02,0.0,-0.0026165435071190436,-0.0013699260539171687,-5.2330870142380874e-05,0.0,-0.0014222569240595496,-0.013474985716797155,0.0,0.013474985716797155,-0.025854733490277018,0.0,0.025854733490277018,-0.5494538225796339,0.0,0.5494538225796339,-0.006849630269585843,0,0.006849630269585843,-0.001852870420297138,-0.0002054053975626882,0.0014222569240595496,0.4,0.03346705436706543,1.482696533203125,STABILIZE
0.16,0.015,0.11,-0.03444097152219996,-0.004807814669683009,-0.0005166145728329993,0.0005093301022395668,-0.004815099140276441,0.17,0.015,0.08,-0.006506143594196941,-0.0027935394677461645,-9.75921539129541e-05,0.0005714237169388638,-0.0023197079047202547,0.002,8e-05,0,-0.8642780394260311,-0.001097731164792757,-6.914224315408249e-05,-0.0,-0.0011668734079468394,0.2,0.02,0.0,-0.00290212079941098,-0.001658150226849451,-5.80424159882196e-05,0.0,-0.0017161926428376707,-0.0164325851043892,0.0,0.0164325851043892,-0.030048841685518808,0.0,0.030048841685518808,-0.5488655823963785,0.0,0.5488655823963785,-0.008290751134247255,0,0.008290751134247255,-0.004815434753697733,0.002319011131235168,0.0017161926428376707,0.4,0.03444528579711914,1.5171382427215576,STABILIZE
0.16,0.015,0.11,-0.03547771674715549,-0.0049565993890481035,-0.0005321657512073324,-0.0005611192140144437,-0.00604988435426988,0.17,0.015,0.08,-0.0067872906757968365,-0.0014281515439435698,-0.00010180936013695254,0.0045661599962292946,0.003036199092148772,0.002,8e-05,0,-0.8824888964271231,-0.001088308878991055,-7.059911171416986e-05,-0.0,-0.0011589079907052247,0.2,0.02,0.0,-0.0029576680244090114,-0.0003319587769265692,-5.915336048818023e-05,0.0,-0.0003911121374147494,-0.008400891434962175,0.0,0.008400891434962175,-0.030978746181550644,0.0,0.030978746181550644,-0.5441544394955274,0.0,0.5441544394955274,-0.0016597938846328458,0,0.0016597938846328458,-0.006049796396480072,-0.003036374349177197,0.0003911121374147494,0.4,0.033466339111328125,1.550616979598999,STABILIZE
0.16,0.015,0.11,-0.036410195850505776,-0.004459540726009028,-0.0005461529377575866,-0.0011211350337673415,-0.006126828697533955,0.17,0.015,0.08,-0.007208472328450612,-0.002140175604689878,-0.00010812708492675918,0.0013606711457974671,-0.0008876315438191699,0.002,8e-05,0,-0.900701917083948,-0.0010887872322142898,-7.205615336671584e-05,0.0,-0.0011608433855810057,0.2,0.02,0.0,-0.0030673929022203947,-0.0006559430655042963,-6.13478580444079e-05,0.0,-0.0007172909235487042,-0.012589268262881634,0.0,0.012589268262881634,-0.027872129537556425,0.0,0.027872129537556425,-0.5443936161071449,0.0,0.5443936161071449,-0.003279715327521481,0,0.003279715327521481,-0.006126879497151076,0.000887280831472313,0.0007172909235487042,0.4,0.033455610275268555,1.5840637683868408,STABILIZE
0.16,0.015,0.11,-0.03723271691781745,-0.003938723621112311,-0.0005584907537672617,-0.0009191408030264056,-0.0054163551779059784,0.17,0.015,0.08,-0.007769306652017975,-0.002853461392541196,-0.00011653959978026963,-0.0006881116994060585,-0.003658112691727524,0.002,8e-05,0,-0.9188126299352888,-0.0010840617848230747,-7.350501039482311e-05,0.0,-0.0011575667952178979,0.2,0.02,0.0,-0.0032328104964560846,-0.0009901481731847208,-6.465620992912169e-05,0.0,-0.0010548043831138426,-0.01678506701494821,0.0,0.01678506701494821,-0.02461702263195194,0.0,0.02461702263195194,-0.5420308924115373,0.0,0.5420308924115373,-0.004950740865923604,0,0.004950740865923604,-0.005416671243236261,0.0036576446685407035,0.0010548043831138426,0.4,0.03341269493103027,1.6174805164337158,STABILIZE
0.16,0.015,0.11,-0.037952887004653484,-0.0034420970610184076,-0.0005692933050698022,0.0029359525664823696,-0.0010754377996058406,0.17,0.015,0.08,-0.008226587168573976,-0.0023222002660189802,-0.00012339880752860964,-5.255653941012495e-05,-0.002498155612957715,0.002,8e-05,0,-0.9369089411630229,-0.001081155355360526,-7.495271529304184e-05,0.0,-0.001156108070653568,0.2,0.02,0.0,-0.0033296555681840098,-0.0005785961935626518,-6.659311136368019e-05,0.0,-0.000645189304926332,-0.013660001564817531,0.0,0.013660001564817531,-0.021513106631365048,0.0,0.021513106631365048,-0.540577677680263,0.0,0.540577677680263,-0.002892980967813259,0,0.002892980967813259,-0.001075563935215746,0.0024981013087215674,0.000645189304926332,0.4,0.03347587585449219,1.650970458984375,STABILIZE
0.16,0.015,0.11,-0.038570570612644635,-0.002953708181168986,-0.0005785585591896695,0.0076217167327322505,0.004089449992373595,0.17,0.015,0.08,-0.008580653076835058,-0.0017989312265166877,-0.00012870979615252587,0.0027931602254079612,0.0008655192027387476,0.002,8e-05,0,-0.9550390031680704,-0.0010837043386089256,-7.640312025344564e-05,0.0,-0.0011601074588623713,0.2,0.02,0.0,-0.003356955833218058,-0.00016318430490935205,-6.713911666436116e-05,0.0,-0.00023032342157371322,-0.010581948391274633,0.0,0.010581948391274633,-0.01846067613230616,0.0,0.01846067613230616,-0.5418521693044628,0.0,0.5418521693044628,-0.0008159215245467602,0,0.0008159215245467602,0.004089462317399897,-0.0008654609667686836,0.00023032342157371322,0.4,0.03345942497253418,1.6844375133514404,STABILIZE
0.16,0.015,0.11,-0.039268460381288645,-0.0033373896069294013,-0.0005890269057193296,0.006656225563404555,0.0027298090507558237,0.17,0.015,0.08,-0.00893260990919708,-0.0017882919303839496,-0.00013398914863795619,-0.0010168024665360691,-0.002939083545557975,0.002,8e-05,0,-0.9731341392876238,-0.001081662927562113,-7.785073114300991e-05,0.0,-0.0011595136587051228,0.2,0.02,0.0,-0.00341018448296198,-0.00031818195083911915,-6.82036896592396e-05,0.0,-0.0003863856404983587,-0.010519364296376173,0.0,0.010519364296376173,-0.020858685043308758,0.0,0.020858685043308758,-0.5408314637810565,0.0,0.5408314637810565,-0.0015909097541955957,0,0.0015909097541955957,0.0027297274413072103,0.002939159341977301,0.0003863856404983587,0.4,0.03345799446105957,1.7178795337677002,STABILIZE
0.16,0.015,0.11,-0.0399026638097994,-0.0030369676208604024,-0.0005985399571469909,0.005849658545135245,0.0022141509671278516,0.17,0.015,0.08,-0.009272982450585976,-0.0017317892210214937,-0.00013909473675878962,0.0011454297877967574,-0.0007254541699835259,0.002,8e-05,0,-0.9913032050200581,-0.001087562402103749,-7.930425640160466e-05,0.0,-0.0011668666585053537,0.2,0.02,0.0,-0.003524077236216568,-0.0006817382805250831,-7.048154472433136e-05,-0.0,-0.0007522198252494144,-0.010186995417773492,0.0,0.010186995417773492,-0.018981047630377515,0.0,0.018981047630377515,-0.5437812010518744,0.0,0.5437812010518744,-0.003408691402625415,0,0.003408691402625415,0.00221410780384569,0.0007255858949354678,0.0007522198252494144,0.4,0.03341245651245117,1.7513008117675781,STABILIZE
0.16,0.015,0.11,-0.04040786632535031,-0.002371309952058702,-0.0006061179948802547,0.0063914661149605135,0.0034140381680215566,0.17,0.015,0.08,-0.009697219056777064,-0.0021157283144482893,-0.00014545828585165596,0.002094555466492663,-0.00016663113380728208,0.002,8e-05,0,-1.0097105914120625,-0.001080002998776421,-8.0776847312965e-05,0.0,-0.001160779846089386,0.2,0.02,0.0,-0.003602391557343581,-0.0004594878374534048,-7.204783114687162e-05,0.0,-0.0005315356686002765,-0.012445460673225231,0.0,0.012445460673225231,-0.014820687200366889,0.0,0.014820687200366889,-0.5400014993882105,0.0,0.5400014993882105,-0.002297439187267024,0,0.002297439187267024,0.0034140314837220404,0.00016676802935985786,0.0005315356686002765,0.4,0.0340876579284668,1.7853848934173584,STABILIZE
0.16,0.015,0.11,-0.040985822612876525,-0.0027564487170450946,-0.0006147873391931478,0.002773067175159429,-0.0005981688810788133,0.17,0.015,0.08,-0.00988243589058392,-0.0009385649219926274,-0.00014823653835875877,0.0039034107102574275,0.0028166092499060415,0.002,8e-05,0,-1.0279341588191335,-0.0010864214578885241,-8.223473270553069e-05,-0.0,-0.0011686561905940548,0.2,0.02,0.0,-0.0035552547233711485,0.00028101231082070763,-7.110509446742297e-05,0.0,0.00020990721635328466,-0.005520970129368396,0.0,0.005520970129368396,-0.01722780448153184,0.0,0.01722780448153184,-0.543210728944262,0.0,0.543210728944262,0.0014050615541035382,0,-0.0014050615541035382,-0.0005982379524676289,-0.0028165945801933746,-0.00020990721635328466,0.4,0.03354787826538086,1.818932056427002,STABILIZE
0.16,0.015,0.11,-0.04169513635798684,-0.0033931809996748832,-0.0006254270453698027,-0.001851574787869881,-0.005870182832914567,0.17,0.015,0.08,-0.009950070212572949,-0.000343767432252188,-0.00014925105318859422,0.004105256325384636,0.0036122378399438535,0.002,8e-05,0,-1.0461742293640737,-0.0010906996592212233,-8.36939383491259e-05,-0.0,-0.0011743935975703492,0.2,0.02,0.0,-0.003447650133091003,0.0006434420835162356,-6.895300266182007e-05,0.0,0.0005744890808544156,-0.002022161366189341,0.0,0.002022161366189341,-0.02120738124796802,0.0,0.02120738124796802,-0.5453498296106116,0.0,0.5453498296106116,0.003217210417581178,0,-0.003217210417581178,-0.0058703856541185,-0.003611908218115023,-0.0005744890808544156,0.4,0.033446550369262695,1.852391242980957,STABILIZE
0.16,0.015,0.11,-0.04211405689037338,-0.0020047264259803787,-0.0006317108533556008,0.005435237188121056,0.0027987999087850765,0.17,0.015,0.08,-0.01002989227299277,-0.00040585914958609276,-0.00015044838409489155,0.0039005412532668138,0.0033442337195858296,0.002,8e-05,0,-1.0643296258552648,-0.0010860234909200797,-8.51463700684212e-05,-0.0,-0.0011711698609885009,0.2,0.02,0.0,-0.0033418158181528126,0.0006330820272863595,-6.683631636305626e-05,0.0,0.0005662457109233032,-0.0023874067622711337,0.0,0.0023874067622711337,-0.012529540162377367,0.0,0.012529540162377367,-0.5430117454600398,0.0,0.5430117454600398,0.003165410136431797,0,-0.003165410136431797,0.0027986151462052735,-0.0033443883393022202,-0.0005662457109233032,0.4,0.03343462944030762,1.8858227729797363,STABILIZE
0.16,0.015,0.11,-0.04293157306763638,-0.003910710963000578,-0.0006439735960145457,-0.003636473936013521,-0.008191158495028645,0.17,0.015,0.08,-0.00969142552251079,0.0017203004941285529,-0.00014537138283766184,0.009724207165789332,0.011299136277080223,0.002,8e-05,0,-1.082252492682308,-0.0010717089419499178,-8.658019941458465e-05,0.0,-0.0011582891413645024,0.2,0.02,0.0,-0.003318868259001715,0.00013721635369765822,-6.63773651800343e-05,0.0,7.083898851762392e-05,0.010119414671344428,0.0,-0.010119414671344428,-0.02444194351875361,0.0,0.02444194351875361,-0.5358544709749589,0.0,0.5358544709749589,0.0006860817684882911,0,-0.0006860817684882911,-0.008191293794658359,-0.011299038192178205,-7.083898851762392e-05,0.4,0.033447265625,1.9192755222320557,STABILIZE
0.16,0.015,0.11,-0.044144059618261726,-0.005799656093610456,-0.0006621608942739258,-0.014086297350522291,-0.020548114338406673,0.17,0.015,0.08,-0.008944574958737218,0.0037956657723605763,-0.00013416862438105827,0.016623717744866668,0.020285214892846185,0.002,8e-05,0,-1.0998526181534454,-0.0010523279091667545,-8.798820945227563e-05,0.0,-0.0011403161186190301,0.2,0.02,0.0,-0.0033809435416048248,-0.0003711539014866162,-6.76188708320965e-05,0.0,-0.0004387727723187127,0.022327445719768094,0.0,-0.022327445719768094,-0.03624785058506535,0.0,0.03624785058506535,-0.5261639545833773,0.0,0.5261639545833773,-0.001855769507433081,0,0.001855769507433081,-0.020547457303960046,-0.02028588042100026,0.0004387727723187127,0.4,0.03344988822937012,1.952735424041748,STABILIZE
0.16,0.015,0.11,-0.04539850715567428,-0.005903379230831797,-0.0006809776073351141,-0.012927235401834557,-0.019511592240001468,0.17,0.015,0.08,-0.008072569721455038,0.0043600976081183684,-0.00012108854582182557,0.014883684981492234,0.019122694043788777,0.002,8e-05,0,-1.1171868279205162,-0.0010196761011313053,-8.93749462336413e-05,0.0,-0.0011090510473649466,0.2,0.02,0.0,-0.003922332637007881,-0.0031846939053679028,-7.844665274015762e-05,-0.0,-0.0032631405581080605,0.02564763298893158,0.0,-0.02564763298893158,-0.03689612019269873,0.0,0.03689612019269873,-0.5098380505656527,0.0,0.5098380505656527,-0.015923469526839512,0,0.015923469526839512,-0.019506276965336054,-0.019128115907847288,0.0032631405581080605,0.4,0.03399944305419922,1.9867339134216309,STABILIZE
0.16,0.015,0.11,-0.045996796021277174,-0.0028622695501307493,-0.0006899519403191576,0.002193399577308602,-0.0013588219131413048,0.17,0.015,0.08,-0.007377970579269397,0.003530716045476287,-0.00011066955868904096,0.010875919018652608,0.014295965505439854,0.002,8e-05,0,-1.1340662076395345,-0.001009406521090684,-9.072529661116276e-05,0.0,-0.0011001318177018468,0.2,0.02,0.0,-0.0022631361016664476,0.009922188080511445,-4.5262722033328954e-05,0.0,0.009876925358478115,0.020768917914566393,0.0,-0.020768917914566393,-0.017889184688317183,0.0,0.017889184688317183,-0.504703260545342,0.0,0.504703260545342,0.04961094040255722,0,-0.04961094040255722,-0.0013711999106962316,-0.014294783577559537,-0.009876925358478115,0.4,0.03344416618347168,2.020179271697998,STABILIZE
0.16,0.015,0.11,-0.04673845884509465,-0.0035487151580292178,-0.0007010768826764197,-0.006339250354138362,-0.010589042394844,0.17,0.015,0.08,-0.006164946543510996,0.006166844197649927,-9.247419815266494e-05,0.018470335318227882,0.024544705317725145,0.002,8e-05,0,-1.1513636186701688,-0.0010345601590747316,-9.210908949361351e-05,0.0,-0.001126669248568345,0.2,0.02,0.0,-0.0025419930166532758,-0.0016678464413947742,-5.0839860333065516e-05,-0.0,-0.0017186863017278396,0.0362755541038231,0.0,-0.0362755541038231,-0.02217946973768261,0.0,0.02217946973768261,-0.5172800795373658,0.0,0.5172800795373658,-0.00833923220697387,0,0.00833923220697387,-0.010585469873022287,-0.0245462462617221,0.0017186863017278396,0.4,0.03343915939331055,2.053614854812622,STABILIZE
0.16,0.015,0.11,-0.047903016724687345,-0.005567185949687585,-0.0007185452508703101,-0.006796237500132898,-0.013081968700690793,0.17,0.015,0.08,-0.005717859737971715,0.0022708865654616547,-8.576789606957571e-05,0.0015318146371180676,0.0037169333065101466,0.002,8e-05,0,-1.1689647427883105,-0.0010517803859982657,-9.351717942306484e-05,0.0,-0.0011452975654213306,0.2,0.02,0.0,-0.0014717440069263032,0.006395426275101696,-2.9434880138526062e-05,0.0,0.0063659913949631695,0.013358156267421498,0.0,-0.013358156267421498,-0.03479491218554741,0.0,0.03479491218554741,-0.5258901929991329,0.0,0.5258901929991329,0.03197713137550848,0,-0.03197713137550848,-0.01308404110680744,-0.0037096315998049025,-0.0063659913949631695,0.4,0.033469200134277344,2.087111234664917,STABILIZE
0.16,0.015,0.11,-0.04896982374123037,-0.005107964367887093,-0.0007345473561184556,0.002858098055228362,-0.002984413668777186,0.17,0.015,0.08,-0.004042529122863726,0.008522979801694397,-6.063793684295588e-05,0.013301533340728929,0.021763875205580367,0.002,8e-05,0,-1.1864604886380898,-0.001047139325628395,-9.49168390910472e-05,0.0,-0.0011420561647194423,0.2,0.02,0.0,-0.00023733202999211148,0.007388089288521509,-4.7466405998422294e-06,0.0,0.007383342647921667,0.05013517530408468,0.0,-0.05013517530408468,-0.03192477729929433,0.0,0.03192477729929433,-0.5235696628141975,0.0,0.5235696628141975,0.03694044644260754,0,-0.03694044644260754,-0.002998444923401912,-0.021761946534071472,-0.007383342647921667,0.4,0.0334162712097168,2.120514154434204,STABILIZE
0.16,0.015,0.11,-0.04999315604911802,-0.004896380096169747,-0.0007498973407367703,0.004147584077673107,-0.001498693359233411,0.17,0.015,0.08,-0.0008469374635839038,0.016245708485984764,-1.2704061953758556e-05,0.033475100157738226,0.04970810458176923,0.002,8e-05,0,-1.2045409508365077,-0.001081379119904649,-9.636327606692062e-05,-0.0,-0.0011777423959715696,0.2,0.02,0.0,0.0013098852623180577,0.009253792604959092,2.6197705246361154e-05,0.0,0.009279990310205453,0.09556299109402802,0.0,-0.09556299109402802,-0.03060237560106092,0.0,0.03060237560106092,-0.5406895599523245,0.0,0.5406895599523245,0.04626896302479546,0,-0.04626896302479546,-0.0015388344346089302,-0.04970687811037804,-0.009279990310205453,0.4,0.03343963623046875,2.153952121734619,STABILIZE
0.16,0.015,0.11,-0.05080327675131255,-0.00375880860548525,-0.0007620491512696882,-0.003819537488501163,-0.0083403952452561,0.17,0.015,0.08,0.0026543486805140075,0.017260645211715234,3.981523020771011e-05,0.03857919142796131,0.05587965186988425,0.002,8e-05,0,-1.2240338338335601,-0.001130541661207979,-9.792270670668482e-05,-0.0,-0.0012284643679146639,0.2,0.02,0.0,0.001846225694561937,0.003110649170436654,3.692451389123874e-05,-0.0,0.003147573684327893,0.10153320712773665,0.0,-0.10153320712773665,-0.02349255378428281,0.0,0.02349255378428281,-0.5652708306039895,0.0,0.5652708306039895,0.015553245852183269,0,-0.015553245852183269,-0.008355563768204132,-0.05587738576617578,-0.003147573684327893,0.4,0.034484148025512695,2.188441753387451,STABILIZE
0.16,0.015,0.11,-0.05214827766764369,-0.006434288331642113,-0.0007822241650146554,-0.011996141459212855,-0.019212653955869623,0.17,0.015,0.08,0.0034646819049213777,0.004118798280313969,5.1970228573820663e-05,-0.005822014777531701,-0.0016512462686439112,0.002,8e-05,0,-1.2423068210784567,-0.0010926913430549731,-9.938454568627654e-05,-0.0,-0.0011920758887412498,0.2,0.02,0.0,0.0038359922902299103,0.011898441697832315,7.67198458045982e-05,0.0,0.011975161543636913,0.024228225178317464,0.0,-0.024228225178317464,-0.040214302072763206,0.0,0.040214302072763206,-0.5463456715274866,0.0,0.5463456715274866,0.05949220848916157,0,-0.05949220848916157,-0.01921092905256104,0.0016711945443811597,-0.011975161543636913,0.4,0.03344583511352539,2.2218880653381348,STABILIZE
0.16,0.015,0.11,-0.05393328324054505,-0.008543957107577483,-0.0008089992486081757,-0.012381685885080929,-0.02173464224126659,0.17,0.015,0.08,0.004512544557910066,0.005329086672775253,6.768816836865098e-05,0.008541365624861524,0.013938140466005429,0.002,8e-05,0,-1.2612562624919812,-0.0011337724732320307,-0.00010090050099935851,-0.0,-0.0012346729742313892,0.2,0.02,0.0,0.007789718294645172,0.023655714238142923,0.00015579436589290344,0.0,0.023811508604035827,0.03134756866338384,0.0,-0.03134756866338384,-0.05339973192235927,0.0,0.05339973192235927,-0.5668862366160153,0.0,0.5668862366160153,0.11827857119071461,0,-0.11827857119071461,-0.021763369116556085,-0.013893242879273394,-0.023811508604035827,0.4,0.03342723846435547,2.25531268119812,STABILIZE
0.16,0.015,0.11,-0.05561078293520309,-0.008029836719225102,-0.0008341617440280464,-0.01215636376665799,-0.02102036222991114,0.17,0.015,0.08,0.004301634199582564,-0.0010726822956978795,6.452451299373847e-05,-0.027093622405034327,-0.028101780187738467,0.002,8e-05,0,-1.2792246599816928,-0.0010751365440481461,-0.00010233797279853543,-0.0,-0.0011774745168466815,0.2,0.02,0.0,0.011488482266889897,0.02213150235932828,0.00022976964533779793,0.0,0.022361272004666078,-0.00630989585704635,0.0,0.00630989585704635,-0.05018647949515688,0.0,0.05018647949515688,-0.5375682720240731,0.0,0.5375682720240731,0.11065751179664139,0,-0.11065751179664139,-0.020966049026215208,0.028142325174494474,-0.022361272004666078,0.4,0.033425331115722656,2.288733720779419,STABILIZE
0.16,0.015,0.11,-0.055364927884187745,0.001175456009226229,-0.0008304739182628161,0.02479589338208024,0.025140875473043653,0.17,0.015,0.08,0.0048713549613832174,0.0028941313018217008,7.307032442074826e-05,-0.03767335760434052,-0.03470615597809807,0.002,8e-05,0,-1.2975459387779926,-0.0010949468583663173,-0.00010380367510223942,-0.0,-0.0011987505334685568,0.2,0.02,0.0,0.014212408482874628,0.016279182723950937,0.00028424816965749256,0.0,0.01656343089360843,0.017024301775421767,0.0,-0.017024301775421767,0.007346600057663931,0.0,-0.007346600057663931,-0.5474734291831587,0.0,0.5474734291831587,0.08139591361975468,0,-0.08139591361975468,0.0251901545785566,0.034670405169763795,-0.01656343089360843,0.4,0.03346514701843262,2.3222110271453857,STABILIZE
0.16,0.015,0.11,-0.053203118887925505,0.01033919952137939,-0.0007980467833188826,0.05792390539368645,0.06746505813174695,0.17,0.015,0.08,0.006224516253165133,0.006876193684230917,9.3367743797477e-05,-0.02924057072706854,-0.022271009299040148,0.002,8e-05,0,-1.3161953918744547,-0.0011149251440709695,-0.00010529563134995638,0.0,-0.0012202207754209258,0.2,0.02,0.0,0.015952597570556372,0.010403418048019687,0.00031905195141112744,0.0,0.010722469999430814,0.0404481981425348,0.0,-0.0404481981425348,0.06461999700862119,0.0,-0.06461999700862119,-0.5574625720354848,0.0,0.5574625720354848,0.05201709024009843,0,-0.05201709024009843,0.06748524949560819,0.02220975066121734,-0.010722469999430814,0.4,0.033454179763793945,2.355696201324463,STABILIZE
0.16,0.015,0.11,-0.051636440489089476,0.007374638422581987,-0.0007745466073363421,0.05693079449417329,0.06353088630941894,0.17,0.015,0.08,0.007632239786001018,0.007040559705917258,0.00011448359679001525,0.00819612379842419,0.015351167101131463,0.002,8e-05,0,-1.334917159368802,-0.0011015842977492815,-0.00010679337274950417,-0.0,-0.0012083776704987857,0.2,0.02,0.0,0.017492669176985897,0.009061744301463576,0.00034985338353971796,-0.0,0.009411597685003294,0.04141505709363093,0.0,-0.04141505709363093,0.04609149014113742,0.0,-0.04609149014113742,-0.5507921488746407,0.0,0.5507921488746407,0.04530872150731788,0,-0.04530872150731788,0.06351872695267524,-0.015401401655000918,-0.009411597685003294,0.4,0.03399062156677246,2.3896877765655518,STABILIZE
0.16,0.015,0.11,-0.05130895374123792,0.0013677829960151583,-0.0007696343061185688,0.044048502333152,0.04464665102304859,0.17,0.015,0.08,0.008148220013608615,0.0022897362958079386,0.0001222233002041292,-0.006883511583280928,-0.00447155198726886,0.002,8e-05,0,-1.3564087841229946,-0.0011220255128021053,-0.00010851270272983958,0.0,-0.001230538215531945,0.2,0.02,0.0,0.020723412068643008,0.016866923702621377,0.00041446824137286015,-0.0,0.017281391943994237,0.013469037034164345,0.0,-0.013469037034164345,0.00854864372509474,0.0,-0.00854864372509474,-0.5610127564010526,0.0,0.5610127564010526,0.08433461851310688,0,-0.08433461851310688,0.044653184408668306,0.004405831012895925,-0.017281391943994237,0.4,0.03830862045288086,2.428008794784546,STABILIZE
0.16,0.015,0.11,-0.050193106876446916,0.00533698350039812,-0.0007528966031467037,0.05824821474543392,0.06283230164268534,0.17,0.015,0.08,0.009861164410606341,0.008704893600868612,0.00014791746615909512,0.0291911760969244,0.0380439871639521,0.002,8e-05,0,-1.3758227987286895,-0.0011606910286754242,-0.00011006582389829517,-0.0,-0.0012707568525737194,0.2,0.02,0.0,0.02108244414120868,0.0021465179361278425,0.00042164888282417357,-0.0,0.002568166818952016,0.05120525647569771,0.0,-0.05120525647569771,0.033356146877488245,0.0,-0.033356146877488245,-0.5803455143377121,0.0,0.5803455143377121,0.010732589680639212,0,-0.010732589680639212,0.0628251741777179,-0.0380557561820516,-0.002568166818952016,0.4,0.033452510833740234,2.46144700050354,STABILIZE
0.16,0.015,0.11,-0.04987679078085318,0.0014996548103292907,-0.0007481518617127976,0.004791528628187947,0.00554303157680444,0.17,0.015,0.08,0.011818884493028354,0.009861649165235655,0.0001772832673954253,0.021260865385313493,0.03129979781794458,0.002,8e-05,0,-1.3944467935776865,-0.0011037046427570172,-0.00011155574348621493,-0.0,-0.0012152603862432322,0.2,0.02,0.0,0.023591931490441767,0.014871851397863275,0.0004718386298088354,-0.0,0.015343690027672111,0.058009700971974436,0.0,-0.058009700971974436,0.009372842564558066,0.0,-0.009372842564558066,-0.5518523213785086,0.0,0.5518523213785086,0.07435925698931638,0,-0.07435925698931638,0.005502405608544284,-0.03130696527970604,-0.015343690027672111,0.4,0.03374814987182617,2.4952120780944824,STABILIZE
0.16,0.015,0.11,-0.050370979367466116,-0.0023642441382541292,-0.0007555646905119917,-0.048758130169789526,-0.051877938998555646,0.17,0.015,0.08,0.013984468637628603,0.011007878102339531,0.00020976702956442903,0.013283695640197109,0.024501340772101067,0.002,8e-05,0,-1.4119460251092601,-0.001046474379751279,-0.00011295568200874081,0.0,-0.0011594300617600198,0.2,0.02,0.0,0.028211609484710305,0.027626211213790774,0.0005642321896942061,0.0,0.02819044340348498,0.064752224131409,0.0,-0.064752224131409,-0.014776525864088307,0.0,0.014776525864088307,-0.5232371898756395,0.0,0.5232371898756395,0.13813105606895387,0,-0.13813105606895387,-0.05193685703474127,-0.02437620019037686,-0.02819044340348498,0.4,0.03344416618347168,2.5286216735839844,STABILIZE
0.16,0.015,0.11,-0.049239278344395856,0.005368505248245741,-0.0007385891751659379,-0.005242005759514631,-0.0006120896864348279,0.17,0.015,0.08,0.015289434666194132,0.006577332822200131,0.00022934151999291197,0.00046540507882996757,0.00727207942102301,0.002,8e-05,0,-1.4300924526786634,-0.0010760261506497365,-0.00011440739621429308,0.0,-0.0011904335468640296,0.2,0.02,0.0,0.031120481081332307,0.017248694790621265,0.0006224096216266462,0.0,0.01787110441224791,0.03869019307176547,0.0,-0.03869019307176547,0.03355315780153588,0.0,-0.03355315780153588,-0.5380130753248682,0.0,0.5380130753248682,0.08624347395310632,0,-0.08624347395310632,-0.0006230351597484023,-0.007271149845768791,-0.01787110441224791,0.4,0.033728599548339844,2.5623667240142822,STABILIZE
0.16,0.015,0.11,-0.049448921470555976,-0.0009992834748216595,-0.0007417338220583396,-0.009766092169899761,-0.01150710946677976,0.17,0.015,0.08,0.016250218986252694,0.0048658971365083785,0.00024375328479379042,0.007338698207950815,0.012448348629252984,0.002,8e-05,0,-1.4479175009013359,-0.0010620593942829459,-0.00011583340007210687,0.0,-0.0011778927943550527,0.2,0.02,0.0,0.03471326027628367,0.021406645569289416,0.0006942652055256734,0.0,0.02210091077481509,0.028622924332402225,0.0,-0.028622924332402225,-0.006245521717635372,0.0,0.006245521717635372,-0.531029697141473,0.0,0.531029697141473,0.10703322784644707,0,-0.10703322784644707,-0.011530343913829448,-0.012426830694295841,-0.02210091077481509,0.4,0.033566951751708984,2.5959317684173584,STABILIZE
0.16,0.015,0.11,-0.05030442751499435,-0.004075649112446791,-0.0007545664127249153,-0.03867560397148236,-0.043505819496654066,0.17,0.015,0.08,0.017395100992627446,0.005795132540195353,0.0002609265148894117,-0.008106099332245499,-0.002050040277160735,0.002,8e-05,0,-1.4654720494851652,-0.0010453780662949158,-0.00011723776395881322,0.0,-0.001162615830253729,0.2,0.02,0.0,0.03745676708172864,0.016337656450960556,0.0007491353416345728,0.0,0.01708679179259513,0.0340890149423256,0.0,-0.0340890149423256,-0.025472806952792446,0.0,0.025472806952792446,-0.5226890331474578,0.0,0.5226890331474578,0.08168828225480278,0,-0.08168828225480278,-0.043502852477542875,0.0021120657022375517,-0.01708679179259513,0.4,0.0335850715637207,2.6294972896575928,STABILIZE
