Mode,Time,Freq,North-Vision,East-Vision,Down-Vision,Yaw-Vision,North-Desired,East-Desired,Down-Desired,Roll-UAV,Pitch-UAV,Yaw-UAV,Roll-Control,Pitch-Control,Yaw-Control,Thrust-Control,northVraw,eastVraw,downVraw,yawVraw,zGyro
GUIDED_NOGPS,0.0040171146392822266,250.54082790753242,52.51929027547309,-9.62128628547583,78.42753370974589,-1.0460435769214789,55.062450351565886,-7.9914175013685025,71.99578510375868,-0.03668127747350225,0.10932528851569347,1.0042745167352976,-2.0,-2.0,7.0,0.4903523770910192,52.51929027547309,-9.62128628547583,78.42753370974589,-3.5655387486347934,1.3178029288008934
GUIDED_NOGPS,0.007884740829467773,258.82776920703486,52.51929027547309,-9.62128628547583,78.42753370974589,-0.6686122452183313,55.06228556783286,-7.991393585694579,71.99579552761814,-0.03668127747350225,0.10932528851569347,1.0042745167352976,-0.05870530253897067,-0.10159490130369976,-7.0,0.49035239272680836,52.51929027547309,-9.62128628547583,78.42753370974589,-3.5655387486347934,1.3178029288008934
GUIDED_NOGPS,0.031887054443359375,41.679210596921486,52.51929027547309,-9.62128628547583,78.42753370974589,-0.6991524024532586,55.06114537950396,-7.991228105936446,71.99586807586653,-0.09092516576818241,0.24275986414106257,1.0436338019926135,-0.058752314078567056,-0.10155563212976916,1.217456657016381,0.490352501549181,52.51929027547309,-9.62128628547583,78.42753370974589,-3.5655387486347934,1.3178029288008934
GUIDED_NOGPS,0.04738426208496094,64.56549983067023,52.51929027547309,-9.62128628547583,78.42753370974589,-0.71683901256566,55.058090708016366,-7.9907847701417065,71.9960637250777,-0.05489993663559848,0.21408096703323684,1.040086372492438,-0.058865215602437966,-0.10091369881798869,1.1244593783025216,0.4903527950229977,52.51929027547309,-9.62128628547583,78.42753370974589,-3.5655387486347934,1.260507149287811
GUIDED_NOGPS,0.07735776901245117,33.37553911036842,52.51929027547309,-9.62128628547583,78.42753370974589,-0.7295688896980538,55.05222161245273,-7.989932966549513,71.99644220733397,-0.08555350213044506,0.25927504811074187,1.1019755703355698,-0.05894321935006149,-0.1007303579361757,0.8010421721034501,0.49035336274638214,52.51929027547309,-9.62128628547583,78.42753370974589,-3.5655387486347934,1.3178029288008934
GUIDED_NOGPS,0.10928153991699219,31.32719382763076,52.51929027547309,-9.62128628547583,78.42753370974589,-0.7286377701997451,55.04267674971161,-7.988547685243095,71.9970620186632,-0.05202603115566314,0.17294657964365817,1.1649411633032134,-0.059093942527709026,-0.10001702029861533,0.5762367562996943,0.490354292463376,52.51929027547309,-9.62128628547583,78.42753370974589,-3.5655387486347934,0.8594366926962349
GUIDED_NOGPS,0.1479790210723877,25.85294353322608,52.51929027547309,-9.62128628547583,78.42753370974589,-0.7299934054883748,55.028632834677865,-7.986509439802294,71.99798042747612,-0.11246446747061513,0.1299471237238429,1.2043668294615253,-0.05925841557176524,-0.09928903666676299,0.6122666233256246,0.49035567007659536,52.51929027547309,-9.62128628547583,78.42753370974589,-3.5655387486347934,0.7448451336700702
GUIDED_NOGPS,0.1795516014099121,31.712805933811687,52.51929027547309,-9.62128628547583,78.42753370974589,-0.7214436286786586,55.00930410039308,-7.983704188956091,71.99925348300354,-0.07711713127810166,0.07721358101970165,1.223640769525655,-0.05953845826829809,-0.09757536306070472,0.4532628266635264,0.49035757965988647,52.51929027547309,-9.62128628547583,78.42753370974589,-3.5655387486347934,1.260507149287811
GUIDED_NOGPS,0.20441627502441406,40.17532567049808,52.51929027547309,-9.62128628547583,78.42753370974589,-0.7291721436891515,54.983941758225946,-7.980023258235137,72.00093602373357,-0.13529043940848207,0.03178300464218496,1.2391139227600843,-0.059910498988106194,-0.09507438159891564,0.751385206815151,0.4903601034709815,52.51929027547309,-9.62128628547583,78.42753370974589,-3.5655387486347934,0.4583662361046586
GUIDED_NOGPS,0.24292731285095215,25.973656669742326,52.51929027547309,-9.62128628547583,78.42753370974589,-0.7511245989081494,54.9518334580427,-7.975363261624284,72.00308168584884,-0.11244240275794481,-0.06599478186454415,1.2398388833074576,-0.06004653191749046,-0.0945617384970817,0.9044652747258768,0.49036332196415444,52.51929027547309,-9.62128628547583,78.42753370974589,-3.5655387486347934,0.11459155902616465
GUIDED_NOGPS,0.27030014991760254,36.56728363309823,52.51929027547309,-9.62128628547583,78.42753370974589,-0.7570753268737609,54.912302748377506,-7.969626023215114,72.00574291166376,-0.18383568876923034,0.04458555391113917,1.27376091109862,-0.06061734158129832,-0.0905656253975442,0.7349973759330666,0.4903673138028768,52.51929027547309,-9.62128628547583,78.42753370974589,-3.5655387486347934,0.8594366926962349
GUIDED_NOGPS,0.29978156089782715,33.92050205821223,52.51929027547309,-9.62128628547583,78.42753370974589,-0.768860345699448,54.864708536602855,-7.962718498858473,72.00897095806175,-0.19558793637073643,-0.001726330312720723,1.2964721438625588,-0.060986733044247496,-0.08814672070619455,0.8354970536472222,0.4903721558724738,52.51929027547309,-9.62128628547583,78.42753370974589,-3.5655387486347934,0.6875493541569879
GUIDED_NOGPS,0.3269689083099365,36.79310859057694,52.51929027547309,-9.62128628547583,78.42753370974589,-0.7827967072875424,54.80844454910002,-7.9545526978169985,72.01281590493244,-0.20968696760195013,0.037382479101126034,1.2934449826780678,-0.0615599680510229,-0.08413462079596802,0.9053289959442352,0.49037792329277985,52.51929027547309,-9.62128628547583,78.42753370974589,-3.5655387486347934,0.4583662361046586
GUIDED_NOGPS,0.3591287136077881,31.109706800768414,52.51929027547309,-9.62128628547583,78.42753370974589,-0.8071647030946941,54.74293879142939,-7.945045604417648,72.01732666360894,-0.20476697690350631,-0.003951050991440813,1.2940778423933519,-0.06194052475067841,-0.08166364042677493,1.0517356819242407,0.4903846894307946,52.51929027547309,-9.62128628547583,78.42753370974589,-3.5655387486347934,-0.11459155902616465
GUIDED_NOGPS,0.3927137851715088,29.773654284355413,52.51929027547309,-9.62128628547583,78.42753370974589,-0.8136933210195418,54.66765300850095,-7.934119099704232,72.02255098530503,-0.17473023285259676,-0.024287512358330654,1.305211904514119,-0.062487250988071695,-0.07794204510342304,0.7773331439528965,0.4903925259133387,52.51929027547309,-9.62128628547583,78.42753370974589,-3.5655387486347934,1.088619810748564
GUIDED_NOGPS,0.424119234085083,31.853699287634612,52.51929027547309,-9.62128628547583,78.42753370974589,-0.8154121502150856,54.58208214474463,-7.921699883089947,72.02853546955242,-0.23120414456075303,0.0906199616999673,1.3326175049502662,-0.06324826190076552,-0.07254539857366493,0.7119185594957775,0.49040150263970983,52.51929027547309,-9.62128628547583,78.42753370974589,-3.5655387486347934,0.9740282517223995
GUIDED_NOGPS,0.4529557228088379,34.68430801799418,52.51929027547309,-9.62128628547583,78.42753370974589,-0.8293700193957287,54.48575380428077,-7.9077193940099,72.03532557263802,-0.2512883691760284,0.07094005226704493,1.3408166134403376,-0.06409851798364836,-0.06643532957595129,0.9386560539394296,0.4904116877943382,52.51929027547309,-9.62128628547583,78.42753370974589,-3.5655387486347934,0.17188733853924698
GUIDED_NOGPS,0.4935917854309082,24.6154712928348,52.51929027547309,-9.62128628547583,78.42753370974589,-0.8467771882633839,54.37822771109045,-7.892113733573642,72.04296561604104,-0.20607489142849764,0.025330823754050102,1.334879044617481,-0.06437377245555452,-0.06488615538018362,0.9300752027574609,0.49042314785944274,52.51929027547309,-9.62128628547583,78.42753370974589,-3.5655387486347934,0.2291831180523293
GUIDED_NOGPS,0.518500804901123,40.16224601183523,52.51929027547309,-9.62128628547583,78.42753370974589,-0.8534343010817828,54.25909516918599,-7.8748235862176985,72.0514987948704,-0.28932083682621634,0.15532874700984498,1.379153611477973,-0.06615193466541384,-0.05161544844666144,0.8565860064009996,0.4904359476276868,52.51929027547309,-9.62128628547583,78.42753370974589,-3.5655387486347934,0.6875493541569879
GUIDED_NOGPS,0.5508739948272705,30.89817747852607,52.51929027547309,-9.62128628547583,78.42753370974589,-0.8674638001705225,54.127978522781255,-7.8557941413581,72.06096718630178,-0.2333585089549367,0.08976298640254227,1.3895086051465355,-0.06650052704796869,-0.04939279847527778,0.9533482508195699,0.49045015021483385,52.51929027547309,-9.62128628547583,78.42753370974589,-3.5655387486347934,0.5156620156177409
GUIDED_NOGPS,0.5754454135894775,40.71151662217908,52.51929027547309,-9.62128628547583,78.42753370974589,-0.8814397447868982,53.98453061646216,-7.834975015042911,72.07141175801503,-0.2918333592650026,0.1407546174249187,1.4001744791440391,-0.06822202930206292,-0.036552084513567666,1.0342638193595006,0.4904658170724037,52.51929027547309,-9.62128628547583,78.42753370974589,-3.5655387486347934,0.2864788975654116
GUIDED_NOGPS,0.5997350215911865,41.186445005253496,52.51929027547309,-9.62128628547583,78.42753370974589,-0.89215153054625,53.828434255357,-7.81232017160476,72.08287237663124,-0.20170826611474388,0.12333400650338962,1.4023501078380998,-0.06938035408708276,-0.02801945341772368,0.9808993265880936,0.490483008000328,52.51929027547309,-9.62128628547583,78.42753370974589,-3.5655387486347934,0.7448451336700702
GUIDED_NOGPS,0.6286227703094482,34.622751624113654,52.51929027547309,-9.62128628547583,78.42753370974589,-0.8991627978712537,53.65940166530692,-7.787787845313374,72.0953878161501,-0.24713347972654504,0.1932653252073883,1.4199178879919017,-0.07000683687815137,-0.02362255898212297,0.8899882309488102,0.4905017811596063,52.51929027547309,-9.62128628547583,78.42753370974589,-3.5655387486347934,0.9167324722093172
GUIDED_NOGPS,0.653327465057373,40.49298616541644,52.51929027547309,-9.62128628547583,78.42753370974589,-0.9111140257136771,53.477173953036264,-7.761340462028103,72.108995766387,-0.23613124559284454,0.14223249960658021,1.4166871017927798,-0.07182714897747164,-0.0100252246636717,1.0239669390395358,0.49052219308496164,52.51929027547309,-9.62128628547583,78.42753370974589,-3.5655387486347934,0.2864788975654116
GUIDED_NOGPS,0.686392068862915,30.248402590471795,52.51929027547309,-9.62128628547583,78.42753370974589,-0.9150478084287905,53.28152056632302,-7.732944560850454,72.12373284141043,-0.20677946813006676,0.10507349575736054,1.448868391840941,-0.07212468350776703,-0.00820267323468801,0.846543852192455,0.49054429869749683,52.51929027547309,-9.62128628547583,78.42753370974589,-3.5655387486347934,1.088619810748564
GUIDED_NOGPS,0.7152647972106934,34.6522141440846,52.51929027547309,-9.62128628547583,78.42753370974589,-0.9140896548972012,53.072238754169206,-7.702570715776621,72.13963458797903,-0.31856210396265744,0.2715085572444694,1.5060535103366381,-0.07396304111582722,0.00547373450538316,0.7723229639096055,0.4905681513173497,52.51929027547309,-9.62128628547583,78.42753370974589,-3.5655387486347934,0.8594366926962349
GUIDED_NOGPS,0.7457273006439209,32.837780283101594,52.51929027547309,-9.62128628547583,78.42753370974589,-0.9198186756543995,52.84915302697131,-7.670193457350014,72.15673549397899,-0.34629875513013875,0.24383156351051988,1.5164169350199574,-0.07523178810664205,0.014768606992406152,0.8905973548561972,0.49059380267634967,52.51929027547309,-9.62128628547583,78.42753370974589,-3.5655387486347934,0.5729577951308232
GUIDED_NOGPS,0.771477222442627,38.84262191846789,52.51929027547309,-9.62128628547583,78.42753370974589,-0.9192731113388287,52.61211461669064,-7.635791194313793,72.17506899686113,-0.3058422640156839,0.18140235383613396,1.533404682702837,-0.07746023818003747,0.031472328998150556,0.78770863568245,0.49062130293067285,52.51929027547309,-9.62128628547583,78.42753370974589,-3.5655387486347934,0.9740282517223995
GUIDED_NOGPS,0.8024039268493652,32.34698378911974,52.51929027547309,-9.62128628547583,78.42753370974589,-0.9077003202524799,52.3610009370238,-7.599346135263391,72.19466749207822,-0.3788811053486268,0.36030784664380516,1.6270509518136487,-0.07830910477389226,0.037547036606994585,0.6038198984408459,0.49065070067349853,52.51929027547309,-9.62128628547583,78.42753370974589,-3.5655387486347934,1.776169164905552
GUIDED_NOGPS,0.8325142860412598,33.22063109872006,52.51929027547309,-9.62128628547583,78.42753370974589,-0.8942765454242643,52.09571504357305,-7.560844210299054,72.21556234152223,-0.35166696365265143,0.38395118678603896,1.6606206912540267,-0.08008903774418764,0.050758764103186964,0.5609941203871067,0.4906820429476645,52.51929027547309,-9.62128628547583,78.42753370974589,-3.5655387486347934,1.3178029288008934
GUIDED_NOGPS,0.8669590950012207,29.03737754854789,52.51929027547309,-9.62128628547583,78.42753370974589,-0.8792366539300802,51.8161850940167,-7.520274992678362,72.23778388196148,-0.34000260137585636,0.3911563960301677,1.7090621003950497,-0.08124062808094487,0.05909902162103583,0.5571722130063692,0.49071537525832337,52.51929027547309,-9.62128628547583,78.42753370974589,-3.5655387486347934,1.432394487827058
GUIDED_NOGPS,0.894829511642456,35.891392337905714,52.51929027547309,-9.62128628547583,78.42753370974589,-0.8435279255136733,51.522363808279586,-7.477631620468766,72.26136143347793,-0.3342995535014544,0.38160587057978584,1.767980592836049,-0.08413691007965061,0.08089016411263332,0.10500061132046346,0.49075074158559806,52.51929027547309,-9.62128628547583,78.42753370974589,-3.5655387486347934,2.291831180523293
GUIDED_NOGPS,0.9262359142303467,31.850071000615085,52.51929027547309,-9.62128628547583,78.42753370974589,-0.8168498214237008,51.21422792870339,-7.432910718200116,72.2863233079044,-0.26036963928608925,0.23362555334322832,1.8211758136394007,-0.08538003143297167,0.0899727815206511,0.306851327486518,0.49078818439723776,52.51929027547309,-9.62128628547583,78.42753370974589,-3.5655387486347934,2.0053522829578814
GUIDED_NOGPS,0.9541745185852051,35.804379188185585,52.51929027547309,-9.62128628547583,78.42753370974589,-0.776628663686821,50.89177768021712,-7.38611231851719,72.3126968172618,-0.22209352598160229,0.2683389225827603,1.8582524283317572,-0.08806672265566234,0.11015794512863761,-0.022454876060539863,0.4908277446612739,52.51929027547309,-9.62128628547583,78.42753370974589,-3.5655387486347934,2.291831180523293
GUIDED_NOGPS,0.9812469482421875,36.952592396810715,52.51929027547309,-9.62128628547583,78.42753370974589,-0.7483781466818283,50.55503623050747,-7.337239783832229,72.34050828219634,-0.25285472365178274,0.2576989819597614,1.9312018368752553,-0.09034088289164952,0.12719612089423635,0.15656707717310547,0.4908694618586757,52.51929027547309,-9.62128628547583,78.42753370974589,-3.5655387486347934,1.8907607239317168
GUIDED_NOGPS,1.0103821754455566,34.33619856901944,52.51929027547309,-9.62128628547583,78.42753370974589,-0.7184823082014973,50.20404915018925,-7.286299727977459,72.3697830404168,-0.1791320096281923,0.11586796941033099,1.9871084293356907,-0.09200165114704259,0.13950805478646633,0.14587402783885062,0.4909133739960064,52.51929027547309,-9.62128628547583,78.42753370974589,-3.5655387486347934,2.2345354010102105
GUIDED_NOGPS,1.0382118225097656,35.93782880644332,52.51929027547309,-9.62128628547583,78.42753370974589,-0.6774046388689146,49.83888387297579,-7.2333019378576315,72.40054545513175,-0.2009766087803327,0.09654451047471867,2.053633404634557,-0.09453485433096627,0.1585175080458015,-0.10997157597354956,0.49095951761807877,52.51929027547309,-9.62128628547583,78.42753370974589,-3.5655387486347934,2.521014298575622
GUIDED_NOGPS,1.0703930854797363,31.08687982686293,52.51929027547309,-9.62128628547583,78.42753370974589,-0.6323163246583028,49.45962915584934,-7.178259295102546,72.43281892348675,-0.19549714287954287,0.209705590539609,2.1694345662570687,-0.09594412613282201,0.16886620219339102,-0.11278198003057671,0.4910079278206113,52.51929027547309,-9.62128628547583,78.42753370974589,-3.5655387486347934,2.807493196141034
GUIDED_NOGPS,1.1070780754089355,27.26548442456706,52.51929027547309,-9.62128628547583,78.42753370974589,-0.5765131888254059,49.06639453923148,-7.121187697719584,72.46662588500162,-0.1619832322315018,0.2375089427732037,2.2545308259091996,-0.0974656841902134,0.18000792273740052,-0.20820550839384633,0.4910586382628836,52.51929027547309,-9.62128628547583,78.42753370974589,-3.5655387486347934,2.7501974166279517
GUIDED_NOGPS,1.1411933898925781,29.336951808071625,52.51929027547309,-9.62128628547583,78.42753370974589,-0.5071092884894614,48.659309807153534,-7.062105981746239,72.50198783000764,-0.12621121035104427,0.18404478327128265,2.338834356730786,-0.10034678053806942,0.2015967945709491,-0.5249462354496199,0.4911116811803926,52.51929027547309,-9.62128628547583,78.42753370974589,-3.5655387486347934,3.20856365273261
GUIDED_NOGPS,1.1684272289276123,36.71773861736306,52.51929027547309,-9.62128628547583,78.42753370974589,-0.4321072555146617,48.238524447426954,-7.0010358429026445,72.53892530808481,-0.17281540532703957,0.26110575225171684,2.4416041577471486,-0.10442126946451019,0.23241490467227569,-0.9392272841921432,0.49116708739750836,52.51929027547309,-9.62128628547583,78.42753370974589,-3.5655387486347934,3.323155211758775
GUIDED_NOGPS,1.2029800415039062,28.94280174168662,52.51929027547309,-9.62128628547583,78.42753370974589,-0.36655894564347563,47.80420711181376,-6.93800175824411,72.57745793649907,-0.06344516029278564,0.1810166615914398,2.5551891364274026,-0.10524055476176514,0.23820893544464522,-0.557900660095898,0.4912248863401298,52.51929027547309,-9.62128628547583,78.42753370974589,-3.5655387486347934,3.7815214478634336
GUIDED_NOGPS,1.2378036975860596,28.7255518344257,52.51929027547309,-9.62128628547583,78.42753370974589,-0.2812998122854528,47.35654507619694,-6.873030907813644,72.61760440863952,-0.08705696417096105,0.10740109616045394,2.6686065620295802,-0.10787735464645955,0.2579182515865483,-0.9110322240808055,0.49128510604834047,52.51929027547309,-9.62128628547583,78.42753370974589,-3.5655387486347934,3.20856365273261
GUIDED_NOGPS,1.2694120407104492,31.649152990001888,52.51929027547309,-9.62128628547583,78.42753370974589,-0.19560280647650877,46.8957437007508,-6.806153096294488,72.65938250245568,-0.10845760769715723,0.2859672139437401,2.767642170560649,-0.11128586792499633,0.2835806632486278,-1.1140228887628627,0.4913477731890647,52.51929027547309,-9.62128628547583,78.42753370974589,-3.5655387486347934,3.4377467707849396
GUIDED_NOGPS,1.295952558517456,37.69009021961828,52.51929027547309,-9.62128628547583,78.42753370974589,-0.10857226189557283,46.42202589011149,-6.73740067466265,72.70280908889468,-0.04797887726816613,0.26260540566135776,2.8612552492209633,-0.11543369488520655,0.31496784475253753,-1.448711701530351,0.4914129130687232,52.51929027547309,-9.62128628547583,78.42753370974589,-3.5655387486347934,4.1252961249419275
GUIDED_NOGPS,1.3213374614715576,39.40200471587333,52.51929027547309,-9.62128628547583,78.42753370974589,-0.037831838400211835,45.93563155354729,-6.66680846183943,72.74790014033852,0.017127406375107776,0.06928885403519436,2.9915306489117897,-0.11871292231965483,0.33972082113910607,-1.2587785929935011,0.49148054964588894,52.51929027547309,-9.62128628547583,78.42753370974589,-3.5655387486347934,4.068000345428845
GUIDED_NOGPS,1.3495609760284424,35.44342476634724,52.51929027547309,-9.62128628547583,78.42753370974589,0.0313293300333332,45.43681706512906,-6.594413666343953,72.7946707390413,0.02522086037645554,0.07893735001148361,3.0323632273174184,-0.12067429053811772,0.3543473081109038,-1.153839656503652,0.4915507055439431,52.51929027547309,-9.62128628547583,78.42753370974589,-3.5655387486347934,4.068000345428845
GUIDED_NOGPS,1.3754026889801025,38.707124400147656,52.51929027547309,-9.62128628547583,78.42753370974589,0.11161418887943922,44.925854723900706,-6.520255807945694,72.84313508556643,-0.00713722751754598,0.30237567620763794,3.116551498696761,-0.12452368225651983,0.3834613642804827,-1.5479015845188908,0.49162340206373084,52.51929027547309,-9.62128628547583,78.42753370974589,-3.5655387486347934,4.010704565915763
GUIDED_NOGPS,1.4102494716644287,28.706284947745207,52.51929027547309,-9.62128628547583,78.42753370974589,0.18410296526956252,44.403032214049475,-6.444376639317019,72.89330650722393,0.06929897925703037,0.11141660706218674,3.240800963992344,-0.124888682104213,0.38577717227488734,-1.0967273781572695,0.4916986591962171,52.51929027547309,-9.62128628547583,78.42753370974589,-3.5655387486347934,4.18259190445501
GUIDED_NOGPS,1.4350802898406982,40.27794956498358,52.51929027547309,-9.62128628547583,78.42753370974589,0.29048656526410493,43.86865206507646,-6.366820067685705,72.94519746650754,0.02333372713354862,0.1808595672405295,3.405732316644992,-0.13110045554815794,0.43299003467136343,-2.2748188587922815,0.4917764956351425,52.51929027547309,-9.62128628547583,78.42753370974589,-3.5655387486347934,4.068000345428845
GUIDED_NOGPS,1.4643189907073975,34.21463764805691,52.51929027547309,-9.62128628547583,78.42753370974589,0.3425908545746232,43.32303111196695,-6.287632076487476,72.99881956953206,-0.011436431393672326,0.17869695859457424,3.5443702157574415,-0.13263628614769382,0.44434762477911693,-1.0782723029817003,0.49185692878967924,52.51929027547309,-9.62128628547583,78.42753370974589,-3.5655387486347934,3.151267873219528
GUIDED_NOGPS,1.4950969219207764,32.49886874322021,52.51929027547309,-9.62128628547583,78.42753370974589,0.4041840155597829,42.766499955360864,-6.206860647018533,73.05418357447053,-0.028824118668967835,0.1456320128225425,3.6335240346633833,-0.13533684696248213,0.46460118083910185,-1.239321850574068,0.49193997479708695,52.51929027547309,-9.62128628547583,78.42753370974589,-3.5655387486347934,2.979380534680281
GUIDED_NOGPS,1.5194268226623535,41.1153872545656,52.51929027547309,-9.62128628547583,78.42753370974589,0.45913782077567084,42.19940242172316,-6.124555680088081,73.11129939999148,-0.11755937504483474,0.17564215648828602,3.7110146652312936,-0.1408926678560478,0.5067958035167636,-1.3924121718473184,0.4920256485353684,52.51929027547309,-9.62128628547583,78.42753370974589,-3.5655387486347934,2.46371851906254
GUIDED_NOGPS,1.5546424388885498,28.40226172337904,52.51929027547309,-9.62128628547583,78.42753370974589,0.484624467538418,41.622095023514206,-6.040768917670863,73.17017613369616,-0.17361743228620036,0.17345542873682412,3.7552508122777044,-0.1405775256896227,0.5038987121868401,-0.662089420005864,0.4921139636359254,52.51929027547309,-9.62128628547583,78.42753370974589,-3.5655387486347934,2.0626480624709638
GUIDED_NOGPS,1.5814509391784668,37.3178639429151,52.51929027547309,-9.62128628547583,78.42753370974589,0.5281815268074735,41.034946419360224,-5.955553864559686,73.23082204055574,-0.27834376233465385,0.25816578270084944,3.829273841181364,-0.14663885014222208,0.5499348401901378,-1.151116864855408,0.4922049324962148,52.51929027547309,-9.62128628547583,78.42753370974589,-3.5655387486347934,1.776169164905552
GUIDED_NOGPS,1.6087322235107422,36.670227926455034,52.51929027547309,-9.62128628547583,78.42753370974589,0.5257572009554987,40.438336874223694,-5.86896571001796,73.29324457134858,-0.34529738536479143,0.13358782799487126,3.827716558050601,-0.14979235398827223,0.5737015893321313,-0.2910965915923756,0.49229856629240404,52.51929027547309,-9.62128628547583,78.42753370974589,-3.5655387486347934,0.40107045659157625
GUIDED_NOGPS,1.6372385025024414,35.0914369378791,52.51929027547309,-9.62128628547583,78.42753370974589,0.49396639886728083,39.83265771957376,-5.781061249432218,73.35745037109749,-0.4508636685985978,0.25462390272937474,3.8152804911193,-0.15275199862950015,0.5959680822389609,0.24716701748792913,0.4923948749920274,52.51929027547309,-9.62128628547583,78.42753370974589,-3.5655387486347934,-1.088619810748564
GUIDED_NOGPS,1.6635076999664307,38.082951986634704,52.51929027547309,-9.62128628547583,78.42753370974589,0.4505269710355001,39.2183108135566,-5.691898805964653,73.42344528750682,-0.47675611532932277,0.21090130053118436,3.7742993560992235,-0.15720733989001856,0.6297170211970697,0.5526940091779686,0.4924938673666414,52.51929027547309,-9.62128628547583,78.42753370974589,-3.5655387486347934,-1.260507149287811
GUIDED_NOGPS,1.6885895729064941,39.87928690278108,52.51929027547309,-9.62128628547583,78.42753370974589,0.38649943923060787,38.59570800116589,-5.601538152205644,73.49123437939991,-0.49084791616496976,0.02921378629720235,3.698110730341847,-0.16108634418165127,0.6590640336690406,1.0329394267369238,0.49259555100448105,52.51929027547309,-9.62128628547583,78.42753370974589,-3.5655387486347934,-2.177239621497128
GUIDED_NOGPS,1.7140865325927734,39.23650582798555,52.51929027547309,-9.62128628547583,78.42753370974589,0.3054388878818277,37.96527057441316,-5.510040431826294,73.56082192515612,-0.5331983440310751,0.032679040083926005,3.6272368455323867,-0.16465745713382904,0.6860544967404959,1.4351048502825017,0.4926999323231154,52.51929027547309,-9.62128628547583,78.42753370974589,-3.5655387486347934,-2.9220847551671985
GUIDED_NOGPS,1.7424118518829346,35.35946180628736,52.51929027547309,-9.62128628547583,78.42753370974589,0.20564228253755362,37.32742873249825,-5.417468081230947,73.63221143114816,-0.6040778850909421,0.3319461264455619,3.4913888652524756,-0.16719034118851525,0.7050659924964138,1.7256916508991336,0.4928070165821034,52.51929027547309,-9.62128628547583,78.42753370974589,-3.5655387486347934,-3.8388172273765155
GUIDED_NOGPS,1.771019458770752,34.93652076131773,52.51929027547309,-9.62128628547583,78.42753370974589,0.0664768945503877,36.68262104197966,-5.323884751209736,73.70540564017934,-0.5702572962811248,0.12050716196065059,3.311052020926864,-0.17001335102676843,0.7262723130589978,2.387285208782134,0.4929168078956502,52.51929027547309,-9.62128628547583,78.42753370974589,-3.5655387486347934,-5.729577951308232
GUIDED_NOGPS,1.7997150421142578,34.87261691955934,52.51929027547309,-9.62128628547583,78.42753370974589,-0.10971189419817562,36.03129389694503,-5.229355228591094,73.78040653992072,-0.6579650360737278,0.3474547112863105,3.1575302858393104,-0.17413341971971996,0.7574251461859851,3.2832895837514067,0.4930293092452622,52.51929027547309,-9.62128628547583,78.42753370974589,-3.5655387486347934,-6.760901982543714
GUIDED_NOGPS,1.8236207962036133,41.83427089567125,52.51929027547309,-9.62128628547583,78.42753370974589,-0.2973639712253529,35.37390097918147,-5.1339453578943015,73.8572153713484,-0.6641330170593667,0.4316782008285609,3.082209520993348,-0.1797502090498727,0.8000909331258884,4.175423686544586,0.49314452249240376,52.51929027547309,-9.62128628547583,78.42753370974589,-3.5655387486347934,-6.875493541569879
GUIDED_NOGPS,1.8498201370239258,38.18384086667577,52.51929027547309,-9.62128628547583,78.42753370974589,-0.470663830712408,34.71090271834602,-5.037721962982008,73.93583263718077,-0.6567711937120037,0.4510761515148087,2.8974351881413436,-0.18249039751429258,0.8207101042692779,3.7822515934419076,0.4932624483911523,52.51929027547309,-9.62128628547583,78.42753370974589,-3.5655387486347934,-6.875493541569879
GUIDED_NOGPS,1.8814144134521484,31.663727503321656,52.51929027547309,-9.62128628547583,78.42753370974589,-0.6722236208427066,34.04276575213603,-4.940752768712762,74.01625811031568,-0.6711598409722818,0.4441913208314358,2.703645645915157,-0.18389257909228504,0.8310103525754581,3.8164841257129183,0.49338308660085467,52.51929027547309,-9.62128628547583,78.42753370974589,-3.5655387486347934,-8.13600069085769
GUIDED_NOGPS,1.9085841178894043,36.81636164143077,52.51929027547309,-9.62128628547583,78.42753370974589,-0.9386600941632519,33.36996238645959,-4.843106322593543,74.09849084226768,-0.7808483568136024,0.7277035086553795,2.3034755346146882,-0.1894004365610779,0.8728031273115896,5.7419306120218385,0.49350643569878266,52.51929027547309,-9.62128628547583,78.42753370974589,-3.5655387486347934,-9.568395178684748
GUIDED_NOGPS,1.942502498626709,29.492075545992773,52.51929027547309,-9.62128628547583,78.42753370974589,-1.1975825856741857,32.69297005560591,-4.744851916432294,74.18252917160534,-0.8983492750440953,0.9146504819936828,1.8504547001771299,-0.1906071465963629,0.8815757489908334,4.878062256818378,0.4936324931927892,52.51929027547309,-9.62128628547583,78.42753370974589,-3.5655387486347934,-10.370536091867901
GUIDED_NOGPS,1.9672486782073975,40.41884534214761,52.51929027547309,-9.62128628547583,78.42753370974589,-1.5231883811645328,32.012270782415754,-4.646059507990452,74.26837073238836,-0.9252573388878895,0.9602308956461166,1.608698446957236,-0.19804287633356604,0.9381577674216517,7.0,0.4937612555339637,52.51929027547309,-9.62128628547583,78.42753370974589,-3.5655387486347934,-10.657014989433312
GUIDED_NOGPS,1.9975414276123047,33.024715562379434,52.51929027547309,-9.62128628547583,78.42753370974589,-1.7941912953160197,31.328350638451827,-4.546799642635468,74.35601246260487,-1.0030646127568534,1.085827402312073,1.2586327891389824,-0.19937859890419546,0.9479685588015074,6.030455083089871,0.4938927181292885,52.51929027547309,-9.62128628547583,78.42753370974589,-3.5655387486347934,-11.745634800181877
GUIDED_NOGPS,2.032081365585327,28.9601878063937,52.51929027547309,-9.62128628547583,78.42753370974589,-2.1279530519967356,30.64169920416917,-4.447143374993354,74.44545061260865,-0.9550118840682864,1.004301624048566,0.782713425343839,-0.20174055714060282,0.9655791606264162,6.679310714061952,0.4940268753542941,52.51929027547309,-9.62128628547583,78.42753370974589,-3.5655387486347934,-11.974817918234207
GUIDED_NOGPS,2.0557751655578613,42.24807107314813,52.51929027547309,-9.62128628547583,78.42753370974589,-2.5092272687152155,29.9528090290856,-4.347162190601205,74.53668075355635,-0.9898637780819228,1.06302951152304,0.5203345365030024,-0.21012360429441182,1.0294304352889159,7.0,0.4941637205657157,52.51929027547309,-9.62128628547583,78.42753370974589,-3.5655387486347934,-11.917522138721123
GUIDED_NOGPS,2.0851645469665527,34.0330731406501,52.51929027547309,-9.62128628547583,78.42753370974589,-2.7621570641199367,29.262175091952138,-4.246927927559722,74.62969778584475,-1.0648682197919483,1.2231449404805943,0.18586055971366144,-0.2109488201908807,1.0353411673864166,6.61168975629986,0.4943032461141483,52.51929027547309,-9.62128628547583,78.42753370974589,-3.5655387486347934,-11.000789666511807
GUIDED_NOGPS,2.1098341941833496,40.54269530419317,52.51929027547309,-9.62128628547583,78.42753370974589,-3.0790617669160225,28.570294260923326,-4.146512698185756,74.72449594754795,-1.185799280367963,1.3942919787213657,-0.012147800765061778,-0.21701003402133184,1.0814019570933435,7.0,0.4944454433567031,52.51929027547309,-9.62128628547583,78.42753370974589,-3.5655387486347934,-11.172677005051053
GUIDED_NOGPS,2.146451711654663,27.31644794685597,52.51929027547309,-9.62128628547583,78.42753370974589,-3.337751635236337,27.8776647537277,-4.045988810664831,74.82106882285461,-1.2808085991050155,1.489150072801326,-0.462618317438484,-0.2161977284388562,1.0746808138127817,6.358218161668484,0.4945903026696631,52.51929027547309,-9.62128628547583,78.42753370974589,-3.5655387486347934,-10.657014989433312
GUIDED_NOGPS,2.176363229751587,33.44446659383946,52.51929027547309,-9.62128628547583,78.42753370974589,-3.6972996742782165,27.18478559783823,-3.945428690703677,74.91940935050526,-1.3583377562087129,1.4963862313401313,-0.7620686449689466,-0.22234699504155866,1.121352893313909,7.0,0.49473781346113904,52.51929027547309,-9.62128628547583,78.42753370974589,-3.5655387486347934,-9.912169855763242
GUIDED_NOGPS,2.207961320877075,31.65488562350473,52.51929027547309,-9.62128628547583,78.42753370974589,-3.95109525050735,26.49215609064261,-3.844904803182752,75.01950983222937,-1.4041083479408492,1.5212438510507464,-1.0166673613757569,-0.22513002413404817,1.1422180165188212,7.0,0.4948879641837252,52.51929027547309,-9.62128628547583,78.42753370974589,-3.5655387486347934,-8.250592249883855
GUIDED_NOGPS,2.2367262840270996,34.7769099381457,52.51929027547309,-9.62128628547583,78.42753370974589,-4.182939328883186,25.80027525961377,-3.744489573808784,75.12136194118274,-1.4367975265868245,1.5808906124119986,-1.2226347040052532,-0.23015551050841515,1.1802955200260035,7.0,0.4950407423471553,52.51929027547309,-9.62128628547583,78.42753370974589,-3.5655387486347934,-6.359831525952138
GUIDED_NOGPS,2.2659595012664795,34.218824700382626,52.51929027547309,-9.62128628547583,78.42753370974589,-4.345463659028788,25.109641322480314,-3.6442553107673046,75.22495673038466,-1.4802010308847284,1.683415593835298,-1.3744419548894278,-0.2337056040752892,1.207071547216918,6.445477596206267,0.4951961345309582,52.51929027547309,-9.62128628547583,78.42753370974589,-3.5655387486347934,-4.755549699585833
GUIDED_NOGPS,2.2942264080047607,35.38810188739738,52.51929027547309,-9.62128628547583,78.42753370974589,-4.476714374352576,24.420751147396757,-3.5442741263751536,75.33028464115513,-1.484158058291693,1.8390440153949772,-1.4531407818884898,-0.2379444009381723,1.239136367541814,6.122509676156948,0.49535412639711385,52.51929027547309,-9.62128628547583,78.42753370974589,-3.5655387486347934,-3.552338329811104
GUIDED_NOGPS,2.3174614906311035,43.05736459573769,52.51929027547309,-9.62128628547583,78.42753370974589,-4.571410950957799,23.734099713114105,-3.4446178587330385,75.43733551155213,-1.4762415488785308,1.7768521547942493,-1.5041614412148387,-0.24414238106047412,1.286263918711878,5.890403244745267,0.49551470270270936,52.51929027547309,-9.62128628547583,78.42753370974589,-3.5655387486347934,-2.7501974166279517
GUIDED_NOGPS,2.345710515975952,35.4143960822392,52.51929027547309,-9.62128628547583,78.42753370974589,-4.6033322417493565,23.05017956915016,-3.3453579933780553,75.54609858480882,-1.4347212558008464,1.825174035624797,-1.5329287038950516,-0.24521521507995,1.2940881644271331,4.473576069114281,0.4956778473125944,52.51929027547309,-9.62128628547583,78.42753370974589,-3.5655387486347934,-0.6875493541569879
GUIDED_NOGPS,2.3695859909057617,41.903231929666816,52.51929027547309,-9.62128628547583,78.42753370974589,-4.6221012148010185,22.369480295960017,-3.2465655849362136,75.65656251777077,-1.3987305344648162,1.9891549247657556,-1.5200115355140882,-0.25116200468890704,1.3392867202335856,4.3278895916018225,0.49584354321203733,52.51929027547309,-9.62128628547583,78.42753370974589,-3.5655387486347934,0.5729577951308232
GUIDED_NOGPS,2.396826982498169,36.712275050766756,52.51929027547309,-9.62128628547583,78.42753370974589,-4.596367757296655,21.692487965106324,-3.1483111787749625,75.76871538933322,-1.3502704490252815,1.9754693601031657,-1.4806124430605159,-0.252885016496479,1.352100859447456,3.4564305118958565,0.496011772519381,52.51929027547309,-9.62128628547583,78.42753370974589,-3.5655387486347934,2.0053522829578814
GUIDED_NOGPS,2.4254751205444336,34.91965066229301,52.51929027547309,-9.62128628547583,78.42753370974589,-4.530441488946071,21.019684599429894,-3.050664732655749,75.88254470887833,-1.2068365831767196,1.959969099555468,-1.3370380247254396,-0.25596869968177816,1.3753160901409385,2.73090403712881,0.49618251649869866,52.51929027547309,-9.62128628547583,78.42753370974589,-3.5655387486347934,4.1252961249419275
GUIDED_NOGPS,2.446650981903076,47.23421698686907,52.51929027547309,-9.62128628547583,78.42753370974589,-4.436296326611056,20.351547633219923,-2.9536955383864996,75.9980374247123,-1.138690932053856,1.9096737209416097,-1.2396094316400275,-0.2636319703623234,1.4336906914678995,1.6133574333982295,0.4963557555724496,52.51929027547309,-9.62128628547583,78.42753370974589,-3.5655387486347934,4.698253920072751
GUIDED_NOGPS,2.4928808212280273,21.63361684349517,52.51929027547309,-9.62128628547583,78.42753370974589,-4.299256026724217,19.688549372384443,-2.8574721434742045,76.11517993250273,-0.887053742982481,1.701323069178602,-0.8289765911090097,-0.25849853535354567,1.3937535178378855,2.2491104586867756,0.4965314693341353,52.51929027547309,-9.62128628547583,78.42753370974589,-3.5655387486347934,7.906817572805361
GUIDED_NOGPS,2.5173516273498535,40.883742238597925,52.51929027547309,-9.62128628547583,78.42753370974589,-4.019041472423429,19.0311564546209,-2.7620622727774116,76.23395808371579,-0.8164558405041714,1.6557055163725563,-0.6171789883318198,-0.26870821330043126,1.4715814268318173,-2.241901697843513,0.49670963656095485,52.51929027547309,-9.62128628547583,78.42753370974589,-3.5655387486347934,9.339212060632418
GUIDED_NOGPS,2.5443849563598633,37.01095953267564,52.51929027547309,-9.62128628547583,78.42753370974589,-3.808444119581243,18.379829309586256,-2.6675327501587702,76.35435719405346,-0.7454004754340297,1.5215098015415538,-0.442663039324219,-0.270766071214158,1.486964034578619,-0.5411583133346585,0.49689023522646136,52.51929027547309,-9.62128628547583,78.42753370974589,-3.5655387486347934,10.026761414789407
GUIDED_NOGPS,2.5696496963500977,39.59617472410245,52.51929027547309,-9.62128628547583,78.42753370974589,-3.5489041223371722,17.73502161906768,-2.5739494201375592,76.47636205189077,-0.5957094092537955,1.3576151435388666,-0.020225979388506246,-0.2750191351620506,1.519176363112908,-1.9734994395614769,0.49707324251321733,52.51929027547309,-9.62128628547583,78.42753370974589,-3.5655387486347934,11.172677005051053
GUIDED_NOGPS,2.6020779609680176,30.84523345516587,52.51929027547309,-9.62128628547583,78.42753370974589,-3.2893758597780507,17.09717977715276,-2.481377069542212,76.59995692671302,-0.5504014027553688,1.3132423927090557,0.12155104698553862,-0.27550203666880013,1.5224263637102513,-1.0354637765297943,0.4972586348254507,52.51929027547309,-9.62128628547583,78.42753370974589,-3.5655387486347934,11.688339020668794
GUIDED_NOGPS,2.6318085193634033,33.64891816219946,52.51929027547309,-9.62128628547583,78.42753370974589,-2.9338630736077245,16.46674235040001,-2.389879349162859,76.72512557755299,-0.48276812254196205,1.338304064321125,0.5665306810369423,-0.27990707681327553,1.5557448756670178,-3.35060630188566,0.49744638780171063,52.51929027547309,-9.62128628547583,78.42753370974589,-3.5655387486347934,12.776958831417359
GUIDED_NOGPS,2.6529011726379395,47.417376066926685,52.51929027547309,-9.62128628547583,78.42753370974589,-2.6049218575671897,15.844139538009316,-2.2995186954038562,76.85185126142822,-0.42122801139844135,1.2526669390640937,0.7433705752292136,-0.28727477812672153,1.6118548384021978,-5.236106005069319,0.4976364763275235,52.51929027547309,-9.62128628547583,78.42753370974589,-3.5655387486347934,12.891550390443523
GUIDED_NOGPS,2.6904752254486084,26.622557078205233,52.51929027547309,-9.62128628547583,78.42753370974589,-2.31416298896819,15.229792631992154,-2.2103562519362896,76.98011674177823,-0.3015162463109799,1.1246615100552384,1.5184165796211844,-0.28415162251466985,1.5874293481788646,-1.6799453087223815,0.49782887454804853,52.51929027547309,-9.62128628547583,78.42753370974589,-3.5655387486347934,15.584452027558392
GUIDED_NOGPS,2.719740629196167,34.18062097628555,52.51929027547309,-9.62128628547583,78.42753370974589,-1.8029835774657212,14.62411347734222,-2.1224517913505476,77.1099042969017,-0.2590398868320524,1.0855605980476193,1.997785722555713,-0.2897403564383523,1.6298120821831312,-6.925362252286179,0.4980235558807337,52.51929027547309,-9.62128628547583,78.42753370974589,-3.5655387486347934,16.100114043176134
GUIDED_NOGPS,2.7486343383789062,34.613608417577886,52.51929027547309,-9.62128628547583,78.42753370974589,-1.3992991140854603,14.02750393220569,-2.035863636808818,77.24119572839378,-0.186506212693426,0.9129277802189587,2.392939273354219,-0.29296464309011633,1.6540957848258664,-5.454479888431553,0.49822049302797183,52.51929027547309,-9.62128628547583,78.42753370974589,-3.5655387486347934,16.214705602202297
GUIDED_NOGPS,2.7743544578552246,38.8905228606663,52.51929027547309,-9.62128628547583,78.42753370974589,-0.9665551188626197,13.440355328051737,-1.9506485836976442,77.37397236958326,-0.16754646133111684,0.9625360844909959,2.816440670529217,-0.29744025345262864,1.6880063226074604,-7.0,0.49841965798975607,52.51929027547309,-9.62128628547583,78.42753370974589,-3.5655387486347934,16.558480279280793
GUIDED_NOGPS,2.8090250492095947,28.847847916695326,52.51929027547309,-9.62128628547583,78.42753370974589,-0.5625323314812749,12.86304792984275,-1.866861821280425,77.50821509396981,-0.07869151656221604,0.7572295626636983,3.5144693551184183,-0.29744935053053795,1.6875982003499725,-5.005420402028406,0.4986210220763359,52.51929027547309,-9.62128628547583,78.42753370974589,-3.5655387486347934,17.76169164905552
GUIDED_NOGPS,2.8405754566192627,31.70681261528227,52.51929027547309,-9.62128628547583,78.42753370974589,-0.009868986738534619,12.295950396205072,-1.7845568543499724,77.64390432366126,0.01746587426499364,0.5955604791133774,4.0706198561642335,-0.3013683777767603,1.7171686279682865,-7.0,0.49882455592087305,52.51929027547309,-9.62128628547583,78.42753370974589,-3.5655387486347934,18.44924100321251
GUIDED_NOGPS,2.866896629333496,38.00978721861746,52.51929027547309,-9.62128628547583,78.42753370974589,0.5048413863460913,11.739419239599002,-1.7037854248810298,77.78102003781076,0.0605013754409366,0.615789151557428,4.344218451294727,-0.30636274819089726,1.7550510441643112,-7.0,0.4990302294920973,52.51929027547309,-9.62128628547583,78.42753370974589,-3.5655387486347934,18.44924100321251
GUIDED_NOGPS,2.8921256065368652,39.6448292484664,52.51929027547309,-9.62128628547583,78.42753370974589,0.9309014122895066,11.193798286489468,-1.6245974336828013,77.91954178105408,0.08909936415556677,0.5753704399268198,4.531740441183781,-0.3091217197214191,1.7758179843708422,-7.0,0.4992380121069623,52.51929027547309,-9.62128628547583,78.42753370974589,-3.5655387486347934,18.96490301883025
GUIDED_NOGPS,2.925417423248291,30.041284075119254,52.51929027547309,-9.62128628547583,78.42753370974589,1.3567259631944049,10.659418137516425,-1.5470408620514853,78.05944867194678,0.30464052424773186,0.377916074324098,5.44422724731445,-0.3094295644905158,1.7777130488361421,-7.0,0.49944787244330136,52.51929027547309,-9.62128628547583,78.42753370974589,-3.5655387486347934,18.678424121264836
GUIDED_NOGPS,2.9550092220306396,33.80622073201202,52.51929027547309,-9.62128628547583,78.42753370974589,1.9172820138871027,10.136595627665187,-1.4711616934228111,78.20071941140148,0.4411403607065557,0.2982752148281031,5.984816656440273,-0.3133495407578006,1.807319018797033,-7.0,0.4996597785524834,52.51929027547309,-9.62128628547583,78.42753370974589,-3.5655387486347934,17.99087476710785
GUIDED_NOGPS,2.990964412689209,27.81995940729342,52.51929027547309,-9.62128628547583,78.42753370974589,2.3795389462591277,9.625633286436894,-1.397003835024556,78.3433322911251,0.6817690457440156,0.2507607904234978,6.968615760147753,-0.3143825901083281,1.814730769588135,-7.0,0.4998736978720688,52.51929027547309,-9.62128628547583,78.42753370974589,-3.5655387486347934,17.24602963343778
GUIDED_NOGPS,3.0239429473876953,30.356551444618145,52.51929027547309,-9.62128628547583,78.42753370974589,2.9381648679483607,9.126818798018647,-1.3246090395290757,78.48726520205601,0.9288094641431193,0.13854974698347397,7.544658546820996,-0.3177829857569912,1.8403117487058522,-7.0,0.5000895972384651,52.51929027547309,-9.62128628547583,78.42753370974589,-3.5655387486347934,16.27200138171538
GUIDED_NOGPS,3.0510942935943604,36.81830072244314,52.51929027547309,-9.62128628547583,78.42753370974589,3.403601925178999,8.640424461454401,-1.254016826705854,78.6324956428014,1.1037293281266765,0.030720910226247976,7.908485648434651,-0.3219046611423932,1.8714908975923132,-7.0,0.5003074428995833,52.51929027547309,-9.62128628547583,78.42753370974589,-3.5655387486347934,15.01149423242757
GUIDED_NOGPS,3.082702398300171,31.65297451493861,52.51929027547309,-9.62128628547583,78.42753370974589,3.7413596285596373,8.16670665081513,-1.1852644050740224,78.7790007280744,1.2749921594182207,0.07660505385333582,8.32199725361827,-0.32317036885712863,1.880747935101505,-7.0,0.5005272005274928,52.51929027547309,-9.62128628547583,78.42753370974589,-3.5655387486347934,13.57909974460051
GUIDED_NOGPS,3.113713026046753,32.259410235505854,52.51929027547309,-9.62128628547583,78.42753370974589,4.105497612157441,7.705905275369005,-1.1183865935548631,78.92675719713132,1.3949678472840796,0.10347224328381567,8.589333419053508,-0.32567095298238846,1.899462790958539,-7.0,0.5007488352310782,52.51929027547309,-9.62128628547583,78.42753370974589,-3.5655387486347934,12.83425461093044
GUIDED_NOGPS,3.1421215534210205,35.21192786863226,52.51929027547309,-9.62128628547583,78.42753370974589,4.4248512153376085,7.2582432397521615,-1.0534157431243933,79.07574142220896,1.4660266808096594,0.30016248147314223,9.034209252905825,-0.32886640827076924,1.9235415819562025,-7.0,0.5009723115686946,52.51929027547309,-9.62128628547583,78.42753370974589,-3.5655387486347934,10.771606548459477
GUIDED_NOGPS,3.173466920852661,31.908465705069684,52.51929027547309,-9.62128628547583,78.42753370974589,4.642221065493568,6.82392590413896,-0.9903816584658571,79.22592941696176,1.556073120062757,0.3172266418973613,9.292200012009193,-0.3301384618473925,1.93284148813925,-6.851217081114877,0.5011975935608238,52.51929027547309,-9.62128628547583,78.42753370974589,-3.5655387486347934,8.36518380891002
GUIDED_NOGPS,3.2041311264038086,32.61689205477747,52.51929027547309,-9.62128628547583,78.42753370974589,4.856738953677838,6.403140544412352,-0.9293115196222672,79.37729684489905,1.6044478281376666,0.5015687518409511,9.557485413146136,-0.33260030065310414,1.951265140081174,-7.0,0.5014246447027297,52.51929027547309,-9.62128628547583,78.42753370974589,-3.5655387486347934,6.474423084978302
GUIDED_NOGPS,3.252403736114502,20.718444204047557,52.51929027547309,-9.62128628547583,78.42753370974589,4.981107640732378,5.996055812334404,-0.8702298036489253,79.52981902782231,1.6465317185435828,0.5578535660266758,9.751105054416717,-0.3323630837832917,1.9487837651864341,-5.036077007924857,0.5016534279771147,52.51929027547309,-9.62128628547583,78.42753370974589,-3.5655387486347934,3.0939720937064457
GUIDED_NOGPS,3.284989833831787,30.693323185902877,52.51929027547309,-9.62128628547583,78.42753370974589,5.171515678275405,5.602821195716572,-0.8131582062659604,79.68347095426239,1.5571183524491807,0.8929840547293446,9.836248485062804,-0.3365727168746135,1.9805625803935456,-6.837078366195413,0.5018839058667748,52.51929027547309,-9.62128628547583,78.42753370974589,-3.5655387486347934,2.291831180523293
GUIDED_NOGPS,3.321061372756958,27.732585740639113,52.51929027547309,-9.62128628547583,78.42753370974589,5.185851994925447,5.2235664785901434,-0.7581155635108772,79.8382272879167,1.564307660159148,0.6940240593014582,9.817302394078835,-0.3380644859022826,1.9914891547295785,-4.147796456463089,0.5021160403672562,52.51929027547309,-9.62128628547583,78.42753370974589,-3.5655387486347934,0.11459155902616465
GUIDED_NOGPS,3.3503878116607666,34.109461151863115,52.51929027547309,-9.62128628547583,78.42753370974589,5.161599437291655,4.858401201376651,-0.7051177733910485,79.9940623760865,1.4869851162778436,0.8642793309687198,9.79969672771948,-0.3412899114562339,2.0,-3.5233655615978163,0.5023497929995109,52.51929027547309,-9.62128628547583,78.42753370974589,-3.5655387486347934,-0.8594366926962349
GUIDED_NOGPS,3.381523370742798,32.12229174484771,52.51929027547309,-9.62128628547583,78.42753370974589,5.0519242488950225,4.50741412105846,-0.6541777175362711,80.15095025811411,1.4319992119731848,1.0096573461315024,9.686389012030848,-0.3425630991794452,2.0,-2.139226479521689,0.5025851248225524,52.51929027547309,-9.62128628547583,78.42753370974589,-3.5655387486347934,-4.18259190445501
GUIDED_NOGPS,3.4142954349517822,30.523342041873768,52.51929027547309,-9.62128628547583,78.42753370974589,4.911431315356375,4.1706726713487825,-0.6053051828513105,80.30886467382012,1.444879881530771,1.0815000505860468,9.52632779769983,-0.3441766373760806,2.0,-1.6263254341870534,0.5028219964461114,52.51929027547309,-9.62128628547583,78.42753370974589,-3.5655387486347934,-4.583662361046586
GUIDED_NOGPS,3.459714889526367,22.019540006614832,52.51929027547309,-9.62128628547583,78.42753370974589,4.732848489504476,3.848222422862605,-0.5585067831683901,80.46777907194065,1.496950468998598,0.9724091229362494,9.307240088561562,-0.34457315110777637,2.0,-1.6794033648889635,0.5030603680432921,52.51929027547309,-9.62128628547583,78.42753370974589,-3.5655387486347934,-5.614986392282068
GUIDED_NOGPS,3.49440336227417,28.837335936801722,52.51929027547309,-9.62128628547583,78.42753370974589,4.485077637231485,3.5400865432863355,-0.5137858808997393,80.62766661856459,1.553240939434729,0.9634440727637845,9.095358228997657,-0.3473480889211024,2.0,0.07125803725375102,0.503300199363228,52.51929027547309,-9.62128628547583,78.42753370974589,-3.5655387486347934,-5.729577951308232
GUIDED_NOGPS,3.5250792503356934,32.609538026154155,52.51929027547309,-9.62128628547583,78.42753370974589,4.243155065187361,3.24626525754924,-0.47114250869014995,80.78850020557077,1.5662304651322123,0.9119698461878644,8.881705642891427,-0.3495538041537165,2.0,0.6667558383171039,0.5035414497437374,52.51929027547309,-9.62128628547583,78.42753370974589,-3.5655387486347934,-7.276563998161455
GUIDED_NOGPS,3.557126998901367,31.246677394362,52.51929027547309,-9.62128628547583,78.42753370974589,4.0047190605128735,2.96673530799292,-0.4305732910694502,80.95025245906525,1.602909968357356,0.6839130314523121,8.63608264882766,-0.3509447975289944,2.0,0.720706070439229,0.5037840781239791,52.51929027547309,-9.62128628547583,78.42753370974589,-3.5655387486347934,-7.505747116213785
GUIDED_NOGPS,3.5906500816345215,29.81958821522011,52.51929027547309,-9.62128628547583,78.42753370974589,3.7586220797189167,2.7014494145421537,-0.39207136610511384,81.11289574781857,1.5270490849584342,0.5893341213546761,8.423309449577069,-0.35194073388332753,2.0,0.6395854636915339,0.504028043057109,52.51929027547309,-9.62128628547583,78.42753370974589,-3.5655387486347934,-7.505747116213785
GUIDED_NOGPS,3.6279211044311523,26.840453579747614,52.51929027547309,-9.62128628547583,78.42753370974589,3.4851754799774515,2.4503357348752814,-0.3556263070547132,81.2764021917029,1.3458061733507378,0.530153733847689,8.083095165697795,-0.35307617648977524,2.0,0.9589905098734794,0.5042733027229355,52.51929027547309,-9.62128628547583,78.42753370974589,-3.5655387486347934,-7.62033867523995
GUIDED_NOGPS,3.6561012268066406,35.492612588217376,52.51929027547309,-9.62128628547583,78.42753370974589,3.167260118158058,2.213297324594592,-0.3212240440184857,81.44074367012931,1.2575316345787293,0.43810092652590005,7.87229759866463,-0.3553814041842755,2.0,3.1214036585787572,0.5045198149405752,52.51929027547309,-9.62128628547583,78.42753370974589,-3.5655387486347934,-8.708958485988513
GUIDED_NOGPS,3.6873555183410645,32.000488288700694,52.51929027547309,-9.62128628547583,78.42753370974589,2.8906911254725056,1.9902115973967085,-0.28884678559187904,81.60589183048506,1.1592892884867336,0.4204139382267405,7.579641068202509,-0.35616590286496214,2.0,2.145546530594486,0.5047675371811088,52.51929027547309,-9.62128628547583,78.42753370974589,-3.5655387486347934,-9.511099399171666
GUIDED_NOGPS,3.7200305461883545,30.61222940721386,52.51929027547309,-9.62128628547583,78.42753370974589,2.566059691252983,1.7809297852428045,-0.2584729405180397,81.77181809657074,0.989847556382644,0.4967421559752792,7.235209996284398,-0.3571770265884147,2.0,2.9757789670912316,0.5050164265802373,52.51929027547309,-9.62128628547583,78.42753370974589,-3.5655387486347934,-10.714310768946394
GUIDED_NOGPS,3.7535595893859863,29.85545993579477,52.51929027547309,-9.62128628547583,78.42753370974589,2.2233953561354767,1.5852763985296434,-0.2300770393403937,81.93849367703757,0.8271233686881149,0.38209657698296895,6.838798623461552,-0.358205812662421,2.0,3.4286046869692184,0.5052664399509376,52.51929027547309,-9.62128628547583,78.42753370974589,-3.5655387486347934,-10.370536091867901
GUIDED_NOGPS,3.789008855819702,28.207810724109407,52.51929027547309,-9.62128628547583,78.42753370974589,1.8619620641498862,1.4030486862589697,-0.20362965605512784,82.10588957382456,0.6966653147978432,0.3788940720358792,6.440528585410816,-0.35902893579269973,2.0,3.5750744124568357,0.505517533796118,52.51929027547309,-9.62128628547583,78.42753370974589,-3.5655387486347934,-11.229972784564136
GUIDED_NOGPS,3.823355197906494,29.124684054106602,52.51929027547309,-9.62128628547583,78.42753370974589,1.452278757373376,1.2340160962089186,-0.17909732976374215,82.27397659059581,0.5330338858824659,0.5967030416954736,6.036198462018986,-0.36011980622876333,2.0,4.821234237310923,0.5057696643212749,52.51929027547309,-9.62128628547583,78.42753370974589,-3.5655387486347934,-11.917522138721123
GUIDED_NOGPS,3.864377975463867,24.37896841542378,52.51929027547309,-9.62128628547583,78.42753370974589,1.0418053238595277,1.0779197351037197,-0.156442486325588,82.44272534117772,0.42947450432587975,0.7624429179911221,5.50923399962687,-0.36069597332299375,2.0,4.166904599568384,0.5060227874471478,52.51929027547309,-9.62128628547583,78.42753370974589,-3.5655387486347934,-12.261296815799618
GUIDED_NOGPS,3.8952693939208984,32.383446571958,52.51929027547309,-9.62128628547583,78.42753370974589,0.5449722365229744,0.9344718287846518,-0.1356233600103991,82.61210625799623,0.4515568794385012,0.9641127909722111,5.1435119474053606,-0.36217041904876707,2.0,7.0,0.5062768588223755,52.51929027547309,-9.62128628547583,78.42753370974589,-3.5655387486347934,-12.08940947726037
GUIDED_NOGPS,3.9256439208984375,32.93007772630918,52.51929027547309,-9.62128628547583,78.42753370974589,0.1837877429026558,0.8033551823799172,-0.11659391515080131,82.78208960051398,0.4593980433273816,0.9661473335712286,4.83483051248992,-0.36292345932943926,2.0,5.802246181057397,0.5065318338361522,52.51929027547309,-9.62128628547583,78.42753370974589,-3.5655387486347934,-11.974817918234207
GUIDED_NOGPS,3.961392641067505,27.979560524595414,52.51929027547309,-9.62128628547583,78.42753370974589,-0.19310543907054276,0.6842226404754257,-0.09930376779485783,82.95264546366768,0.4125662109529545,1.2368373353323543,4.302313533189406,-0.36333757492956065,2.0,5.4247894095734965,0.5067876676308827,52.51929027547309,-9.62128628547583,78.42753370974589,-3.5655387486347934,-12.719663051904275
GUIDED_NOGPS,4.001128435134888,25.171965959694166,52.51929027547309,-9.62128628547583,78.42753370974589,-0.6492805247046878,0.5766965472850103,-0.08369810735859318,83.12374378630517,0.2710188113366383,1.3221860985403642,3.8371661247673132,-0.36392157554445276,2.0,6.294404076685494,0.5070443151148389,52.51929027547309,-9.62128628547583,78.42753370974589,-3.5655387486347934,-13.464508185574346
GUIDED_NOGPS,4.04214882850647,24.3842124539995,52.51929027547309,-9.62128628547583,78.42753370974589,-1.1610597938588265,0.4803682068212112,-0.06971761827855971,83.29535435962283,0.10303824612704218,1.6174252942823968,3.355273440377877,-0.36458586434204193,2.0,7.0,0.5073017309748155,52.51929027547309,-9.62128628547583,78.42753370974589,-3.5655387486347934,-13.407212406061264
GUIDED_NOGPS,4.070055246353149,35.84997777701802,52.51929027547309,-9.62128628547583,78.42753370974589,-1.6846798278945643,0.3947973430649796,-0.05729840166426925,83.46744683560267,-0.032678986723073115,1.768510359383548,2.8714407688207446,-0.3656484226984402,2.0,7.0,0.5075598696887852,52.51929027547309,-9.62128628547583,78.42753370974589,-3.5655387486347934,-12.719663051904275
GUIDED_NOGPS,4.115250825881958,22.13306315433975,52.51929027547309,-9.62128628547583,78.42753370974589,-2.0197346516756016,0.319511560136462,-0.046371896950851976,83.63999073544962,-0.19057881970775187,1.9547277831411296,2.348018186400103,-0.36569941937544714,2.0,5.35504349780123,0.5078186855385556,52.51929027547309,-9.62128628547583,78.42753370974589,-3.5655387486347934,-11.974817918234207
GUIDED_NOGPS,4.1451592445373535,33.44153338329799,52.51929027547309,-9.62128628547583,78.42753370974589,-2.5640360597238283,0.25400580246589755,-0.036864803551502234,83.81295545802877,-0.25995459857230524,2.0325740104327035,1.9836158547922869,-0.3665760416633466,2.0,7.0,0.5080781326224243,52.51929027547309,-9.62128628547583,78.42753370974589,-3.5655387486347934,-11.917522138721123
GUIDED_NOGPS,4.194425106048584,20.30097867438506,52.51929027547309,-9.62128628547583,78.42753370974589,-2.896986592131396,0.19774181496309495,-0.028699002510023774,83.98631028830258,-0.4177146794832632,2.1478966319264914,1.367315826429283,-0.3667455069947258,2.0,5.754768802876218,0.508338164867835,52.51929027547309,-9.62128628547583,78.42753370974589,-3.5655387486347934,-11.172677005051053
GUIDED_NOGPS,4.2288501262664795,29.057494197928573,52.51929027547309,-9.62128628547583,78.42753370974589,-3.4383814260827066,0.15014760318844367,-0.021791478153382116,84.1600244057681,-0.5849351060032177,2.198336298286566,1.0491787416599003,-0.36741608336063913,2.0,7.0,0.5085987360440333,52.51929027547309,-9.62128628547583,78.42753370974589,-3.5655387486347934,-10.427831871380983
GUIDED_NOGPS,4.2580037117004395,34.31232258117295,52.51929027547309,-9.62128628547583,78.42753370974589,-3.7815811334658647,0.11061689352330006,-0.016054239744207166,84.33406689289427,-0.8003295504303597,2.2495439340414443,0.7444430750114642,-0.3678631202956079,2.0,7.0,0.5088597997747226,52.51929027547309,-9.62128628547583,78.42753370974589,-3.5655387486347934,-9.912169855763242
GUIDED_NOGPS,4.2872302532196045,34.225526116084175,52.51929027547309,-9.62128628547583,78.42753370974589,-4.054254734780028,0.07850859333997562,-0.011394243133374005,84.50840674355905,-0.9250665204779522,2.275327471271419,0.5912949192549987,-0.36814871633289603,2.0,7.0,0.5091213095507198,52.51929027547309,-9.62128628547583,78.42753370974589,-3.5655387486347934,-9.682986737710912
GUIDED_NOGPS,4.323296546936035,27.73001884235232,52.51929027547309,-9.62128628547583,78.42753370974589,-4.314255265745927,0.05314625117274829,-0.007713312412413131,84.68301287148671,-1.3458053195770914,2.422833944134307,0.1067864991970718,-0.36838556821553214,2.0,7.0,0.5093832187426113,52.51929027547309,-9.62128628547583,78.42753370974589,-3.5655387486347934,-9.167324722093172
GUIDED_NOGPS,4.366764307022095,23.012119715798427,52.51929027547309,-9.62128628547583,78.42753370974589,-4.601232059768599,0.03381751688802126,-0.00490806156619783,84.85785411868511,-1.638092592937209,2.49909172555703,-0.19928983219981722,-0.368728987488001,2.0,7.0,0.5096454806134089,52.51929027547309,-9.62128628547583,78.42753370974589,-3.5655387486347934,-6.932789321082962
GUIDED_NOGPS,4.398087978363037,31.932272554244385,52.51929027547309,-9.62128628547583,78.42753370974589,-4.895949163691777,0.019773601854311096,-0.002869816125411262,85.03289926388278,-1.8065816203737877,2.5538805148711106,-0.3699408412923296,-0.3690750937657667,2.0,7.0,0.5099080483312053,52.51929027547309,-9.62128628547583,78.42753370974589,-3.5655387486347934,-5.271211715203574
GUIDED_NOGPS,4.425695180892944,36.2377661045065,52.51929027547309,-9.62128628547583,78.42753370974589,-5.0444093845124,0.010228739113259167,-0.0014845348189851393,85.20811703096632,-1.8508743299242625,2.6263304658315514,-0.502602511644003,-0.36930956790745745,2.0,6.880245847226079,0.5101708749818307,52.51929027547309,-9.62128628547583,78.42753370974589,-3.5655387486347934,-4.1252961249419275
GUIDED_NOGPS,4.459418535232544,29.66079952478272,52.51929027547309,-9.62128628547583,78.42753370974589,-5.130451855915907,0.004359643549619818,-0.0006327312268012975,85.38347609741753,-1.9603959863785938,2.6834223095563954,-0.5884373388609946,-0.3695423286709236,2.0,5.555609283196346,0.5104339135815075,52.51929027547309,-9.62128628547583,78.42753370974589,-3.5655387486347934,-2.46371851906254
GUIDED_NOGPS,4.488141059875488,34.82252922422954,52.51929027547309,-9.62128628547583,78.42753370974589,-5.193653145769815,0.0013049720619306981,-0.000189395432045103,85.55894510275068,-1.9476818026820266,2.7595977018222553,-0.6174739137657469,-0.3697705297673356,2.0,5.449652193436913,0.5106971170895072,52.51929027547309,-9.62128628547583,78.42753370974589,-3.5655387486347934,-0.5156620156177409
