E-kp,E-ki,E-kd,E-I-Tot,E-P,E-I,E-D,E-PID,N-kp,N-ki,N-kd,N-I-Tot,N-P,N-I,N-D,N-PID,Y-kp,Y-ki,Y-kd,Y-I-Tot,Y-P,Y-I,Y-D,Y-PID,D-kp,D-ki,D-kd,D-I-Tot,D-P,D-I,D-D,D-PID,errorN,desiredN,actualN,errorE,desiredE,actualE,errorD,desiredD,actualD,errorY,desiredY,actualY,roll,pitch,yaw-rate,thrust,dt,Time,Mode
0.02,0.0,0.0,-0.0008419320528985397,-0.0005014795900480781,-0.0,-0.0,-0.0005014795900480781,0.02,0.0,0.0,-0.0008450963890420514,-0.0005033643620870563,-0.0,-0.0,-0.0005033643620870563,0.5,0,0,-0.0008496778055134482,-0.012652329725270094,-0.0,-0.0,-0.012652329725270094,0.002,8e-05,0.0,-0.0009623107921312955,-5.731807215029483e-05,-7.698486337050365e-08,-0.0,-5.739505701366533e-05,-0.02516821810435281,0.0,0.02516821810435281,-0.025073979502403906,0.0,0.025073979502403906,-0.028659036075147415,0.0,0.028659036075147415,-0.02530465945054019,0,0.02530465945054019,-0.0005017018518139571,0.0005031428347304012,0.012652329725270094,0.4,0.033577919006347656,0.03381681442260742,STABILIZE
0.02,0.0,0.0,-0.0023997918059598263,-0.0009329217646762136,-0.0,-0.0,-0.0009329217646762136,0.02,0.0,0.0,-0.002400829050385514,-0.0009316479592806245,-0.0,-0.0,-0.0009316479592806245,0.5,0,0,-0.0024003068273631017,-0.023214791327965254,-0.0,-0.0,-0.023214791327965254,0.002,8e-05,0.0,-0.0028584744832956944,-0.00011355145245904958,-2.2867795866365557e-07,-0.0,-0.00011378013041771323,-0.04658239796403123,0.0,0.04658239796403123,-0.04664608823381068,0.0,0.04664608823381068,-0.05677572622952479,0.0,0.05677572622952479,-0.04642958265593051,0,0.04642958265593051,-0.0009336764183586041,0.0009308916611719013,0.023214791327965254,0.4,0.03339743614196777,0.06714129447937012,STABILIZE
0.02,0.0,0.0,-0.005360323293448779,-0.0017695491909367443,-0.0,-0.0,-0.0017695491909367443,0.02,0.0,0.0,-0.0053310640440035785,-0.0017514405721147485,-0.0,-0.0,-0.0017514405721147485,0.5,0,0,-0.005361420608420512,-0.044247430889394784,-0.0,-0.0,-0.044247430889394784,0.002,8e-05,0.0,-0.006926503354951888,-0.00024315151617090825,-5.541202683961511e-07,-0.0,-0.0002437056364393044,-0.08757202860573743,0.0,0.08757202860573743,-0.08847745954683721,0.0,0.08847745954683721,-0.12157575808545412,0.0,0.12157575808545412,-0.08849486177878957,0,0.08849486177878957,-0.0017722522259193904,0.0017487053681276012,0.044247430889394784,0.4,0.03346085548400879,0.10061287879943848,STABILIZE
0.02,0.0,0.0,-0.00880166278547146,-0.0020335769277666756,-0.0,-0.0,-0.0020335769277666756,0.02,0.0,0.0,-0.008692666974885938,-0.001986458521863889,-0.0,-0.0,-0.001986458521863889,0.5,0,0,-0.008824562090507644,-0.05116150725530966,-0.0,-0.0,-0.05116150725530966,0.002,8e-05,0.0,-0.011983828654090997,-0.00029885049319836797,-9.587062923272797e-07,-0.0,-0.00029980919949069523,-0.09932292609319444,0.0,0.09932292609319444,-0.10167884638833379,0.0,0.10167884638833379,-0.149425246599184,0.0,0.149425246599184,-0.10232301451061931,0,0.10232301451061931,-0.002037121246633991,0.00198282364489205,0.05116150725530966,0.4,0.03384518623352051,0.13445568084716797,STABILIZE
0.02,0.0,0.0,-0.0126758614382443,-0.0023179063977518894,-0.0,-0.0,-0.0023179063977518894,0.02,0.0,0.0,-0.012481037232899327,-0.002266555859704668,-0.0,-0.0,-0.002266555859704668,0.5,0,0,-0.012716378086052601,-0.05821116831793322,-0.0,-0.0,-0.05821116831793322,0.002,8e-05,0.0,-0.018104311569332315,-0.00036618428165564713,-1.4483449255465853e-06,-0.0,-0.00036763262658119373,-0.11332779298523339,0.0,0.11332779298523339,-0.11589531988759447,0.0,0.11589531988759447,-0.18309214082782357,0.0,0.18309214082782357,-0.11642233663586644,0,0.11642233663586644,-0.0023225071446586402,0.0022618413067477293,0.05821116831793322,0.4,0.03342843055725098,0.16788458824157715,STABILIZE
0.02,0.0,0.0,-0.01698944233185983,-0.00257375520604518,-0.0,-0.0,-0.00257375520604518,0.02,0.0,0.0,-0.016703004603902248,-0.0025190927836672115,-0.0,-0.0,-0.0025190927836672115,0.5,0,0,-0.017059654378889455,-0.06478683398824538,-0.0,-0.0,-0.06478683398824538,0.002,8e-05,0.0,-0.02533643232675536,-0.00043151406938293096,-2.026914586140429e-06,-0.0,-0.00043354098396907137,-0.12595463918336058,0.0,0.12595463918336058,-0.128687760302259,0.0,0.128687760302259,-0.21575703469146548,0.0,0.21575703469146548,-0.12957366797649075,0,0.12957366797649075,-0.002579445515592693,0.002513265832628461,0.06478683398824538,0.4,0.033519744873046875,0.20140790939331055,STABILIZE
0.02,0.0,0.0,-0.021499647054499235,-0.0026960593035067325,-0.0,-0.0,-0.0026960593035067325,0.02,0.0,0.0,-0.021096681247837847,-0.002626402463068389,-0.0,-0.0,-0.002626402463068389,0.5,0,0,-0.021642872328754593,-0.0684926081720176,-0.0,-0.0,-0.0684926081720176,0.002,8e-05,0.0,-0.03339206450199261,-0.00048154049333190286,-2.6713651601594093e-06,-0.0,-0.0004842118584920623,-0.13132012315341945,0.0,0.13132012315341945,-0.13480296517533663,0.0,0.13480296517533663,-0.24077024666595143,0.0,0.24077024666595143,-0.1369852163440352,0,0.1369852163440352,-0.002702330908094721,0.002619949108130322,0.0684926081720176,0.4,0.03345775604248047,0.23486638069152832,STABILIZE
0.02,0.0,0.0,-0.026360538018892588,-0.0028471755132832787,-0.0,-0.0,-0.0028471755132832787,0.02,0.0,0.0,-0.025807315960290206,-0.0027591657380429254,-0.0,-0.0,-0.0027591657380429254,0.5,0,0,-0.026632697220686622,-0.07306740344490166,-0.0,-0.0,-0.07306740344490166,0.002,8e-05,0.0,-0.04265863052264536,-0.0005427716864971499,-3.412690441811629e-06,-0.0,-0.0005461843769389615,-0.13795828690214626,0.0,0.13795828690214626,-0.14235877566416394,0.0,0.14235877566416394,-0.27138584324857495,0.0,0.27138584324857495,-0.14613480688980332,0,0.14613480688980332,-0.0028542035896401987,0.002751894954811115,0.07306740344490166,0.4,0.034145355224609375,0.26902246475219727,STABILIZE
0.02,0.0,0.0,-0.031535021641809304,-0.003095593007828224,-0.0,-0.0,-0.003095593007828224,0.02,0.0,0.0,-0.03078230057436905,-0.002976244338119019,-0.0,-0.0,-0.002976244338119019,0.5,0,0,-0.03197162016451429,-0.07984918756458792,-0.0,-0.0,-0.07984918756458792,0.002,8e-05,0.0,-0.05386096943146506,-0.0006701708716186321,-4.308877554517205e-06,-0.0,-0.0006744797491731493,-0.14881221690595095,0.0,0.14881221690595095,-0.1547796503914112,0.0,0.1547796503914112,-0.33508543580931605,0.0,0.33508543580931605,-0.15969837512917584,0,0.15969837512917584,-0.0031038765466276388,0.0029676045581572006,0.07984918756458792,0.4,0.033431291580200195,0.30245351791381836,STABILIZE
0.02,0.0,0.0,-0.03683883618544402,-0.003171154953368153,-0.0,-0.0,-0.003171154953368153,0.02,0.0,0.0,-0.035804454838234905,-0.0030027500470487904,-0.0,-0.0,-0.0030027500470487904,0.5,0,0,-0.03758432925210678,-0.08389608120015371,-0.0,-0.0,-0.08389608120015371,0.002,8e-05,0.0,-0.06611315238394988,-0.0007325589976741278,-5.2890521907159905e-06,-0.0,-0.0007378480498648437,-0.15013750235243953,0.0,0.15013750235243953,-0.15855774766840763,0.0,0.15855774766840763,-0.3662794988370639,0.0,0.3662794988370639,-0.16779216240030742,0,0.16779216240030742,-0.0031799349731416555,0.002993450375388486,0.08389608120015371,0.4,0.03345036506652832,0.3359386920928955,STABILIZE
0.02,0.0,0.0,-0.042176243091483004,-0.003189784794731867,-0.0,-0.0,-0.003189784794731867,0.02,0.0,0.0,-0.04073882467414313,-0.0029489184825603567,-0.0,0.0,-0.0029489184825603567,0.5,0,0,-0.043210162202997435,-0.08405390820094928,-0.0,-0.0,-0.08405390820094928,0.002,8e-05,0.0,-0.07926210537817283,-0.000785818489502102,-6.340968430253827e-06,-0.0,-0.0007921594579323558,-0.14744592412801782,0.0,0.14744592412801782,-0.15948923973659335,0.0,0.15948923973659335,-0.392909244751051,0.0,0.392909244751051,-0.16810781640189856,0,0.16810781640189856,-0.0031984232823287547,0.002939546863131468,0.08405390820094928,0.4,0.03346562385559082,0.3693983554840088,STABILIZE
0.02,0.0,0.0,-0.04757584776888231,-0.0032287731486869142,-0.0,-0.0,-0.0032287731486869142,0.02,0.0,0.0,-0.04584053426087683,-0.003050642391468215,-0.0,-0.0,-0.003050642391468215,0.5,0,0,-0.04891168752372556,-0.08523277611034334,-0.0,-0.0,-0.08523277611034334,0.002,8e-05,0.0,-0.09336282974207259,-0.0008431735825727761,-7.469026379365808e-06,-0.0,-0.0008506426089521418,-0.15253211957341076,0.0,0.15253211957341076,-0.1614386574343457,0.0,0.1614386574343457,-0.42158679128638804,0.0,0.42158679128638804,-0.17046555222068668,0,0.17046555222068668,-0.0032378350711321064,0.003041022706007219,0.08523277611034334,0.4,0.0334467887878418,0.40283727645874023,STABILIZE
0.02,0.0,0.0,-0.053033126947925696,-0.0032650758715306386,-0.0,-0.0,-0.0032650758715306386,0.02,0.0,0.0,-0.05108083461584899,-0.0031352580081109686,-0.0,-0.0,-0.0031352580081109686,0.5,0,0,-0.05462967137430256,-0.08552636988050079,-0.0,-0.0,-0.08552636988050079,0.002,8e-05,0.0,-0.10830175856382249,-0.0008937922074743359,-8.6641406851058e-06,-0.0,-0.0009024563481594418,-0.15676290040554844,0.0,0.15676290040554844,-0.1632537935765319,0.0,0.1632537935765319,-0.4468961037371679,0.0,0.4468961037371679,-0.17105273976100158,0,0.17105273976100158,-0.0032744214114308156,0.0031254963837187445,0.08552636988050079,0.4,0.033428192138671875,0.43625974655151367,STABILIZE
0.02,0.0,0.0,-0.058462256945826685,-0.003250227896649505,-0.0,0.0,-0.003250227896649505,0.02,0.0,0.0,-0.056384603198054245,-0.003175178455833895,-0.0,-0.0,-0.003175178455833895,0.5,0,0,-0.060268517209916744,-0.08439443357823873,-0.0,0.0,-0.08439443357823873,0.002,8e-05,0.0,-0.12382791919050745,-0.0009294962621308178,-9.906233535240597e-06,-0.0,-0.0009394024956660584,-0.15875892279169473,0.0,0.15875892279169473,-0.16251139483247526,0.0,0.16251139483247526,-0.4647481310654089,0.0,0.4647481310654089,-0.16878886715647745,0,0.16878886715647745,-0.0032595676060470607,0.00316558977572253,0.08439443357823873,0.4,0.03340768814086914,0.4696958065032959,STABILIZE
0.02,0.0,0.0,-0.06378825523694823,-0.0031826719195948466,-0.0,0.0,-0.0031826719195948466,0.02,0.0,0.0,-0.06151262221677972,-0.0030643648837163,-0.0,0.0,-0.0030643648837163,0.5,0,0,-0.06588387592418064,-0.08388964622900992,-0.0,0.0,-0.08388964622900992,0.002,8e-05,0.0,-0.14100639765654369,-0.0010265392147488872,-1.1280511812523495e-05,-0.0,-0.0010378197265614108,-0.153218244185815,0.0,0.153218244185815,-0.15913359597974233,0.0,0.15913359597974233,-0.5132696073744436,0.0,0.5132696073744436,-0.16777929245801984,0,0.16777929245801984,-0.0031916316441264955,0.0030550319370739095,0.08388964622900992,0.4,0.03346872329711914,0.5031416416168213,STABILIZE
0.02,0.0,0.0,-0.06906220265942184,-0.0031536570224715067,-0.0,0.0,-0.0031536570224715067,0.02,0.0,0.0,-0.06657251063575603,-0.0030256563759868825,-0.0,0.0,-0.0030256563759868825,0.5,0,0,-0.07153476148112257,-0.08447635846677744,-0.0,-0.0,-0.08447635846677744,0.002,8e-05,0.0,-0.15899763528827002,-0.001075820222599712,-1.2719810823061602e-05,-0.0,-0.0010885400334227737,-0.15128281879934413,0.0,0.15128281879934413,-0.15768285112357533,0.0,0.15768285112357533,-0.537910111299856,0.0,0.537910111299856,-0.16895271693355488,0,0.16895271693355488,-0.003162565297148968,0.00301634379045277,0.08447635846677744,0.4,0.033446550369262695,0.5365893840789795,STABILIZE
0.02,0.0,0.0,-0.07429406653956427,-0.0031276005843487564,-0.0,0.0,-0.0031276005843487564,0.02,0.0,0.0,-0.07157110513510377,-0.002988152489291601,-0.0,0.0,-0.002988152489291601,0.5,0,0,-0.07716640427177335,-0.08416469582539711,-0.0,0.0,-0.08416469582539711,0.002,8e-05,0.0,-0.1774808720109016,-0.0011049251910733014,-1.4198469760872129e-05,-0.0,-0.0011191236608341735,-0.14940762446458006,0.0,0.14940762446458006,-0.15638002921743782,0.0,0.15638002921743782,-0.5524625955366507,0.0,0.5524625955366507,-0.16832939165079422,0,0.16832939165079422,-0.003136365973658748,0.0029789510223825243,0.08416469582539711,0.4,0.03345608711242676,0.570049524307251,STABILIZE
0.02,0.0,0.0,-0.07951697255179552,-0.0031237815963275125,-0.0,0.0,-0.0031237815963275125,0.02,0.0,0.0,-0.07653887642667613,-0.0029711874000865686,-0.0,0.0,-0.0029711874000865686,0.5,0,0,-0.08281655080397651,-0.08448277507060603,-0.0,-0.0,-0.08448277507060603,0.002,8e-05,0.0,-0.19662665973008053,-0.0011450954542223232,-1.5730132778406444e-05,-0.0,-0.0011608255870007296,-0.14855937000432842,0.0,0.14855937000432842,-0.15618907981637561,0.0,0.15618907981637561,-0.5725477271111616,0.0,0.5725477271111616,-0.16896555014121206,0,0.16896555014121206,-0.0031325300474596353,0.0029619624457022037,0.08448277507060603,0.4,0.03343963623046875,0.603520393371582,STABILIZE
0.02,0.0,0.0,-0.08469380783927132,-0.003095741449635851,-0.0,0.0,-0.003095741449635851,0.02,0.0,0.0,-0.08150963480718382,-0.002972507700194884,-0.0,-0.0,-0.002972507700194884,0.5,0,0,-0.08839308753665703,-0.08336906116436242,-0.0,0.0,-0.08336906116436242,0.002,8e-05,0.0,-0.21651985991591513,-0.0011896110453848334,-1.732158879327321e-05,-0.0,-0.0012069326341781067,-0.1486253850097442,0.0,0.1486253850097442,-0.15478707248179255,0.0,0.15478707248179255,-0.5948055226924167,0.0,0.5948055226924167,-0.16673812232872484,0,0.16673812232872484,-0.0031043787102716866,0.002963486118395573,0.08336906116436242,0.4,0.033444881439208984,0.6369409561157227,STABILIZE
0.02,0.0,0.0,-0.08992596252840165,-0.0030243026530377905,-0.0,0.0,-0.0030243026530377905,0.02,0.0,0.0,-0.08653690145986494,-0.0029058727768155983,-0.0,0.0,-0.0029058727768155983,0.5,0,0,-0.09405780549319676,-0.08185834786318913,-0.0,0.0,-0.08185834786318913,0.002,8e-05,0.0,-0.23779015694221847,-0.0012294708308450892,-1.9023212555377478e-05,-0.0,-0.0012484940434004668,-0.14529363884077992,0.0,0.14529363884077992,-0.15121513265188952,0.0,0.15121513265188952,-0.6147354154225446,0.0,0.6147354154225446,-0.16371669572637826,0,0.16371669572637826,-0.0030325935229226966,0.0028972192973499124,0.08185834786318913,0.4,0.03460073471069336,0.6715812683105469,STABILIZE
0.02,0.0,0.0,-0.09477781675251738,-0.0028987168223499338,-0.0,0.0,-0.0028987168223499338,0.02,0.0,0.0,-0.091083670319452,-0.002716445047980377,-0.0,0.0,-0.002716445047980377,0.5,0,0,-0.09949467782532485,-0.08120582648472384,-0.0,0.0,-0.08120582648472384,0.002,8e-05,0.0,-0.25959949434516616,-0.0013029883070271354,-2.0767959547613295e-05,-0.0,-0.0013237562665747488,-0.13582225239901885,0.0,0.13582225239901885,-0.1449358411174967,0.0,0.1449358411174967,-0.6514941535135677,0.0,0.6514941535135677,-0.16241165296944768,0,0.16241165296944768,-0.0029064052506324514,0.002708217390455894,0.08120582648472384,0.4,0.03347587585449219,0.7050371170043945,STABILIZE
0.02,0.0,0.0,-0.09951862544586458,-0.002834816179081587,-0.0,0.0,-0.002834816179081587,0.02,0.0,0.0,-0.09546840992607207,-0.002621900941784342,-0.0,0.0,-0.002621900941784342,0.5,0,0,-0.10477557860293112,-0.07894424734692834,-0.0,0.0,-0.07894424734692834,0.002,8e-05,0.0,-0.2820849335794766,-0.0013445403739794175,-2.256679468635813e-05,-0.0,-0.0013671071686657756,-0.1310950470892171,0.0,0.1310950470892171,-0.14174080895407934,0.0,0.14174080895407934,-0.6722701869897088,0.0,0.6722701869897088,-0.15788849469385668,0,0.15788849469385668,-0.0028420305109907095,0.0026140791671849252,0.07894424734692834,0.4,0.0334470272064209,0.7384786605834961,STABILIZE
0.02,0.0,0.0,-0.10468094188225174,-0.0027670171790194985,-0.0,0.0,-0.0027670171790194985,0.02,0.0,0.0,-0.10017530293803263,-0.0025229088500077594,-0.0,0.0,-0.0025229088500077594,0.5,0,0,-0.11048641290317343,-0.07652561020825022,-0.0,0.0,-0.07652561020825022,0.002,8e-05,0.0,-0.3079101425408165,-0.001384238988995529,-2.463281140326532e-05,-0.0,-0.0014088718003987942,-0.12614544250038798,0.0,0.12614544250038798,-0.13835085895097493,0.0,0.13835085895097493,-0.6921194944977644,0.0,0.6921194944977644,-0.15305122041650043,0,0.15305122041650043,-0.0027737466134104736,0.0025155084692821904,0.07652561020825022,0.4,0.037313222885131836,0.7757959365844727,STABILIZE
0.02,0.0,0.0,-0.10919187648076623,-0.0026982837912831194,-0.0,0.0,-0.0026982837912831194,0.02,0.0,0.0,-0.10414547268627086,-0.0023748171130305597,-0.0,0.0,-0.0023748171130305597,0.5,0,0,-0.11543255952908228,-0.07396531128158366,-0.0,0.0,-0.07396531128158366,0.002,8e-05,0.0,-0.33161507480335134,-0.001417946394490532,-2.6529205984268108e-05,-0.0,-0.0014444756004748,-0.11874085565152798,0.0,0.11874085565152798,-0.13491418956415596,0.0,0.13491418956415596,-0.708973197245266,0.0,0.708973197245266,-0.14793062256316733,0,0.14793062256316733,-0.002704406275305739,0.0023678425700901116,0.07396531128158366,0.4,0.03343558311462402,0.8092353343963623,STABILIZE
0.02,0.0,0.0,-0.11397350104070654,-0.0028604662499473596,-0.0,-0.0,-0.0028604662499473596,0.02,0.0,0.0,-0.10733820685269944,-0.0019099593064321966,-0.0,0.0,-0.0019099593064321966,0.5,0,0,-0.1203624585724506,-0.0737291774606562,-0.0,0.0,-0.0737291774606562,0.002,8e-05,0.0,-0.35582247395899025,-0.0014481364526991122,-2.846579791671922e-05,-0.0,-0.0014766022506158315,-0.09549796532160983,0.0,0.09549796532160983,-0.14302331249736797,0.0,0.14302331249736797,-0.724068226349556,0.0,0.724068226349556,-0.1474583549213124,0,0.1474583549213124,-0.0028653723070802837,0.0019025911965349467,0.0737291774606562,0.4,0.0334324836730957,0.8426721096038818,STABILIZE
0.02,0.0,0.0,-0.11837367286432225,-0.0026318792245793045,-0.0,0.0,-0.0026318792245793045,0.02,0.0,0.0,-0.10832735164196346,-0.0005916381735351496,-0.0,0.0,-0.0005916381735351496,0.5,0,0,-0.11975912992421411,0.009021739369159096,-0.0,0.0,0.009021739369159096,0.002,8e-05,0.0,-0.3817902723726178,-0.0015532145537155411,-3.054322178980943e-05,-0.0,-0.0015837577755053506,-0.029581908676757477,0.0,0.029581908676757477,-0.13159396122896522,0.0,0.13159396122896522,-0.7766072768577705,0.0,0.7766072768577705,0.018043478738318193,0,-0.018043478738318193,-0.002631692776499265,0.0005924669706217856,-0.009021739369159096,0.4,0.033437490463256836,0.8761067390441895,STABILIZE
0.02,0.0,0.0,-0.12240320081696052,-0.0024091206137685415,-0.0,0.0,-0.0024091206137685415,0.02,0.0,0.0,-0.11045007138888392,-0.0012691034681150159,-0.0,-0.0,-0.0012691034681150159,0.5,0,0,-0.11985028060803134,-0.0013623989827356523,-0.0,-0.0,-0.0013623989827356523,0.002,8e-05,0.0,-0.40831584729824216,-0.0015858758171299907,-3.266526778385938e-05,-0.0,-0.00161854108491385,-0.0634551734057508,0.0,0.0634551734057508,-0.12045603068842707,0.0,0.12045603068842707,-0.7929379085649954,0.0,0.7929379085649954,-0.0027247979654713046,0,0.0027247979654713046,-0.002409180965411999,0.0012689888968633982,0.0013623989827356523,0.4,0.03345227241516113,0.9095706939697266,STABILIZE
0.02,0.0,0.0,-0.1266482017399636,-0.00253754685014081,-0.0,-0.0,-0.00253754685014081,0.02,0.0,0.0,-0.11198051718936787,-0.0009148591462689004,-0.0,0.0,-0.0009148591462689004,0.5,0,0,-0.11935140780835918,0.007455316997513452,-0.0,0.0,0.007455316997513452,0.002,8e-05,0.0,-0.4353072387028031,-0.001613472446340657,-3.482457909622425e-05,-0.0,-0.0016482970254368813,-0.04574295731344502,0.0,0.04574295731344502,-0.1268773425070405,0.0,0.1268773425070405,-0.8067362231703286,0.0,0.8067362231703286,0.014910633995026904,0,-0.014910633995026904,-0.0025373086815860045,0.0009155194856035018,-0.007455316997513452,0.4,0.03345751762390137,0.9430263042449951,STABILIZE
0.02,0.0,0.0,-0.13066763244858526,-0.002403974746200847,-0.0,0.0,-0.002403974746200847,0.02,0.0,0.0,-0.11232658367495575,-0.00020697833901583634,-0.0,0.0,-0.00020697833901583634,0.5,0,0,-0.11974220776055527,-0.005843322624524659,-0.0,-0.0,-0.005843322624524659,0.002,8e-05,0.0,-0.4639291617702779,-0.0017118439209394447,-3.7114332941622233e-05,-0.0,-0.0017489582538810669,-0.010348916950791816,0.0,0.010348916950791816,-0.12019873731004235,0.0,0.12019873731004235,-0.8559219604697224,0.0,0.8559219604697224,-0.011686645249049318,0,0.011686645249049318,-0.0024040169136556326,0.00020648799493149496,0.005843322624524659,0.4,0.03343987464904785,0.9764814376831055,STABILIZE
0.02,0.0,0.0,-0.1343411791100097,-0.0021973718562748475,-0.0,0.0,-0.0021973718562748475,0.02,0.0,0.0,-0.11158186383253506,0.00044546226667776135,-0.0,0.0,0.00044546226667776135,0.5,0,0,-0.12139830231896027,-0.024765273925756958,-0.0,-0.0,-0.024765273925756958,0.002,8e-05,0.0,-0.492796395990979,-0.0017267249851800285,-3.9423711679278326e-05,-0.0,-0.0017661486968593067,0.022273113333888067,0.0,-0.022273113333888067,-0.10986859281374237,0.0,0.10986859281374237,-0.8633624925900142,0.0,0.8633624925900142,-0.049530547851513916,0,0.049530547851513916,-0.002196985945989847,-0.0004473616645462091,0.024765273925756958,0.4,0.033435821533203125,1.009902000427246,STABILIZE
0.02,0.0,0.0,-0.13732954409520015,-0.0017858293561930278,-0.0,0.0,-0.0017858293561930278,0.02,0.0,0.0,-0.11243122323311924,-0.0005075721871453671,-0.0,-0.0,-0.0005075721871453671,0.5,0,0,-0.12144335925270706,-0.0006731439715681568,-0.0,0.0,-0.0006731439715681568,0.002,8e-05,0.0,-0.5220227149391482,-0.0017465476476185824,-4.176181719513186e-05,-0.0,-0.0017883094648137143,-0.025378609357268357,0.0,0.025378609357268357,-0.08929146780965139,0.0,0.08929146780965139,-0.8732738238092912,0.0,0.8732738238092912,-0.0013462879431363137,0,0.0013462879431363137,-0.00178584128220355,0.0005075302250919802,0.0006731439715681568,0.4,0.03346753120422363,1.0434441566467285,STABILIZE
0.02,0.0,0.0,-0.14066005818317281,-0.0019906076281950426,-0.0,-0.0,-0.0019906076281950426,0.02,0.0,0.0,-0.11306686273436756,-0.00037991397320201513,-0.0,0.0,-0.00037991397320201513,0.5,0,0,-0.12155944247639515,-0.001734538155936978,-0.0,-0.0,-0.001734538155936978,0.002,8e-05,0.0,-0.5511931818143195,-0.0017434832084758753,-4.4095454545145566e-05,0.0,-0.0017875786630210209,-0.018995698660100757,0.0,0.018995698660100757,-0.09953038140975214,0.0,0.09953038140975214,-0.8717416042379377,0.0,0.8717416042379377,-0.003469076311873956,0,0.003469076311873956,-0.0019906306271230668,0.00037979344757652365,0.001734538155936978,0.4,0.0334622859954834,1.076857089996338,STABILIZE
0.02,0.0,0.0,-0.14359392091600312,-0.0017519736034285007,-0.0,0.0,-0.0017519736034285007,0.02,0.0,0.0,-0.11249308653853216,0.00034263387244756445,-0.0,0.0,0.00034263387244756445,0.5,0,0,-0.12196917622445028,-0.006116873695160026,-0.0,-0.0,-0.006116873695160026,0.002,8e-05,0.0,-0.5803893093200352,-0.0017434641416574105,-4.6431144745602816e-05,0.0,-0.0017898952864030134,0.017131693622378222,0.0,-0.017131693622378222,-0.08759868017142504,0.0,0.08759868017142504,-0.8717320708287053,0.0,0.8717320708287053,-0.012233747390320052,0,0.012233747390320052,-0.001751900404591754,-0.00034300794458715984,0.006116873695160026,0.4,0.033492088317871094,1.1103670597076416,STABILIZE
0.02,0.0,0.0,-0.14625646477085302,-0.00155053813554915,-0.0,0.0,-0.00155053813554915,0.02,0.0,0.0,-0.11296851311544563,-0.0002768656887341605,-0.0,-0.0,-0.0002768656887341605,0.5,0,0,-0.12170565488865688,0.0038365554048455618,-0.0,0.0,0.0038365554048455618,0.002,8e-05,0.0,-0.6106920523542619,-0.0017646867525103543,-4.885536418834096e-05,-0.0,-0.0018135421166986952,-0.013843284436708025,0.0,0.013843284436708025,-0.0775269067774575,0.0,0.0775269067774575,-0.8823433762551771,0.0,0.8823433762551771,0.0076731108096911235,0,-0.0076731108096911235,-0.0015505010435018767,0.0002770733359420686,-0.0038365554048455618,0.4,0.03434348106384277,1.1447117328643799,STABILIZE
0.02,0.0,0.0,-0.14849240228813862,-0.001329600146383459,-0.0,0.0,-0.001329600146383459,0.02,0.0,0.0,-0.11250071756921559,0.000278174601005875,-0.0,0.0,0.000278174601005875,0.5,0,0,-0.12233350900205554,-0.009333835523451333,-0.0,-0.0,-0.009333835523451333,0.002,8e-05,0.0,-0.6402150996064603,-0.0017555878750968937,-5.1217207968516826e-05,0.0,-0.0018068050830654105,0.013908730050293751,0.0,-0.013908730050293751,-0.06648000731917295,0.0,0.06648000731917295,-0.8777939375484468,0.0,0.8777939375484468,-0.018667671046902666,0,0.018667671046902666,-0.0013295094431010177,-0.00027860778634653297,0.009333835523451333,0.4,0.03363323211669922,1.1783230304718018,STABILIZE
0.02,0.0,0.0,-0.15054415232082732,-0.0012222651520230525,-0.0,0.0,-0.0012222651520230525,0.02,0.0,0.0,-0.11171308987528857,0.0004692042732874928,-0.0,0.0,0.0004692042732874928,0.5,0,0,-0.1228895603501722,-0.008281249844161093,-0.0,0.0,-0.008281249844161093,0.002,8e-05,0.0,-0.6698669776001914,-0.0017664167947536598,-5.358935820801532e-05,-0.0,-0.001820006152961675,0.02346021366437464,0.0,-0.02346021366437464,-0.061113257601152625,0.0,0.061113257601152625,-0.8832083973768299,0.0,0.8832083973768299,-0.016562499688322185,0,0.016562499688322185,-0.0012221294680071933,-0.00046955757405203746,0.008281249844161093,0.4,0.03357291221618652,1.211902379989624,STABILIZE
0.02,0.0,0.0,-0.15261645593941897,-0.0012388112476196097,-0.0,-0.0,-0.0012388112476196097,0.02,0.0,0.0,-0.11155404448410093,9.507642495899999e-05,-0.0,-0.0,9.507642495899999e-05,0.5,0,0,-0.12232650537338376,0.008414776097671571,-0.0,0.0,0.008414776097671571,0.002,8e-05,0.0,-0.6998547105865175,-0.0017926495220483636,-5.5988376846921405e-05,-0.0,-0.001848637898895285,0.004753821247949999,0.0,-0.004753821247949999,-0.06194056238098049,0.0,0.06194056238098049,-0.8963247610241818,0.0,0.8963247610241818,0.016829552195343142,0,-0.016829552195343142,-0.0012388391210808008,-9.471254347544208e-05,-0.008414776097671571,0.4,0.03345632553100586,1.2453804016113281,STABILIZE
0.02,0.0,0.0,-0.154722511712867,-0.0012595535750406248,-0.0,-0.0,-0.0012595535750406248,0.02,0.0,0.0,-0.11203418976341278,-0.00028715702153794554,-0.0,-0.0,-0.00028715702153794554,0.5,0,0,-0.12064220325063245,0.025182960334030703,-0.0,0.0,0.025182960334030703,0.002,8e-05,0.0,-0.7302538176016282,-0.0018180574513579028,-5.842030540813026e-05,-0.0,-0.001876477756766033,-0.014357851076897276,0.0,0.014357851076897276,-0.06297767875203124,0.0,0.06297767875203124,-0.9090287256789513,0.0,0.9090287256789513,0.050365920668061406,0,-0.050365920668061406,-0.0012593006627161746,0.0002882641224619642,-0.025182960334030703,0.4,0.03344130516052246,1.2788703441619873,STABILIZE
0.02,0.0,0.0,-0.1562662107144706,-0.0009236306040173565,-0.0,0.0,-0.0009236306040173565,0.02,0.0,0.0,-0.11258393511552404,-0.00032892528342558534,-0.0,-0.0,-0.00032892528342558534,0.5,0,0,-0.12013719994617476,0.007553877191124644,-0.0,-0.0,0.007553877191124644,0.002,8e-05,0.0,-0.7605940963410435,-0.0018153286326563736,-6.0847527707283485e-05,0.0,-0.001876176160363657,-0.016446264171279267,0.0,0.016446264171279267,-0.04618153020086782,0.0,0.04618153020086782,-0.9076643163281868,0.0,0.9076643163281868,0.015107754382249289,0,-0.015107754382249289,-0.0009235438408723144,0.0003291688149580421,-0.007553877191124644,0.4,0.033426761627197266,1.312230110168457,STABILIZE
0.02,0.0,0.0,-0.15761189883813223,-0.0008045077261627634,-0.0,0.0,-0.0008045077261627634,0.02,0.0,0.0,-0.11297475988093213,-0.00023365112451985884,-0.0,0.0,-0.00023365112451985884,0.5,0,0,-0.1193368845793565,0.011961536344322867,-0.0,0.0,0.011961536344322867,0.002,8e-05,0.0,-0.7911282156403405,-0.0018254552786732573,-6.329025725122725e-05,-0.0,-0.0018887455359244845,-0.011682556225992942,0.0,0.011682556225992942,-0.04022538630813817,0.0,0.04022538630813817,-0.9127276393366287,0.0,0.9127276393366287,0.023923072688645734,0,-0.023923072688645734,-0.0008044100981919889,0.00023398701539130163,-0.011961536344322867,0.4,0.03345370292663574,1.3457186222076416,STABILIZE
0.02,0.0,0.0,-0.1586244801981606,-0.0006014961440467511,-0.0,0.0,-0.0006014961440467511,0.02,0.0,0.0,-0.11394963721579583,-0.0005790991035255212,-0.0,-0.0,-0.0005790991035255212,0.5,0,0,-0.11863834745013965,0.010373669867022827,-0.0,-0.0,0.010373669867022827,0.002,8e-05,0.0,-0.8228449463750935,-0.0018840452719955487,-6.582759571000749e-05,-0.0,-0.0019498728677055561,-0.02895495517627606,0.0,0.02895495517627606,-0.030074807202337555,0.0,0.030074807202337555,-0.9420226359977744,0.0,0.9420226359977744,0.020747339734045654,0,-0.020747339734045654,-0.0006012864073935083,0.0005793168729555355,-0.010373669867022827,0.4,0.03366875648498535,1.379570722579956,STABILIZE
0.02,0.0,0.0,-0.15942612778749343,-0.00047953815300663585,-0.0,0.0,-0.00047953815300663585,0.02,0.0,0.0,-0.11440998030036487,-0.0002753729637075769,-0.0,0.0,-0.0002753729637075769,0.5,0,0,-0.11786631357596306,0.011545587581362444,-0.0,0.0,0.011545587581362444,0.002,8e-05,0.0,-0.8552704340384186,-0.0019396625987925125,-6.84216347230735e-05,-0.0,-0.002008084233515586,-0.013768648185378846,0.0,0.013768648185378846,-0.02397690765033179,0.0,0.02397690765033179,-0.9698312993962562,0.0,0.9698312993962562,0.023091175162724888,0,-0.023091175162724888,-0.0004794271340704104,0.0002755662033834027,-0.011545587581362444,0.4,0.033434152603149414,1.412816047668457,STABILIZE
0.02,0.0,0.0,-0.15991999371386503,-0.000295358618392914,-0.0,0.0,-0.000295358618392914,0.02,0.0,0.0,-0.11434759705350922,3.730856618822932e-05,-0.0,0.0,3.730856618822932e-05,0.5,0,0,-0.1174640388770076,0.006014552379166806,-0.0,-0.0,0.006014552379166806,0.002,8e-05,0.0,-0.8875966979196036,-0.0019332859644517124,-7.100773583356829e-05,0.0,-0.0020042937002852806,0.0018654283094114658,0.0,-0.0018654283094114658,-0.0147679309196457,0.0,0.0147679309196457,-0.9666429822258562,0.0,0.9666429822258562,0.012029104758333612,0,-0.012029104758333612,-0.00029536644472306244,-3.7246555567603466e-05,-0.006014552379166806,0.4,0.033441781997680664,1.4462649822235107,STABILIZE
0.02,0.0,0.0,-0.16034890679242597,-0.00025313669176851676,-0.0,0.0,-0.00025313669176851676,0.02,0.0,0.0,-0.11492611533694078,-0.00034143096052655526,-0.0,-0.0,-0.00034143096052655526,0.5,0,0,-0.11713462629669844,0.004860332720918773,-0.0,-0.0,0.004860332720918773,0.002,8e-05,0.0,-0.9201900210756486,-0.0019235986053736155,-7.36152016860519e-05,0.0,-0.001997213807059667,-0.017071548026327762,0.0,0.017071548026327762,-0.012656834588425838,0.0,0.012656834588425838,-0.9617993026868077,0.0,0.9617993026868077,0.009720665441837546,0,-0.009720665441837546,-0.0002530787617624036,0.0003414739021805382,-0.004860332720918773,0.4,0.03388786315917969,1.4801230430603027,STABILIZE
0.02,0.0,0.0,-0.160722361683626,-0.0002231362983510798,-0.0,0.0,-0.0002231362983510798,0.02,0.0,0.0,-0.11611444533444125,-0.0007100176302679184,-0.0,-0.0,-0.0007100176302679184,0.5,0,0,-0.11688647180990822,0.0037067578244626377,-0.0,-0.0,0.0037067578244626377,0.002,8e-05,0.0,-0.9520711122584999,-0.0019048695951138282,-7.616568898068e-05,0.0,-0.0019810352840945082,-0.03550088151339592,0.0,0.03550088151339592,-0.011156814917553989,0.0,0.011156814917553989,-0.9524347975569141,0.0,0.9524347975569141,0.007413515648925275,0,-0.007413515648925275,-0.00022304442711966777,0.0007100464959873768,-0.0037067578244626377,0.4,0.03347325325012207,1.5136094093322754,STABILIZE
0.02,0.0,0.0,-0.16086106415171306,-8.055613790293043e-05,-0.0,0.0,-8.055613790293043e-05,0.02,0.0,0.0,-0.11656092432961586,-0.0002593077398123487,-0.0,0.0,-0.0002593077398123487,0.5,0,0,-0.11657658755410498,0.004499393411796764,-0.0,0.0,0.004499393411796764,0.002,8e-05,0.0,-0.9844746340959315,-0.0018819438541198413,-7.875797072767453e-05,0.0,-0.001960701824847516,-0.012965386990617436,0.0,0.012965386990617436,-0.004027806895146521,0.0,0.004027806895146521,-0.9409719270599206,0.0,0.9409719270599206,0.008998786823593528,0,-0.008998786823593528,-8.051541043558563e-05,0.00025932038863694056,-0.004499393411796764,0.4,0.03443622589111328,1.548123836517334,STABILIZE
0.02,0.0,0.0,-0.16102069704688673,-9.541675204265639e-05,-0.0,-0.0,-9.541675204265639e-05,0.02,0.0,0.0,-0.11735038612963072,-0.0004718819434879833,-0.0,-0.0,-0.0004718819434879833,0.5,0,0,-0.11614524164480776,0.0064456679851682165,-0.0,0.0,0.0064456679851682165,0.002,8e-05,0.0,-1.0155492862734883,-0.001857413146840361,-8.124394290187907e-05,0.0,-0.0019386570897422402,-0.023594097174399163,0.0,0.023594097174399163,-0.004770837602132819,0.0,0.004770837602132819,-0.9287065734201805,0.0,0.9287065734201805,0.012891335970336433,0,-0.012891335970336433,-9.53105779570524e-05,0.0004719033999558158,-0.0064456679851682165,0.4,0.033460140228271484,1.5815258026123047,STABILIZE
0.02,0.0,0.0,-0.160784142699257,0.00014111919646139288,-0.0,0.0,0.00014111919646139288,0.02,0.0,0.0,-0.11831706852816969,-0.0005766854199979491,-0.0,-0.0,-0.0005766854199979491,0.5,0,0,-0.11608420621958197,0.000910284491687321,-0.0,-0.0,0.000910284491687321,0.002,8e-05,0.0,-1.0463905587576319,-0.001839871316853459,-8.371124470061056e-05,0.0,-0.0019235825615540694,-0.028834270999897455,0.0,0.028834270999897455,0.007055959823069643,0.0,-0.007055959823069643,-0.9199356584267294,0.0,0.9199356584267294,0.001820568983374642,0,-0.001820568983374642,0.00014113752052497656,0.0005766809356552217,-0.000910284491687321,0.4,0.03352546691894531,1.615037202835083,STABILIZE
0.02,0.0,0.0,-0.16031258600351644,0.00027934186418442504,-0.0,0.0,0.00027934186418442504,0.02,0.0,0.0,-0.11961694573291701,-0.0007700243149229607,-0.0,-0.0,-0.0007700243149229607,0.5,0,0,-0.11585892368692778,0.0033363349098976943,-0.0,0.0,0.0033363349098976943,0.002,8e-05,0.0,-1.077617734222817,-0.001849842762588665,-8.620941873782537e-05,-0.0,-0.0019360521813264902,-0.03850121574614803,0.0,0.03850121574614803,0.013967093209221251,0.0,-0.013967093209221251,-0.9249213812943324,0.0,0.9249213812943324,0.006672669819795389,0,-0.006672669819795389,0.00027943153936644594,0.0007699917775313598,-0.0033363349098976943,0.4,0.03376197814941406,1.6488187313079834,STABILIZE
0.02,0.0,0.0,-0.15963228680609187,0.00034835996593227217,-0.0,0.0,0.00034835996593227217,0.02,0.0,0.0,-0.12166461078670357,-0.0010485453034168666,-0.0,-0.0,-0.0010485453034168666,0.5,0,0,-0.11500872599752258,0.010883991897907994,-0.0,0.0,0.010883991897907994,0.002,8e-05,0.0,-1.1138068426613688,-0.0018531311855870735,-8.910454741290951e-05,-0.0,-0.001942235732999983,-0.052427265170843326,0.0,0.052427265170843326,0.01741799829661361,0.0,-0.01741799829661361,-0.9265655927935368,0.0,0.9265655927935368,0.021767983795815987,0,-0.021767983795815987,0.000348758307246815,0.0010484128777863417,-0.010883991897907994,0.4,0.039057254791259766,1.6878604888916016,STABILIZE
0.02,0.0,0.0,-0.1607490435398531,-0.000667343491920614,-0.0,-0.0,-0.000667343491920614,0.02,0.0,0.0,-0.1246108768556421,-0.0017606085794088977,-0.0,-0.0,-0.0017606085794088977,0.5,0,0,-0.1113480293335725,0.054688322459333034,-0.0,0.0,0.054688322459333034,0.002,8e-05,0.0,-1.1449415503742875,-0.0018605255680965117,-9.159532402994301e-05,-0.0,-0.0019521208921264546,-0.08803042897044489,0.0,0.08803042897044489,-0.033367174596030696,0.0,0.033367174596030696,-0.9302627840482558,0.0,0.9302627840482558,0.10937664491866607,0,-0.10937664491866607,-0.0006639813068850703,0.0017618793177185006,-0.054688322459333034,0.4,0.03346872329711914,1.7213366031646729,STABILIZE
0.02,0.0,0.0,-0.16117270540971157,-0.00025336917099459254,-0.0,0.0,-0.00025336917099459254,0.02,0.0,0.0,-0.12702797321103443,-0.0014455341472773312,-0.0,0.0,-0.0014455341472773312,0.5,0,0,-0.1094140543108254,0.02891513746571986,-0.0,-0.0,0.02891513746571986,0.002,8e-05,0.0,-1.17628257180014,-0.0018743363945979996,-9.41026057440112e-05,-0.0,-0.001968439000342011,-0.07227670736386656,0.0,0.07227670736386656,-0.012668458549729627,0.0,0.012668458549729627,-0.9371681972989998,0.0,0.9371681972989998,0.05783027493143972,0,-0.05783027493143972,-0.00025191002307437346,0.0014457891436962572,-0.02891513746571986,0.4,0.03344225883483887,1.75477933883667,STABILIZE
0.02,0.0,0.0,-0.1609068314502239,0.00015581989070031694,-0.0,0.0,0.00015581989070031694,0.02,0.0,0.0,-0.1289312608128431,-0.0011154536031154699,-0.0,0.0,-0.0011154536031154699,0.5,0,0,-0.10921157124931884,0.002966714808533392,-0.0,-0.0,0.002966714808533392,0.002,8e-05,0.0,-1.2083327002646016,-0.0018783515030531537,-9.666661602116813e-05,-0.0,-0.001975018119074322,-0.055772680155773496,0.0,0.055772680155773496,0.007790994535015847,0.0,-0.007790994535015847,-0.9391757515265768,0.0,0.9391757515265768,0.005933429617066784,0,-0.005933429617066784,0.0001559354038780339,0.0011154374607563336,-0.002966714808533392,0.4,0.03412580490112305,1.7889008522033691,STABILIZE
0.02,0.0,0.0,-0.16068684610465542,0.00013158287197446674,-0.0,-0.0,0.00013158287197446674,0.02,0.0,0.0,-0.13130713979028924,-0.0014211172953735418,-0.0,-0.0,-0.0014211172953735418,0.5,0,0,-0.10820857563139692,0.014998390420382809,-0.0,0.0,0.014998390420382809,0.002,8e-05,0.0,-1.2402190986709498,-0.0019072651718624676,-9.921752789367599e-05,-0.0,-0.0020064826997561436,-0.07105586476867709,0.0,0.07105586476867709,0.006579143598723337,0.0,-0.006579143598723337,-0.9536325859312338,0.0,0.9536325859312338,0.029996780840765618,0,-0.029996780840765618,0.00013232686933772,0.001421048211377129,-0.014998390420382809,0.4,0.03343677520751953,1.8223440647125244,STABILIZE
0.02,0.0,0.0,-0.15996696837893137,0.0004304584208822314,-0.0,0.0,0.0004304584208822314,0.02,0.0,0.0,-0.13484549162371895,-0.0021157945138696394,-0.0,-0.0,-0.0021157945138696394,0.5,0,0,-0.10775343426535397,0.006803913591991492,-0.0,-0.0,0.006803913591991492,0.002,8e-05,0.0,-1.2725027793865624,-0.0019304364789355594,-0.000101800222350925,-0.0,-0.0020322367012864844,-0.10578972569348197,0.0,0.10578972569348197,0.02152292104411157,0.0,-0.02152292104411157,-0.9652182394677796,0.0,0.9652182394677796,0.013607827183982985,0,-0.013607827183982985,0.000430960912871712,0.002115692219725277,-0.006803913591991492,0.4,0.0334470272064209,1.8558275699615479,STABILIZE
0.02,0.0,0.0,-0.15804513663555547,0.0011241540434514367,-0.0,0.0,0.0011241540434514367,0.02,0.0,0.0,-0.13877228160579563,-0.002296932003205373,-0.0,-0.0,-0.002296932003205373,0.5,0,0,-0.10807957658442373,-0.004769332799119849,-0.0,-0.0,-0.004769332799119849,0.002,8e-05,0.0,-1.305539488220418,-0.0019324454362830538,-0.00010444315905763345,-0.0,-0.002036888595340687,-0.11484660016026864,0.0,0.11484660016026864,0.05620770217257184,0.0,-0.05620770217257184,-0.9662227181415269,0.0,0.9662227181415269,-0.009538665598239697,0,0.009538665598239697,0.0011237716320600896,0.002297119121798925,0.004769332799119849,0.4,0.03419160842895508,1.8899908065795898,STABILIZE
0.02,0.0,0.0,-0.1550777970875753,0.0017732394137775817,-0.0,0.0,0.0017732394137775817,0.02,0.0,0.0,-0.14428322851703276,-0.00329326257148203,-0.0,-0.0,-0.00329326257148203,0.5,0,0,-0.10642115679500011,0.024776195036361953,-0.0,0.0,0.024776195036361953,0.002,8e-05,0.0,-1.3358516620419825,-0.001811411888277582,-0.0001068681329633586,0.0,-0.0019182800212409407,-0.1646631285741015,0.0,0.1646631285741015,0.08866197068887909,0.0,-0.08866197068887909,-0.905705944138791,0.0,0.905705944138791,0.049552390072723905,0,-0.049552390072723905,0.0017760869361617315,0.0032917277497530573,-0.024776195036361953,0.4,0.033468008041381836,1.9234950542449951,STABILIZE
0.02,0.0,0.0,-0.1523353394631571,0.0016391568139320863,-0.0,-0.0,0.0016391568139320863,0.02,0.0,0.0,-0.14805320760153562,-0.0022533026033739714,-0.0,0.0,-0.0022533026033739714,0.5,0,0,-0.1056136009927219,0.012066828163074408,-0.0,-0.0,0.012066828163074408,0.002,8e-05,0.0,-1.3660927630361628,-0.0018074994601214732,-0.00010928742104289303,0.0,-0.0019167868811643663,-0.11266513016869857,0.0,0.11266513016869857,0.08195784069660432,0.0,-0.08195784069660432,-0.9037497300607366,0.0,0.9037497300607366,0.024133656326148816,0,-0.024133656326148816,0.0016401057860580773,0.0022526119713725044,-0.012066828163074408,0.4,0.033461809158325195,1.9569308757781982,STABILIZE
0.02,0.0,0.0,-0.14972284739663247,0.0015625122525371495,-0.0,-0.0,0.0015625122525371495,0.02,0.0,0.0,-0.15158039799400913,-0.002109586580526062,-0.0,0.0,-0.002109586580526062,0.5,0,0,-0.10599068939080562,-0.005638344799638343,-0.0,-0.0,-0.005638344799638343,0.002,8e-05,0.0,-1.3953019362324421,-0.0017469791235148204,-0.00011162415489859538,0.0,-0.0018586032784134157,-0.10547932902630308,0.0,0.10547932902630308,0.07812561262685747,0.0,-0.07812561262685747,-0.8734895617574102,0.0,0.8734895617574102,-0.011276689599276687,0,0.011276689599276687,0.001562097023229861,0.0021098940660802777,0.005638344799638343,0.4,0.03343963623046875,1.990370512008667,STABILIZE
0.02,0.0,0.0,-0.14710115620380246,0.0015678576825909547,-0.0,0.0,0.0015678576825909547,0.02,0.0,0.0,-0.15643358376626057,-0.002902364938660764,-0.0,-0.0,-0.002902364938660764,0.5,0,0,-0.10506768513643182,0.013799673615659404,-0.0,0.0,0.013799673615659404,0.002,8e-05,0.0,-1.424021877505509,-0.0017175470815055083,-0.00011392175020044072,0.0,-0.001831468831705949,-0.14511824693303818,0.0,0.14511824693303818,0.07839288412954773,0.0,-0.07839288412954773,-0.8587735407527541,0.0,0.8587735407527541,0.027599347231318808,0,-0.027599347231318808,0.0015692555683218703,0.0029016093657343992,-0.013799673615659404,0.4,0.03344297409057617,2.0238144397735596,STABILIZE
0.02,0.0,0.0,-0.1455749018519543,0.0009125031691670049,-0.0,-0.0,0.0009125031691670049,0.02,0.0,0.0,-0.16070736997775975,-0.0025551727060518026,-0.0,0.0,-0.0025551727060518026,0.5,0,0,-0.1037680534853448,0.01942530088334536,-0.0,0.0,0.01942530088334536,0.002,8e-05,0.0,-1.4543158094596924,-0.0018111862469874852,-0.00011634526475677541,-0.0,-0.0019275315117442606,-0.12775863530259013,0.0,0.12775863530259013,0.045625158458350246,0.0,-0.045625158458350246,-0.9055931234937425,0.0,0.9055931234937425,0.03885060176669072,0,-0.03885060176669072,0.0009142355475592363,0.0025545533768294966,-0.01942530088334536,0.4,0.03345203399658203,2.057358980178833,STABILIZE
0.02,0.0,0.0,-0.1438090183116523,0.001042757220115977,-0.0,0.0,0.001042757220115977,0.02,0.0,0.0,-0.16399419137136226,-0.0019408735973746977,-0.0,0.0,-0.0019408735973746977,0.5,0,0,-0.10324282138090582,0.00775376117168523,-0.0,-0.0,0.00775376117168523,0.002,8e-05,0.0,-1.4844231191991508,-0.0017778417371577925,-0.00011875384953593207,0.0,-0.0018965955866937247,-0.09704367986873488,0.0,0.09704367986873488,0.05213786100579885,0.0,-0.05213786100579885,-0.8889208685788963,0.0,0.8889208685788963,0.01550752234337046,0,-0.01550752234337046,0.001043282493569313,0.0019405912964099363,-0.00775376117168523,0.4,0.03386950492858887,2.091139793395996,STABILIZE
0.02,0.0,0.0,-0.14461655503730825,-0.0004814439559025484,-0.0,-0.0,-0.0004814439559025484,0.02,0.0,0.0,-0.16839898658136682,-0.002626087413080368,-0.0,-0.0,-0.002626087413080368,0.5,0,0,-0.10101527213437209,0.033200970530096685,-0.0,0.0,0.033200970530096685,0.002,8e-05,0.0,-1.5136211120333682,-0.0017407502009399794,-0.00012108968896266947,0.0,-0.0018618398899026489,-0.1313043706540184,0.0,0.1313043706540184,-0.02407219779512742,0.0,0.02407219779512742,-0.8703751004699897,0.0,0.8703751004699897,0.06640194106019337,0,-0.06640194106019337,-0.00047840017521022656,0.0026266436104224453,-0.033200970530096685,0.4,0.03354644775390625,2.1246933937072754,STABILIZE
0.02,0.0,0.0,-0.1454488709291778,-0.00046648483009941935,-0.0,0.0,-0.00046648483009941935,0.02,0.0,0.0,-0.17232131778425383,-0.002198333616654254,-0.0,0.0,-0.002198333616654254,0.5,0,0,-0.09937724271952678,0.022951498365770907,-0.0,-0.0,0.022951498365770907,0.002,8e-05,0.0,-1.5441774023469066,-0.0017125764429851296,-0.00012353419218775254,0.0,-0.0018361106351728821,-0.1099166808327127,0.0,0.1099166808327127,-0.023324241504970967,0.0,0.023324241504970967,-0.8562882214925648,0.0,0.8562882214925648,0.045902996731541815,0,-0.045902996731541815,-0.0004647234670722336,0.0021987066393626543,-0.022951498365770907,0.4,0.03568458557128906,2.160407543182373,STABILIZE
0.02,0.0,0.0,-0.14455023843076295,0.0005369983733393329,-0.0,0.0,0.0005369983733393329,0.02,0.0,0.0,-0.1773038165179913,-0.0029774059138768173,-0.0,-0.0,-0.0029774059138768173,0.5,0,0,-0.09682083203948896,0.03819103969612518,-0.0,0.0,0.03819103969612518,0.002,8e-05,0.0,-1.5731265602244113,-0.0017299230460934062,-0.00012585012481795293,-0.0,-0.001855773170911359,-0.14887029569384086,0.0,0.14887029569384086,0.026849918666966646,0.0,-0.026849918666966646,-0.864961523046703,0.0,0.864961523046703,0.07638207939225036,0,-0.07638207939225036,0.0005409671307097665,0.002976687385744324,-0.03819103969612518,0.4,0.03346872329711914,2.1938538551330566,STABILIZE
0.02,0.0,0.0,-0.14203996746683112,0.001501438794310615,-0.0,0.0,0.001501438794310615,0.02,0.0,0.0,-0.1834246572506247,-0.0036609863484131522,-0.0,-0.0,-0.0036609863484131522,0.5,0,0,-0.0933622118755891,0.05171659318333635,-0.0,0.0,0.05171659318333635,0.002,8e-05,0.0,-1.6019421319568925,-0.0017235118399976208,-0.00012815537055655142,0.0,-0.0018516672105541722,-0.1830493174206576,0.0,0.1830493174206576,0.07507193971553075,0.0,-0.07507193971553075,-0.8617559199988104,0.0,0.8617559199988104,0.1034331863666727,0,-0.1034331863666727,0.0015080453385355173,0.003658269912574751,-0.05171659318333635,0.4,0.03343820571899414,2.2273077964782715,STABILIZE
0.02,0.0,0.0,-0.1397142132667248,0.0013088230752593016,-0.0,-0.0,0.0013088230752593016,0.02,0.0,0.0,-0.19176825480356663,-0.004695377098520704,-0.0,-0.0,-0.004695377098520704,0.5,0,0,-0.08769073308722798,0.07979091587485312,-0.0,0.0,0.07979091587485312,0.002,8e-05,0.0,-1.6328504154887757,-0.0017393701665178922,-0.00013062803323910207,-0.0,-0.0018699981997569943,-0.2347688549260352,0.0,0.2347688549260352,0.06544115376296508,0.0,-0.06544115376296508,-0.8696850832589461,0.0,0.8696850832589461,0.15958183174970625,0,-0.15958183174970625,0.0013218956793569759,0.004691713519871101,-0.07979091587485312,0.4,0.03553962707519531,2.2628679275512695,STABILIZE
0.02,0.0,0.0,-0.13140030865384406,0.004973300631580896,-0.0,0.0,0.004973300631580896,0.02,0.0,0.0,-0.2054122547197076,-0.00816171420767861,-0.0,-0.0,-0.00816171420767861,0.5,0,0,-0.08955469610135304,-0.02787513469011132,-0.0,-0.0,-0.02787513469011132,0.002,8e-05,0.0,-1.6631334169547785,-0.0018115010615313237,-0.0001330506733563823,-0.0,-0.0019445517348877061,-0.4080857103839305,0.0,0.4080857103839305,0.2486650315790448,0.0,-0.2486650315790448,-0.9057505307656618,0.0,0.9057505307656618,-0.05575026938022264,0,0.05575026938022264,0.004965356720359385,0.008166549492869537,0.02787513469011132,0.4,0.033434152603149414,2.2963037490844727,STABILIZE
0.02,0.0,0.0,-0.12170631257975455,0.005795800139627805,-0.0,0.0,0.005795800139627805,0.02,0.0,0.0,-0.22554393753807575,-0.012036234510297113,-0.0,-0.0,-0.012036234510297113,0.5,0,0,-0.0959966079114747,-0.09628648774772652,-0.0,-0.0,-0.09628648774772652,0.002,8e-05,0.0,-1.6915536934953792,-0.0016991779394520275,-0.00013532429547963035,0.0,-0.001834502234931658,-0.6018117255148556,0.0,0.6018117255148556,0.28979000698139024,0.0,-0.28979000698139024,-0.8495889697260137,0.0,0.8495889697260137,-0.19257297549545305,0,0.19257297549545305,0.005755313304543127,0.012055646362262197,0.09628648774772652,0.4,0.03345179557800293,2.329737424850464,STABILIZE
0.02,0.0,0.0,-0.11284188683175647,0.005214526636727584,-0.0,-0.0,0.005214526636727584,0.02,0.0,0.0,-0.2459595329874836,-0.012009538948378442,-0.0,0.0,-0.012009538948378442,0.5,0,0,-0.09465030992871211,0.01979910174574355,-0.0,0.0,0.01979910174574355,0.002,8e-05,0.0,-1.7181762824685902,-0.0015660822628111117,-0.00013745410259748722,0.0,-0.001703536365408599,-0.6004769474189221,0.0,0.6004769474189221,0.2607263318363792,0.0,-0.2607263318363792,-0.7830411314055559,0.0,0.7830411314055559,0.0395982034914871,0,-0.0395982034914871,0.0052228254116136194,0.012005932221929427,-0.01979910174574355,0.4,0.033998966217041016,2.3637568950653076,STABILIZE
0.02,0.0,0.0,-0.1051561054063467,0.004593108702879111,-0.0,-0.0,0.004593108702879111,0.02,0.0,0.0,-0.26592290190369455,-0.011930331924960527,-0.0,0.0,-0.011930331924960527,0.5,0,0,-0.08533253134797646,0.13921021013291357,-0.0,0.0,0.13921021013291357,0.002,8e-05,0.0,-1.7421003021861083,-0.001429726101878126,-0.0001393680241748887,0.0,-0.0015690941260530146,-0.5965165962480263,0.0,0.5965165962480263,0.22965543514395553,0.0,-0.22965543514395553,-0.714863050939063,0.0,0.714863050939063,0.27842042026582714,0,-0.27842042026582714,0.004651027940262263,0.011907871619021427,-0.13921021013291357,0.4,0.03346657752990723,2.3972015380859375,STABILIZE
0.02,0.0,0.0,-0.09943415594309554,0.0034203780324673734,-0.0,-0.0,0.0034203780324673734,0.02,0.0,0.0,-0.28174581664081194,-0.00945837608738508,-0.0,0.0,-0.00945837608738508,0.5,0,0,-0.0662736783399997,0.284817624531539,-0.0,0.0,0.284817624531539,0.002,8e-05,0.0,-1.7721575242861263,-0.0017967139145175198,-0.00014177260194289012,-0.0,-0.00193848651646041,-0.47291880436925393,0.0,0.47291880436925393,0.17101890162336866,0.0,-0.17101890162336866,-0.8983569572587599,0.0,0.8983569572587599,0.569635249063078,0,-0.569635249063078,0.003514242719158121,0.009423903766818047,-0.284817624531539,0.4,0.03345799446105957,2.4306657314300537,STABILIZE
0.02,0.0,0.0,-0.0936752093305624,0.0034449484518956574,-0.0,0.0,0.0034449484518956574,0.02,0.0,0.0,-0.29410931365563975,-0.0073957292482198025,-0.0,0.0,-0.0073957292482198025,0.5,0,0,-0.052206658403435816,0.21036902151422857,-0.0,-0.0,0.21036902151422857,0.002,8e-05,0.0,-1.8028829725649507,-0.0018379678195241732,-0.00014423063780519607,-0.0,-0.0019821984573293694,-0.3697864624109901,0.0,0.3697864624109901,0.17224742259478287,0.0,-0.17224742259478287,-0.9189839097620865,0.0,0.9189839097620865,0.42073804302845713,0,-0.42073804302845713,0.0034991638757118733,0.0073702329081315465,-0.21036902151422857,0.4,0.033434152603149414,2.4641201496124268,STABILIZE
0.02,0.0,0.0,-0.08789849973952187,0.0034525212343580625,-0.0,0.0,0.0034525212343580625,0.02,0.0,0.0,-0.3096880833489334,-0.009310842500147527,-0.0,-0.0,-0.009310842500147527,0.5,0,0,-0.03914760840019599,0.19512252921047335,-0.0,-0.0,0.19512252921047335,0.002,8e-05,0.0,-1.8329743930192988,-0.001798450596370031,-0.0001466379514415439,0.0,-0.001945088547811575,-0.46554212500737635,0.0,0.46554212500737635,0.17262606171790312,0.0,-0.17262606171790312,-0.8992252981850155,0.0,0.8992252981850155,0.3902450584209467,0,-0.3902450584209467,0.00351585737987053,0.009287111381945235,-0.19512252921047335,0.4,0.03346371650695801,2.4976041316986084,STABILIZE
0.02,0.0,0.0,-0.08048498131584989,0.004436912734242425,-0.0,0.0,0.004436912734242425,0.02,0.0,0.0,-0.3252273175894044,-0.009300068110948618,-0.0,0.0,-0.009300068110948618,0.5,0,0,-0.025026567493866878,0.2112823582456847,-0.0,0.0,0.2112823582456847,0.002,8e-05,0.0,-1.8642106166909644,-0.001869455104285189,-0.00014913684933527717,-0.0,-0.002018591953620466,-0.46500340554743086,0.0,0.46500340554743086,0.22184563671212126,0.0,-0.22184563671212126,-0.9347275521425944,0.0,0.9347275521425944,0.4225647164913694,0,-0.4225647164913694,0.00450538080146353,0.009267092603042761,-0.2112823582456847,0.4,0.033417463302612305,2.5310091972351074,STABILIZE
0.02,0.0,0.0,-0.07289143628011956,0.004542161482821427,-0.0,0.0,0.004542161482821427,0.02,0.0,0.0,-0.34003958518953575,-0.008860118831189603,-0.0,0.0,-0.008860118831189603,0.5,0,0,-0.012832857696391118,0.18234500063602313,-0.0,-0.0,0.18234500063602313,0.002,8e-05,0.0,-1.8966009493399554,-0.0019374629462491886,-0.00015172807594719643,-0.0,-0.002089191022196385,-0.44300594155948014,0.0,0.44300594155948014,0.22710807414107134,0.0,-0.22710807414107134,-0.9687314731245943,0.0,0.9687314731245943,0.36469000127204626,0,-0.36469000127204626,0.004598464114368073,0.008831028503390542,-0.18234500063602313,0.4,0.033435821533203125,2.5644428730010986,STABILIZE
0.02,0.0,0.0,-0.06595769463730201,0.0041453055728489265,-0.0,-0.0,0.0041453055728489265,0.02,0.0,0.0,-0.3520708278790125,-0.007192823144866947,-0.0,0.0,-0.007192823144866947,0.5,0,0,-0.004627955070880966,0.12263158309857795,-0.0,-0.0,0.12263158309857795,0.002,8e-05,0.0,-1.9288853626766813,-0.0019301088130319612,-0.00015431082901413453,0.0,-0.0020844196420460957,-0.35964115724334733,0.0,0.35964115724334733,0.20726527864244632,0.0,-0.20726527864244632,-0.9650544065159806,0.0,0.9650544065159806,0.2452631661971559,0,-0.2452631661971559,0.004176057456504056,0.007175012697243321,-0.12263158309857795,0.4,0.03345346450805664,2.5978851318359375,STABILIZE
0.02,0.0,0.0,-0.058134305625942635,0.004500170993382935,-0.0,0.0,0.004500170993382935,0.02,0.0,0.0,-0.36506502067876706,-0.007474521519379244,-0.0,-0.0,-0.007474521519379244,0.5,0,0,0.005188694921599452,0.1411683718022004,0.0,0.0,0.1411683718022004,0.002,8e-05,0.0,-1.962794234380216,-0.0019505066236259602,-0.0001570235387504173,-0.0,-0.0021075301623763774,-0.3737260759689622,0.0,0.3737260759689622,0.22500854966914677,0.0,-0.22500854966914677,-0.97525331181298,0.0,0.97525331181298,0.2823367436044008,0,-0.2823367436044008,0.004536948450074642,0.007452255341486486,-0.1411683718022004,0.4,0.034769296646118164,2.6326401233673096,STABILIZE
0.02,0.0,0.0,-0.049992838232586184,0.004864946504038883,-0.0,0.0,0.004864946504038883,0.02,0.0,0.0,-0.37881312387910354,-0.008215200450992515,-0.0,-0.0,-0.008215200450992515,0.5,0,0,0.009944688199894438,0.07104877952147258,0.0,-0.0,0.07104877952147258,0.002,8e-05,0.0,-1.9963920013987029,-0.0020076397939452427,-0.00015971136011189624,-0.0,-0.002167351154057139,-0.41076002254962574,0.0,0.41076002254962574,0.24324732520194414,0.0,-0.24324732520194414,-1.0038198969726213,0.0,1.0038198969726213,0.14209755904294516,0,-0.14209755904294516,0.004885305795983292,0.008203109789395716,-0.07104877952147258,0.4,0.03346991539001465,2.6661553382873535,STABILIZE
0.02,0.0,0.0,-0.041127549644145264,0.005187532664748686,-0.0,0.0,0.005187532664748686,0.02,0.0,0.0,-0.39404259166879735,-0.008911538619147018,-0.0,-0.0,-0.008911538619147018,0.5,0,0,0.010005030552388227,0.0008827347285610548,0.0,-0.0,0.0008827347285610548,0.002,8e-05,0.0,-2.0314644081912996,-0.002052265462685251,-0.00016251715265530397,-0.0,-0.0022147826153405548,-0.4455769309573509,0.0,0.4455769309573509,0.25937663323743426,0.0,-0.25937663323743426,-1.0261327313426254,0.0,1.0261327313426254,0.0017654694571221097,0,-0.0017654694571221097,0.00518780725579673,0.008911378770150337,-0.0008827347285610548,0.4,0.0341792106628418,2.7003085613250732,STABILIZE
0.02,0.0,0.0,-0.03202875655918204,0.005443279427679678,-0.0,0.0,0.005443279427679678,0.02,0.0,0.0,-0.4094179635281204,-0.00919819195285242,-0.0,-0.0,-0.00919819195285242,0.5,0,0,0.004301303136133599,-0.08530522074762856,0.0,-0.0,-0.08530522074762856,0.002,8e-05,0.0,-2.0661116187770934,-0.002072741371817875,-0.0001652889295021675,-0.0,-0.0022380303013200425,-0.45990959764262096,0.0,0.45990959764262096,0.2721639713839839,0.0,-0.2721639713839839,-1.0363706859089374,0.0,1.0363706859089374,-0.17061044149525711,0,0.17061044149525711,0.0054158657515696335,0.009214359678799982,0.08530522074762856,0.4,0.033431291580200195,2.7337486743927,STABILIZE
0.02,0.0,0.0,-0.02304146563807965,0.0053705992092071275,-0.0,-0.0,0.0053705992092071275,0.02,0.0,0.0,-0.42641717110383526,-0.010158337096768175,-0.0,-0.0,-0.010158337096768175,0.5,0,0,-0.00012474515963690168,-0.06612262717946457,-0.0,0.0,-0.06612262717946457,0.002,8e-05,0.0,-2.0996976517159283,-0.0020070244028507194,-0.00016797581213727426,0.0,-0.002175000214987994,-0.5079168548384088,0.0,0.5079168548384088,0.2685299604603564,0.0,-0.2685299604603564,-1.0035122014253597,0.0,1.0035122014253597,-0.13224525435892914,0,0.13224525435892914,0.005347138313046736,0.010170705988212441,0.06612262717946457,0.4,0.03346848487854004,2.767241954803467,STABILIZE
0.02,0.0,0.0,-0.014641186168009664,0.004994694723309316,-0.0,-0.0,0.004994694723309316,0.02,0.0,0.0,-0.44363557674687437,-0.010237835552436713,-0.0,-0.0,-0.010237835552436713,0.5,0,0,-0.00349254798403357,-0.05006127193771837,-0.0,0.0,-0.05006127193771837,0.002,8e-05,0.0,-2.132871392520131,-0.0019724666153970423,-0.00017062971140161047,0.0,-0.002143096326798653,-0.5118917776218357,0.0,0.5118917776218357,0.24973473616546582,0.0,-0.24973473616546582,-0.9862333076985212,0.0,0.9862333076985212,-0.10012254387543675,0,0.10012254387543675,0.004976796815916039,0.01024654798607214,0.05006127193771837,0.4,0.03363680839538574,2.800861358642578,STABILIZE
0.02,0.0,0.0,-0.006368880029010433,0.004944362118167559,-0.0,-0.0,0.004944362118167559,0.02,0.0,0.0,-0.4575981165489772,-0.008345418038321749,-0.0,0.0,-0.008345418038321749,0.5,0,0,-0.009917798786003608,-0.09600940212794673,-0.0,-0.0,-0.09600940212794673,0.002,8e-05,0.0,-2.165477048853808,-0.0019488419469172048,-0.00017323816390830466,0.0,-0.0021220801108255095,-0.4172709019160874,0.0,0.4172709019160874,0.24721810590837795,0.0,-0.24721810590837795,-0.9744209734586023,0.0,0.9744209734586023,-0.19201880425589346,0,0.19201880425589346,0.004916365900758455,0.00836194148028889,0.09600940212794673,0.4,0.033461570739746094,2.834350347518921,STABILIZE
0.02,0.0,0.0,0.0013664383986376066,0.004623634863989552,0.0,-0.0,0.004623634863989552,0.02,0.0,0.0,-0.47100505202956894,-0.008013732710182736,-0.0,0.0,-0.008013732710182736,0.5,0,0,-0.01645692070660318,-0.09771579662414567,-0.0,-0.0,-0.09771579662414567,0.002,8e-05,0.0,-2.197618410694641,-0.0019211868596411762,-0.0001758094728555713,0.0,-0.0020969963324967474,-0.4006866355091368,0.0,0.4006866355091368,0.2311817431994776,0.0,-0.2311817431994776,-0.9605934298205882,0.0,0.9605934298205882,-0.19543159324829135,0,0.19543159324829135,0.004596273781033845,0.008029456932790242,0.09771579662414567,0.4,0.03345990180969238,2.8678102493286133,STABILIZE
0.02,0.0,0.0,0.010482681131577382,0.004541990563496654,0.0,-0.0,0.004541990563496654,0.02,0.0,0.0,-0.4888580941713266,-0.008894930873722152,-0.0,-0.0,-0.008894930873722152,0.5,0,0,-0.02242958009601566,-0.07439403321192367,-0.0,0.0,-0.07439403321192367,0.002,8e-05,0.0,-2.235630069128452,-0.0018938569207398984,-0.00017885040553027617,0.0,-0.0020727073262701745,-0.4447465436861076,0.0,0.4447465436861076,0.2270995281748327,0.0,-0.2270995281748327,-0.9469284603699492,0.0,0.9469284603699492,-0.14878806642384734,0,0.14878806642384734,0.004518876547875377,0.00890669569886892,0.07439403321192367,0.4,0.040142059326171875,2.907959461212158,STABILIZE
0.02,0.0,0.0,0.017484122944392333,0.004074221732186938,0.0,-0.0,0.004074221732186938,0.02,0.0,0.0,-0.5010687292976893,-0.007105512882300262,-0.0,0.0,-0.007105512882300262,0.5,0,0,-0.02917276551350939,-0.0980984820934808,-0.0,-0.0,-0.0980984820934808,0.002,8e-05,0.0,-2.2676377906736644,-0.001862567142650614,-0.00018141102325389317,0.0,-0.0020439781659045073,-0.3552756441150131,0.0,0.3552756441150131,0.2037110866093469,0.0,-0.2037110866093469,-0.931283571325307,0.0,0.931283571325307,-0.1961969641869616,0,0.1961969641869616,0.0040498666061586095,0.007119422484716064,0.0980984820934808,0.4,0.034369468688964844,2.9422974586486816,STABILIZE
0.02,0.0,0.0,0.023527226804361118,0.0035963357443043347,0.0,-0.0,0.0035963357443043347,0.02,0.0,0.0,-0.5107745749712206,-0.005776084696416633,-0.0,0.0,-0.005776084696416633,0.5,0,0,-0.03576653028085561,-0.0981010440653929,-0.0,-0.0,-0.0981010440653929,0.002,8e-05,0.0,-2.298539386015629,-0.0018389972183087753,-0.00018388315088125034,0.0,-0.0020228803691900257,-0.2888042348208316,0.0,0.2888042348208316,0.17981678721521674,0.0,-0.17981678721521674,-0.9194986091543876,0.0,0.9194986091543876,-0.1962020881307858,0,0.1962020881307858,0.003576535231848762,0.005788365999250907,0.0981010440653929,0.4,0.03360700607299805,2.9759323596954346,STABILIZE
0.02,0.0,0.0,0.02954067189756413,0.0035939066846491213,0.0,-0.0,0.0035939066846491213,0.02,0.0,0.0,-0.5210266732053508,-0.006127117451686066,-0.0,-0.0,-0.006127117451686066,0.5,0,0,-0.04193387922433241,-0.09214716460776326,-0.0,0.0,-0.09214716460776326,0.002,8e-05,0.0,-2.329021958110706,-0.0018217763348603816,-0.00018632175664885648,0.0,-0.002008098091509238,-0.3063558725843033,0.0,0.3063558725843033,0.17969533423245607,0.0,-0.17969533423245607,-0.9108881674301907,0.0,0.9108881674301907,-0.18429432921552652,0,0.18429432921552652,0.0035741799913499555,0.006138645690553839,0.09214716460776326,0.4,0.033464670181274414,3.0093836784362793,STABILIZE
0.02,0.0,0.0,0.03545759850990644,0.0035364244380745396,0.0,-0.0,0.0035364244380745396,0.02,0.0,0.0,-0.5317853034888838,-0.006430210402733572,-0.0,-0.0,-0.006430210402733572,0.5,0,0,-0.04780940897835603,-0.0877920598399048,-0.0,0.0,-0.0877920598399048,0.002,8e-05,0.0,-2.3591989015484076,-0.0018036133829490825,-0.00018873591212387262,0.0,-0.0019923492950729552,-0.3215105201366786,0.0,0.3215105201366786,0.17682122190372698,0.0,-0.17682122190372698,-0.9018066914745413,0.0,0.9018066914745413,-0.1755841196798096,0,0.1755841196798096,0.003516702348308469,0.006441017638776932,0.0877920598399048,0.4,0.0334627628326416,3.0428478717803955,STABILIZE
