Mode,Time,Freq,North-Vision,East-Vision,Down-Vision,Yaw-Vision,North-Desired,East-Desired,Down-Desired,Roll-UAV,Pitch-UAV,Yaw-UAV,Roll-Control,Pitch-Control,Yaw-Control,Thrust-Control,northVraw,eastVraw,downVraw,N-Velocity,E-Velocity,D-Velocity,N-Acceleration,E-Acceleration,D-Acceleration,yawVraw,yawRate,Landing-State,Q-Size
GUIDED_NOGPS,0.019555330276489258,51.183755155834326,-9.492319035403685,43.68242468379934,45.01566068134258,14.589647903710112,-9.389632082790653,43.29794541167891,44.81128516849404,-0.39140644498681365,0.106811672179423,2.6758407995776814,-1.928831325296699,-0.8519843057333503,10.0,0.4995909441114082,-10.334543619639515,43.86999677586492,44.66982323646308,-0.8470717817544937,17.318645119667053,7.0480383932590485,44.849687814712524,39.63002860546112,30.14751970767975,14.622339018559806,-4.248282041099551,False,5
GUIDED_NOGPS,0.04081249237060547,47.04402346422603,-10.076996511250968,45.14476718912373,46.1665735516131,14.344145456202746,-9.354637388310223,43.82947664602471,45.11679188148077,-0.3409391910657944,0.18080289801475957,2.736679642392512,-3.4330257368053476,-2.7205266718078054,4.044133248577652,0.49789832414075474,-10.314640969486927,44.258330544704364,44.86521857027836,-2.960835210978985,17.43718981742859,6.406047195196152,-50.617265701293945,19.422905147075653,15.19961953163147,14.557738618192314,-1.2503409394865868,False,4
GUIDED_NOGPS,0.056912899017333984,62.12219144807974,-10.042693488342465,45.381803652026996,46.12223854860718,14.371150036224114,-9.28396825555619,44.389256432922025,45.436427196621615,-0.3502450036448194,0.1926686975112171,2.754400141307287,1.9397996871621506,0.29457058377420137,9.292750913559905,0.4986253803178471,-9.92870101962751,45.46386243868382,45.451078021052744,-0.25434033013880253,18.23577731847763,3.568163886666298,40.24673402309418,30.040517449378967,-8.292216062545776,14.572045772191956,0.06485136550880169,False,4
GUIDED_NOGPS,0.06166863441467285,210.4623413116564,-10.105900259397142,45.55539431582203,46.04383866153764,14.362449834062293,-9.179862204595223,44.974639525673474,45.76903230290055,-0.42130992030762865,0.12462752693831368,2.744979176007724,4.41688589683173,-1.1241064097213451,7.885851580992065,0.49944728573107183,-9.898725719217467,46.25531723085244,45.69527741718691,-7.783292979001999,18.698039650917053,2.2648757323622704,-41.259101033210754,7.188770174980164,-81.6804051399231,14.475036580784035,-2.2124175870341936,False,3
GUIDED_NOGPS,0.08861565589904785,37.12101955925303,-10.151866299784668,45.69194006557288,45.98447961352662,14.356572444317223,-9.04449520278292,45.58306133977414,46.113475256574176,-0.5797733506205393,0.17477675017610425,2.8984759382161243,1.8164637114123965,-0.04421625148143177,8.526534338614779,0.5002551672917854,-9.898725719217467,46.25531723085244,45.69527741718691,-7.783292979001999,18.698039650917053,2.2648757323622704,-41.259101033210754,7.188770174980164,-81.6804051399231,14.475036580784035,-2.2124175870341936,False,3
GUIDED_NOGPS,0.0944669246673584,171.0843530755425,-10.122769188523153,45.907050980533725,46.025210841661945,14.348416754301704,-8.879982371409469,46.21203698161491,46.468650743393965,-0.5797733506205393,0.17477675017610425,2.8984759382161243,4.2528449982911125,-0.48497156284274034,8.03721047961461,0.50088425819086,-9.827128924510781,46.30493788099781,45.8428752609009,0.3885760670527816,18.91743242740631,5.393929034471512,3.994375467300415,28.811854124069214,140.25814533233643,14.426396383015689,-1.3130741993007442,False,2
GUIDED_NOGPS,0.11085152626037598,61.05068265843789,-10.080423071327244,46.04538216116149,46.051085963314975,14.307233121628935,-8.68837869234529,46.859160277185865,46.83347984082848,-0.566712481462741,0.2251227682393558,2.940343930611245,3.1899905898634553,0.13810349468243943,7.585602194078642,0.501563198543951,-9.81179057454446,47.02726276000581,45.88906133362846,-0.22466774098575115,19.651685655117035,8.143414556980133,11.577591300010681,24.436041712760925,69.49282884597778,14.408054340511129,-5.562029227476953,False,1
GUIDED_NOGPS,0.11936330795288086,117.49738073227442,-10.057512866376937,46.18780361901036,46.048971175476474,14.32509939353952,-8.471679714686726,47.52210280077965,47.2069097802856,-0.6083362945950334,0.17729068667749207,2.9243410108293166,4.246180742402955,-0.46137939642910175,9.437445896300307,0.5023150738820523,-9.674296014115772,47.37678701716815,46.111696836499476,-2.0858868956565857,20.62433212995529,4.548169672489166,-94.18237209320068,27.52685248851776,-28.598082065582275,14.329038435098443,0.3424558132266545,False,1
GUIDED_NOGPS,0.13254356384277344,75.89439971048584,-10.00570462863245,46.34367862162625,46.044315681856745,14.315280923388068,-8.231822261401675,48.19861290369486,47.58791370933474,-0.6083362945950334,0.17729068667749207,2.9243410108293166,4.121115470133397,0.02768733631040321,8.293307436299342,0.5030880319582589,-9.443486671506765,47.55040017492877,46.26257406613202,1.1963567696511745,21.131306886672974,2.283797599375248,29.377704858779907,15.242891013622284,-66.50850772857666,14.279225216897402,-2.023195093485218,False,0
GUIDED_NOGPS,0.1524217128753662,50.32097995225012,-10.036680765064311,46.63787943073396,46.08003138686006,14.281759625135077,-7.970685135975271,48.88651474293941,47.97549045392909,-0.9449187854657117,0.16022657961412592,3.062523848588314,2.2906349627784026,-0.4992549979217117,7.893320663409536,0.5037947629442208,-9.915679641209422,49.21460918779626,46.950962234528845,-4.112862050533295,21.97396606206894,-0.19624615088105202,-50.525546073913574,22.264868021011353,-160.0419521331787,13.975072099520872,-2.4396163592552633,False,0
GUIDED_NOGPS,0.19872546195983887,21.59830274567962,-10.076828651757776,47.016147429846065,46.17396379762454,14.230480448616117,-7.690089829055541,49.58370730993391,48.368664280627854,-0.7172021995281906,0.1687709861832532,3.183750528289343,0.9418888476887853,-0.38745207901884565,8.095328022460649,0.5044013759816731,-9.915679641209422,49.21460918779626,46.950962234528845,-2.9298322275280952,21.496452391147614,2.9108883813023567,20.87596207857132,-9.76732149720192,-1.6574714332818985,13.975072099520872,-3.361126699053166,False,0
GUIDED_NOGPS,0.2180342674255371,51.80583483609595,-10.172631033497069,47.77274626571901,46.362780217977985,14.122284015383157,-7.39180122509906,50.288163459215035,48.76648465881845,-0.5456400138519294,0.22872563966568465,3.247222195585802,0.21412353289716918,-1.4391035292390306,6.231758471840013,0.5048230965434868,-9.915679641209422,49.21460918779626,46.950962234528845,-1.1923296377062798,20.489315688610077,-0.034181587398052216,18.010777235031128,-13.73651772737503,-73.53123426437378,13.975072099520872,-4.316068253517343,False,0
GUIDED_NOGPS,0.25185322761535645,29.57087965933206,-10.176290910480144,48.140945365523976,46.45897706436655,14.041616474364432,-7.077528309016621,50.99792893713894,49.16802602293875,0.23255374725206523,0.1651978901128374,3.369866139539609,1.315285890777945,-0.5081502664796944,7.472135933000412,0.5054411247739524,-9.749503551789363,50.17952209247049,47.14440588831834,-0.3570775967091322,19.494348764419556,4.072027653455734,17.431478202342987,14.643263816833496,89.17622566223145,13.861915894980289,-6.136771290000132,False,0
GUIDED_NOGPS,0.29464173316955566,23.374800069105035,-10.197570188775366,48.778559622641424,46.60422993427247,13.945977833785552,-6.748924872818888,51.71112141058458,49.57238753469931,1.2209620547105406,0.0695681447392244,3.5954568290979636,0.5009129792547392,-0.6674907334685765,7.471980514146104,0.5059694847498343,-9.501823825372465,51.60954587809803,47.35210165367132,0.26548777241259813,20.246635377407074,2.148386649787426,23.23973923921585,55.38742542266846,-35.61684489250183,13.719296626737844,-4.007094401128061,False,0
GUIDED_NOGPS,0.3190755844116211,40.930820801577,-10.211257803056201,49.59013469288083,46.743631897842256,13.78805264866202,-6.407590222262064,52.42592949565713,49.9786928453056,1.4938289658261963,-0.027563121673880676,3.744183344501345,0.03582472676573259,-1.20263457780107,5.690252911648577,0.5065096218311712,-9.593891831525026,51.9210431130653,47.348950551295815,2.4195874109864235,22.696596384048462,-1.0510481894016266,31.882649660110474,48.52018356323242,-65.24621844291687,13.676345102854835,-7.394132276571316,False,0
GUIDED_NOGPS,0.3518509864807129,30.512239657216853,-10.223762609164428,50.12815361453131,46.813626790030646,13.67980364125166,-6.055069883493548,53.14061178639135,50.38608985768024,1.5179986574213442,-0.3694713991890235,3.923120213490516,0.9083388494310228,-0.8102128754124343,6.8893808096272275,0.5071938116503745,-9.548610048628312,52.3496098444921,47.37452765075143,-1.6856608912348747,25.407621264457703,0.8874769322574139,-0.3443840891122818,70.03762722015381,12.239211797714233,13.59020546927104,-6.762449061371857,False,0
GUIDED_NOGPS,0.4006330966949463,20.502023658226612,-10.246134718408777,50.884065892135645,46.920250024485064,13.508129541687689,-5.692856309697601,53.853495883454926,50.793750488685184,1.2818630095581363,-0.6003197335827012,4.11181400770905,0.2575764078105678,-0.8020153357471919,6.695329994808321,0.5078109830238065,-9.18849646689356,53.537221785461,47.77310612933632,-2.1919313818216324,27.886295318603516,0.11021806858479977,21.377937495708466,86.04008555412292,-14.937359094619751,13.256645056593038,-8.826141200219727,False,0
GUIDED_NOGPS,0.42037153244018555,50.672981201372444,-10.405259742321173,51.71347534655319,46.96771362786022,13.384062505367565,-5.322389587741,54.562977422851915,51.200870431344,1.2818630095581363,-0.6003197335827012,4.11181400770905,0.0178608336983348,-2.0712685257407077,5.515577331629386,0.5085369784782967,-9.115723672031454,54.162256995540396,47.8144111052292,-12.983545660972595,29.69047725200653,-4.578575119376183,-27.461808919906616,64.95748162269592,-90.04381895065308,13.173950024846587,-4.085825991690798,False,0
GUIDED_NOGPS,0.4671158790588379,21.395471263077887,-10.384096325355765,52.270853276432,47.01100069426409,13.2746376621798,-4.945058144818707,55.267519104626075,51.60666891706407,0.6513710220386094,-0.9536994205305862,4.530001304266366,0.6619899064354478,-0.7641254032470257,7.027117953263897,0.5092791632829797,-8.800388892778825,54.92355639370587,48.09526365810841,-2.555784396827221,31.609943509101868,-0.5921415518969297,18.73728334903717,51.208871603012085,-17.79620349407196,12.932112815490612,-6.81608141428209,False,0
GUIDED_NOGPS,0.4900074005126953,43.690666666666665,-10.384962849022557,53.110795120544275,47.07994679493273,13.107751201558386,-4.562199455099525,55.96564972156424,52.010388477858825,0.3644149247690984,-0.9273726698181836,4.740067187284693,-0.12517528931227323,-1.5409747288186393,4.954918117847541,0.5099577592707472,-8.867226086491819,55.05396732956143,47.88562289058517,-1.1968620121479034,32.51090347766876,-1.3594230636954308,14.883366227149963,53.995758295059204,-25.2986878156662,12.874449175438873,-7.375848713936838,False,0
GUIDED_NOGPS,0.5293636322021484,25.412169571829313,-10.351918079897215,53.73676520104511,47.150579857511495,12.964059460240055,-4.175100746371763,56.65596318789973,52.41129470856998,0.006030203263475008,-1.0111144175805364,5.068119465573114,0.5387182330170056,-0.940687845882115,6.317713065888349,0.5106348655484485,-8.784323766283581,55.43853376303524,47.93675572541192,-0.9118570946156979,33.349424600601196,1.6791973263025284,-0.6011351943016052,32.09676742553711,-5.654164403676987,12.75404385965104,-8.617922883371888,False,0
GUIDED_NOGPS,0.5560629367828369,37.46821150049579,-10.354174200171498,54.6908404981292,47.26605412877742,12.7568729101494,-3.7849997066888923,57.33711756801567,52.80867602908973,-0.06481844186256812,-1.0124947561231137,5.168715772329531,-0.5722372694030688,-1.599562785734941,4.470640516858012,0.5112102227939035,-8.784323766283581,55.43853376303524,47.93675572541192,-0.9118570946156979,33.349424600601196,1.6791973263025284,-0.6011351943016052,32.09676742553711,-5.654164403676987,12.75404385965104,-8.617922883371888,False,0
GUIDED_NOGPS,0.587684154510498,31.62815108624343,-10.295945937348986,55.33500397364256,47.347678884973995,12.662916930255461,-3.393085191015216,58.00783410514845,53.20184344658303,-0.32708671365536224,-0.9396936907506519,5.608266619950177,0.4741965352115233,-1.1013859425961285,6.43019237045438,0.5118483832423335,-8.803034712046092,55.99309494925534,47.99203360306266,1.2382191605865955,33.58074128627777,2.561849169433117,-82.80105590820312,5.196709185838699,-34.90366339683533,12.697922724950848,-4.672500821580812,False,0
GUIDED_NOGPS,0.6219916343688965,29.149985752708723,-10.167409368985526,56.21716871237798,47.47588979059237,12.446668716846391,-3.000497927871521,58.66689625009102,53.59013031770976,-0.511383413513142,-0.923749681350315,5.941608879750772,-0.28413077361098904,-1.1260925844067324,4.955349481745355,0.512385374034891,-9.070062056866124,58.03297557133756,48.266848302341224,8.316414803266525,34.264713525772095,3.844587877392769,111.96936368942261,31.48443102836609,56.48055672645569,12.107802287174561,-10.025222743924132,False,0
GUIDED_NOGPS,0.6549999713897705,30.30391306860875,-10.08401466232445,57.17264023814345,47.59537809788061,12.206705606523537,-2.6083312259807494,59.31314868989631,53.972892110847,-0.47586680335504594,-0.8063645561705949,6.222673725417736,-0.5618051967053724,-1.3149991050962282,4.406526020649036,0.5129287065502917,-8.566640633253321,59.276826116882916,48.440288134559,3.2743368297815323,34.48916971683502,2.5465626269578934,28.75065803527832,0.1303739845752716,-74.53314661979675,11.583588925924953,-9.827300937250087,False,0
GUIDED_NOGPS,0.6991853713989258,22.633131337114243,-10.010671116538647,58.15892395948616,47.711253340926866,11.969618956523712,-2.21763168091364,59.94549637658059,54.349506168311265,-0.5499189139235309,-0.830955585060168,6.559024256660898,-0.4694985584501402,-1.1829120992381164,5.038303947558033,0.5134736801816193,-8.104464997828075,61.3716792243532,48.65682746292437,0.9451170451939106,35.3115975856781,2.345884032547474,-33.05515646934509,6.605864316225052,-206.04307651519775,11.124261209229417,-9.139908137859065,False,0
GUIDED_NOGPS,0.721951961517334,43.9313739866351,-9.877080416318458,59.42193791171159,47.92319789651237,11.652264226609082,-1.8293998817344264,60.562903555826885,54.719371468580675,-0.5583152974867392,-0.8848075712408988,6.901321321350203,-2.452217557462206,-1.8557186296885342,1.4079014397297405,0.5138018827457334,-7.93427304846565,61.927559030682644,48.77722909155271,5.075131356716156,36.18121147155762,6.725767254829407,36.6530567407608,25.70333480834961,-21.76216095685959,10.918528764289338,-10.500912122443316,False,0
GUIDED_NOGPS,0.755321741104126,29.968947161587653,-9.707688108683804,60.18177774316765,48.04372310194609,11.444878598350607,-1.4445911176464543,61.16439279568828,55.08190838851724,-0.5758934830068546,-1.0156366431413197,7.191536912957691,-0.20058601456261016,-1.116474054372675,4.386299272008177,0.5143047351944092,-7.359937629158953,63.13655992891484,49.1565481445475,5.294366553425789,35.11201739311218,4.067570716142654,10.541088879108429,-8.016618341207504,-70.66824436187744,10.581756275483027,-9.910458490394992,False,0
GUIDED_NOGPS,0.7935969829559326,26.130944296652565,-9.546425862581085,61.25457520442718,48.27252047395221,11.142937590768597,-1.0641160846378757,61.74904401529136,55.436558465589044,-0.7016548747082433,-1.2820234122819256,7.607863409853001,-1.0247791421719015,-1.2523012812318017,3.522429760163058,0.5145783225068526,-6.928007552420121,64.5261502963721,49.47780219622499,3.7800882011651993,35.96585392951965,8.576762676239014,0.09319335222244263,28.336936235427856,16.356302797794342,10.259727301500563,-11.842896591510021,False,0
GUIDED_NOGPS,0.8257064819335938,31.148057657604134,-9.389984612619493,62.412302900899974,48.45856036424261,10.83418092718871,-0.6888415921272966,62.31599351353957,55.78278416009253,-0.8171640457437371,-1.424846296364889,7.921618394661293,-1.6083959702589108,-1.4440346361471015,2.627495699059962,0.5149173785079075,-6.825031741187223,64.76448975856545,49.43206946890135,3.0193299055099487,36.125701665878296,4.944658651947975,-5.8533258736133575,20.707090198993683,-7.465437054634094,10.097705581924469,-10.56762258006683,False,0
GUIDED_NOGPS,0.8590662479400635,29.98072909220872,-9.148308725520849,63.479682584276425,48.61336867503673,10.56483273890909,-0.3195912696094325,62.864432997816564,56.12006861737465,-0.9774024181063519,-1.5979636307377973,8.204073183824354,-1.3840681615824988,-1.219503939877482,3.1007891384685906,0.5153023119944975,-6.219810952724533,66.40199217920829,49.789631601859085,7.433789223432541,37.79535889625549,3.596648946404457,3.27860563993454,11.315064132213593,-6.671670079231262,9.603449397231184,-9.356375615676987,False,0
GUIDED_NOGPS,0.8927156925201416,29.72196317975028,-8.89112150340501,64.59892068321189,48.77257423473836,10.217584392836008,0.04285372669920129,63.39360861268962,56.44791543005516,-1.1878649857050687,-1.816305248430947,8.475312802370253,-1.60224463935054,-1.2135074969205464,2.039557561126026,0.5156604422466101,-6.040846840667058,67.74203411653224,49.9167667827125,8.039020001888275,37.756869196891785,3.6306582391262054,25.48980414867401,11.334608495235443,-13.562878966331482,9.253130543265524,-13.687353318378822,False,0
GUIDED_NOGPS,0.9302978515625,26.609720662593656,-8.614156288472103,65.72699167028344,48.93745908974165,9.860464339594904,0.39775400721467946,63.90281996861301,56.765848400248814,-1.4028614115304987,-2.0121442742949607,8.873428307391018,-1.5552618995131295,-1.1381551742009877,2.1266249828706085,0.5159901452766579,-5.537937984217633,68.22463631391997,50.119374447462754,8.039020001888275,37.756869196891785,3.6306582391262054,25.48980414867401,11.334608495235443,-13.562878966331482,8.976868513577713,-13.687353318378822,False,0
GUIDED_NOGPS,0.9589676856994629,34.88595929434662,-8.320529337985514,66.82181522540229,49.103609923568335,9.507429642938963,0.7444112423399485,64.39141917063134,57.0734113017876,-1.5387429024260249,-2.041473960364642,9.162614247981127,-2.06179675486633,-1.2038847056607924,0.7746728896443216,0.5162912330335342,-5.00931585587507,68.88464154166803,50.37748142148813,8.039020001888275,37.756869196891785,3.6306582391262054,25.48980414867401,11.334608495235443,-13.562878966331482,8.728591213617587,-13.687353318378822,False,0
GUIDED_NOGPS,0.9937083721160889,28.78726149622512,-7.995551907973984,67.77618394212658,49.256828259301265,9.252499764408327,1.08216745581921,64.85880984708295,57.370167642442965,-1.6986153260595152,-2.0894419520188183,9.410556091268113,-1.3995690623797816,-0.99743174188622,2.6178791519154303,0.5166008704616966,-4.848421566739761,69.61377984636405,50.54577498329843,10.830366611480713,37.07767128944397,3.816846013069153,48.745715618133545,7.356733828783035,27.616924047470093,8.608918053416097,-9.594978029047628,False,0
GUIDED_NOGPS,1.0270731449127197,29.98008620258322,-7.658416186993402,68.87079855302768,49.427613720225,8.960988854355001,1.4104043180922314,65.30444617830334,57.655700426148044,-1.8050277523376097,-2.050807840752287,9.688672002760924,-1.9852967097292937,-1.0431817124572293,1.8731717234030372,0.5168522735369021,-4.848421566739761,69.61377984636405,50.54577498329843,10.830366611480713,37.07767128944397,3.816846013069153,48.745715618133545,7.356733828783035,27.616924047470093,8.608918053416097,-9.594978029047628,False,0
GUIDED_NOGPS,1.0635311603546143,27.432577912946794,-7.265859787124318,69.8894604197355,49.62487210931756,8.761782909523394,1.7285424396486988,65.72783192532846,57.92961191521989,-2.0598885772538194,-2.059785697529446,9.962558319610203,-1.7426554917370567,-0.8837360840967683,3.044535708267847,0.5170295067419922,-4.82546902220728,70.140877326278,50.57768569683074,15.221202373504639,37.09602952003479,6.415615975856781,-50.56523084640503,-24.392831325531006,44.69510614871979,8.489037727732153,-4.860935068610885,False,0
GUIDED_NOGPS,1.0966415405273438,30.204836456337947,-6.793447555964716,70.96875031161855,49.83495884440504,8.48193339973122,2.036040664382554,66.12851945859813,58.19152339258169,-2.0594738567051527,-1.9849208478105824,10.138372511488209,-2.173563513022909,-0.753312847602157,1.7532719633334155,0.5171555894059638,-3.2226343361275696,72.63208484878115,51.09086390231097,16.50552898645401,36.49296164512634,6.206497550010681,-21.19828760623932,-8.193445205688477,3.150930255651474,7.604530859354268,-8.407954330549234,False,0
GUIDED_NOGPS,1.1321780681610107,28.144780105484948,-6.247950766931406,72.08402042720155,50.14011781816533,8.224874250257203,2.3323953629463254,66.50610878665945,58.44107492398503,-2.0891849661512967,-1.6889948978918463,10.43649575460728,-2.2880279609658634,-0.6129936356102789,2.0413829991657937,0.5170679728632633,-1.991572111536379,74.2575419470871,51.47875741978253,18.36484521627426,36.28123104572296,11.726120114326477,118.93258094787598,4.3214090168476105,129.11248207092285,7.086160235180165,-6.000210622169012,False,0
GUIDED_NOGPS,1.1612184047698975,34.43938647485795,-5.691018203048951,73.26257746073831,50.43997142590429,7.93030776328309,2.617139726105478,66.86024658487008,58.67792512023205,-2.036469566137138,-1.541576577157934,10.572944151203917,-3.109582685891302,-0.5509188381095949,0.7026733060583137,0.5169611133180969,-1.0989896141571058,75.47252564835924,51.67534111194864,16.39995127916336,35.649871826171875,10.55847480893135,-1.9934765994548798,-15.102462470531464,-66.14647507667542,6.810263783062275,-7.421727094591814,False,0
GUIDED_NOGPS,1.1951541900634766,29.468661078753048,-5.09224344614827,74.24888145516697,50.74609308149774,7.672828842455041,2.8898430580927386,67.19062522410174,58.90175089939774,-2.0717496276343694,-1.2097501924662588,10.863781290025877,-2.252566402664257,-0.38131483592440335,1.5712303728582433,0.5168186807909307,0.12706631428675436,77.19809876143647,52.021331977255876,19.679605960845947,35.00674664974213,12.7938911318779,47.31167554855347,-2.356291562318802,89.26962018013,6.400921527940195,-8.050964248294763,False,0
GUIDED_NOGPS,1.2300617694854736,28.65274893430976,-4.401933512257318,75.35274338666645,51.01955246707446,7.4105363031845926,3.150110069962464,67.49698179944347,59.11224724905215,-2.0134812838249907,-0.7961638820885925,11.182878336538764,-2.672021408251441,-0.22625697121950467,1.4390720627611602,0.5167153417727692,1.1182301042381984,77.66375234524025,52.17505810792809,21.680180728435516,34.1485857963562,9.029682725667953,67.73857474327087,-5.094550177454948,-35.49432158470154,6.217211489456039,-6.093604921332474,False,0
GUIDED_NOGPS,1.2618727684020996,31.439438118867542,-3.555094926652714,76.4520686042301,51.22892168097355,7.163310633798792,3.3975801729449184,67.7790971589051,59.30912698848261,-2.1724910759106493,-0.6565934487110247,11.335476715427895,-3.0506882423539663,0.1799094557684468,1.1886522453061046,0.5167109216607194,2.7073139041491077,78.72270635727419,52.45713191117497,29.12168800830841,35.560739040374756,4.88211065530777,102.23723649978638,16.221244633197784,-15.35884439945221,5.909908102405659,-5.445556145994841,False,0
GUIDED_NOGPS,1.2950124740600586,30.178105550958737,-2.864313062551019,77.42606443345173,51.47857289402759,6.9656906353240595,3.631926771800684,68.03679493212056,59.49212053091594,-2.2777334054065563,-0.4934521392294487,11.521191266507834,-2.652132361353563,-0.03014809507317301,1.7910773137981044,0.5165988245944815,2.7073139041491077,78.72270635727419,52.45713191117497,20.83619087934494,32.707130908966064,8.597180247306824,39.80502486228943,-21.641647815704346,27.58086919784546,5.909908102405659,-3.5263231484229753,False,0
GUIDED_NOGPS,1.3358266353607178,24.50401944288652,-2.159309157444802,78.44744171067585,51.73048389832779,6.7444532866743705,3.8528565581749668,68.26994055905132,59.660975645740706,-2.262527910210227,-0.24115242180858237,11.672716451923629,-2.4501567041520813,-0.0749965600112677,1.8810622485219413,0.5164586383876025,4.371349247523767,79.82344475530807,52.75669933689343,17.18941479921341,31.695255637168884,7.763303816318512,-38.72082233428955,-20.743100345134735,-22.86628633737564,5.527933607535998,-3.844779224370939,False,0
GUIDED_NOGPS,1.3627235889434814,37.18849137739948,-1.2997684743540392,79.50869086071204,52.00901031039543,6.50077272325797,4.060108803951923,68.47844031868968,59.81545722072944,-2.361187004563299,-0.010707922349581709,11.786205167625267,-3.8315259720566677,0.5855479463444688,0.2613894978739566,0.5162272763034658,5.974923961297285,81.56349098049282,53.16988067664957,23.898345232009888,31.193041801452637,8.727838844060898,107.2634220123291,-1.2431185692548752,174.62841272354126,5.124129186384296,-4.689557938372449,False,0
GUIDED_NOGPS,1.3968861103057861,29.27490874065595,-0.5516048325009972,80.3102050603392,52.225177304401456,6.359350828893854,4.253454654609005,68.66224035776226,59.95534702426087,-2.400221962556745,0.27096779836127477,11.911608294560349,-2.446338848970347,0.30384559781127884,2.1596577409513324,0.5160958474574827,6.1301240821285745,81.99389015315413,53.275118380400464,23.53281080722809,30.4898202419281,7.8278884291648865,-4.837580025196075,-24.513685703277588,-94.00843381881714,4.991671736474822,-1.5901589656722943,False,0
GUIDED_NOGPS,1.4351449012756348,26.141856348632544,0.3598176220614696,81.36383075025378,52.494771942515854,6.15744811286732,4.432696422571311,68.82132571943323,60.08044346754211,-2.412032853735578,0.5245056476517646,12.00259068317315,-3.0457817387677246,0.48221423562310073,1.5814462191081389,0.5158300454078834,8.250283071801167,83.03574080662523,53.59366106834287,23.53281080722809,30.4898202419281,7.8278884291648865,-4.837580025196075,-24.513685703277588,-94.00843381881714,4.627921326206138,-1.5901589656722943,False,0
GUIDED_NOGPS,1.4645638465881348,33.998865165442666,1.3008501977467846,82.50475733505039,52.75932937011208,5.928094452846464,4.59766688056594,68.95571937200785,60.19056136683096,-2.6026832837079095,0.6773713110530266,12.032416411731303,-4.113934422377342,0.8901440067528713,0.4209231287423094,0.5155385583551086,8.69271998201027,83.36897889720589,53.746712839392295,21.9696506857872,30.06528615951538,5.993857234716415,0.6378624588251114,-10.912813991308212,78.97579669952393,4.661309861733381,-2.550895722203815,False,0
GUIDED_NOGPS,1.5145292282104492,20.016244720704382,2.108251967783033,83.31024346237298,53.03848303787104,5.81003147206458,4.748228554976281,69.06548123763574,60.28553170565811,-2.6388721872515757,0.7729722949269314,12.061840866675718,-2.1602266273401827,0.34082050583882506,2.5431416857437714,0.515199229902258,9.447077605724337,84.07639477347279,53.97567982506335,22.04127162694931,29.07041907310486,11.134002357721329,-21.700680255889893,-21.787339448928833,-9.947872161865234,4.552319890334116,0.16853256989253743,False,0
GUIDED_NOGPS,1.5392866134643555,40.395877877299434,3.235963014392142,84.74392923492951,53.446362145461556,5.5496853187472475,4.884273019196408,69.15070722101424,60.36520139704926,-2.6388721872515757,0.7729722949269314,12.061840866675718,-4.198267765664791,1.8466684120646555,-0.8600052586068085,0.5145565685655863,10.62093620396778,84.80843315928229,54.11861532646304,19.953927397727966,27.540606260299683,10.365299135446548,-71.78022861480713,-56.62637948989868,-28.22079062461853,4.455254264273947,-0.9368556404288059,False,0
GUIDED_NOGPS,1.5667364597320557,36.43577292272944,4.0198542142021925,85.30849891308146,53.59132515305288,5.496457297690328,5.005720186985338,69.21152823809194,60.42943304574754,-2.7707874726734403,0.9525087264591826,12.100890765707973,-2.7673664396285385,1.0862015454732314,2.524799014787431,0.5144101720715785,11.067647283095814,85.10533210689167,54.27582163617348,24.41391795873642,25.538286566734314,4.889627173542976,-74.54628348350525,-30.02994954586029,-78.88553738594055,4.381729149394006,1.7687083281477727,False,0
GUIDED_NOGPS,1.5979516506195068,32.0422921489087,4.804287361921287,85.91371691325398,53.81048597518082,5.439855968977292,5.112517605821473,69.24810924477181,60.47810471043556,-2.9405955803934773,1.2337140178909545,12.136709985262813,-2.790926272196762,1.0063753738648116,2.534917076081256,0.5140857599191764,11.067647283095814,85.10533210689167,54.27582163617348,23.738059401512146,24.190646409988403,9.004563093185425,81.15521669387817,-19.046851992607117,52.57828235626221,4.381729149394006,2.400534657154685,False,0
GUIDED_NOGPS,1.6307802200317383,30.463927484547614,5.650485594129188,86.62359995273277,54.0900224961911,5.37297501701953,5.204639750256881,69.26064826561482,60.51110966595777,-2.9113732563598127,1.5017449416308295,12.041129171791301,-3.1247511150770584,1.1043679422633546,2.411080904754953,0.5136096062013904,12.466609020434639,86.1964770367789,54.83492970682515,21.65820151567459,22.432029247283936,10.310490429401398,-22.933435440063477,-49.79262351989746,13.89831006526947,4.305312686987568,2.9104168164325994,False,0
GUIDED_NOGPS,1.6668798923492432,27.708219377171773,6.5872847688106155,87.4253907450009,54.39815278382632,5.297840222361111,5.282087315271596,69.24937542254314,60.52835616554261,-2.911637072416504,1.632946258841016,12.009887886527663,-3.3203349644373197,1.2190455245358995,2.3428936339405113,0.5130454729219668,14.284123987985318,87.47674224474594,55.31745001072325,21.65820151567459,22.432029247283936,10.310490429401398,-22.933435440063477,-49.79262351989746,13.89831006526947,4.2171856786053805,2.9104168164325994,False,0
GUIDED_NOGPS,1.7018036842346191,28.63475245091346,7.590989141470507,88.25429434408875,54.69740943955918,5.171712716811976,5.344886509628068,69.21455196354364,60.52976720302474,-2.7513124689156183,1.7005273521402955,11.917094644011161,-3.5838557235875506,1.4526787314896368,1.6661059084586634,0.512466163832943,15.436729528013256,88.00554957316851,55.330805075542926,22.6817324757576,21.89253866672516,9.444756805896759,33.2410603761673,-24.093784391880035,39.93332087993622,4.281283742069142,-0.6888886641801077,False,0
GUIDED_NOGPS,1.7349457740783691,30.177237047536135,8.505403761591074,88.97085214838438,54.96058807555855,5.097424156331609,5.393088349225399,69.15646929137121,60.515280275067305,-2.6563719856787946,1.7400652895330895,11.806342272845757,-3.5072759195413847,1.4962313109261487,2.160510512481696,0.5119255383025633,15.436729528013256,88.00554957316851,55.330805075542926,19.32782381772995,18.014390766620636,7.925781607627869,-27.486640214920044,-37.489327788352966,-20.870816707611084,4.281283742069142,2.080497605857275,False,0
GUIDED_NOGPS,1.7691524028778076,29.237360323999525,9.365926898198818,89.60908099325336,55.20679116869238,5.038984795190922,5.4267679504536925,69.0754479922521,60.48484714338416,-2.5558147390666934,1.858451784478157,11.76274688292086,-3.2980904703250307,1.4612935990143525,2.3413530867663077,0.51138673760091,15.720124966912246,88.26957495208359,55.48416143677096,19.32782381772995,18.014390766620636,7.925781607627869,-27.486640214920044,-37.489327788352966,-20.870816707611084,4.303092770641909,2.080497605857275,False,0
GUIDED_NOGPS,1.8035318851470947,29.094178117824963,10.214278178602438,90.21650204593126,55.481520950563464,5.026374662565895,5.446023823548506,68.97183686458735,60.43843359696203,-2.6870890539236347,1.8793350878654709,11.679778867525423,-3.328551408235436,1.5369410701957316,2.867970721517813,0.510757979380482,16.056283199517047,88.60257247843278,55.63417291928644,19.14133131504059,16.622290015220642,9.819388389587402,-21.389439702033997,-28.989815711975098,-11.932373046875,4.206735006376756,5.034003097555723,False,0
GUIDED_NOGPS,1.8403339385986328,27.1748615115488,11.04568005907463,90.7987772531027,55.71058196298191,5.027738220051424,5.450977165944989,68.84601194765618,60.37601921428285,-2.790282540111949,1.868645414927578,11.565370637606769,-3.1932917139349497,1.4974313724797672,3.0313876330099756,0.5101888349699943,17.787836632808407,89.25892879118527,56.238593754629726,14.99725878238678,15.058402717113495,5.6670259684324265,-14.926451444625854,-23.807695508003235,-3.8430288434028625,4.3495978003626545,5.16039318682587,False,0
GUIDED_NOGPS,1.873366355895996,30.276350931901195,11.927728713144523,91.41709851053426,55.95466949751969,4.93805612978479,5.441771155632436,68.69837555031931,60.29759712554587,-2.9015053405564366,1.924003671263708,11.47717581994898,-3.658893491862678,1.8091495487367149,1.8796827396911642,0.5095553223842827,18.340833382817586,89.24545964820643,56.28141097334138,15.04547894001007,14.639753103256226,5.751027911901474,-43.82711052894592,-41.06240272521973,-65.7773494720459,4.521945801187181,-1.0928234370128702,False,0
GUIDED_NOGPS,1.9070944786071777,29.654927635625757,12.755172713875337,91.96408267415127,56.197682684513076,4.884249044340434,5.4185702445084125,68.52935527972238,60.203173774890004,-3.0332667332785643,1.9148670125883467,11.3984655737274,-3.515412571109245,1.7994359946870133,2.2891805590080025,0.5088912024995295,20.256804237950707,91.0027025989103,57.040858658927554,13.725784420967102,14.444588124752045,6.31130188703537,-94.12235617637634,-43.786779046058655,-140.33018350601196,4.566157568761824,0.01680909554740138,False,0
GUIDED_NOGPS,1.9409773349761963,29.516358083335092,13.547493080915197,92.47933773358686,56.42995820462904,4.834527717473,5.381559451733327,68.3394030699993,60.09276868261594,-3.1644490540251216,1.9344811814505076,11.286821009101663,-3.495430759471077,1.8147060417641112,2.315311014462726,0.5082157964807561,20.256804237950707,91.0027025989103,57.040858658927554,13.725784420967102,14.444588124752045,6.31130188703537,-94.12235617637634,-43.786779046058655,-140.33018350601196,4.566157568761824,0.01680909554740138,False,0
GUIDED_NOGPS,1.9740002155303955,30.286407486569235,14.303754856807092,92.96157237013283,56.6547719557188,4.844985892760531,5.3309436570845925,68.12899421097572,59.96641420740849,-3.2315407215816876,1.8762393046241628,11.190882464472372,-3.5596665808935772,1.8746536519723558,3.033603648345574,0.5075222133733315,20.47495749912367,91.17680875884292,57.22524210732219,12.047243118286133,12.640973925590515,5.635565146803856,-37.81489133834839,-34.92222726345062,-73.60360622406006,4.616302478078788,3.6556461636114084,False,0
GUIDED_NOGPS,2.008246421813965,29.204991087344027,15.060355472847203,93.35138214730696,56.89544166375526,4.842542483739483,5.266946894310964,67.8986263768722,59.82415530855869,-3.1683725708164707,1.9452553779793795,11.120915714162054,-3.315303922837855,1.9362585459156336,2.8769491614652987,0.5067643695559839,20.47495749912367,91.17680875884292,57.22524210732219,15.774726867675781,10.389497131109238,7.917526364326477,90.58988094329834,-12.599611282348633,-15.835106372833252,4.616302478078788,2.395495685094508,False,0
GUIDED_NOGPS,2.0409798622131348,30.55224609019325,15.91017563796878,93.73344704401657,57.16615857174679,4.875499400556124,5.1898116444870315,67.64881865500779,59.66604930818612,-3.250464614450854,1.94144242487522,11.02016700880978,-3.4956914722337395,2.254105126927151,3.3278985467818174,0.5059132722868832,22.447612241463194,91.55765267316323,57.52224824250294,17.35517680644989,9.339329600334167,9.282724559307098,69.49143409729004,-19.445478916168213,68.54997277259827,5.030791435501056,3.4525107881665287,False,0
GUIDED_NOGPS,2.0760583877563477,28.514446544386583,16.719089196772497,94.06481367223574,57.404559262449666,4.919030261552478,5.0997981293673735,67.38011057450325,59.492165653461086,-3.109034875515162,1.9737869991332269,10.945031512845055,-3.309108909759259,2.182372396315939,3.4488582746302567,0.5050945495453436,23.001005736944624,91.97894707084157,58.0031431440097,16.489872336387634,7.865089923143387,6.915003806352615,32.837870717048645,-27.5463730096817,1.7263859510421753,5.227327308655499,3.3374583860317792,False,0
GUIDED_NOGPS,2.119243621826172,23.15657435625635,17.459684880444673,94.3720958989418,57.64744894387076,4.973655122512749,4.997183604741062,67.09306113498472,59.30258567882688,-3.184252547193339,2.0329191484292006,10.842391698866335,-2.979313773145906,1.9035335442363344,3.4890146507360527,0.5042353413108633,23.04722430809195,92.11484692166262,58.234236640335126,13.03626000881195,6.436039507389069,6.8439781665802,33.509570360183716,-26.959168910980225,12.385207414627075,5.206390088873187,4.0865043148527445,False,0
GUIDED_NOGPS,2.1423256397247314,43.336302112930724,18.174040888806868,94.65608968717525,57.8779313217591,5.027135407068647,4.882261653785891,66.78824783528661,59.09740236822198,-3.1839084764138996,2.052608876259055,10.712895581071125,-4.266232410094678,2.8509479246335387,3.9454099353695584,0.5033662560867448,23.04722430809195,92.11484692166262,58.234236640335126,12.201473116874695,5.285739153623581,6.235701963305473,-40.31220078468323,-27.005329728126526,-24.19508397579193,5.206390088873187,3.958273916488102,False,0
GUIDED_NOGPS,2.176316976547241,29.4198797758247,18.62824541159585,94.67430779407508,58.03693608796985,5.058151886762282,4.755341480422722,66.4662657021554,58.87672011730231,-3.260913096333681,2.232058863209623,10.621969541518975,-2.657570626140989,1.8954046333331764,3.3986006924773866,0.5026091737398853,23.634441714323746,92.18238901722472,58.20567057496382,10.099943727254868,3.206362947821617,7.860250025987625,-33.29066038131714,-46.24065160751343,-5.101507902145386,5.233319398928426,1.7337513132539417,False,0
GUIDED_NOGPS,2.2104241847991943,29.32505523394021,19.26173900290095,94.89869557280703,58.211682875735505,5.111013426040281,4.616747202669842,66.12772631895285,58.6406544956634,-3.252049218338297,2.2568705925867523,10.553157946952036,-3.3788116503043466,2.2301575693573326,3.68707418211398,0.5017887184211881,24.08556073022298,92.46963156622101,58.64845861455483,7.70711675286293,2.521986700594425,2.466755174100399,-23.44057559967041,-34.24084782600403,-87.8554105758667,5.403572376076224,3.3272353003915627,False,0
GUIDED_NOGPS,2.2416725158691406,32.00366252851813,19.83378683339963,95.07979637191717,58.40926147074475,5.149732701588668,4.466817145997332,65.7732568543594,58.3893320090627,-3.1778959889535843,2.4502586477557893,10.501941773460695,-3.4784945917129986,2.30374631764186,3.5850269922122893,0.5008908663921202,24.36781786707622,92.85580703480515,58.63837102111819,5.897039547562599,1.0082983411848545,5.11605441570282,-34.15522873401642,-23.857301473617554,5.528396740555763,5.361653754305569,2.3927350080093532,False,0
GUIDED_NOGPS,2.2778525352478027,27.645759181628833,20.307407885006032,95.16155792335259,58.580427950472114,5.204885400475226,4.305903136681451,65.40349909107752,58.12288986164174,-3.0781150360293372,2.4290645707612395,10.488594730048844,-3.021323620964561,2.0616944581621777,3.7335106961617304,0.5000143266191466,25.237773932743373,92.5155494389816,58.498712075679265,1.2860946357250214,-1.1504494585096836,5.322721973061562,-137.30676174163818,-40.05915820598602,-58.94266366958618,5.624596887998299,2.671421667184683,False,0
GUIDED_NOGPS,2.3110251426696777,30.149688030133127,20.78733423267513,95.25844289443174,58.728009075210515,5.227350341335585,4.134369795158753,65.01910845453509,57.84147571814841,-3.18774341418945,2.383245313931267,10.471780511859565,-3.2693039522366543,2.218507725261037,3.4077656641349954,0.49915398746797845,25.161584293074057,92.61975101652816,58.675645600559506,0.6145857740193605,-2.1249977871775627,2.5359611958265305,61.293357610702515,8.377271890640259,14.200279116630554,5.530755757485868,0.7861582952847584,False,0
GUIDED_NOGPS,2.342966318130493,31.311992355470615,21.269972562328505,95.30544204712929,58.82216351278897,5.252291127926236,3.9525938293806444,64.6207530415888,57.54524746615914,-3.0987326023692554,2.370044052369513,10.489873682970929,-3.2474547684675943,2.3406176831280066,3.463445441232681,0.4983699564407413,25.480576179929727,92.50045418264267,58.99738306623766,3.5308528691530228,-2.4344075471162796,-0.6552252918481827,-71.25489115715027,-41.203805804252625,-162.249755859375,5.723691100560901,0.39197676578250973,False,0
GUIDED_NOGPS,2.379669189453125,27.25131243827642,21.737170133533997,95.3026269797909,58.913716406922205,5.253500299110836,3.76096332816771,64.2091126492276,57.23437297830115,-3.1067077019988916,2.2358543139540346,10.511492939241313,-2.983482197603294,2.2481513082956828,3.1652755583608605,0.49756016977776946,25.44604768463105,92.37918046254183,59.185893968644834,5.364225432276726,-3.642502799630165,-0.3995811566710472,-20.754458010196686,-26.809081435203552,88.21959495544434,5.731326857296828,-1.1938259265814914,False,0
GUIDED_NOGPS,2.4124622344970703,30.496931623185876,22.230664349032164,95.32932864494956,59.028171084261,5.250542282343023,3.5598770545639677,63.78487780327587,56.909029874474705,-3.083237677906847,2.257800565530932,10.553554097923897,-3.297162624686642,2.4747339595499316,3.114148604392527,0.4966750294806528,25.8271511119477,92.3493074358311,58.964486430213256,3.3193539828062057,-4.015874490141869,0.6753632333129644,-7.04750269651413,-20.18636167049408,-70.49306631088257,5.8009724683403014,-1.5958860792913498,False,0
GUIDED_NOGPS,2.4566853046417236,22.61677747760864,22.616489018647062,95.26179040629401,59.11527159180079,5.254580359277602,3.349743739191158,63.34874878709696,56.569405284075245,-3.054994418802021,2.1564358624928883,10.583583024609858,-2.829152264364119,2.179734592728424,3.192887144816576,0.4958133834276687,25.872607355701724,92.04067229697453,59.2719016148786,1.9700195640325546,-5.262759327888489,0.10663949651643634,-80.41419982910156,-37.47686445713043,39.65681195259094,5.822117649470497,-1.1881601779432602,False,0
GUIDED_NOGPS,2.4829041957855225,38.146682188591384,23.00517873514182,95.17348584501407,59.181674364906584,5.232636331514599,3.130981373603287,62.90143467029668,56.21569560821578,-2.9845045186899624,2.1079001113639544,10.73590819593219,-3.2235662758567973,2.578281024850729,2.833557316190065,0.49496635274535355,25.978925719733496,92.0596820490429,59.18927061968082,2.7331389486789703,-6.502091139554977,-0.7972985506057739,-25.069326162338257,-26.174846291542053,2.352406084537506,5.805743898434889,-2.822514843135474,False,0
GUIDED_NOGPS,2.5274274349212646,22.461022721795896,23.205896679023198,95.00828063065384,59.21145239617755,5.197067867736519,2.9040165036407224,62.443652337426265,55.84810628194895,-2.853327960915517,1.9363481709714483,10.907218731826218,-2.5668942151748446,1.9593002204170757,2.8095034223694046,0.4941592187193965,25.75946099628449,92.1262528001842,59.24608025562577,-1.8087565898895264,-7.55237489938736,-0.8763149380683899,-93.49051713943481,-27.825385332107544,-122.83642292022705,5.755470563656401,-3.7225282297378195,False,0
GUIDED_NOGPS,2.5468926429748535,51.38944840598887,23.508194963104028,94.89568258979601,59.29897831386896,5.142409866474365,2.6692835227847347,61.976125516686196,55.46685153648933,-2.6557978229016905,1.893292579434392,11.123340431317407,-3.873230990679362,2.9925051390372794,1.9611780435854376,0.49321569564267104,25.544372877678104,91.58156296897576,59.43478211262507,-3.3132772892713547,-8.40638354420662,-0.7721009664237499,-85.55922508239746,-23.212917149066925,-63.76371383666992,5.442311079868823,-3.760439194725975,False,0
GUIDED_NOGPS,2.582254648208618,28.280464699179426,23.547640730654248,94.63623605195919,59.29708250488691,5.10204405286675,2.427223965511759,61.49958380862941,55.07215416143564,-2.5457231345679996,1.80421111784497,11.384538818009743,-2.576120077317233,1.9500026622975668,2.6055532940674375,0.4924181160190702,25.46810009564261,91.4571465341097,59.46911673404571,-3.3132772892713547,-8.40638354420662,-0.7721009664237499,-85.55922508239746,-23.212917149066925,-63.76371383666992,5.48329203430028,-3.760439194725975,False,0
GUIDED_NOGPS,2.6149966716766357,30.5489082142493,23.82243188459303,94.47309821392776,59.36988655741824,5.016804384278599,2.178285800647595,61.01476171486442,54.664245266993035,-2.5803976571066274,1.7478806267691709,11.602013748730242,-3.016976916241757,2.4514241242025046,1.9599245054134382,0.49144446774315576,25.650655134905215,91.31591165866186,59.333691796342684,0.09530804818496108,-8.791633695363998,0.3679552348330617,12.55253553390503,4.302886873483658,18.610358238220215,5.422018059966243,-5.990142069558767,False,0
GUIDED_NOGPS,2.650752305984497,27.97153698924301,24.04300261456544,94.2878395347063,59.44254214380993,4.921638884847555,1.9229227247220013,60.522397666759296,54.24336404619524,-2.535169851970095,1.8974237766651918,11.820759094636363,-2.9536430910024447,2.3864447485970417,1.8152522628757115,0.49044347780301745,25.650655134905215,91.31591165866186,59.333691796342684,-0.13639000244438648,-8.796155452728271,1.539158821105957,8.319254219532013,-32.32996463775635,70.24049758911133,5.422018059966243,-6.855953924222509,False,0
GUIDED_NOGPS,2.6816816329956055,32.33825490936847,24.353959925958907,94.10431119564147,59.54846567083995,4.832391549041498,1.6615934553228957,60.02323305414447,53.8097575371268,-2.6689510596958423,1.9143810019402179,12.049468832767886,-3.016643905298179,2.608796992383108,1.829842936966328,0.48934909482143407,25.229420754659746,90.85150108288397,59.484857590144124,7.487313449382782,-7.512817531824112,3.4025851637125015,82.42471814155579,10.215068608522415,39.704519510269165,4.969002678775171,-5.074897574550705,False,0
GUIDED_NOGPS,2.71517276763916,29.863537654237483,24.507169837157914,93.83908915665862,59.6247714653255,4.678444021482154,1.3947610244506325,59.518011254016216,53.36368038514536,-2.6500617446593493,2.021238457731421,12.272544518607795,-2.7789622942451637,2.3946041270986655,0.9665267364652657,0.48828757072212897,25.10853115681564,90.14620700859243,59.293418657616314,-1.9840387627482414,-10.899031907320023,2.2467968985438347,94.19208765029907,-8.51803869009018,90.89710712432861,4.6735586155587,-8.76025121907026,False,0
GUIDED_NOGPS,2.750694513320923,28.157250268528465,24.64437108211031,93.5578766552569,59.75044464646607,4.559719979251137,1.1228920718725206,59.00747665924032,52.90539460510385,-2.6275673704015583,2.1769879017054565,12.504783756992921,-2.7577686532208023,2.414712226590964,1.3195198499888157,0.48710129137812885,25.10853115681564,90.14620700859243,59.293418657616314,-2.2584309801459312,-11.914612352848053,5.864257737994194,11.416494846343994,-32.488495111465454,94.24403309822083,4.6735586155587,-6.374426868397079,False,0
GUIDED_NOGPS,2.7817447185516357,32.20615358626462,24.68766884496583,93.24702551884175,59.79460321362539,4.444356775015465,0.8464561384770519,58.4923737072553,52.435169343572674,-2.5873424653886494,2.253503949656171,12.701331841870148,-2.688593997006199,2.297207983076481,1.2782921995079997,0.48605295459013154,24.395986460708514,90.15474995784732,59.435564912721134,-5.643191933631897,-13.845397531986237,0.1577648799866438,-27.468961477279663,-45.04786729812622,45.52237093448639,4.249316807483434,-5.051308235591597,False,0
GUIDED_NOGPS,2.8156545162200928,29.496638442712875,24.70429337332064,92.8947665954261,59.855147267463344,4.295984761723282,0.565924959628056,57.973445908775425,51.953280641062065,-2.3445465293110326,2.3540769910807273,12.941738278955318,-2.571468885041974,2.286871928128336,0.8260521357104063,0.48494666944961384,24.62917242776612,89.37802593707856,59.21010754189312,-7.172404229640961,-14.39540684223175,2.2653229534626007,59.05662178993225,1.6774289309978485,67.80591011047363,4.2091182407940755,-7.369681906889963,False,0
GUIDED_NOGPS,2.850097894668579,29.036975499664237,24.67994255013762,92.53295506008233,59.90181791647102,4.190046148205512,0.28177175851942415,57.45143487649497,51.46001119424416,-2.273743080827388,2.34751381961858,13.134202764482522,-2.5500723672045122,2.2420193758657367,1.282566927934076,0.4838435501694768,24.23118711765043,89.19198748156197,59.09789381923902,-8.206373453140259,-14.562812447547913,1.8033580854535103,-70.76061964035034,-25.10278820991516,16.76756888628006,3.9198872046296556,-3.738883971479061,False,0
GUIDED_NOGPS,2.8824357986450195,30.926655901372207,24.664865229115286,92.1516344378083,59.87470795612268,4.020756522658413,-0.0055294604707345485,56.92707935379038,50.9556501181753,-2.1775198026870712,2.3406294158220304,13.398216896660195,-2.5374109731658034,2.3258084868308226,0.3176267135516855,0.4828659830633908,24.050822193957593,88.8402967372563,58.986633668292626,-6.029700115323067,-15.021224319934845,-2.512895129621029,41.16809666156769,-15.655522048473358,-9.374882280826569,3.610723636635517,-7.479027259086344,False,0
GUIDED_NOGPS,2.9168357849121094,29.073003022153216,24.57389479680258,91.76122378320292,59.84757454073999,3.8520364285293254,-0.29550461842596754,56.40111424342487,50.440492708518335,-2.1850993916750814,2.261082471427123,13.51986085823083,-2.4837165333316293,2.194977349088172,0.35263098166764895,0.48186400355434583,23.9059169713356,88.65875170418629,59.07408139187665,-9.826887398958206,-15.465930104255676,-2.357303537428379,-59.25929546356201,-21.576572954654694,-63.483524322509766,3.4728380500866574,-7.430118835760821,False,0
GUIDED_NOGPS,2.955526828765869,25.84975686719217,24.477637312985998,91.35642523575366,59.787473239880924,3.6790506291064213,-0.5876802685366531,55.87426963625095,49.91484020376467,-2.103547573315364,2.2671993327156925,13.826853955760807,-2.454033245199403,2.219980127327273,0.17581737539127706,0.48090600113650284,23.755007610454303,88.41094599631472,59.00777333962175,-9.676258265972137,-15.858983993530273,-4.419270157814026,-30.06228506565094,-4.109105467796326,-58.727383613586426,3.3977582332277154,-7.494961236646337,False,0
GUIDED_NOGPS,2.984963893890381,33.97463022664312,24.33067558896095,90.89111074762063,59.68237883076826,3.4774229034518296,-0.8815843027462922,55.34726983991415,49.378999547456644,-2.0789708451343656,2.19818112492636,14.05469625986774,-2.273041947210108,2.166506084246888,-0.28449555170554675,0.4800164699565186,22.636750791798235,87.22260726246327,58.89773166606134,-9.114839881658554,-17.16235727071762,-6.777649372816086,-24.076838791370392,-26.66308581829071,-89.02699947357178,2.7425878871807132,-8.067935560834952,False,0
GUIDED_NOGPS,3.017392635345459,30.840470588235295,24.177019639723202,90.42869347033955,59.61843938414473,3.2910580241797676,-1.1767466583965493,54.820832407556225,48.83328315040971,-2.085843296099868,2.02249201088753,14.382553023991168,-2.2910023813445375,2.1884053492224314,-0.3270714577505778,0.47902497192585947,22.17489686401897,86.84356589557436,58.87650642806571,-8.160258829593658,-16.17715060710907,-3.86362187564373,25.258758664131165,17.956632375717163,-48.610711097717285,2.502022490305836,-6.478174880568634,False,0
GUIDED_NOGPS,3.0513603687286377,29.499542839459284,24.055799706795128,89.96613261833647,59.56242324495719,3.1174216921402085,-1.47270002487328,54.29566716651883,48.278008652934695,-1.886171040007596,1.9377037500782843,14.657778911691416,-2.2836564811785056,2.259706282870406,-0.18777545526428918,0.4779959919733589,21.893271717367117,86.4627337951149,58.88559545280037,-4.666632413864136,-16.11352413892746,-3.098682500422001,20.48729807138443,-10.883919894695282,19.978955388069153,2.486379717372249,-6.256741855224113,False,0
GUIDED_NOGPS,3.085026979446411,29.70533368272697,23.865742825356254,89.45667385008717,59.52220960815404,2.9364409354416083,-1.768980550252035,53.77247524704678,47.71349868705988,-1.9138988332734974,1.8115093884165403,14.916948732200257,-2.13196495408447,2.163883311977279,-0.3982262480174088,0.47691573917309266,21.644626414916626,85.65536841299257,58.82650728511988,-8.767395466566086,-17.131677269935608,-1.9025977700948715,36.40159368515015,1.8794659525156021,58.273184299468994,2.2151401484988567,-5.970036980850011,False,0
GUIDED_NOGPS,3.1181108951568604,30.22616817041884,23.648800388074328,88.94548429598167,59.47140423692378,2.750204850847137,-2.065128547944032,53.251948110990966,47.140080638753474,-1.8863624987477678,1.723427695766879,15.216305678238161,-2.115106413825162,2.130799918077985,-0.5708598863212491,0.4758374252251439,21.068334952668984,85.32013162907963,58.60968143193347,-8.767395466566086,-17.131677269935608,-1.9025977700948715,36.40159368515015,1.8794659525156021,58.273184299468994,1.9234282989524092,-5.970036980850011,False,0
GUIDED_NOGPS,3.1513478755950928,30.093229155456065,23.323104379212506,88.42746212498325,59.43862569671497,2.558019854274124,-2.360689203341307,52.73476658051254,46.558086410145634,-1.9044898208049816,1.5881254902903346,15.437170090334279,-2.0734975657417873,1.942278117482329,-0.7845323493455478,0.4747048401066794,20.573808509427057,85.24351095030255,58.623819659841004,-14.664705097675323,-18.2533398270607,-0.6752290297299623,-6.582164019346237,-19.783031940460205,119.29293870925903,1.8452842824970919,-6.61572123007435,False,0
GUIDED_NOGPS,3.1850388050079346,29.684730528327258,23.025722729470427,87.8946974976793,59.401757540281324,2.328873429204753,-2.655213280462723,52.22159986678566,45.96785218175071,-1.9310142201164915,1.432711579359276,15.717762799174865,-2.0159646210460758,2.0035795970507086,-1.325675056411205,0.47356193218734066,20.513249680645515,84.93100828185271,58.51507901935429,-12.634482979774475,-19.160808622837067,-0.6284828763455153,30.75920343399048,-7.827980071306229,46.98464572429657,1.670171475782873,-9.009499336036011,False,0
GUIDED_NOGPS,3.21858811378479,29.810898597695758,22.642012223357256,87.32866319062533,59.2962284211274,2.1175785224103327,-2.948257828599635,51.71310459870095,45.369718174689694,-1.7795676885978582,1.3414520344765604,16.02343767019503,-1.8914388824763368,1.852800375139731,-1.246040131600302,0.472539305380947,19.25007782593388,84.08148488515295,58.22136162020867,-14.950607717037201,-19.416537880897522,-4.443627968430519,-109.78084802627563,-46.6291606426239,-13.502836227416992,0.9546830486166633,-5.964413600728975,False,0
GUIDED_NOGPS,3.2524163722991943,29.567335889916535,22.30011476256291,86.76996011466287,59.11826819236094,1.9157796453731206,-3.2393868889614685,51.20992385156941,44.764028412912154,-1.8573487089271998,1.1474249297333041,16.243275846368356,-1.8962602843291776,1.9286045077680007,-1.2394003366856339,0.47164504407965074,18.797048387544606,83.85596907455479,58.18555731518039,-11.035854369401932,-19.119741022586823,-9.18392539024353,35.85514426231384,0.6594507023692131,-76.84970498085022,0.7860037933938537,-5.3005572063309945,False,0
GUIDED_NOGPS,3.287811517715454,28.25779155157313,21.943137372613098,86.22187251477975,58.93864564250527,1.7182911957293576,-3.528172201321154,50.712686175825134,44.151130485418605,-1.8339115551205358,0.991924360777151,16.476624136719963,-1.911686042414778,1.9052225774159248,-1.2033375699268658,0.4707366676446403,18.310982517775177,83.68436544542834,58.15218478273995,-11.035854369401932,-19.119741022586823,-9.18392539024353,35.85514426231384,0.6594507023692131,-76.84970498085022,0.6695738398428207,-5.3005572063309945,False,0
GUIDED_NOGPS,3.331341028213501,22.973675850358767,21.508796941558955,85.62052411868146,58.76045477194473,1.5181940872601403,-3.8141939106611957,50.22200462572876,43.531375308482716,-1.7973422954174645,0.921020914055189,16.68970725580414,-1.7928755253507926,1.8166074892404398,-0.9264107565558767,0.4698004655063813,18.468693318224368,82.81310550757831,57.86057385876666,-17.088380455970764,-21.321341395378113,-8.310569822788239,6.43780454993248,-15.704499185085297,-62.69228458404541,0.4239271649349805,-5.323744844789541,False,0
GUIDED_NOGPS,3.3534932136535645,45.149561885078256,21.104089537435353,85.0132124563609,58.59540195533984,1.2975783273449482,-4.097041273819357,49.738475788071426,42.905116887873675,-1.754172511655222,0.8252111825247757,16.886298883137325,-1.4774330068277002,1.6973978792611717,-3.1887380502202394,0.4688501337502076,17.95476545374892,82.3946466926692,57.783020271909265,-13.831450045108795,-20.934683084487915,-7.23322257399559,36.8802011013031,-3.1323395669460297,13.87418657541275,0.3455728335289488,-6.682618237239571,False,0
GUIDED_NOGPS,3.390512228012085,27.016798928166548,20.709941322532273,84.52390092015924,58.48948401070291,1.0985092862958907,-4.37631336613368,49.262678810877354,42.272712081078055,-1.8103777114484338,0.7754420486421257,17.027897242368155,-1.998418937622358,1.82708180156414,-1.4981249543772925,0.46774927259321686,16.579756569498386,81.6291974183975,57.607462376558786,-13.324207067489624,-21.333272755146027,-4.14547398686409,-6.442126631736755,-21.334174275398254,71.99042439460754,-0.04107010405832465,-8.70345478102702,False,0
GUIDED_NOGPS,3.424736976623535,29.224526198439243,20.29925479207347,83.9071802122736,58.33215295323146,0.9517824730359212,-4.651619788088824,48.79517443210819,41.6345203595224,-1.6978260123235556,0.7239049629815003,17.23846685183777,-1.5920758535506594,1.779832339391503,-1.138742383024434,0.466741698446418,16.285725649191118,81.47211641540838,57.45821420095656,-10.71421280503273,-20.81155776977539,-6.168032810091972,62.129610776901245,-5.5820271372795105,43.38431656360626,-0.22838914294675117,-0.7472096751512897,False,0
GUIDED_NOGPS,3.455451488494873,32.56194394845121,19.770820320533563,83.24810030328256,58.11195227139976,0.734678115550236,-4.922581371961593,48.336504008365054,40.99090357079542,-1.7804205017487578,0.7076281953025368,17.372316361455216,-1.3553239302336384,1.5012095471590559,-2.398678541209985,0.46585297634073275,14.788846883735058,80.36868484175946,57.02301721623482,-15.275336802005768,-22.14312255382538,-9.41966250538826,-24.399565160274506,-36.46232187747955,-55.645591020584106,-0.801812171968705,-4.70560077207234,False,0
GUIDED_NOGPS,3.4953479766845703,25.070705742413285,19.243362573365374,82.63232377227975,57.900301668298354,0.536576535774168,-5.18883088846623,47.88718854359319,40.342225700869996,-1.846524139753199,0.6201122877760759,17.471596576135937,-1.5865679323596178,1.5973024169011973,-1.6627863659414905,0.46492284117420063,13.959841781187208,79.71018568474533,56.92836549698262,-15.275336802005768,-22.14312255382538,-9.41966250538826,-24.399565160274506,-36.46232187747955,-55.645591020584106,-1.024223715649224,-4.70560077207234,False,0
GUIDED_NOGPS,3.5243868827819824,34.436841629925205,18.680711597370586,81.94239082671199,57.675592517300515,0.3237248976918062,-5.450013753400535,47.44772771778477,39.68885263632542,-1.9134217872486543,0.587719848833026,17.54424246814819,-1.1270586556218687,1.3541057464299797,-2.731039405286756,0.4640236327536602,13.189704327251896,79.22078279465612,56.7047861145689,-14.075608551502228,-22.261033952236176,-8.983038365840912,3.156553953886032,-25.207114219665527,-106.26152753829956,-1.3113909538274986,-3.6285192135490565,False,0
GUIDED_NOGPS,3.558178663253784,29.596545203082222,18.154030732616118,81.35557978932802,57.49490882840115,0.16429284285765564,-5.705788734291221,47.018598915682176,39.03115192657002,-1.9193924398003033,0.5572804704666294,17.557928459697607,-1.5146269636536158,1.4768125217983286,-1.7874820863446843,0.4630196538635523,12.611820927301519,78.6833318144013,56.709303219743454,-14.303368330001831,-21.65646106004715,-7.678994536399841,20.31957507133484,-5.264809355139732,-14.525759220123291,-1.3551440151471272,-2.80207400794033,False,0
GUIDED_NOGPS,3.5921361446380615,29.45272737486658,17.610445985520787,80.68639037222131,57.38392987423162,0.043668458966420694,-5.955828657039685,46.600256255481824,38.36949254606298,-1.8217969339670488,0.6290317144193192,17.544940854990827,-1.2307277919572333,1.4200548573147216,-1.3955646569583302,0.46186667033385076,12.553009088460723,78.25695218689611,56.37794211108706,-13.573077321052551,-22.083088755607605,-1.103175152093172,37.027597427368164,-12.138426303863525,82.75492191314697,-1.3988526989683678,1.3147300932876491,False,0
GUIDED_NOGPS,3.626542329788208,29.067764425409234,17.10918045414482,80.02445704008174,57.2042277665405,-0.049727855949282466,-6.199821112567879,46.19312961753675,37.704244656536446,-1.8010523687972508,0.5305373450191205,17.45602032973372,-1.219106084453335,1.4735579041437268,-1.115291626697976,0.46084188768700024,12.095046688345736,78.01965099321706,56.30283593139423,-10.56128665804863,-22.6578950881958,-6.034297123551369,159.69538688659668,22.970597445964813,43.60745847225189,-1.4237140445793819,2.5103412605634525,False,0
