E-kp,E-ki,E-kd,E-I-Tot,E-P,E-I,E-D,E-PID,N-kp,N-ki,N-kd,N-I-Tot,N-P,N-I,N-D,N-PID,D-kp,D-ki,D-kd,D-I-Tot,D-P,D-I,D-D,D-PID,Y-kp,Y-ki,Y-kd,Y-I-Tot,Y-P,Y-I,Y-D,Y-PID,errorN,desiredN,actualN,errorE,desiredE,actualE,errorD,desiredD,actualD,errorY,desiredY,actualY,roll,pitch,yaw-rate,thrust,dt,Time,Mode
0.035,0.005,0.05,-0.0009742315210889301,-0.0010328209167420974,-4.871157605444651e-06,-0.04469117654060509,-0.04572886861495263,0.035,0.005,0.05,-0.0009666566885345694,-0.001024790540662479,-4.833283442672847e-06,-0.04434369427214587,-0.045373318096251024,0.002,8e-05,0,-0.001096598314110319,-6.643124212324667e-05,-8.772786512882552e-08,-0.0,-6.651896998837549e-05,0.1,0.02,0,-0.0009634620161742982,-0.0029182964103384224,-1.9269240323485966e-05,-0.0,-0.0029375656506619085,-0.029279729733213685,0.0,0.029279729733213685,-0.029509169049774207,0.0,0.029509169049774207,-0.03321562106162333,0.0,0.03321562106162333,-0.029182964103384224,0,0.029182964103384224,-0.04575197307412812,0.04535002072426688,0.0029375656506619085,0.4,0.033014535903930664,0.033316612243652344,STABILIZE
0.035,0.005,0.05,-0.0035105882636829876,-0.0026562804040801222,-1.755294131841494e-05,-0.05704394887561488,-0.05971778222101342,0.035,0.005,0.05,-0.0034627892977698313,-0.002614154398925659,-1.7313946488849158e-05,-0.05614147848024196,-0.058772946825656466,0.002,8e-05,0,-0.0043454836046764485,-0.00019442849293034578,-3.476386883741159e-07,-0.0,-0.0001947761316187199,0.1,0.02,0,-0.0034660621752883045,-0.0074883649902424245,-6.93212435057661e-05,-0.0,-0.00755768623374819,-0.07469012568359025,0.0,0.07469012568359025,-0.07589372583086063,0.0,0.07589372583086063,-0.09721424646517289,0.0,0.09721424646517289,-0.07488364990242424,0,0.07488364990242424,-0.059794545453086434,0.058694847525371505,0.00755768623374819,0.4,0.03341984748840332,0.06668233871459961,STABILIZE
0.035,0.005,0.05,-0.006541430279382298,-0.0031640334490833436,-3.270715139691149e-05,-0.04524108746354069,-0.048437828064020944,0.035,0.005,0.05,-0.006449465885175212,-0.003117927155290646,-3.224732942587606e-05,-0.044582907147685515,-0.04773308163240204,0.002,8e-05,0,-0.008454332798077231,-0.0002451093735256851,-6.763466238461785e-07,-0.0,-0.00024578572014953125,0.1,0.02,0,-0.006435410541720952,-0.0088566783984767,-0.00012870821083441904,-0.0,-0.008985386609311119,-0.08908363300830417,0.0,0.08908363300830417,-0.09040095568809552,0.0,0.09040095568809552,-0.12255468676284254,0.0,0.12255468676284254,-0.08856678398476699,0,0.08856678398476699,-0.048511555102798976,0.04765815031233704,0.008985386609311119,0.4,0.03352665901184082,0.10023164749145508,STABILIZE
0.035,0.005,0.05,-0.010111678399922257,-0.0037357247363046025,-5.055839199961129e-05,-0.04003477964142887,-0.043821062769733084,0.035,0.005,0.05,-0.009939985320134905,-0.0036523007240625046,-4.9699926600674525e-05,-0.03914270206913306,-0.04284470271979624,0.002,8e-05,0,-0.013581201510840933,-0.00030654244464525,-1.0864961208672747e-06,-0.0,-0.0003076289407661173,0.1,0.02,0,-0.009966864359842327,-0.010557521044606305,-0.00019933728719684655,-0.0,-0.010756858331803152,-0.1043514492589287,0.0,0.1043514492589287,-0.10673499246584578,0.0,0.10673499246584578,-0.153271222322625,0.0,0.153271222322625,-0.10557521044606305,0,0.10557521044606305,-0.04389993548228192,0.04276388380477255,0.010756858331803152,0.4,0.033449649810791016,0.13368010520935059,STABILIZE
0.035,0.005,0.05,-0.014124209574269415,-0.004198866204853761,-7.062104787134708e-05,-0.035984141753435485,-0.04025362900616059,0.035,0.005,0.05,-0.013873974311077668,-0.0041166766578514735,-6.936987155538835e-05,-0.03528102493378207,-0.03946707146318893,0.002,8e-05,0,-0.019661815260030663,-0.0003635992553880142,-1.5729452208024531e-06,-0.0,-0.00036517220060881665,0.1,0.02,0,-0.01396734268877143,-0.011960724703064207,-0.0002793468537754286,-0.0,-0.012240071556839635,-0.11761933308147066,0.0,0.11761933308147066,-0.11996760585296457,0.0,0.11996760585296457,-0.1817996276940071,0.0,0.1817996276940071,-0.11960724703064206,0,0.11960724703064206,-0.04033593033824566,0.03938295445740795,0.012240071556839635,0.4,0.0334467887878418,0.1671130657196045,STABILIZE
0.035,0.005,0.05,-0.01878504945174351,-0.004499870287472171,-9.392524725871755e-05,-0.02941822010444374,-0.03401201563917463,0.035,0.005,0.05,-0.01842879508648515,-0.004397512725351295,-9.214397543242575e-05,-0.028625648878656082,-0.0331153055794398,0.002,8e-05,0,-0.02714446208447268,-0.00041281266285671275,-2.1715569667578146e-06,-0.0,-0.00041498421982347054,0.1,0.02,0,-0.018522945599283767,-0.012566479566183631,-0.00037045891198567534,-0.0,-0.012936938478169306,-0.12564322072432269,0.0,0.12564322072432269,-0.12856772249920487,0.0,0.12856772249920487,-0.20640633142835638,0.0,0.20640633142835638,-0.1256647956618363,0,0.1256647956618363,-0.03408456439721133,0.0330406286458277,0.012936938478169306,0.4,0.03625202178955078,0.20342516899108887,STABILIZE
0.035,0.005,0.05,-0.023489922058934264,-0.004847103435635937,-0.00011744961029467132,-0.01845912233512975,-0.023423675381060355,0.035,0.005,0.05,-0.022976773474624873,-0.004685466219990316,-0.00011488386737312437,-0.017459498247906057,-0.0222598483352695,0.002,8e-05,0,-0.03514685434118834,-0.0004711033644026235,-2.8117483472950676e-06,-0.0,-0.00047391511274991855,0.1,0.02,0,-0.023076776361047383,-0.013404272897186653,-0.0004615355272209477,-0.0,-0.013865808424407601,-0.13387046342829473,0.0,0.13387046342829473,-0.13848866958959818,0.0,0.13848866958959818,-0.23555168220131173,0.0,0.23555168220131173,-0.13404272897186653,0,0.13404272897186653,-0.023475687857252115,0.022204988085908955,0.013865808424407601,0.4,0.033972978591918945,0.23740243911743164,STABILIZE
0.035,0.005,0.05,-0.028446776067599103,-0.005189150181906481,-0.00014223388033799553,-0.017055121231745567,-0.02238650529399004,0.035,0.005,0.05,-0.027694444943003393,-0.004938758679500719,-0.00013847222471501696,-0.015330938524179966,-0.0204081694283957,0.002,8e-05,0,-0.04456994494702753,-0.0005636966193930463,-3.565595595762203e-06,-0.0,-0.0005672622149888086,0.1,0.02,0,-0.02783839548365788,-0.014242188229568556,-0.0005567679096731576,-0.0,-0.014798956139241714,-0.14110739084287768,0.0,0.14110739084287768,-0.14826143376875658,0.0,0.14826143376875658,-0.28184830969652314,0.0,0.28184830969652314,-0.14242188229568556,0,0.14242188229568556,-0.022437165295039137,0.02035245961104064,0.014798956139241714,0.4,0.03343319892883301,0.2708015441894531,STABILIZE
0.035,0.005,0.05,-0.03358298929198078,-0.005376914821582512,-0.0001679149464599039,-0.013776553852362487,-0.019321383620404902,0.035,0.005,0.05,-0.03246077071225331,-0.004989693097536031,-0.00016230385356126657,-0.011201797808642541,-0.01635379475973984,0.002,8e-05,0,-0.05503296598829267,-0.0006259060680096492,-4.402637279063414e-06,-0.0,-0.0006303087052887126,0.1,0.02,0,-0.03281761025832559,-0.014893025298795444,-0.0006563522051665117,-0.0,-0.015549377503961955,-0.14256265992960088,0.0,0.14256265992960088,-0.15362613775950032,0.0,0.15362613775950032,-0.3129530340048246,0.0,0.3129530340048246,-0.14893025298795443,0,0.14893025298795443,-0.01936382709956765,0.016303517047207776,0.015549377503961955,0.4,0.03343319892883301,0.30425405502319336,STABILIZE
0.035,0.005,0.05,-0.03885490175662443,-0.005516809642109324,-0.00019427450878312214,-0.01101528382755479,-0.016726367978447235,0.035,0.005,0.05,-0.037217151181011654,-0.004977329537917544,-0.00018608575590505828,-0.0071293191304633435,-0.012292734424285946,0.002,8e-05,0,-0.06653369011035092,-0.0006877125429563655,-5.322695208828074e-06,-0.0,-0.0006930352381651936,0.1,0.02,0,-0.037980663638704976,-0.015436839158805567,-0.0007596132727740996,-0.0,-0.016196452431579668,-0.14220941536907267,0.0,0.14220941536907267,-0.15762313263169497,0.0,0.15762313263169497,-0.3438562714781827,0.0,0.3438562714781827,-0.15436839158805565,0,0.15436839158805565,-0.016759426766962248,0.012247625068529784,0.016196452431579668,0.4,0.033446311950683594,0.337705135345459,STABILIZE
0.035,0.005,0.05,-0.0446045347827758,-0.005516809642109324,-0.00022302267391387899,-0.008642970168425527,-0.014382802484448731,0.035,0.005,0.05,-0.04240453667185987,-0.004977329537917544,-0.00021202268335929937,-0.004915956331160156,-0.010105308552437,0.002,8e-05,0,-0.07907656590358766,-0.0006877125429563655,-6.326125272287013e-06,-0.0,-0.0006940386682286524,0.1,0.02,0,-0.04361157318636918,-0.015436839158805567,-0.0008722314637273835,-0.0,-0.01630907062253295,-0.14220941536907267,0.0,0.14220941536907267,-0.15762313263169497,0.0,0.15762313263169497,-0.3438562714781827,0.0,0.3438562714781827,-0.15436839158805565,0,0.15436839158805565,-0.01440997634290587,0.010066521248351595,0.01630907062253295,0.4,0.036477088928222656,0.3741614818572998,STABILIZE
0.035,0.005,0.05,-0.04998106597559357,-0.005598591412033174,-0.00024990532987796785,-0.006417903297535612,-0.012266400039446753,0.035,0.005,0.05,-0.047291971638484455,-0.005089294649228017,-0.00023645985819242227,-0.0034460051821723,-0.00877175968959274,0.002,8e-05,0,-0.0915482379036797,-0.0007421013740679258,-7.323859032294377e-06,-0.0,-0.0007494252331002202,0.1,0.02,0,-0.0489975316319025,-0.01602402293402815,-0.00097995063263805,-0.0,-0.0170039735666662,-0.1454084185493719,0.0,0.1454084185493719,-0.15995975462951925,0.0,0.15995975462951925,-0.37105068703396293,0.0,0.37105068703396293,-0.16024022934028148,0,0.16024022934028148,-0.012290884188028593,0.008737419748196381,0.0170039735666662,0.4,0.03361177444458008,0.4078359603881836,STABILIZE
0.035,0.005,0.05,-0.055403003612054934,-0.005601688472606203,-0.00027701501806027466,-0.003520951766114526,-0.009399655256781004,0.035,0.005,0.05,-0.052102172946447145,-0.004969671549987751,-0.0002605108647322357,-0.0002725229880677108,-0.005502705402787697,0.002,8e-05,0,-0.10476668793926325,-0.0007803814182285622,-8.38133503514106e-06,-0.0,-0.0007887627532637032,0.1,0.02,0,-0.054336122758641005,-0.015758796619919635,-0.00108672245517282,-0.0,-0.016845519075092456,-0.14199061571393573,0.0,0.14199061571393573,-0.16004824207446292,0.0,0.16004824207446292,-0.39019070911428105,0.0,0.39019070911428105,-0.15758796619919635,0,0.15758796619919635,-0.009414754484000363,0.005476831538599188,0.016845519075092456,0.4,0.033876895904541016,0.44167256355285645,STABILIZE
0.035,0.005,0.05,-0.06087953320762125,-0.00573125872999,-0.00030439766603810627,-0.0030232617269670184,-0.009058918122995125,0.035,0.005,0.05,-0.056940853311569554,-0.005063741298264876,-0.0002847042665578478,-0.0006408806445356588,-0.005989326209358384,0.002,8e-05,0,-0.11957265213943954,-0.0008854075518072411,-9.565812171155164e-06,-0.0,-0.0008949733639783963,0.1,0.02,0,-0.05968581232447352,-0.01599576858816163,-0.0011937162464894704,-0.0,-0.017189484834651103,-0.14467832280756787,0.0,0.14467832280756787,-0.1637502494282857,0.0,0.1637502494282857,-0.44270377590362053,0.0,0.44270377590362053,-0.1599576858816163,0,0.1599576858816163,-0.009075603729054233,0.005964012320109146,0.017189484834651103,0.4,0.03344440460205078,0.47510361671447754,STABILIZE
0.035,0.005,0.05,-0.06626525195066961,-0.005633131877049263,-0.00033132625975334807,-0.0009903796139939531,-0.006954837750796564,0.035,0.005,0.05,-0.06173342779895119,-0.005012739321534247,-0.00030866713899475596,-0.00031102711943802866,-0.005632433579967032,0.002,8e-05,0,-0.1351124122592705,-0.0009287792641361073,-1.0808992980741642e-05,-0.0,-0.000939588257116849,0.1,0.02,0,-0.06495539991451521,-0.01574761658622345,-0.0012991079982903042,-0.0,-0.017046724584513756,-0.14322112347240704,0.0,0.14322112347240704,-0.16094662505855034,0.0,0.16094662505855034,-0.46438963206805367,0.0,0.46438963206805367,-0.1574761658622345,0,0.1574761658622345,-0.006970292079910552,0.0056132971142975755,0.017046724584513756,0.4,0.0334627628326416,0.508580207824707,STABILIZE
0.035,0.005,0.05,-0.0715931589489052,-0.00557512710866316,-0.00035796579474452596,-0.0004949000504726116,-0.006427992953880298,0.035,0.005,0.05,-0.06651113833376726,-0.004999400989698142,-0.0003325556916688363,-0.0001970904376765496,-0.005529047119043528,0.002,8e-05,0,-0.15156138530142998,-0.0009835555157012446,-1.21249108241144e-05,-0.0,-0.000995680426525359,0.1,0.02,0,-0.07017777339442804,-0.015613419233088607,-0.001403555467888561,-0.0,-0.01701697470097717,-0.14284002827708978,0.0,0.14284002827708978,-0.15928934596180455,0.0,0.15928934596180455,-0.49177775785062233,0.0,0.49177775785062233,-0.15613419233088607,0,0.15613419233088607,-0.006443036029877937,0.005511509972542284,0.01701697470097717,0.4,0.033447980880737305,0.5420372486114502,STABILIZE
0.035,0.005,0.05,-0.07684816547885562,-0.005499000775559398,-0.0003842408273942781,0.0008505729468092347,-0.005032668656144441,0.035,0.005,0.05,-0.07120116869948231,-0.004907792306531634,-0.00035600584349741157,0.0015372084766143166,-0.0037265896734147283,0.002,8e-05,0,-0.16867829317751726,-0.001023523422302913,-1.3494263454201382e-05,-0.0,-0.0010370176857571144,0.1,0.02,0,-0.07524439420949305,-0.015148194737295995,-0.0015048878841898612,0.0,-0.016653082621485855,-0.14022263732947524,0.0,0.14022263732947524,-0.15711430787312566,0.0,0.15711430787312566,-0.5117617111514565,0.0,0.5117617111514565,-0.15148194737295995,0,0.15148194737295995,-0.005042503632201795,0.00371327099950592,0.016653082621485855,0.4,0.0334470272064209,0.5754709243774414,STABILIZE
0.035,0.005,0.05,-0.08335628931292668,-0.00559732813109818,-0.00041678144656463344,0.00018635293535732293,-0.005827756642305491,0.035,0.005,0.05,-0.07674277502193802,-0.004766072335281595,-0.0003837138751096901,0.0015233122278990058,-0.0036264739824922792,0.002,8e-05,0,-0.19284088584273454,-0.001187491318265976,-1.5427270867418765e-05,-0.0,-0.0012029185891333947,0.1,0.02,0,-0.08109011946909943,-0.01436465881565666,-0.0016218023893819886,0.0,-0.015986461205038646,-0.13617349529375983,0.0,0.13617349529375983,-0.15992366088851942,0.0,0.15992366088851942,-0.593745659132988,0.0,0.593745659132988,-0.14364658815656658,0,0.14364658815656658,-0.005836830271774395,0.0036118517973647837,0.015986461205038646,0.4,0.0406951904296875,0.6162478923797607,STABILIZE
0.035,0.005,0.05,-0.08865551265173141,-0.005544203555165355,-0.00044327756325865706,0.0017469850883383626,-0.004240496030085649,0.035,0.005,0.05,-0.08112063046921605,-0.0045802413265098475,-0.0004056031523460803,0.003914063885418216,-0.0010717805934377118,0.002,8e-05,0,-0.21332555392003355,-0.0012246664660017887,-1.7066044313602686e-05,-0.0,-0.0012417325103153915,0.1,0.02,0,-0.0857664354384828,-0.013978570046929414,-0.001715328708769656,0.0,-0.01569389875569907,-0.13086403790028134,0.0,0.13086403790028134,-0.15840581586186728,0.0,0.15840581586186728,-0.6123332330008944,0.0,0.6123332330008944,-0.13978570046929414,0,0.13978570046929414,-0.004243098252600313,0.0010614317879270492,0.01569389875569907,0.4,0.03345346450805664,0.6496450901031494,STABILIZE
0.035,0.005,0.05,-0.09386649470746963,-0.0054557322740854215,-0.00046933247353734815,0.001665286615464625,-0.004259778132158145,0.035,0.005,0.05,-0.08536797783259553,-0.004446837437124565,-0.00042683988916297766,0.004618755157180948,-0.0002549221691065945,0.002,8e-05,0,-0.23427208336031605,-0.0012531628173518472,-1.8741766668825287e-05,-0.0,-0.0012719045840206725,0.1,0.02,0,-0.09020878982727151,-0.013288581665523703,-0.0018041757965454302,0.0,-0.015092757462069133,-0.127052498203559,0.0,0.127052498203559,-0.15587806497386916,0.0,0.15587806497386916,-0.6265814086759236,0.0,0.6265814086759236,-0.13288581665523702,0,0.13288581665523702,-0.004260357914404056,0.00024504181008445995,0.015092757462069133,0.4,0.033429861068725586,0.6830658912658691,STABILIZE
0.035,0.005,0.05,-0.09907677398686651,-0.005294406600729576,-0.0004953838699343325,0.002508015250415538,-0.0032817752202483706,0.035,0.005,0.05,-0.08944975688577209,-0.004147685143733646,-0.00044724878442886043,0.006986308515287323,0.0023913745871248166,0.002,8e-05,0,-0.2563215870240161,-0.0012803156604185237,-2.0505726961921288e-05,-0.0,-0.001300821387380445,0.1,0.02,0,-0.09465653837536261,-0.012913039237929975,-0.0018931307675072522,0.0,-0.014806170005437227,-0.11850528982096133,0.0,0.11850528982096133,-0.15126876002084502,0.0,0.15126876002084502,-0.6401578302092619,0.0,0.6401578302092619,-0.12913039237929974,0,0.12913039237929974,-0.0032763773284054426,-0.0023987648100831896,0.014806170005437227,0.4,0.03444385528564453,0.7175350189208984,STABILIZE
0.035,0.005,0.05,-0.10402646220542448,-0.0051748215867703316,-0.0005201323110271224,0.0028783280672747447,-0.002816625830522709,0.035,0.005,0.05,-0.09323590626844179,-0.00395835993926188,-0.00046617953134220894,0.007819568840410024,0.003395029369805935,0.002,8e-05,0,-0.2782430831391792,-0.001309633210959208,-2.225944665113434e-05,-0.0,-0.0013318926576103424,0.1,0.02,0,-0.09884470471158799,-0.012510463925744881,-0.00197689409423176,0.0,-0.01448735801997664,-0.11309599826462513,0.0,0.11309599826462513,-0.14785204533629517,0.0,0.14785204533629517,-0.654816605479604,0.0,0.654816605479604,-0.1251046392574488,0,0.1251046392574488,-0.0028092061166871984,-0.0034011713401385494,0.01448735801997664,0.4,0.0334773063659668,0.7510006427764893,STABILIZE
0.035,0.005,0.05,-0.10900360126944243,-0.005041553906964536,-0.0005450180063472121,0.00467064754818205,-0.0009159243651296984,0.035,0.005,0.05,-0.09701712274110123,-0.0038301535150246633,-0.0004850856137055062,0.007884704149829645,0.0035694650210994754,0.002,8e-05,0,-0.301345252454803,-0.001337209193295814,-2.410762019638424e-05,-0.0,-0.0013613168134921983,0.1,0.02,0,-0.10299092506891663,-0.01199966094850783,-0.0020598185013783327,0.0,-0.014059479449886163,-0.10943295757213323,0.0,0.10943295757213323,-0.14404439734184388,0.0,0.14404439734184388,-0.6686045966479071,0.0,0.6686045966479071,-0.1199966094850783,0,0.1199966094850783,-0.0009084467030290888,-0.003571375444733653,0.014059479449886163,0.4,0.034552812576293945,0.7855503559112549,STABILIZE
0.035,0.005,0.05,-0.11354420229379854,-0.0047542376562732264,-0.0005677210114689927,0.0066727215867580045,0.0013507629190157855,0.035,0.005,0.05,-0.10042826225898062,-0.0035716346491825096,-0.000502141311294903,0.008507237865683573,0.00443346190520616,0.002,8e-05,0,-0.3243705635141153,-0.0013776376462485784,-2.5949645081129225e-05,-0.0,-0.0014035872913297077,0.1,0.02,0,-0.10690927279503101,-0.011722020442378571,-0.00213818545590062,0.0,-0.013860205898279191,-0.1020467042623574,0.0,0.1020467042623574,-0.13583536160780646,0.0,0.13583536160780646,-0.6888188231242892,0.0,0.6888188231242892,-0.11722020442378571,0,0.11722020442378571,0.0013598304102679269,-0.004430689131908584,0.013860205898279191,0.4,0.03342723846435547,0.8189742565155029,STABILIZE
0.035,0.005,0.05,-0.11798241136798338,-0.004644344958792037,-0.0005899120568399169,0.00685533489796513,0.0016210778823331756,0.035,0.005,0.05,-0.10368065755774489,-0.0034034551904450574,-0.0005184032877887245,0.008803736260049986,0.004881877781816204,0.002,8e-05,0,-0.3475685122961569,-0.0013871654042600713,-2.7805480983692554e-05,-0.0,-0.001414970885243764,0.1,0.02,0,-0.1107264254428146,-0.011412694599714331,-0.002214528508856292,0.0,-0.013627223108570624,-0.09724157686985878,0.0,0.09724157686985878,-0.13269557025120104,0.0,0.13269557025120104,-0.6935827021300356,0.0,0.6935827021300356,-0.1141269459971433,0,0.1141269459971433,0.0016307988282699708,-0.004878639088812966,0.013627223108570624,0.4,0.033446550369262695,0.8524250984191895,STABILIZE
0.035,0.005,0.05,-0.12235695683343276,-0.0045812840574496845,-0.0006117847841671638,0.006056237920374042,0.000863169078757193,0.035,0.005,0.05,-0.10683620858904391,-0.0033046806225556224,-0.0005341810429452195,0.0071666756011989135,0.0033278139356980718,0.002,8e-05,0,-0.37097910238722037,-0.0014009692338390035,-2.9678328190977632e-05,-0.0,-0.001430647562029981,0.1,0.02,0,-0.114368397073043,-0.010897397683307787,-0.00228736794146086,0.0,-0.013184765624768648,-0.09441944635873206,0.0,0.09441944635873206,-0.13089383021284812,0.0,0.13089383021284812,-0.7004846169195017,0.0,0.7004846169195017,-0.10897397683307786,0,0.10897397683307786,0.0008694968650522743,-0.003326166209138247,0.013184765624768648,0.4,0.033420562744140625,0.8858423233032227,STABILIZE
0.035,0.005,0.05,-0.12778030939310453,-0.004540150017138963,-0.0006389015469655227,0.005316736109780448,0.00013768454567596178,0.035,0.005,0.05,-0.11067942668016321,-0.0032173432374678814,-0.0005533971334008161,0.006147718855874498,0.0023769784850058004,0.002,8e-05,0,-0.4007677532476463,-0.0014250009404588083,-3.206142025981171e-05,-0.0,-0.00145706236071862,0.1,0.02,0,-0.11872666090683824,-0.01042432248950303,-0.002374533218136765,0.0,-0.012798855707639795,-0.09192409249908232,0.0,0.09192409249908232,-0.12971857191825606,0.0,0.12971857191825606,-0.7125004702294041,0.0,0.7125004702294041,-0.1042432248950303,0,0.1042432248950303,0.00014200896034746035,-0.002376724049501645,0.012798855707639795,0.4,0.0418086051940918,0.9277145862579346,STABILIZE
0.035,0.005,0.05,-0.13188768015225508,-0.004300071715997404,-0.0006594384007612754,0.006266526634894534,0.0013070165181358548,0.035,0.005,0.05,-0.11334022920456428,-0.002785636444321803,-0.0005667011460228214,0.008777065890495135,0.0054247283001505105,0.002,8e-05,0,-0.4252671661622836,-0.0014656471250661805,-3.402137329298269e-05,-0.0,-0.0014996684983591632,0.1,0.02,0,-0.12209778680829642,-0.010083672214766312,-0.0024419557361659286,0.0,-0.01252562795093224,-0.07958961269490865,0.0,0.07958961269490865,-0.1228591918856401,0.0,0.1228591918856401,-0.7328235625330902,0.0,0.7328235625330902,-0.10083672214766312,0,0.10083672214766312,0.0013165616463673192,-0.005422419638911064,0.01252562795093224,0.4,0.0334315299987793,0.9610941410064697,STABILIZE
0.035,0.005,0.05,-0.1358470425139794,-0.004139716738670556,-0.0006792352125698969,0.005179382146443236,0.0003604301952027829,0.035,0.005,0.05,-0.11581978879557872,-0.0025925069255301244,-0.0005790989439778936,0.008215797133448532,0.005044191263940514,0.002,8e-05,0,-0.44985729827548526,-0.001469156931490049,-3.5988583862038824e-05,-0.0,-0.0015051455153520879,0.1,0.02,0,-0.12541440396397097,-0.009907696024012256,-0.0025082880792794194,0.0,-0.012415984103291675,-0.07407162644371783,0.0,0.07407162644371783,-0.11827762110487301,0.0,0.11827762110487301,-0.7345784657450245,0.0,0.7345784657450245,-0.09907696024012255,0,0.09907696024012255,0.0003691521642029162,-0.005043560459882683,0.012415984103291675,0.4,0.03347516059875488,0.994617223739624,STABILIZE
0.035,0.005,0.05,-0.1397047430748907,-0.0039812220468072295,-0.0006985237153744535,0.005575895301970508,0.0008961495397888245,0.035,0.005,0.05,-0.11821336101244972,-0.002470213104923034,-0.0005910668050622486,0.007809421012821331,0.004748141102836049,0.002,8e-05,0,-0.47489657227446597,-0.001476629600706111,-3.799172578195728e-05,-0.0,-0.0015146213264880684,0.1,0.02,0,-0.1286953148029117,-0.009674182370971698,-0.002573906296058234,0.0,-0.012248088667029932,-0.07057751728351525,0.0,0.07057751728351525,-0.11374920133734939,0.0,0.11374920133734939,-0.7383148003530555,0.0,0.7383148003530555,-0.09674182370971697,0,0.09674182370971697,0.0009041653207834833,-0.004746621219646386,0.012248088667029932,0.4,0.03391408920288086,1.028482437133789,STABILIZE
0.035,0.005,0.05,-0.14336017086184383,-0.003822727094364451,-0.0007168008543092191,0.0063898359112975036,0.0018503079626238338,0.035,0.005,0.05,-0.1204617446676627,-0.0023512862565595585,-0.0006023087233383135,0.007980255445314225,0.0050266604654163535,0.002,8e-05,0,-0.4997067104183062,-0.0014826075918570364,-3.99765368334645e-05,-0.0,-0.001522584128690501,0.1,0.02,0,-0.13185639632634036,-0.009445016867586337,-0.002637127926526807,0.0,-0.012082144794113143,-0.06717960733027309,0.0,0.06717960733027309,-0.10922077412469859,0.0,0.10922077412469859,-0.7413037959285181,0.0,0.7413037959285181,-0.09445016867586335,0,0.09445016867586335,0.0018585917258139594,-0.005023603466423759,0.012082144794113143,0.4,0.03346824645996094,1.0619709491729736,STABILIZE
0.035,0.005,0.05,-0.14684706674926873,-0.003651893070368014,-0.0007342353337463437,0.007569284621822928,0.0031831562177085703,0.035,0.005,0.05,-0.12256967501481307,-0.0022076759605409004,-0.0006128483750740654,0.00861120634401795,0.005790682008402983,0.002,8e-05,0,-0.5247003521924214,-0.0014957897903621115,-4.197602817539371e-05,-0.0,-0.001537765818537505,0.1,0.02,0,-0.13485881739682298,-0.00898426652703149,-0.0026971763479364595,0.0,-0.01168144287496795,-0.0630764560154543,0.0,0.0630764560154543,-0.10433980201051468,0.0,0.10433980201051468,-0.7478948951810557,0.0,0.7478948951810557,-0.0898426652703149,0,0.0898426652703149,0.003192232381408271,-0.005785683542319542,0.01168144287496795,0.4,0.03341865539550781,1.0953712463378906,STABILIZE
0.035,0.005,0.05,-0.15022606388277748,-0.003531984319201169,-0.0007511303194138874,0.006540680059477326,0.002257565420862269,0.035,0.005,0.05,-0.12463340008685474,-0.0021571621121869796,-0.0006231670004342737,0.005352759056264513,0.00257242994364326,0.002,8e-05,0,-0.5498234081168195,-0.001500601443384836,-4.3985872649345566e-05,-0.0,-0.0015445873160341817,0.1,0.02,0,-0.1377608865227334,-0.008667037028155827,-0.0027552177304546684,0.0,-0.011422254758610495,-0.06163320320534226,0.0,0.06163320320534226,-0.10091383769146196,0.0,0.10091383769146196,-0.750300721692418,0.0,0.750300721692418,-0.08667037028155827,0,0.08667037028155827,0.0022614541083672596,-0.0025690120202471493,0.011422254758610495,0.4,0.03348398208618164,1.128854751586914,STABILIZE
0.035,0.005,0.05,-0.15340831745646574,-0.0033084997858322317,-0.0007670415872823288,0.0070687717739039745,0.002993230400789414,0.035,0.005,0.05,-0.12633954778431533,-0.0017738339076179136,-0.0006316977389215767,0.0069577284441799635,0.004552196797640473,0.002,8e-05,0,-0.5753842762113229,-0.0015185667220341203,-4.6030742096905835e-05,-0.0,-0.0015645974641310262,0.1,0.02,0,-0.14039866538568513,-0.007835499143757276,-0.0028079733077137027,0.0,-0.01064347245147098,-0.05068096878908324,0.0,0.05068096878908324,-0.09452856530949233,0.0,0.09452856530949233,-0.7592833610170601,0.0,0.7592833610170601,-0.07835499143757275,0,0.07835499143757275,0.0029994529683819438,-0.004548099142182686,0.01064347245147098,0.4,0.03366446495056152,1.162555456161499,STABILIZE
0.035,0.005,0.05,-0.1564737830168283,-0.003193411152216394,-0.0007823689150841415,0.006712221295668949,0.0027364412283684136,0.035,0.005,0.05,-0.12795912614815047,-0.001687175897793423,-0.0006397956307407523,0.006664384087745461,0.0043374125592112855,0.002,8e-05,0,-0.6009360905873464,-0.0015210451003003517,-4.807488724698772e-05,-0.0,-0.0015691199875473394,0.1,0.02,0,-0.14299013323217868,-0.0077132281341900635,-0.002859802664643574,0.0,-0.010573030798833637,-0.04820502565124065,0.0,0.04820502565124065,-0.09124031863475411,0.0,0.09124031863475411,-0.7605225501501759,0.0,0.7605225501501759,-0.07713228134190063,0,0.07713228134190063,0.0027422778249989125,-0.004333724799250347,0.010573030798833637,0.4,0.033597707748413086,1.1961326599121094,STABILIZE
0.035,0.005,0.05,-0.1594338373021535,-0.0030943598795155087,-0.0007971691865107675,0.006204438807048583,0.002312909741022307,0.035,0.005,0.05,-0.1295452330738194,-0.0016580728467526814,-0.000647726165369097,0.00589747565746938,0.003591676645347602,0.002,8e-05,0,-0.6265142500953681,-0.0015279262365627258,-5.012114000762945e-05,-0.0,-0.0015780473765703552,0.1,0.02,0,-0.1455386924125293,-0.007611983254442724,-0.0029107738482505863,0.0,-0.01052275710269331,-0.04737350990721947,0.0,0.04737350990721947,-0.08841028227187167,0.0,0.08841028227187167,-0.7639631182813629,0.0,0.7639631182813629,-0.07611983254442724,0,0.07611983254442724,0.0023176793906599115,-0.003588600679507485,0.01052275710269331,0.4,0.03348088264465332,1.2296338081359863,STABILIZE
0.035,0.005,0.05,-0.16221600923097612,-0.0029097948144169725,-0.0008110800461548806,0.006319652010979538,0.0025987771504076846,0.035,0.005,0.05,-0.1309956718835631,-0.0015169728669526708,-0.0006549783594178155,0.005874346264804681,0.0037023950384341944,0.002,8e-05,0,-0.6520433666170253,-0.0015257245628197546,-5.216346932936203e-05,-0.0,-0.0015778880321491166,0.1,0.02,0,-0.1478619419486288,-0.006942345379989056,-0.0029572388389725764,0.0,-0.009899584218961633,-0.04334208191293345,0.0,0.04334208191293345,-0.08313699469762778,0.0,0.08313699469762778,-0.7628622814098772,0.0,0.7628622814098772,-0.06942345379989055,0,0.06942345379989055,0.0026032613146518614,-0.003699243466675354,0.009899584218961633,0.4,0.033464908599853516,1.263096570968628,STABILIZE
0.035,0.005,0.05,-0.16489203788206588,-0.002802516273503218,-0.0008244601894103294,0.00621362374312488,0.0025866472802113325,0.035,0.005,0.05,-0.13231376312462015,-0.0013803933494957795,-0.0006615688156231007,0.006610952803951889,0.004568990638833009,0.002,8e-05,0,-0.6774907341934433,-0.001522867781205495,-5.419925873547547e-05,-0.0,-0.0015770670399409706,0.1,0.02,0,-0.15011412092941706,-0.006738950103681853,-0.0030022824185883413,0.0,-0.009741232522270195,-0.039439809985593696,0.0,0.039439809985593696,-0.08007189352866337,0.0,0.08007189352866337,-0.7614338906027475,0.0,0.7614338906027475,-0.06738950103681852,0,0.06738950103681852,0.0025920193934867177,-0.004565945145723621,0.009741232522270195,0.4,0.03342032432556152,1.2965176105499268,STABILIZE
0.035,0.005,0.05,-0.1674736985697132,-0.002701818190440483,-0.000837368492848566,0.0051771685946999475,0.0016379819114108983,0.035,0.005,0.05,-0.1335007924000116,-0.001242276843034962,-0.0006675039620000579,0.004537558853743833,0.0026277780487088133,0.002,8e-05,0,-0.7030545962896022,-0.0015287813540174465,-5.624436770316818e-05,-0.0,-0.0015850257217206148,0.1,0.02,0,-0.1523046620402501,-0.006549985273847519,-0.003046093240805002,0.0,-0.009596078514652521,-0.035493624086713194,0.0,0.035493624086713194,-0.07719480544115666,0.0,0.07719480544115666,-0.7643906770087232,0.0,0.7643906770087232,-0.06549985273847518,0,0.06549985273847518,0.0016409848850026797,-0.002625903810610347,0.009596078514652521,0.4,0.033443450927734375,1.3299589157104492,STABILIZE
0.035,0.005,0.05,-0.16988641227122925,-0.002499967641320228,-0.0008494320613561463,0.005905806527337967,0.002556406824661593,0.035,0.005,0.05,-0.13442869758463183,-0.0009614621636650191,-0.0006721434879231592,0.006175887080999339,0.004542281429411161,0.002,8e-05,0,-0.7291951445143405,-0.0015477657768192808,-5.8335611561147247e-05,-0.0,-0.001606101388380428,0.1,0.02,0,-0.15432787211229967,-0.005989651176999728,-0.0030865574422459935,0.0,-0.009076208619245721,-0.027470347533286258,0.0,0.027470347533286258,-0.07142764689486365,0.0,0.07142764689486365,-0.7738828884096404,0.0,0.7738828884096404,-0.059896511769997274,0,0.059896511769997274,0.0025611538885951025,-0.004539606502339608,0.009076208619245721,0.4,0.03377842903137207,1.3637490272521973,STABILIZE
0.035,0.005,0.05,-0.1722331505558317,-0.0024534082674026016,-0.0008611657527791585,0.005457889922904739,0.002143315902722979,0.035,0.005,0.05,-0.13533151348709171,-0.0009438530123153065,-0.0006766575674354585,0.006077813883693689,0.004457303303942924,0.002,8e-05,0,-0.7553079381773948,-0.001559985114616694,-6.042463505419159e-05,-0.0,-0.0016204097496708857,0.1,0.02,0,-0.15628094708407891,-0.005833860449823816,-0.0031256189416815783,0.0,-0.008959479391505393,-0.026967228923294468,0.0,0.026967228923294468,-0.07009737906864576,0.0,0.07009737906864576,-0.779992557308347,0.0,0.779992557308347,-0.058338604498238154,0,0.058338604498238154,0.002147853220391752,-0.004455118667988374,0.008959479391505393,0.4,0.0334782600402832,1.397235631942749,STABILIZE
0.035,0.005,0.05,-0.1744539796149248,-0.002323430544944098,-0.000872269898074624,0.0049921860185654495,0.0017964855755467275,0.035,0.005,0.05,-0.13618084800704525,-0.000888573462444377,-0.0006809042400352263,0.005345250394529349,0.0037757726920497454,0.002,8e-05,0,-0.7815173046636974,-0.0015668702617050523,-6.252138437309579e-05,-0.0,-0.001629391646078148,0.1,0.02,0,-0.1582514728810133,-0.0058901810403405724,-0.003165029457620266,0.0,-0.009055210497960839,-0.025387813212696484,0.0,0.025387813212696484,-0.06638372985554565,0.0,0.06638372985554565,-0.7834351308525261,0.0,0.7834351308525261,-0.058901810403405724,0,0.058901810403405724,0.0018003662351482727,-0.003773923855155807,0.009055210497960839,0.4,0.03345441818237305,1.4306755065917969,STABILIZE
0.035,0.005,0.05,-0.17655082017739848,-0.00219458967182202,-0.0008827541008869925,0.005175841724221173,0.0020984979515121602,0.035,0.005,0.05,-0.1369456836516225,-0.0008004902405409236,-0.0006847284182581125,0.004930182773953909,0.0034449641151548726,0.002,8e-05,0,-0.8086579261026067,-0.001623191128940171,-6.469263408820855e-05,-0.0,-0.0016878837630283795,0.1,0.02,0,-0.16025949102991824,-0.006004647412716659,-0.0032051898205983646,0.0,-0.009209837233315024,-0.02287114972974067,0.0,0.02287114972974067,-0.06270256205205771,0.0,0.06270256205205771,-0.8115955644700855,0.0,0.8115955644700855,-0.060046474127166585,0,0.060046474127166585,0.0021021071507251058,-0.003442762979653973,0.009209837233315024,0.4,0.03344106674194336,1.464127540588379,STABILIZE
0.035,0.005,0.05,-0.17855029775440237,-0.0020916440154050454,-0.0008927514887720119,0.005194667175243301,0.0022102716710662436,0.035,0.005,0.05,-0.13755396970924197,-0.0006363251614857365,-0.0006877698485462098,0.005152121444087405,0.0038280264340554582,0.002,8e-05,0,-0.8364452893443206,-0.0016610416554196305,-6.691562314754565e-05,-0.0,-0.001727957278567176,0.1,0.02,0,-0.16212296934352452,-0.005569645230362382,-0.0032424593868704906,0.0,-0.008812104617232872,-0.018180718899592472,0.0,0.018180718899592472,-0.0597612575830013,0.0,0.0597612575830013,-0.8305208277098153,0.0,0.8305208277098153,-0.055696452303623814,0,0.055696452303623814,0.0022139917988999347,-0.0038258760505470043,0.008812104617232872,0.4,0.03345775604248047,1.4976091384887695,STABILIZE
0.035,0.005,0.05,-0.18046950886318167,-0.0019868789293722086,-0.0009023475443159084,0.004372696474105253,0.0014834700004171361,0.035,0.005,0.05,-0.13820633913461833,-0.0006753707601616334,-0.0006910316956730917,0.00244687735606299,0.0010804749002282649,0.002,8e-05,0,-0.8641538033952119,-0.0016391694179548751,-6.913230427161695e-05,-0.0,-0.0017083017222264921,0.1,0.02,0,-0.1638849100759969,-0.005211609975932318,-0.0032776982015199382,0.0,-0.008489308177452257,-0.019296307433189525,0.0,0.019296307433189525,-0.05676796941063453,0.0,0.05676796941063453,-0.8195847089774375,0.0,0.8195847089774375,-0.05211609975932318,0,0.05211609975932318,0.0014844521838989965,-0.0010791250927850748,0.008489308177452257,0.4,0.033807992935180664,1.5313899517059326,STABILIZE
0.035,0.005,0.05,-0.18217702848806758,-0.0017802277884010564,-0.0009108851424403379,0.00573412403022328,0.0030430110993818855,0.035,0.005,0.05,-0.13887027422793796,-0.0006922062186554627,-0.0006943513711396898,0.002153310828766279,0.0007667532389711265,0.002,8e-05,0,-0.8916451176441402,-0.0016378243573670975,-7.133160941153122e-05,-0.0,-0.0017091559667786287,0.1,0.02,0,-0.16540457177241463,-0.004526773290672727,-0.003308091435448293,0.0,-0.00783486472612102,-0.019777320533013218,0.0,0.019777320533013218,-0.050863651097173036,0.0,0.050863651097173036,-0.8189121786835487,0.0,0.8189121786835487,-0.04526773290672727,0,0.04526773290672727,0.003043615939062749,-0.0007643488051388877,0.00783486472612102,0.4,0.03357052803039551,1.56498384475708,STABILIZE
0.035,0.005,0.05,-0.18387956398195082,-0.0017802277884010564,-0.0009193978199097541,0.004624061618479767,0.0019244360101689567,0.035,0.005,0.05,-0.13953227134090637,-0.0006922062186554627,-0.0006976613567045318,0.001681201075732173,0.00029133350037217854,0.002,8e-05,0,-0.9190561866591898,-0.0016378243573670975,-7.352449493273519e-05,-0.0,-0.0017113488522998326,0.1,0.02,0,-0.16691979768205473,-0.004526773290672727,-0.0033383959536410946,0.0,-0.007865169244313821,-0.019777320533013218,0.0,0.019777320533013218,-0.050863651097173036,0.0,0.050863651097173036,-0.8189121786835487,0.0,0.8189121786835487,-0.04526773290672727,0,0.04526773290672727,0.001924665583662213,-0.0002898129685509456,0.007865169244313821,0.4,0.033472537994384766,1.5984747409820557,STABILIZE
0.035,0.005,0.05,-0.18549422617611114,-0.001689788866693329,-0.0009274711308805557,0.004295896350680932,0.001678636353107047,0.035,0.005,0.05,-0.14011223174467502,-0.0006069446828913126,-0.0007005611587233751,0.0016570307941725768,0.00034952495255788905,0.002,8e-05,0,-0.9462133497778803,-0.001624041488763078,-7.569706798223043e-05,-0.0,-0.0016997385567453086,0.1,0.02,0,-0.1683004737805057,-0.004128331182141603,-0.003366009475610114,0.0,-0.007494340657751716,-0.0173412766540375,0.0,0.0173412766540375,-0.04827968190552368,0.0,0.04827968190552368,-0.812020744381539,0.0,0.812020744381539,-0.04128331182141603,0,0.04128331182141603,0.0016788877604575648,-0.00034831535455518347,0.007494340657751716,0.4,0.03344392776489258,1.6319255828857422,STABILIZE
0.035,0.005,0.05,-0.18701937575657504,-0.0015962024618070981,-0.0009350968787828752,0.004216348569537224,0.0016850492289472506,0.035,0.005,0.05,-0.14084398600683717,-0.0007658448519821765,-0.0007042199300341859,-0.0011024405459704432,-0.0025725053279868054,0.002,8e-05,0,-0.9730246548657097,-0.0016034500759286342,-7.784197238925678e-05,0.0,-0.001681292048317891,0.1,0.02,0,-0.16957565999262528,-0.0038131255116978196,-0.0033915131998525057,0.0,-0.007204638711550325,-0.021881281485205042,0.0,0.021881281485205042,-0.04560578462305994,0.0,0.04560578462305994,-0.801725037964317,0.0,0.801725037964317,-0.038131255116978194,0,0.038131255116978194,0.0016833368125833343,0.0025736261853458835,0.007204638711550325,0.4,0.033442020416259766,1.6653625965118408,STABILIZE
0.035,0.005,0.05,-0.1890183917095326,-0.0014832812950894452,-0.000945091958547663,0.004014954646948027,0.0015865813933109187,0.035,0.005,0.05,-0.14173384651595766,-0.0006602815982855802,-0.0007086692325797883,-0.0001330461516236977,-0.0015019969824890662,0.002,8e-05,0,-1.0106958545843268,-0.001597271206609226,-8.085566836674614e-05,0.0,-0.0016781268749759722,0.1,0.02,0,-0.17128423162705836,-0.003622199845629741,-0.003425684632541167,0.0,-0.007047884478170908,-0.018865188522445148,0.0,0.018865188522445148,-0.04237946557398414,0.0,0.04237946557398414,-0.7986356033046129,0.0,0.7986356033046129,-0.03622199845629741,0,0.03622199845629741,0.0015856315241404555,0.0015029997081365957,0.007047884478170908,0.4,0.04716944694519043,1.71260404586792,STABILIZE
0.035,0.005,0.05,-0.19039474488317573,-0.0014399812332115325,-0.0009519737244158787,0.0026259849676957734,0.00023403001006836203,0.035,0.005,0.05,-0.14239701205700298,-0.0006938233237695325,-0.0007119850602850149,-0.00027622990195180487,-0.0016820382860063523,0.002,8e-05,0,-1.0370523880896654,-0.0015757132418372504,-8.296419104717324e-05,0.0,-0.0016586774328844235,0.1,0.02,0,-0.17244755319667676,-0.0034774322681533766,-0.003448951063933535,0.0,-0.006926383332086911,-0.019823523536272356,0.0,0.019823523536272356,-0.041142320948900926,0.0,0.041142320948900926,-0.7878566209186252,0.0,0.7878566209186252,-0.03477432268153376,0,0.03477432268153376,0.00023300909354220122,0.0016821800151976681,0.006926383332086911,0.4,0.03345346450805664,1.7459802627563477,STABILIZE
0.035,0.005,0.05,-0.19174856208746716,-0.001390353022064693,-0.0009587428104373358,0.0030420465237526516,0.0006929506912506226,0.035,0.005,0.05,-0.14300182223110072,-0.0006211323439137286,-0.0007150091111555036,0.00033317997785666594,-0.0010029614772125663,0.002,8e-05,0,-1.063934285322866,-0.0015775637714725724,-8.511474282582929e-05,0.0,-0.0016626785142984017,0.1,0.02,0,-0.1736521663198475,-0.003534635232902314,-0.00347304332639695,0.0,-0.007007678559299265,-0.0177466383975351,0.0,0.0177466383975351,-0.03972437205899122,0.0,0.03972437205899122,-0.7887818857362862,0.0,0.7887818857362862,-0.03534635232902314,0,0.03534635232902314,0.0006923318222366101,0.0010033887747008454,0.007007678559299265,0.4,0.03408026695251465,1.7800743579864502,STABILIZE
0.035,0.005,0.05,-0.19301003836400482,-0.0013211117949159248,-0.0009650501918200241,0.0028613748370913427,0.0005752128503553936,0.035,0.005,0.05,-0.14355305090428275,-0.0005772876711049972,-0.0007177652545214138,-2.038054630473324e-05,-0.0013154334719311443,0.002,8e-05,0,-1.0904961663449755,-0.0015895758674013467,-8.723969330759804e-05,0.0,-0.0016768155607089447,0.1,0.02,0,-0.17485846056254384,-0.003609488754917567,-0.0034971692112508767,0.0,-0.007106657966168444,-0.016493933460142777,0.0,0.016493933460142777,-0.03774605128331213,0.0,0.03774605128331213,-0.7947879337006734,0.0,0.7947879337006734,-0.03609488754917567,0,0.03609488754917567,0.0005743840465524996,0.0013157955803835095,0.007106657966168444,0.4,0.03342008590698242,1.813495397567749,STABILIZE
0.035,0.005,0.05,-0.1942402321992375,-0.0012870925468153745,-0.0009712011609961875,0.0023523653713655094,9.407166355394729e-05,0.035,0.005,0.05,-0.14399748455465858,-0.00046498951837495355,-0.0007199874227732929,0.0022963139477776722,0.0011113370066294257,0.002,8e-05,0,-1.1167959607597704,-0.0015723547393027186,-8.934367686078164e-05,0.0,-0.0016616984161635002,0.1,0.02,0,-0.1760503399851288,-0.0035628743503117117,-0.0035210067997025764,0.0,-0.007083881150014288,-0.013285414810712957,0.0,0.013285414810712957,-0.036774072766153555,0.0,0.036774072766153555,-0.7861773696513593,0.0,0.7861773696513593,-0.035628743503117115,0,0.035628743503117115,9.476271788368438e-05,-0.0011112782943471706,0.007083881150014288,0.4,0.033452749252319336,1.8469505310058594,STABILIZE
0.035,0.005,0.05,-0.1954465669110248,-0.0012547344283225835,-0.000977232834555124,0.0019431263127141407,-0.0002888409501635668,0.035,0.005,0.05,-0.14433685065993915,-0.0003529819145056204,-0.0007216842532996958,0.0026079299086184254,0.0015332637408131092,0.002,8e-05,0,-1.1432472656412234,-0.001572146606434803,-9.145978125129787e-05,0.0,-0.0016636063876861009,0.1,0.02,0,-0.17723804751413322,-0.0035295997107322365,-0.0035447609502826643,0.0,-0.007074360661014901,-0.01008519755730344,0.0,0.01008519755730344,-0.03584955509493096,0.0,0.03584955509493096,-0.7860733032174014,0.0,0.7860733032174014,-0.03529599710732236,0,0.03529599710732236,-0.0002878963568654997,-0.0015334413849531954,0.007074360661014901,0.4,0.03364992141723633,1.8805997371673584,STABILIZE
0.035,0.005,0.05,-0.1966282568448542,-0.0012356759426991948,-0.000983141284224271,0.001736002887849738,-0.0004828143390737279,0.035,0.005,0.05,-0.14462015422082714,-0.0002962464049565657,-0.0007231007711041357,0.0033787040861324408,0.0023593569100717393,0.002,8e-05,0,-1.1694758694542398,-0.0015672496440176124,-9.355806955633919e-05,0.0,-0.0016608077135739515,0.1,0.02,0,-0.17819449241619434,-0.0028575442729700884,-0.003563889848323887,0.0,-0.006421434121293975,-0.008464182998759019,0.0,0.008464182998759019,-0.035305026934262705,0.0,0.035305026934262705,-0.7836248220088062,0.0,0.7836248220088062,-0.028575442729700883,0,0.028575442729700883,-0.0004816375838837907,-0.0023595974133120783,0.006421434121293975,0.4,0.033470869064331055,1.9140751361846924,STABILIZE
0.035,0.005,0.05,-0.19771600903712613,-0.0011373980040808593,-0.0009885800451856306,0.0021588263617926032,3.2848312526113314e-05,0.035,0.005,0.05,-0.14492410716153956,-0.0003178255769622853,-0.0007246205358076978,0.0025850977873729275,0.0015426516746029444,0.002,8e-05,0,-1.1954774111564461,-0.0015536154988885565,-9.56381928925157e-05,0.0,-0.0016492536917810721,0.1,0.02,0,-0.1791632725756258,-0.0028942742856296567,-0.003583265451512516,0.0,-0.006477539737142173,-0.009080730770351007,0.0,0.009080730770351007,-0.03249708583088169,0.0,0.03249708583088169,-0.7768077494442782,0.0,0.7768077494442782,-0.028942742856296565,0,0.028942742856296565,3.362757286760996e-05,-0.0015426348845835542,0.006477539737142173,0.4,0.033472299575805664,1.9475593566894531,STABILIZE
0.035,0.005,0.05,-0.19876414324790215,-0.001096729578518379,-0.0009938207162395107,0.0019142500353412286,-0.00017630025941666144,0.035,0.005,0.05,-0.14530783979629688,-0.0004015238949881835,-0.0007265391989814844,0.0014953322068925305,0.0003672691129228626,0.002,8e-05,0,-1.221475091043305,-0.0015544587549206255,-9.77180072834644e-05,0.0,-0.0016521767622040898,0.1,0.02,0,-0.18015052921302774,-0.0029515128466110893,-0.0036030105842605547,0.0,-0.0065545234308716435,-0.01147211128537667,0.0,0.01147211128537667,-0.031335130814810826,0.0,0.031335130814810826,-0.7772293774603127,0.0,0.7772293774603127,-0.02951512846611089,0,0.02951512846611089,-0.0001761110424285316,-0.00036735988282917407,0.0065545234308716435,0.4,0.03344917297363281,1.98099946975708,STABILIZE
0.035,0.005,0.05,-0.1997821746611442,-0.0010661886495258364,-0.0009989108733057211,0.0018848046883403924,-0.00018029483449116509,0.035,0.005,0.05,-0.1455618865118717,-0.0002660642108602573,-0.0007278094325593586,0.0016943147266823711,0.0007004410832627552,0.002,8e-05,0,-1.2475842640821309,-0.0015625284856023325,-9.980674112657047e-05,0.0,-0.001662335226728903,0.1,0.02,0,-0.1810656528969191,-0.0027383226994651105,-0.0036213130579383817,0.0,-0.006359635757403492,-0.00760183459600735,0.0,0.00760183459600735,-0.03046253284359532,0.0,0.03046253284359532,-0.7812642428011662,0.0,0.7812642428011662,-0.027383226994651105,0,0.027383226994651105,-0.0001799600538774946,-0.0007005271711182286,0.006359635757403492,0.4,0.033419132232666016,2.0144193172454834,STABILIZE
0.035,0.005,0.05,-0.20078022878311744,-0.0010435837478297743,-0.001003901143915587,0.0018030065882394392,-0.000244478303505922,0.035,0.005,0.05,-0.1457289646483951,-0.00017469997273169554,-0.0007286448232419755,0.0015231362238022357,0.0006197914278285646,0.002,8e-05,0,-1.2746657274233972,-0.0016181072112898727,-0.00010197325819387178,-0.0,-0.0017200804694837445,0.1,0.02,0,-0.1821099629073558,-0.003119856444638542,-0.0036421992581471157,0.0,-0.006762055702785657,-0.004991427792334158,0.0,0.004991427792334158,-0.029816678509422122,0.0,0.029816678509422122,-0.8090536056449363,0.0,0.8090536056449363,-0.031198564446385416,0,0.031198564446385416,-0.00024414077989366604,-0.0006199244586946195,0.006762055702785657,0.4,0.03347301483154297,2.0479907989501953,STABILIZE
0.035,0.005,0.05,-0.20175454724114542,-0.0010207938594340407,-0.001008772736205727,0.0018352334863060743,-0.00019433310933369323,0.035,0.005,0.05,-0.14587709529861276,-0.00015519654471312416,-0.0007293854764930638,0.001205636258486443,0.000321054237280255,0.002,8e-05,0,-1.3014591618400821,-0.001604085287975605,-0.00010411673294720658,-0.0,-0.0017082020209228117,0.1,0.02,0,-0.1831485451793528,-0.003108923098386491,-0.003662970903587056,-0.0,-0.006771894001973547,-0.004434186991803547,0.0,0.004434186991803547,-0.029165538840972588,0.0,0.029165538840972588,-0.8020426439878026,0.0,0.8020426439878026,-0.031089230983864912,0,0.031089230983864912,-0.00019415887367324981,-0.0003211596369920144,0.006771894001973547,0.4,0.03340649604797363,2.081303596496582,STABILIZE
0.035,0.005,0.05,-0.20271088884433874,-0.0010006811270984553,-0.0010135544442216938,0.0011681462749715112,-0.0008460892963486376,0.035,0.005,0.05,-0.14600511136547606,-0.00013395136387220116,-0.0007300255568273804,0.001571303581774044,0.0007073266610744624,0.002,8e-05,0,-1.328203270743854,-0.0015990893960130918,-0.00010625626165950833,-0.0,-0.0017053456576726002,0.1,0.02,0,-0.18418931043962067,-0.0031114827893899254,-0.0036837862087924136,-0.0,-0.006795268998182339,-0.003827181824920033,0.0,0.003827181824920033,-0.028590889345670147,0.0,0.028590889345670147,-0.7995446980065459,0.0,0.7995446980065459,-0.031114827893899254,0,0.031114827893899254,-0.0008457050534836834,-0.0007077860307851804,0.006795268998182339,0.4,0.03344917297363281,2.114762783050537,STABILIZE
0.035,0.005,0.05,-0.2036879790758853,-0.001020471480711304,-0.0010184398953794265,0.0006520403358712966,-0.0013868710402194341,0.035,0.005,0.05,-0.14621614365512886,-0.00022040178700693947,-0.0007310807182756443,0.0015491827376399054,0.0005977002323573216,0.002,8e-05,0,-1.3551020926317485,-0.0016053192407467734,-0.0001084081674105399,-0.0,-0.0017137274081573132,0.1,0.02,0,-0.18523357759933634,-0.003116088449817935,-0.003704671551986727,-0.0,-0.006820760001804662,-0.006297193914483985,0.0,0.006297193914483985,-0.029156328020322975,0.0,0.029156328020322975,-0.8026596203733867,0.0,0.8026596203733867,-0.03116088449817935,0,0.03116088449817935,-0.0013865457698608245,-0.0005984544076539041,0.006820760001804662,0.4,0.033512115478515625,2.1482810974121094,STABILIZE
0.035,0.005,0.05,-0.20461010687873418,-0.0009584796160954832,-0.001023050534393671,0.0009169386353226705,-0.0010645915151664836,0.035,0.005,0.05,-0.1464207932134685,-0.00021271718465211949,-0.0007321039660673424,0.0004562850732775304,-0.0004885360774419316,0.002,8e-05,0,-1.3818530725454385,-0.0015888884617038432,-0.0001105482458036351,-0.0,-0.0016994367075074783,0.1,0.02,0,-0.18615373349468828,-0.00273265706491985,-0.0037230746698937657,0.0,-0.0064557317348136155,-0.006077633847203413,0.0,0.006077633847203413,-0.027385131888442372,0.0,0.027385131888442372,-0.7944442308519216,0.0,0.7944442308519216,-0.0273265706491985,0,0.0273265706491985,-0.0010648243958041145,0.00048802827707748747,0.0064557317348136155,0.4,0.03367257118225098,2.181953191757202,STABILIZE
0.035,0.005,0.05,-0.2054407961779327,-0.0008688563095894194,-0.0010272039808896635,0.0014892248001567077,-0.00040683549032237507,0.035,0.005,0.05,-0.14660182625742063,-0.00018935082302583674,-0.0007330091312871032,-0.0001240591792808983,-0.0010464191335938383,0.002,8e-05,0,-1.4081314355867638,-0.001570614500935965,-0.00011265051484694111,0.0,-0.001683265015782906,0.1,0.02,0,-0.1870665083976512,-0.002727752669429033,-0.003741330167953024,0.0,-0.006469082837382057,-0.005410023515023906,0.0,0.005410023515023906,-0.024824465988269123,0.0,0.024824465988269123,-0.7853072504679824,0.0,0.7853072504679824,-0.027277526694290326,0,0.027277526694290326,-0.0004073336261948398,0.001046225327693843,0.006469082837382057,0.4,0.0334625244140625,2.215423822402954,STABILIZE
0.035,0.005,0.05,-0.20630212653439386,-0.0009015732672118547,-0.0010315106326719693,0.0010147551782005368,-0.0009183287216832873,0.035,0.005,0.05,-0.14667216540291467,-7.36255174802982e-05,-0.0007333608270145733,0.000697968993654837,-0.00010901735084003453,0.002,8e-05,0,-1.4344104621145932,-0.0015718188648933475,-0.00011475283696916746,0.0,-0.001686571701862515,0.1,0.02,0,-0.18792104134475293,-0.002555595058867533,-0.0037584208268950587,0.0,-0.006314015885762592,-0.0021035862137228052,0.0,0.0021035862137228052,-0.02575923620605299,0.0,0.02575923620605299,-0.7859094324466738,0.0,0.7859094324466738,-0.02555595058867533,0,0.02555595058867533,-0.0009183772559385522,0.0001086077328159224,0.006314015885762592,0.4,0.03343772888183594,2.2488651275634766,STABILIZE
0.035,0.005,0.05,-0.20711628464319337,-0.0008491998282895447,-0.0010355814232159669,0.0012888970700423502,-0.0005958841814631614,0.035,0.005,0.05,-0.14673072692509137,-6.10820355890764e-05,-0.0007336536346254569,0.0006233010184064114,-0.00017143465180812195,0.002,8e-05,0,-1.4614359427092818,-0.0016107810883699363,-0.00011691487541674255,-0.0,-0.001727695963786679,0.1,0.02,0,-0.18875544647103268,-0.002486623674907895,-0.003775108929420654,0.0,-0.006261732604328549,-0.001745201016830754,0.0,0.001745201016830754,-0.024262852236844133,0.0,0.024262852236844133,-0.8053905441849681,0.0,0.8053905441849681,-0.024866236749078948,0,0.024866236749078948,-0.0005959585275874855,0.0001711760233045222,0.006261732604328549,0.4,0.03355574607849121,2.282449722290039,STABILIZE
0.035,0.005,0.05,-0.20786848850689602,-0.0007877357421726553,-0.0010393424425344802,0.001983072424609787,0.00015599423990265136,0.035,0.005,0.05,-0.14679343086580038,-6.566588880364466e-05,-0.0007339671543290019,0.0013211647189271408,0.0005215316757944942,0.002,8e-05,0,-1.4881536595905676,-0.0015988447169125771,-0.00011905229276724541,0.0,-0.0017178970096798226,0.1,0.02,0,-0.18955229078332642,-0.002384242494546886,-0.0037910458156665285,0.0,-0.006175288310213415,-0.0018761682515327045,0.0,0.0018761682515327045,-0.02250673549064729,0.0,0.02250673549064729,-0.7994223584562885,0.0,0.7994223584562885,-0.02384242494546886,0,0.02384242494546886,0.00015621125074941235,-0.0005214667169428204,0.006175288310213415,0.4,0.03342127799987793,2.315920829772949,STABILIZE
0.035,0.005,0.05,-0.2085372151971296,-0.0006973603326729438,-0.001042686075985648,0.002226414715027753,0.0004863683063691612,0.035,0.005,0.05,-0.1470599904863318,-0.0002779732114267004,-0.0007352999524316591,-0.0005513697499933222,-0.0015646429138516816,0.002,8e-05,0,-1.5148561838186443,-0.0015911929727990277,-0.00012118849470549156,-0.0,-0.0017123814675045193,0.1,0.02,0,-0.19031288115554923,-0.0022661641369975784,-0.0038062576231109846,0.0,-0.006072421760108563,-0.007942091755048583,0.0,0.007942091755048583,-0.019924580933512678,0.0,0.019924580933512678,-0.7955964863995139,0.0,0.7955964863995139,-0.022661641369975782,0,0.022661641369975782,0.0004857494203769328,0.001564835159980169,0.006072421760108563,0.4,0.03356289863586426,2.3494036197662354,STABILIZE
0.035,0.005,0.05,-0.20924016443271104,-0.0007288956219026618,-0.0010462008221635553,0.0011942478846082738,-0.0005808485594579432,0.035,0.005,0.05,-0.14712305592160843,-6.539322804511258e-05,-0.0007356152796080421,0.0010485201592574929,0.00024751165160433815,0.002,8e-05,0,-1.542339038768848,-0.001628415305655085,-0.00012338712310150786,-0.0,-0.001751802428756593,0.1,0.02,0,-0.1910327639524798,-0.002132726325055328,-0.0038206552790495964,0.0,-0.005953381604104925,-0.0018683779441460734,0.0,0.0018683779441460734,-0.020825589197218906,0.0,0.020825589197218906,-0.8142076528275425,0.0,0.8142076528275425,-0.02132726325055328,0,0.02132726325055328,-0.0005807563877193586,-0.0002477278442715658,0.005953381604104925,0.4,0.03375411033630371,2.3831913471221924,STABILIZE
0.035,0.005,0.05,-0.20994565715311994,-0.0007380651848702893,-0.0010497282857655998,0.0013954938687910513,-0.00039229960184483767,0.035,0.005,0.05,-0.1470796821133404,4.537636873037928e-05,-0.0007353984105667021,0.0010056761348014108,0.00031565409296508795,0.002,8e-05,0,-1.5694717487645653,-0.0016220241169008001,-0.00012555773990116523,-0.0,-0.0017475818568019653,0.1,0.02,0,-0.19172015702545483,-0.0020546568004670795,-0.0038344031405090967,0.0,-0.005889059940976176,0.0012964676780108364,0.0,-0.0012964676780108364,-0.021087576710579693,0.0,0.021087576710579693,-0.8110120584504,0.0,0.8110120584504,-0.020546568004670793,0,0.020546568004670793,-0.0003921863814042404,-0.0003157947533672437,0.005889059940976176,0.4,0.03345537185668945,2.416651964187622,STABILIZE
0.035,0.005,0.05,-0.21064842721832128,-0.0007356572066372595,-0.0010532421360916063,0.0009701309995614574,-0.0008187683431674083,0.035,0.005,0.05,-0.1469662682674359,0.00011872121082477802,-0.0007348313413371795,0.0015256252060390602,0.0009095150755266588,0.002,8e-05,0,-1.5963003321530924,-0.0016048037567682526,-0.0001277040265722474,0.0,-0.0017325077833405,0.1,0.02,0,-0.19242312880238802,-0.0021024810221750884,-0.0038484625760477603,0.0,-0.005950943598222848,0.0033920345949936576,0.0,-0.0033920345949936576,-0.021018777332493126,0.0,0.021018777332493126,-0.8024018783841262,0.0,0.8024018783841262,-0.021024810221750883,0,0.021024810221750883,-0.0008184345395255035,-0.0009098154630995472,0.005950943598222848,0.4,0.03343534469604492,2.45007061958313,STABILIZE
0.035,0.005,0.05,-0.21137605659823097,-0.0007611316786748186,-0.0010568802829911549,0.00022715253109809307,-0.0015908594305678804,0.035,0.005,0.05,-0.14697498138510204,-9.114296452053667e-06,-0.0007348749069255102,0.00047320833171159247,-0.00027078087166597137,0.002,8e-05,0,-1.6228927881192752,-0.0015895345474712492,-0.00012983142304954202,0.0,-0.0017193659705207912,0.1,0.02,0,-0.19310688775514848,-0.0020435466339356694,-0.0038621377551029696,0.0,-0.005905684389038639,-0.0002604084700586762,0.0,0.0002604084700586762,-0.0217466193907091,0.0,0.0217466193907091,-0.7947672737356246,0.0,0.7947672737356246,-0.02043546633935669,0,0.02043546633935669,-0.001590955907755511,0.00027021344871190546,0.005905684389038639,0.4,0.03345942497253418,2.483548402786255,STABILIZE
0.035,0.005,0.05,-0.2120756072612936,-0.0007306303896668807,-0.001060378036306468,-0.0002821430894483719,-0.0020731515154217206,0.035,0.005,0.05,-0.14716711808646246,-0.00020067297537776696,-0.0007358355904323123,0.0006473198237994856,-0.0002891887420105937,0.002,8e-05,0,-1.649347637631011,-0.0015788679405571015,-0.0001319478110104809,0.0,-0.0017108157515675823,0.1,0.02,0,-0.19373512008738808,-0.0018746957682644991,-0.0038747024017477616,0.0,-0.0057493981700122605,-0.005733513582221913,0.0,0.005733513582221913,-0.020875153990482304,0.0,0.020875153990482304,-0.7894339702785507,0.0,0.7894339702785507,-0.01874695768264499,0,0.01874695768264499,-0.002073246025886065,0.0002885103993770141,0.0057493981700122605,0.4,0.03351116180419922,2.517052173614502,STABILIZE
0.035,0.005,0.05,-0.21275077125216044,-0.0007061902370785127,-0.0010637538562608022,0.00019346954085678477,-0.00157647455248253,0.035,0.005,0.05,-0.14730290242992117,-0.00014202412894612394,-0.0007365145121496059,-0.0006513127979903071,-0.0015298514390860369,0.002,8e-05,0,-1.6756861281355602,-0.0015742194366579938,-0.00013405489025084482,0.0,-0.0017082743269088386,0.1,0.02,0,-0.19422805020784412,-0.0014730915889087084,-0.0038845610041568822,0.0,-0.005357652593065591,-0.004057832255603541,0.0,0.004057832255603541,-0.020176863916528932,0.0,0.020176863916528932,-0.7871097183289969,0.0,0.7871097183289969,-0.014730915889087082,0,0.014730915889087082,-0.0015768678297443973,0.001529446072215626,0.005357652593065591,0.4,0.0334622859954834,2.5505356788635254,STABILIZE
0.035,0.005,0.05,-0.21344009334954023,-0.0007210451971718714,-0.0010672004667477012,0.0001449334092486839,-0.0016433122546708886,0.035,0.005,0.05,-0.14723554772059988,7.045442159425427e-05,-0.0007361777386029994,0.00021703951746163824,-0.00044868379954710687,0.002,8e-05,0,-1.7017578132429423,-0.0015583727342154679,-0.0001361406250594354,0.0,-0.0016945133592749032,0.1,0.02,0,-0.1946657878592387,-0.0013082361532505181,-0.0038933157571847737,0.0,-0.005201551910435292,0.0020129834741215505,0.0,-0.0020129834741215505,-0.020601291347767753,0.0,0.020601291347767753,-0.7791863671077339,0.0,0.7791863671077339,-0.013082361532505181,0,0.013082361532505181,-0.001643414659931972,0.0004483085699027276,0.005201551910435292,0.4,0.033460140228271484,2.5840394496917725,STABILIZE
0.035,0.005,0.05,-0.21409713338302222,-0.0006879784978550365,-0.0010704856669151112,0.0004069992793242239,-0.0013514648854459238,0.035,0.005,0.05,-0.14730916196743765,-7.708056797055058e-05,-0.0007365458098371883,-0.0016707905563201797,-0.002484416934127919,0.002,8e-05,0,-1.727763426591124,-0.001556008931429354,-0.00013822107412728992,0.0,-0.0016942300055566438,0.1,0.02,0,-0.1949409390136856,-0.000823163922496736,-0.003898818780273712,0.0,-0.004721982702770448,-0.002202301942015731,0.0,0.002202301942015731,-0.0196565285101439,0.0,0.0196565285101439,-0.778004465714677,0.0,0.778004465714677,-0.00823163922496736,0,0.00823163922496736,-0.0013518218057085687,0.0024842227445995573,0.004721982702770448,0.4,0.03342604637145996,2.6174027919769287,STABILIZE
0.035,0.005,0.05,-0.2147379388285649,-0.0006705872464635234,-0.0010736896941428245,0.00077309654471255,-0.0009711803958937979,0.035,0.005,0.05,-0.1473293319612261,-2.1107405827881147e-05,-0.0007366466598061305,-0.00010102733242653636,-0.000858781398060548,0.002,8e-05,0,-1.7536896141534082,-0.0015503498292318801,-0.00014029516913227266,0.0,-0.001690644998364153,0.1,0.02,0,-0.19513586943040748,-0.0005828283420978404,-0.0039027173886081496,0.0,-0.00448554573070599,-0.0006030687379394613,0.0,0.0006030687379394613,-0.019159635613243523,0.0,0.019159635613243523,-0.77517491461594,0.0,0.77517491461594,-0.005828283420978403,0,0.005828283420978403,-0.0009712677484619472,0.0008586826024911202,0.00448554573070599,0.4,0.03344559669494629,2.650857448577881,STABILIZE
