Mode,Time,Freq,North-Vision,East-Vision,Down-Vision,Yaw-Vision,North-Desired,East-Desired,Down-Desired,Roll-UAV,Pitch-UAV,Yaw-UAV,Roll-Control,Pitch-Control,Yaw-Control,Thrust-Control,northVraw,eastVraw,downVraw,yawVraw,zGyro
GUIDED_NOGPS,0.004160165786743164,242.06752467247648,303.9350390367646,37.53808880450581,-12.226068056970297,-0.0014519004261154649,299.89361086254513,44.39955567324428,-17.596300323521536,1.2577389948530626,-1.3011341748579155,95.75855548428343,-9.999746592360868,-10.000253394796289,5.8076017044618596e-05,0.4986574419333622,303.9350390367646,37.53808880450581,-12.226068056970297,-3.6312029657147775,-0.11459155902616465
GUIDED_NOGPS,0.01538991928100586,89.09076233564859,303.8189954542323,37.01187716539212,-11.47874013685194,-0.005007641952489429,299.89346154744203,44.39942280003428,-17.59632169059434,1.2768038670955666,-1.3054234269349778,95.75925899376794,-0.46278187758013417,-0.15028975684685195,0.00020030567809957715,0.4984706046115644,303.7029518717001,36.485665526278424,-10.731412216733585,-8.672196923428345,-0.34377467707849396
GUIDED_NOGPS,0.03463482856750488,51.98368965730929,303.52994677233414,36.432770779139155,-10.82081838463371,-0.013302665651361227,299.89242839122704,44.39850341023482,-17.596470401703627,1.260518881845258,-1.2736059511818254,95.75737386155701,-0.43880425708763743,-0.10726174176035573,0.0005321066260544491,0.49830608699573253,302.9518494085378,35.274558006633214,-9.504974880197251,-14.33495751472158,-0.2291831180523293
GUIDED_NOGPS,0.07783961296081543,23.16680659272679,302.89006311095864,35.86228932088379,-10.166402397665504,-0.028024005778553455,299.88966046881274,44.396040278719404,-17.596871448067624,1.2495026404876737,-1.321820469976357,95.73625491664333,-0.39503495139449074,-0.0753693629049676,0.0011209602311421383,0.49814238273739947,300.97041212683223,34.150844946117694,-8.203154436760885,-13.087988210133702,-0.9740282517223995
GUIDED_NOGPS,0.11932587623596191,24.105472476695134,301.8477951193578,35.11243990101524,-9.264115773107138,-0.05276908407267413,299.8843423188158,44.39130773896562,-17.597647269916294,1.1039999743725382,-1.431588440127632,95.6731917800366,-0.44234743377944213,0.02435133937038095,0.002110763362906965,0.4979166171257977,297.67872315295455,32.113042221541065,-5.65496927487367,0.7052997807222283,-1.0313240312354819
GUIDED_NOGPS,0.15401887893676758,28.830992789337294,301.3233811722069,33.913848601028434,-7.783299216616871,-0.098114043800382,299.8756934544028,44.383611247764044,-17.59891777378619,0.9682222169750316,-1.4274878720263913,95.59758841611374,-0.5564560614086344,0.0006962689658672693,0.00392456175201528,0.49754609536070765,298.70131143645216,31.54513230457176,-4.821985274518964,-1.9673621166699888,-1.776169164905552
GUIDED_NOGPS,0.19494223594665527,24.441476405253894,301.5289317224798,32.83970443729978,-6.413899153128773,-0.15823814889825716,299.86296787413517,44.37228694992714,-17.600800349815287,0.8419663836107575,-1.2755958841078263,95.50345474897262,-0.567052758594175,-0.11212905794489993,0.006329525955930286,0.49720327470082837,302.7622350241175,31.114944707635143,-3.8844118992930974,-6.718025068610842,-2.291831180523293
GUIDED_NOGPS,0.2324368953704834,26.67368755763299,300.8525651066725,31.664037514269676,-5.034465892672344,-0.23272131192311724,299.84545357281525,44.35670124299816,-17.603409889037803,0.7704575580127503,-1.206485255321287,95.45060957536423,-0.6303736373121401,0.03316041105244147,0.00930885247692469,0.49685776400090864,296.11799879602154,29.396223391482707,-2.6078085779151094,-13.173657931152093,-2.177239621497128
GUIDED_NOGPS,0.2771766185760498,22.35745887570495,300.22921413107724,30.55703960157212,-3.549822209926731,-0.31929619132391684,299.8224720523313,44.336250341960096,-17.606858800679053,0.6543879379393452,-1.0042305473925157,95.32380711342294,-0.6500535153644142,0.04309639323337112,0.012771847652956674,0.4964857408523119,298.9482312320023,28.61585538262993,-0.7799360230328202,-4.130937271688651,-2.7501974166279517
GUIDED_NOGPS,0.3141350746154785,27.062819387807775,299.1610099224279,29.63828465794698,-2.172711774857771,-0.4405070937883915,299.7933778325032,44.31035984394453,-17.61125702945027,0.5921296964376213,-0.8226530632371943,95.23103265392666,-0.6861977500262318,0.16664969764899018,0.01762028375153566,0.4961403636863519,295.15731820250556,27.519267503415353,1.2305829004711315,3.5866402383118867,-3.552338329811104
GUIDED_NOGPS,0.3554081916809082,24.27624526838529,298.04020694297424,28.703421747865384,-0.7455278421929382,-0.5595344934542873,299.7575579619279,44.278484292940604,-17.616712072843463,0.5094796583645597,-0.6942294452242346,95.07756513346564,-0.7155791885825192,0.21206811285519594,0.022381379738171493,0.49578220394233735,293.9854255729085,26.870817754163777,2.313934388805199,-11.730262484617228,-3.552338329811104
GUIDED_NOGPS,0.393571138381958,26.18428806872097,297.06923546099796,27.771481980006268,0.7121014889858897,-0.6972445463740362,299.7144315288245,44.24010674450387,-17.623328998426217,0.40611861909816827,-0.5140182657071802,94.91146859322927,-0.7558752805552968,0.24258194093744478,0.027889781854961448,0.49541614237814696,293.2026402710222,26.455245868339567,3.403734756601042,3.514861542702988,-4.010704565915763
GUIDED_NOGPS,0.43169355392456055,26.236701196016615,296.67758896651594,27.11618478816331,2.199487852014303,-0.8647287767313593,299.66344917188036,44.19473833046524,-17.63121046113656,0.24159923891026286,-0.37714626397987,94.74790605317499,-0.7522274470115643,0.18255648784187462,0.03458915106925437,0.4950423254217123,294.54555119709875,26.11973743226789,4.829123237226957,-2.616798818247588,-5.042028597151244
GUIDED_NOGPS,0.46986889839172363,26.20424585473129,295.807809441689,26.48042037092724,3.564456473064488,-1.0324752921567968,299.60409259109605,44.14191782363989,-17.64045672057779,0.15928796221177807,-0.2390099835650198,94.53863588719496,-0.775180499656507,0.2819146703556368,0.04129901168627187,0.49469877170158943,291.74307523783693,25.437033296449616,6.0449070822181055,2.3324581013537085,-4.984732817638163
GUIDED_NOGPS,0.5115714073181152,23.983211824913514,294.3653977501766,25.9373418755605,4.9728806163263055,-1.2453873905680477,299.535874058631,44.081211202536174,-17.6511656583133,-0.10373807371270403,-0.037845838067202646,94.29779658687114,-0.7838134421544282,0.40635283094528823,0.04981549562272191,0.4943439884313401,291.22294149201855,24.803875026581643,8.272703616780216,7.775370326700795,-6.64631042351755
GUIDED_NOGPS,0.5449142456054688,29.999170326290642,293.80834150396583,25.480685315494853,6.38191898949149,-1.4849732998997571,299.4583359296489,44.012211216064486,-17.663432795161423,-0.24952463290543128,0.01564694953229429,94.06968192897105,-0.799508079558499,0.33349783508130076,0.059398931995990285,0.4939886620538368,291.6615488263353,24.58753495383556,9.359126254631127,6.131531852102086,-6.64631042351755
GUIDED_NOGPS,0.5820634365081787,26.926954534365652,292.6659065739354,25.080352586834202,7.749806004851871,-1.7010468813501027,299.3710501531633,43.93453694824623,-17.677351308490273,-0.42034350190092473,0.22094541387080543,93.82068055258907,-0.8060936334893134,0.4537770863741501,0.06804187525400411,0.49364321067166445,289.8087517917587,24.453582225036325,10.243169833402943,-0.10624583291331646,-7.104676659622208
GUIDED_NOGPS,0.620995283126831,25.690946955776063,292.52578011041123,24.783692023773597,9.117114939829122,-1.9727264760366807,299.27361778288275,43.84783338292272,-17.693012049512568,-0.6189842927068189,0.40805113574645874,93.53110102234804,-0.7990475835074109,0.31559442947275484,0.07890905904146724,0.4932974682526646,294.03630649431216,24.636434616964866,11.665667912113213,-10.654171513468057,-8.13600069085769
GUIDED_NOGPS,0.6583425998687744,26.80015079583139,291.95292699859135,24.535431854223503,10.353426969675292,-2.2599082758267097,299.16566848805667,43.751770968464044,-17.710503560580474,-0.768866764266372,0.5317982086120755,93.21835349044233,-0.804960915316657,0.39162807798640725,0.09039633103306839,0.4929840173674361,289.4026006783492,24.19573244869915,12.226467231448948,-16.550860940405983,-7.906817572805361
GUIDED_NOGPS,0.6996500492095947,24.204377708656736,291.79278479594666,24.545762575314864,11.340869585751559,-2.5558453728506216,299.0468600643205,43.64604518247801,-17.729912092480433,-0.9231936612631936,0.7387683083890944,92.92808411109512,-0.7726680353358293,0.3335726436449795,0.10223381491402486,0.492732304580442,291.9215026498645,24.855528632038432,13.209916697161557,-2.035824861084805,-8.708958485988513
GUIDED_NOGPS,0.739616870880127,25.026128152651896,290.7534789562368,24.620449659117515,12.361304396985197,-2.8904272126782153,298.91687794454134,43.53037609651908,-17.75132162172801,-1.1884072386921443,0.9334591154206054,92.55814057507972,-0.7672103485309022,0.4836126982421166,0.11561708850712861,0.4924718434953217,286.2311044794196,24.960970372848816,14.461300310799311,-14.467335932047476,-8.651662706475431
GUIDED_NOGPS,0.7793247699737549,25.188594489418435,290.12788005925,24.775449668590355,13.371943117931016,-3.2010761677360318,298.7754347096633,43.404507940797195,-17.774813867862722,-1.354784136849602,1.0463453870931085,92.23744953316928,-0.7480770342599807,0.4519253241891849,0.12804304670944128,0.49221331075355157,286.7382840619426,25.22858227240053,15.296363438132035,-15.920180164808997,-7.964113352318443
GUIDED_NOGPS,0.8198087215423584,24.70682068530834,289.5672978804905,24.893879199677492,14.098082223134782,-3.510647064549811,298.62226959955285,43.26820866888679,-17.800468310742865,-1.5709095716004942,1.3941149274114744,91.94272687048323,-0.7443951335759924,0.4577817485889441,0.14042588258199243,0.4920253623665306,286.7382840619426,25.22858227240053,15.296363438132035,-15.920180164808997,-8.250592249883855
GUIDED_NOGPS,0.8621242046356201,23.63707268690193,288.6554533082899,25.324559858000477,15.02070677269298,-3.8168499720092335,298.45714802384464,43.12126952243562,-17.828362207840375,-1.7967685595271834,1.5505943478530548,91.61879148871704,-0.6999375411204816,0.5315377389322195,0.15267399888036934,0.49178773275486665,284.3667922487301,26.349135740314065,16.83958997923995,2.2975966889706996,-7.792226013779196
GUIDED_NOGPS,0.9020020961761475,25.081499997010052,288.33123537233166,25.760291398494008,15.99376695867258,-4.114495410003472,298.2798610727867,42.96350459587371,-17.85857061153563,-1.912930227071825,1.6577378178157525,91.334635128677,-0.6695614270395944,0.4681684839666401,0.16457981640013888,0.49153691560744794,287.2150083040928,27.034186334506106,18.07521762705956,-2.9220586574812586,-7.104676659622208
GUIDED_NOGPS,0.9322361946105957,33.091155818540436,287.96853673620365,26.4336308981537,17.074022244178643,-4.386576370011828,298.0902250280858,42.79475040112225,-17.89116638641231,-1.9754435334503666,1.813719168056451,91.16859322995398,-0.5883711800713747,0.48990123702789545,0.17546305480047314,0.4912587028423523,291.1347174052879,28.32766787114727,19.862576738329626,-6.355199531287312,-6.818197762056797
GUIDED_NOGPS,0.9707949161529541,25.936073511133646,288.185051327071,27.053448017903047,17.987264904218158,-4.568582011428217,297.88808087375315,42.61486543230252,-17.926220226552232,-2.0692318491515738,1.8848308288263924,90.88718943614947,-0.5785118947803953,0.3855100762935042,0.18274328045712868,0.4910216287173074,291.1347174052879,28.32766787114727,19.862576738329626,-6.355199531287312,-6.359831525952138
GUIDED_NOGPS,1.0055475234985352,28.778965569293682,287.35693363478885,27.641454632427706,18.9336055936923,-4.8039384678957955,297.6732938069498,42.42372973044478,-17.963800672830164,-2.0808570445623467,1.9403726464964668,90.77341897514457,-0.5569271905779706,0.5573902655303656,0.19215753871583183,0.4907756484333694,285.29656111160716,28.168615345023817,20.02806688550272,-4.176655936449066,-5.958761069360562
GUIDED_NOGPS,1.0461304187774658,24.647439061655266,287.54767317047197,28.224086457320073,19.863671434809014,-4.996170851133404,297.44575274883186,42.22124444819718,-18.003974130208693,-2.011359015983821,1.9356521320063418,90.51380348479238,-0.525660390607378,0.39806221638150824,0.19984683404533615,0.49053308860874556,287.7570207648845,29.2622948647759,21.489919184823528,-5.335855862209655,-5.328507494716656
GUIDED_NOGPS,1.0843603610992432,26.164360660237296,288.12104625099096,28.806242587972484,20.626179309140205,-5.203161278863537,297.20536985539644,42.007331414534704,-18.04680488503303,-1.9433815582692688,1.8969352046961245,90.33817883066384,-0.48138741582222955,0.3052439136104593,0.2081264511545415,0.4903317539514567,291.32526870609445,29.944966987768183,21.88775699871552,-5.347873969495467,-4.698253920072751
GUIDED_NOGPS,1.119011402130127,28.866510667584308,287.38656027375373,28.935217685859026,20.89220012470475,-5.381497943409613,296.9520800283266,41.781932699468015,-18.092355122325863,-1.952642014123337,1.9426142292047004,90.19346078252961,-0.5293567278640929,0.4983218979784939,0.21525991773638453,0.4902538611882423,280.8623962440449,28.972543360579976,21.19268081615235,-19.689350003518967,-4.18259190445501
GUIDED_NOGPS,1.1588084697723389,25.130189391442933,286.8125834251297,29.177715803569335,21.10915859021801,-5.509373727441478,296.68584042583706,41.54501017875244,-18.14068494308219,-1.8823478416196813,1.913619649291173,90.05052541376875,-0.5029886645390715,0.48435880284192584,0.22037494909765912,0.49018753911667495,279.7749774597379,29.540158459698798,20.9473690658959,4.917834226897142,-3.495042550298022
GUIDED_NOGPS,1.199782133102417,24.412455619579767,286.32586641868363,29.58751710265413,21.313239142340525,-5.6484869232634685,296.40662997351967,41.29654509859681,-18.19185238156415,-1.8185052096739258,1.8269150935329155,89.92873631067826,-0.4615076586353436,0.48456219538708456,0.22593947693053873,0.49012372711902386,283.3212722525247,30.21762184044781,21.048469646115304,-3.95085867456622,-3.151267873219528
GUIDED_NOGPS,1.2390265464782715,25.485359436616296,285.13032969011476,29.775972037884987,21.121221289900383,-5.765580842872608,296.1144488751889,41.03653764037241,-18.245913422595866,-1.7724206426833804,1.7374702445353079,89.8645393626693,-0.4772953236897517,0.6157827049202802,0.23062323371490434,0.49015821632187595,281.570423576737,30.20456954093018,20.529829922622817,-10.238492063274265,-2.2345354010102105
GUIDED_NOGPS,1.2777013778686523,25.861551457304405,284.6125258188788,30.00257450356106,20.78673059253243,-5.856285560225069,295.8093181237271,40.76500648532189,-18.302922018858272,-1.7048254621189376,1.6368624118346662,89.78968048936596,-0.4448055205004984,0.5424307274075516,0.23425142240900276,0.49022758684715234,286.9922864354004,31.07797931614856,20.215303511875764,-4.384852570331063,-1.8907607239317168
GUIDED_NOGPS,1.3116042613983154,29.50493823686654,285.12372141440915,30.485492160983988,20.57640359093361,-5.923027344006439,295.4912790119301,40.48198837926815,-18.362930108183956,-1.6531958487393996,1.6151268289049816,89.7603106759349,-0.35654120456174865,0.3605509756407372,0.23692109376025755,0.4902651665752206,289.3861258758498,31.387131647694623,20.141045808158232,-7.553030648080153,-1.2032113697747289
GUIDED_NOGPS,1.36203932762146,19.830380740299468,284.3886132036912,30.71881836911234,20.332113402384884,-5.946462447056428,295.16039264335274,40.18753769732327,-18.42598763085199,-1.5441788792317088,1.5933231575270084,89.73158290028583,-0.4034033191725811,0.5376462429584432,0.2378584978822571,0.49031047474169076,281.8761550791411,30.70678950034055,19.725918123152262,7.165165685053296,-0.40107045659157625
GUIDED_NOGPS,1.4009757041931152,25.68921608858891,282.54419075484543,30.70348052998238,19.85819137983455,-5.9836748311260095,294.8167394431541,39.88172600859741,-18.492142546882768,-1.4729590026521049,1.569209814992513,89.75175927909406,-0.42797399876362724,0.7618532382284385,0.23934699324504038,0.4904124165183207,276.5698891153285,30.140932644797992,18.67885953336365,8.324514955800467,0.057295779513082325
GUIDED_NOGPS,1.4393348693847656,26.07311630104372,282.68230363242435,30.78767783417144,19.41945295946652,-5.988425295416977,294.4604186689433,39.564641640907716,-18.561440853332847,-1.3503955268644574,1.4901480274720882,89.77316509195288,-0.37095272863606604,0.48738453742439736,0.2395370118166791,0.49050477654680014,281.967299264676,30.625556061875475,18.336137820782668,-2.633846944855918,0.2864788975654116
GUIDED_NOGPS,1.4780633449554443,25.83017613006528,282.71701107830376,30.616683693048437,18.91769928161939,-5.980557066309492,294.0915479216246,39.23638924548724,-18.63392660158977,-1.1863967084769276,1.3436987398266715,89.79760350880318,-0.3892379566201612,0.4775569768095827,0.2392222826523797,0.4906120935291977,280.05263702677286,30.22300861053356,17.706535122640116,-15.378201665259468,0.7448451336700702
GUIDED_NOGPS,1.5222878456115723,22.615923821026865,282.3084316750848,30.383859085616223,18.430797144515772,-5.963190165230141,293.7102626562431,38.89708936169383,-18.709641914666914,-1.0490321060361565,1.189103170935545,89.8714856650552,-0.39759812236291936,0.5336656963089016,0.23852760660920563,0.4907148902352043,280.05263702677286,30.22300861053356,17.706535122640116,-15.378201665259468,0.9167324722093172
GUIDED_NOGPS,1.5602381229400635,26.357057574119924,282.53764069031223,30.31090314381742,17.916322899080114,-5.929430171390001,293.31671569283003,38.546877981719085,-18.788627004498316,-0.9157889891509593,1.0115098215004568,89.93400238652833,-0.355224944628981,0.4235178304129328,0.23717720685560004,0.49082376252410537,283.40409569855655,30.342009791346545,17.153546895973985,-8.365868908575465,1.260507149287811
GUIDED_NOGPS,1.6006968021392822,24.72065445458189,282.2168425913275,30.28891524630736,17.446817279342927,-5.874226560529321,292.91107672724837,38.1859061152972,-18.870920189233523,-0.8052179915245319,0.8409173092429258,90.03717922413054,-0.3437974332726977,0.4915989442372363,0.23496906242117285,0.4909205656328559,284.42590164352265,30.03099315724771,16.331331434677715,-12.061589346482535,2.0053522829578814
GUIDED_NOGPS,1.6415061950683594,24.51275517658541,281.6987516047641,30.09972559405199,16.751064585181563,-5.810516016843653,292.4935318420382,37.81433935441392,-18.956557910532407,-0.7436934617500554,0.7355144703015237,90.12510424931612,-0.3544622240506564,0.5188954042867175,0.23242064067374613,0.4910730943760715,285.24139798334215,29.679607800598593,14.857374349975853,-8.960876007098548,2.0053522829578814
GUIDED_NOGPS,1.686429738998413,22.2616966280804,281.8520368848372,29.87366275454273,16.122615145972105,-5.722471388894822,292.06428301726226,37.43235743801543,-19.045574750860013,-0.6298744423690223,0.6782338358791522,90.25713863616164,-0.3410952147344473,0.4155219437298166,0.22889885555579287,0.49120795252579197,283.1024373197258,29.092694412987253,14.56428792659283,2.0498499340184253,2.5783100780887045
GUIDED_NOGPS,1.7218255996704102,28.261218769371748,281.8955263503835,29.463634869845556,15.284271217841006,-5.611439063640875,291.6235476413512,37.04015381671729,-19.1380034507814,-0.5571168660916664,0.5830581380027865,90.35266566189344,-0.3540211129859041,0.3854719225652186,0.22445756254563498,0.4913944313328444,276.9178048396984,28.17286918704769,13.514815481984632,12.226124771084457,2.9220847551671985
GUIDED_NOGPS,1.7531709671020508,31.907494750935705,282.6020719943894,29.15577681337167,14.511587694470165,-5.521701758464106,291.17155802194935,36.63793521751331,-19.233874926256462,-0.5146239647483428,0.5211396984122706,90.44185427207546,-0.3200301172626848,0.22342291993573027,0.22086807033856423,0.49156363434481837,287.61966441672325,28.80271950897714,13.290129279119789,-3.349744968740282,2.9220847551671985
GUIDED_NOGPS,1.7983639240264893,22.132595985393756,283.2448251067843,28.73155920813503,13.80887892563636,-5.4240743208315525,290.7085608967599,36.22592120848447,-19.333218285934777,-0.33118797544769046,0.38478446986478054,90.62910390817136,-0.33307487172323114,0.22390430133862457,0.2169629728332621,0.4917144756971072,285.1946619259322,27.909905131064505,12.81778759050868,-14.662576003908185,3.4377467707849396
GUIDED_NOGPS,1.835653305053711,26.81917233618088,283.28642051881735,28.245550899269297,13.237342227360577,-5.2774767668843845,290.23481694439045,35.80434376350785,-19.436060848450435,-0.20669239655836233,0.20769004440422054,90.82173573333323,-0.34356505341411675,0.2522059150179418,0.2110990706753754,0.4918316492310473,280.38540032303746,27.249566256269926,11.999690858596932,6.794377150202109,3.7815214478634336
GUIDED_NOGPS,1.8773469924926758,23.99034507215457,283.3432678750469,27.688652145352062,12.534147068386684,-5.146471540587611,289.7506002951986,35.37344682696552,-19.54242815971687,-0.0727389933603367,0.05188003586215412,91.0164166152461,-0.35127418777831426,0.22920311970267884,0.20585886162350445,0.4919808561929741,283.8588745483927,26.308200643401072,11.048312131723357,-13.97773495534743,4.010704565915763
GUIDED_NOGPS,1.9155402183532715,26.186413270816814,283.2657877245322,27.2218591425332,11.947264082132206,-4.983517674037749,289.25619804213716,34.93348587845344,-19.65234401022171,-0.08671894984832476,-0.05517653595161086,91.21169855380595,-0.34163705888533996,0.2211470348535711,0.19934070696150996,0.4921000979769115,283.8060604394048,25.838904172953395,10.580400550712234,-13.84891822864354,4.583662361046586
GUIDED_NOGPS,1.9572534561157227,23.97964679179697,283.5128367734523,26.553213741532012,11.347410215755271,-4.824830008181762,288.75190975159984,34.4847274974904,-19.7658304523216,-0.013668022282202099,-0.1661386152688744,91.42484826723452,-0.3621765881043131,0.14624520114007386,0.1929932003272705,0.49222168983298076,287.21779037470344,25.459492503971173,10.29085994723511,-3.6390489453625605,4.469070802020421
GUIDED_NOGPS,1.996933937072754,25.204790606277303,283.8013970958415,25.916141768602728,10.699251857136305,-4.636093133034621,288.23804697426664,34.02744892822689,-19.882907817537042,0.03496343153639115,-0.23285406213213425,91.6526692270003,-0.36156092502160386,0.09941480183159881,0.18544372532138487,0.49235446008133166,285.41091989883967,24.724545266418087,9.576995797413845,1.7653076219806536,5.156620156177409
GUIDED_NOGPS,2.0370168685913086,24.956736461922016,284.973020775258,25.23045535943179,10.062291964510319,-4.443337038768482,287.7149327559491,33.56193764415405,-20.003594733847223,0.10087343634590515,-0.40797885847121823,91.83819765542536,-0.35910643608625853,-0.09846642144307555,0.1777334815507393,0.4924835283254106,286.2907942750308,23.821134210415227,8.814891395467003,-10.92604730977105,5.328507494716656
GUIDED_NOGPS,2.0786495208740234,24.02167177343146,285.0094430518453,24.608888046905342,9.554780426099224,-4.248986165024588,287.18290114843614,33.08849091281256,-20.12790814298487,0.19205995690143973,-0.4090064817761878,92.06611423783951,-0.3660402792864351,0.021076351386569117,0.16995944660098353,0.49257932785772895,287.9110426294217,23.20036408076884,8.51075443966788,-7.780211581589967,5.385803274229739
GUIDED_NOGPS,2.1154606342315674,27.174333324694846,284.83508102071914,23.716938780533404,8.988490042398213,-4.044262007797599,286.6422967203393,32.60741536050153,-20.25586331773107,0.16448496243779087,-0.40066348574629657,92.25910123283822,-0.4131304651564172,0.018145598842182357,0.16177048031190397,0.4926889116599677,283.79976567692324,21.37915784109371,7.748948632207185,7.915109218323892,4.870141258611998
GUIDED_NOGPS,2.1507697105407715,28.328024746390025,286.0490920737223,22.81811365002892,8.45859084778574,-3.862701655340298,286.093474067938,32.119026536987455,-20.387473879210095,0.22007709939214112,-0.4336558340779705,92.46841921014243,-0.411852642645672,-0.26747202993506963,0.15450806621361193,0.492788483818251,290.09748874706304,20.96536685144875,7.641363974172739,-2.2335460234481133,5.213915935690491
GUIDED_NOGPS,2.1839630603790283,30.13517455436368,286.34514788140245,21.803422206433197,8.029741623086654,-3.6940766533349985,285.5367973260255,31.623648480213078,-20.522751814184268,0.24520515190520648,-0.43036029448386576,92.65767692185432,-0.45466089285129335,-0.19093720963223174,0.14776306613339993,0.49286187664068226,286.22732100983376,19.651088048439462,7.432749673918414,-12.400096190290697,5.099324376664327
GUIDED_NOGPS,2.2247724533081055,24.513614765547835,286.51963503792143,20.806173963557406,7.769502017897414,-3.538077435295628,284.9726396787539,31.121613281006333,-20.66170749234878,0.20190716869389405,-0.40497306830831015,92.85483716243591,-0.46113395452560274,-0.1890694930630925,0.14152309741182512,0.49289219762243847,285.20195769155697,18.83489299603627,7.513693369520804,-8.264614053278564,4.870141258611998
GUIDED_NOGPS,2.2665255069732666,23.953216374269005,286.2676559525281,19.933079746610893,7.570089803867999,-3.3602849867254068,284.40138287047984,30.613260647789225,-20.80434968362652,0.19870491721085554,-0.4304384948137771,93.070377442074,-0.4648936998708612,-0.15155055625661243,0.13441139946901628,0.49290639012812637,285.20195769155697,18.83489299603627,7.513693369520804,-8.264614053278564,4.5263665815335035
GUIDED_NOGPS,2.3044888973236084,26.346958133107197,286.1179907423042,19.077809407317584,7.636447687562196,-3.163110305795441,283.82341671660987,30.09893747128677,-20.950685575462916,0.12140245035045118,-0.5219763965855971,93.2936153449067,-0.4781865352844062,-0.19055219409984012,0.12652441223181765,0.4928532166842437,284.21359821704795,17.102806144627166,8.080738050678162,5.0311062012328875,4.755549699585833
GUIDED_NOGPS,2.3412842750549316,27.183139120403375,286.23995940957917,18.16540926001096,7.6268046526954905,-2.992993808621252,283.2391386144459,29.578997389235887,-21.10072079012079,0.14022810588944593,-0.5816519728074101,93.46661037620478,-0.49741201972126126,-0.26504094174634785,0.11971975234485008,0.4928181186392959,287.2665436132306,16.40336611491562,7.593148799839211,-5.048171051760875,4.640958140559668
GUIDED_NOGPS,2.3836324214935303,23.618970391143247,286.0977607085723,17.3547974267989,7.68422320935521,-2.829457996296131,282.64895305403076,29.053800351094303,-21.25445940197516,0.09066547850748309,-0.5993145218359457,93.67117454184665,-0.4950459978291602,-0.24282052789263633,0.11317831985184525,0.4927653293471674,286.7734530213665,15.59802888237916,7.71984245721701,-4.356261305208676,4.755549699585833
GUIDED_NOGPS,2.416712522506714,30.236627353729922,286.3703230466341,16.348753047489403,7.668305709548164,-2.6493752121523393,282.0532711289935,28.523712182749474,-21.411903954808096,0.03219212230129814,-0.5789940687249231,93.81505930690214,-0.5397601086829197,-0.3646656024482733,0.10597500848609358,0.4927299475839109,285.9802643814174,13.804671099488804,7.434105870485571,-7.031977350796197,4.239887683968092
GUIDED_NOGPS,2.4551944732666016,26.01941699390195,285.8501669161675,15.19478041466922,7.650888609933245,-2.5218756784806957,281.45251004739504,27.989104151227487,-21.57305547910356,0.010502202921474742,-0.6384616977030209,94.00810094341422,-0.577684754768515,-0.24901072821529407,0.10087502713922783,0.4926940139777408,285.9362397033301,13.065029831935353,7.426607871446208,-10.587690901127544,3.9534087864026803
GUIDED_NOGPS,2.489392042160034,29.21231369271486,285.6792171311276,14.229009759288337,7.51855835288665,-2.3760929456312927,280.84709264257344,27.45035252940198,-21.73791350934222,-0.013075703474901832,-0.6174412035629249,94.13181615985066,-0.5779071204629401,-0.32226845391013786,0.09504371782525171,0.4926858820344428,284.8597227295143,12.27395286772276,7.419086765445186,-6.179771068535132,3.724225668350351
GUIDED_NOGPS,2.531597375869751,23.699980223195368,285.88142501493786,13.284886272874928,7.532495207764437,-2.2653601239432803,280.2374468839895,26.907838160703026,-21.906476101296306,-0.0316317533046662,-0.6880556479056306,94.29690183208987,-0.580170056145199,-0.39485695771249735,0.09061440495773121,0.4926402571727348,286.8196207620388,11.682748682848587,7.662833074228146,-2.800814973536731,3.0939720937064457
GUIDED_NOGPS,2.567640781402588,27.74542736371394,286.3620744517214,12.253438716480794,7.5143028800749505,-2.1414666246956067,279.62400538807213,26.36194602382607,-22.078739849324442,-0.09760803229347048,-0.6832228088201705,94.39215565025486,-0.6120961455746667,-0.5044839172417389,0.08565866498782426,0.49260173931765017,289.047153185825,10.440791100408484,7.628880818769581,-1.2161740957906204,2.521014298575622
GUIDED_NOGPS,2.607973575592041,24.79958374722104,286.80536817979726,11.450735888079024,7.567791243176858,-2.0456774476467956,279.00720492906385,25.81306479744085,-22.254699903666477,-0.12759362996688428,-0.74459307236894,94.50778392271401,-0.593634332899777,-0.5362694679762275,0.08182709790587182,0.49254437721328914,287.7599480416547,9.791156957479952,7.701547685995113,1.9653770493797538,2.4064227395494577
GUIDED_NOGPS,2.643024444580078,28.53772776137276,286.76355109383223,10.706922716513454,7.561231797773173,-1.9631855925223327,278.38748594986623,25.261586424900234,-22.434349987738308,-0.11981215019196213,-0.8118049085662158,94.56238445493909,-0.5997582503557124,-0.5156616037294055,0.07852742370089331,0.4925011045536221,286.9320069255103,9.345963974107512,7.393810644427789,-0.4905628493289669,1.5469860468532228
GUIDED_NOGPS,2.6854796409606934,23.557550057569717,287.1497210061377,10.048394442835182,7.552560624354152,-1.9174501001348168,277.76529207288536,24.707905678949214,-22.61768241542675,-0.15063802121584616,-0.8774331013714007,94.61935506280616,-0.5896073287365085,-0.6014835861427789,0.07669800400539267,0.49245743924005475,289.8628123198104,8.981311499331403,7.375730898350075,1.298855653625182,0.8594366926962349
GUIDED_NOGPS,2.724379062652588,25.715361270347323,287.1125447462204,9.406470832412428,7.44330015654797,-1.8774016131298958,277.1410696108773,24.152419726433777,-22.80468810838434,-0.20429099809572104,-0.8946256480076749,94.63462053560114,-0.5931973128397281,-0.5878036148492661,0.07509606452519584,0.49243800293376694,285.6828543020787,8.473130630734813,7.116530735197235,-5.752719701301402,0.34377467707849396
GUIDED_NOGPS,2.766477108001709,23.760800353497014,287.1184638701637,8.961968854043976,7.335275976894185,-1.8711306280387174,276.5152670777936,23.595527693009824,-22.995356613324184,-0.21455949382174763,-1.0401940546935715,94.66163393376856,-0.5684474000971239,-0.6179498699413002,0.0748452251215487,0.4924173418524454,285.9835926948762,8.218281208566225,7.088759920500654,-8.865506001906581,-0.34377467707849396
GUIDED_NOGPS,2.8040618896484375,26.61208433528542,287.41445718982,8.67233533764242,7.214852079544127,-1.8857361678715514,275.8883346996267,23.037630227852052,-23.189676119314797,-0.2463817853918734,-1.0831777158009313,94.6256798179776,-0.5367096860765006,-0.711584326001303,0.07542944671486206,0.49239886795028526,287.2276692867649,8.342989375472177,7.099428199244819,0.6985260217544038,-1.1459155902616465
GUIDED_NOGPS,2.841092348098755,27.012101110932218,287.2657957237347,8.466263613063713,7.002358049964821,-1.9201776766243643,275.26072392525526,22.47912906836288,-23.387633475074924,-0.30107351131454557,-1.0520662041315232,94.60635721281564,-0.5140675157944137,-0.6769632030145784,0.07680710706497458,0.49240250211874004,285.6303290333568,8.315605351213975,6.331340496531258,-5.690865270121165,-1.3750987083139758
GUIDED_NOGPS,2.8752880096435547,29.24959378508616,286.7085244745249,8.342798175640265,6.728807579610849,-1.978510927322024,274.6328869372899,21.920426604881435,-23.5892142062684,-0.27846094276760186,-1.1448931707070509,94.54534313295991,-0.48500043420054456,-0.6258336432390036,0.07914043709288096,0.4924204945535302,284.5889831921469,8.363984312214164,6.00797854658022,-5.542936857509133,-2.119943841984046
GUIDED_NOGPS,2.9135007858276367,26.17268727964806,286.25773606385224,8.394636327200079,6.451226583851927,-2.0499411416711486,274.0052761629185,21.36192544539228,-23.79440253279896,-0.3310751172438266,-1.0568394391443041,94.46193286281571,-0.44675107062158015,-0.646769433021621,0.08199764566684595,0.4924385927208373,284.15364075627326,8.732321388533883,5.728625756402632,1.9012698361311777,-2.635605857601787
GUIDED_NOGPS,2.9457483291625977,31.019975889892244,286.0746229642181,8.561716342936398,6.240671938289141,-2.1279701217143825,273.37834378475156,20.804027980234487,-24.00318138610508,-0.37403049709915415,-0.9888566453444633,94.39728512232155,-0.3877339163835608,-0.7136072503187203,0.0851188048685753,0.49243903666890143,285.4671021284376,9.053681287247825,6.035986692686727,-1.5872821751437556,-2.46371851906254
GUIDED_NOGPS,2.982419490814209,27.273639993237357,285.97379130827386,8.822631117468895,6.060677264795298,-2.2083898977270318,272.7525412516679,20.247135946810538,-24.215532426454836,-0.41181963926016035,-1.0262423260967628,94.30660753090045,-0.35449374324593436,-0.741544531522106,0.08833559590908127,0.49243094757718747,289.0561590722563,9.647563248134663,6.1994548317756015,-1.2006902313208059,-2.864788975654116
GUIDED_NOGPS,3.022897481918335,24.71016849298928,286.39545440454606,9.089022696853032,6.034300131844168,-2.3176001518671887,272.12831878965983,19.691649994295105,-24.431436060240717,-0.39916596677077126,-0.9388116358523683,94.15043525552811,-0.3234307203012567,-0.8515435740292462,0.09270400607468755,0.4923835659519788,289.0561590722563,9.647563248134663,6.1994548317756015,-1.2006902313208059,-3.552338329811104
GUIDED_NOGPS,3.061594009399414,25.84832312375975,286.33059020234,9.541576942967655,6.147187697450491,-2.4427147961840854,271.50612491267896,19.137969248344078,-24.65087145727445,-0.4805506589392351,-0.8822508393354926,94.0507896257268,-0.2600063951646799,-0.8202767641054699,0.09770859184736341,0.49230048521131875,285.46467907722786,10.626755542787272,6.572416374611838,-0.9014736639642535,-3.666929888837269
GUIDED_NOGPS,3.100233793258667,25.88549246141218,285.8434730902424,10.005944433292003,6.416270000091179,-2.5629987596296555,270.88640593348134,18.586490875803477,-24.87381656808187,-0.53329903596048,-0.8903689460508759,93.92122093717165,-0.2191714348355957,-0.7708956036254857,0.10251995038518623,0.4921774783579567,283.3307323899842,11.054158840155619,7.074037269606078,-13.532344016021597,-3.2658594322456924
GUIDED_NOGPS,3.1412577629089355,24.381377558434917,285.2577712697011,10.686070288020623,6.623051336813326,-2.6840739400462703,270.26960547447305,18.037609649418236,-25.10024814119773,-0.6079973998183245,-0.9328750275248636,93.81601553338595,-0.1540306543192238,-0.7567780622467332,0.10736295760185081,0.49206917513049725,280.9447144690263,12.454310560890931,7.069893376297461,-9.889639776243769,-3.2658594322456924
GUIDED_NOGPS,3.1822311878204346,24.411603110304046,284.5268239836798,11.38321707699878,6.826899400908023,-2.7910340038313626,269.65616397855564,17.49171751254127,-25.330141740460547,-0.6965947717503217,-0.8565275465084313,93.71798182822876,-0.10183190268887687,-0.7306481451232455,0.1116413601532545,0.49196073971465787,278.7414049039762,13.133297193025442,7.218695152249089,7.855167917143277,-2.6929016371148693
GUIDED_NOGPS,3.215085983276367,30.460166451219337,284.16153602713666,12.25298420502553,7.1173704475635,-2.885433761381176,269.04651821997174,16.94920314384234,-25.56347176230742,-0.6841074784002459,-0.9140483581296639,93.64628533251113,0.006446978992513092,-0.7889270432044913,0.11541735045524704,0.49182978944753225,281.231337103928,13.9963988882684,7.651810065052989,5.363232262815629,-2.291831180523293
GUIDED_NOGPS,3.2586538791656494,22.951801427133038,283.7624541818561,13.063556482244042,7.260767136743368,-2.9574544505475413,268.44110081515015,16.410451522016828,-25.800211453068894,-0.6720301564829295,-0.8116310055466449,93.54810819338137,0.014945354333458206,-0.7859668142515015,0.11829817802190165,0.49173475535254696,282.2744473661935,14.679616928879819,7.289399820511181,-1.6931555149139257,-2.177239621497128
GUIDED_NOGPS,3.2947683334350586,27.694680682478474,282.52672637536716,13.899625635506272,7.319591435156051,-3.0311566572609525,267.8403397335517,15.875843490494844,-26.040332926263776,-0.6820454016011367,-0.6409042907440938,93.51893645543625,0.09122713447621643,-0.6389840940241531,0.12124626629043811,0.49166001890964506,279.17033662034453,15.234504606466775,7.3681587616694895,1.3106298791409614,-1.3750987083139758
GUIDED_NOGPS,3.341435670852661,21.432971884677098,281.918223642027,14.64929353972359,7.449056795491407,-3.041519384644145,267.24465780851443,15.345755322150005,-26.28380717989398,-0.6365470569404488,-0.5734933118438299,93.53774679641046,0.10500712813308058,-0.7243794177967874,0.12166077538576581,0.49156678400615367,284.188137205535,16.20265008197752,7.717220177974239,0.49518803837908365,0.34377467707849396
GUIDED_NOGPS,3.3771770000457764,27.991511058314757,280.89090311479845,15.409366481056846,7.696846296566927,-3.0499650066649227,266.6544722480993,14.820558284008428,-26.53060411373935,-0.6089461557827215,-0.4492464078691857,93.56210325099073,0.18628130211440813,-0.6387020361021966,0.12199860026659691,0.49144313739742346,277.2461148593993,16.93366189969173,8.45764265762669,7.374811411689848,0.5729577951308232
GUIDED_NOGPS,3.410487651824951,30.026659794109644,280.50234693757614,16.058463615222326,7.9708781072146255,-3.026696022277413,266.0701941459353,14.300618201957548,-26.780692546652517,-0.4872787687976679,-0.4021143406559689,93.61289936784812,0.2339579465444963,-0.7366591220021652,0.12106784089109653,0.4913121073365332,280.2222829722054,17.24188455909579,9.021969118291482,-3.5461000405681062,1.1459155902616465
GUIDED_NOGPS,3.4481561183929443,26.55379063657371,280.46695022977383,16.6335132059182,8.385929857942498,-2.9693255873827584,265.4922279920653,13.78629502545509,-27.03404023385371,-0.45591432668555776,-0.29145943308837086,93.71479212988636,0.25671169428063667,-0.8061053151646566,0.11877302349531034,0.4911450074770509,280.6615408066078,17.554864882359183,9.364658574150544,2.153328461245266,2.2345354010102105
GUIDED_NOGPS,3.479639768600464,31.774067452501438,280.5347983449388,17.09680295742558,8.878619118736129,-2.904372919423708,264.92097118379127,13.27794239223796,-27.290613884225603,-0.43114763386826843,-0.2811187401283831,93.7820216818868,0.30498339360369,-0.8652490506878057,0.11617491677694831,0.4909576917492596,279.28418982529604,17.550953364003686,9.831605065637648,-13.636554284052053,2.521014298575622
GUIDED_NOGPS,3.519960403442383,24.80457023903864,280.259873820002,17.363550667279746,9.440403117555643,-2.8342237261549394,264.35681353651967,12.775907193031244,-27.55037917760816,-0.414188167437421,-0.09024766302934871,93.94149976881742,0.28518629395482936,-0.8159430457810595,0.11336894904619758,0.49075230442620904,279.0319409044335,17.53638863124835,10.526140172071816,-5.2018237445116,2.635605857601787
GUIDED_NOGPS,3.556152820587158,27.6379259220211,280.31263139148246,17.502297423760474,9.955675411779378,-2.74026285176032,263.80013679460717,12.28052913625686,-27.813300782093457,-0.38081298166668254,-0.052156711884392526,94.03775762479042,0.306652026484181,-0.8942513708203014,0.1096105140704128,0.4905577559515318,282.6965079380369,17.627395682095372,11.034004128745366,-3.79734217113419,2.9220847551671985
GUIDED_NOGPS,3.5964090824127197,24.844092995705612,280.10463318703205,17.455899067403745,10.440205511809058,-2.652424472291377,263.2513141422059,11.792140312742774,-28.07934237132052,-0.3579032465299904,0.0002460468926791312,94.1758367290514,0.2958362715099841,-0.8709393301988376,0.10609697889165508,0.4903701130292176,277.5063509847416,17.009892777312157,11.444619618439877,-10.590971784660184,2.864788975654116
GUIDED_NOGPS,3.6449530124664307,20.603439552396438,278.957591154671,17.278207178516958,10.904482652819002,-2.5711486675814075,262.710709714109,11.311064760431734,-28.34846664177017,-0.396182027877122,-0.024522300111049843,94.31169602183212,0.28198688376809694,-0.7375040529954616,0.10284594670325631,0.4901867626763527,275.01180094664625,16.666405437925253,11.68604427920027,-6.389813770025384,2.0626480624709638
GUIDED_NOGPS,3.6947081089019775,20.101333282212998,278.7724642027573,17.06070610450012,11.320246449784875,-2.4800029098956644,262.17867810659607,10.837618029090265,-28.620635330059837,-0.3747883812927611,-0.02734863772568641,94.42957825671736,0.29172432695915457,-0.8525962610699616,0.09920011639582658,0.4900147795550388,275.76509924409004,16.463447993919484,11.910424050467004,-8.824271410103492,1.8334649444186344
GUIDED_NOGPS,3.726196050643921,31.767810346133455,277.89049870972707,16.801587240313076,11.544753155751433,-2.3791903754747845,261.6555638882785,10.372106745017405,-28.89580923023843,-0.3258804382149145,-0.11253486377579122,94.47309339191952,0.29967702735498025,-0.7432851375433934,0.09516761501899139,0.48988985940350255,273.1665590279638,16.240794310313113,11.648673701904611,-0.06697043674547842,2.0626480624709638
GUIDED_NOGPS,3.770773410797119,22.437712310959657,276.9536259873966,16.52426696595662,11.667687070383284,-2.333759621442561,261.14170111094535,9.914828175753925,-29.173948211081136,-0.1966144524380085,-0.06038332789412909,94.58758102278728,0.2958301732048784,-0.7325597406338396,0.09335038485770245,0.4897895911796339,273.1665590279638,16.240794310313113,11.648673701904611,-0.06697043674547842,1.3750987083139758
GUIDED_NOGPS,3.80767822265625,27.10251555664687,275.85932413665904,16.328443702801714,11.660440643678461,-2.2571016838406073,260.63741282040803,9.466069794790883,-29.455011233384276,-0.06587932231910183,-0.13126788487416768,94.64748861199746,0.31435447710403036,-0.6690498314894522,0.09028406735362429,0.48972113703073433,270.5297750193954,16.030776461537606,11.408387484915762,2.1042453023001144,1.6615776058793874
GUIDED_NOGPS,3.8468847274780273,25.53361012017094,274.7944498184624,16.230796846555606,11.515448138642046,-2.2181764182863564,260.14301056734655,9.026108846278802,-29.738956367260137,0.007266187358769639,-0.04952610187815914,94.73197805203051,0.33374907991627323,-0.6494156571605806,0.08872705673145426,0.48968639887352444,270.51294635886035,16.178171156694713,10.961081754018203,2.1186959961587633,0.8594366926962349
GUIDED_NOGPS,3.8875820636749268,24.576096000375003,273.413353764419,16.170832064860015,11.322820145064819,-2.183482968871555,259.65879391815474,8.59521190973642,-30.025740809431817,0.09296703881436583,-0.039316116327327226,94.78128518764883,0.34653664196363865,-0.5680046254777165,0.08733931875486221,0.48966285976137586,271.6477395056901,16.163624085441533,10.94728408258086,-6.319350956626494,0.7448451336700702
GUIDED_NOGPS,3.923973560333252,27.483808400498003,272.6234208192364,16.156357305030447,11.130917766868517,-2.15310182847906,259.1850499657853,8.173634464759814,-30.315320900528043,0.19304667911266857,-0.08799911672981292,94.80984220856865,0.37317890135200843,-0.6171689366848705,0.0861240731391624,0.48963844033315085,271.1868874232806,16.168420511165284,10.689161810923109,-2.7912262155705747,0.5156620156177409
GUIDED_NOGPS,3.9642655849456787,24.825858691084292,272.05112987480794,16.17744451744077,10.971625454502012,-2.1469423272572548,258.72205284059584,7.761620455731006,-30.607652142378008,0.2211632995733715,-0.019037524805397377,94.81671337887369,0.3896257128737094,-0.6413016887658205,0.0858776930902902,0.48960518060078,270.4334733912189,16.346230372364733,10.852212140072078,-3.161418996545194,-0.11459155902616465
GUIDED_NOGPS,4.0057666301727295,24.09757835167045,272.0182371462798,16.31356565595501,10.890010565715546,-2.155477544230925,258.27006322119394,7.359401856527015,-30.902689215306225,0.23592970165147625,-0.09600796709890244,94.8139334918815,0.42395082485919905,-0.725493730757369,0.086219101769237,0.48955182505474454,275.5019574158645,16.711382154108822,11.000313040983427,-5.007137902984297,-0.6302535746439055
GUIDED_NOGPS,4.047647953033447,23.882158007117436,271.5435254094507,16.422277825701105,10.799086651947142,-2.1689290546938844,257.82932784528293,6.967198235228878,-31.200385995427347,0.2198802778862537,-0.03302044282072086,94.78896232027593,0.43762230951790027,-0.6686190552341875,0.08675716218775538,0.4895001318381564,269.3688651333308,16.721732005425178,10.506462185176192,4.252250819265882,-0.7448451336700702
GUIDED_NOGPS,4.081427097320557,29.61995423858083,271.0234849362473,16.645080176376933,10.796305049729215,-2.211116517387188,257.40007902050695,6.585216318830376,-31.500695571941,0.17963550929585595,-0.07584370120429096,94.76296662029486,0.4855939561453002,-0.6527727149744427,0.08844466069548751,0.4894257498445824,269.00623524233646,17.27763583882069,10.933376071491221,-11.915371812915964,-1.432394487827058
GUIDED_NOGPS,4.11688232421875,28.21084633130881,270.0152901051263,16.91315817788957,10.777224024098192,-2.26408956609859,256.98253413529676,6.213649557947107,-31.803570264426646,0.09298141289411326,-0.01366240605243535,94.699616615743,0.5088001886934036,-0.5522105451998931,0.0905635826439436,0.4893548014278688,262.46421637042766,17.50881051872847,10.593756682767992,10.896060998805666,-2.119943841984046
GUIDED_NOGPS,4.157257795333862,24.773949664211504,269.4634009771511,17.26617868392406,10.66021817096858,-2.3313925004527336,256.57689516971516,5.852677691525244,-32.10896164013837,0.04787279589261937,-0.05446985149635255,94.62592570478772,0.5390848877166116,-0.6084845317600027,0.09325570001810934,0.48930770504722326,266.0978333350584,18.111332902537185,10.267182874424016,-11.559421751399626,-2.177239621497128
GUIDED_NOGPS,4.193243980407715,27.794334183757993,268.7768976795352,17.634097883148264,10.484691249013846,-2.4159371944914487,256.18334820630207,5.502466311550435,-32.41682053129975,0.06845475720344621,-0.1330579013648135,94.5617424171571,0.5764174229653264,-0.569069784909224,0.09663748777965796,0.4892746220549216,266.15571312476294,18.550978150229835,10.122678431209755,-11.742912435812414,-2.46371851906254
GUIDED_NOGPS,4.233724594116211,24.710896397325243,268.0992052431156,18.16367000876299,10.330641726884705,-2.500031036758396,255.80206294092054,5.163166427757048,-32.72709705239871,0.0319104837197409,-0.15541308383783878,94.47333927872964,0.6182184806083073,-0.5556973336054714,0.10000124147033584,0.48923556530517914,265.76534793192394,19.3695926334988,9.736214574530484,0.17083619950264506,-2.7501974166279517
GUIDED_NOGPS,4.265060186386108,31.912835730046414,267.32325378402084,18.679284080493044,10.052578039976755,-2.603913615325005,255.43319219360183,4.8349140323365845,-33.03974061748231,-0.005233605771095825,-0.0946605255221323,94.39206685779565,0.6723157285405056,-0.5037878177053797,0.10415654461300021,0.48922692033563525,264.2258617184608,19.855706197470965,9.543057636951463,2.21486468745762,-3.0939720937064457
GUIDED_NOGPS,4.314300775527954,20.311596238220226,265.7766578041361,19.268505328635293,9.782231807053156,-2.7012513750833307,255.07687141939104,4.5178296646468965,-33.35469995745159,0.04037506245294366,-0.08193905806914555,94.2133959392973,0.669602794184286,-0.3886536074526917,0.10805005500333323,0.4892157670588738,263.1291895767867,20.454916759439712,9.24202551815001,-1.6212556556524191,-3.495042550298022
GUIDED_NOGPS,4.363206386566162,20.482600330120036,265.0058048964982,20.03267799271122,9.470738672981238,-2.8610669314886645,254.73321821919242,4.212017975921029,-33.67192313735646,0.03746889700238257,-0.10111115894553332,94.05346022969228,0.7315782063864196,-0.4384068176259109,0.11444267725954659,0.4892143345474156,263.20204187222794,21.93219622291683,8.709717204064415,-12.940871926174296,-3.724225668350351
GUIDED_NOGPS,4.401293039321899,26.2152192256008,264.04246573761736,20.80293545801802,9.159423434624774,-3.0281377695732052,254.40233185061504,3.9175672939761483,-33.99135757369045,-0.03609129320351595,0.06745676251204422,93.92170588060273,0.794275939125394,-0.3635000456740556,0.12112551078292821,0.4892123047479212,261.2995219712898,22.402265476763816,8.566102239427435,-14.27216040802331,-3.7815214478634336
GUIDED_NOGPS,4.442963361740112,24.004624303922075,264.3941149730374,21.89753565111035,8.940749360419714,-3.166897358326197,254.0842927388181,3.6345491879224454,-34.31295005168562,-0.03585626532695876,0.19005278841995513,93.77711077587355,0.8840379716513233,-0.5530046387684422,0.12667589433304788,0.48918657514697367,265.27741025378805,24.84259359896045,8.64284420350519,-7.734350226547292,-3.8388172273765155
GUIDED_NOGPS,4.484182119369507,24.267115639410086,263.2614414139775,22.95290196552756,8.729077953396427,-3.2836572615711654,253.77916198735622,3.363018032871892,-34.636646742607354,0.012434012538464424,0.3011314612007849,93.65979544668942,0.920863478927928,-0.3271740995811682,0.13134629046284663,0.48915856882599906,257.03644486257906,25.132537769557015,8.484700601835025,7.367765169290152,-2.864788975654116
GUIDED_NOGPS,4.528331518173218,22.660522007855512,262.1839204810426,24.087519918463315,8.662853709835053,-3.3781127450844215,253.48698088902543,3.103010574647513,-34.96239322104922,0.011677529067245843,0.4170811794377445,93.5777580445684,0.9738268346016049,-0.2945908924025567,0.13512450980337687,0.48909368826727895,257.53554566128383,26.128006524118486,8.910904300343143,3.541206604827508,-2.0053522829578814
GUIDED_NOGPS,4.561121463775635,30.502254414288622,260.8798449171534,25.22719837333364,8.853008005780243,-3.444979526576901,253.2077704367081,2.854545494491859,-35.29013448222777,0.05611476648777525,0.507047630772359,93.5501299293757,1.0656174249603594,-0.16973178601291738,0.13779918106307606,0.488964214377998,255.33274342081012,27.630588497268434,9.660488683790353,8.630158194945011,-1.0313240312354819
GUIDED_NOGPS,4.597516059875488,27.480927233891997,259.76820512994703,26.272862977434556,9.071885294652827,-3.440338391769391,252.9415308342186,2.617622973776278,-35.619814959277406,0.1446822430019405,0.4706381334628425,93.5681479684062,1.0884902761221746,-0.1666290457080985,0.13761353567077564,0.48882707493651745,255.33274342081012,27.630588497268434,9.660488683790353,8.630158194945011,0.4583662361046586
GUIDED_NOGPS,4.629458427429199,31.337024169748588,259.62405182460066,27.117728001734122,9.31848060931954,-3.424676716328946,252.6882410071487,2.392224258709618,-35.95137854054523,0.14762766870001592,0.5395857982046536,93.61617102846054,1.1333662247735392,-0.30258826643923087,0.13698706865315785,0.4886825352125338,261.9759631340156,29.06691872045827,9.875820776838767,-5.224796255406744,1.1459155902616465
GUIDED_NOGPS,4.667614221572876,26.205719355463504,258.94869447134613,27.903810799311675,9.599973968436329,-3.377190526391444,252.44785811371332,2.178311225047125,-36.284768586885825,0.20513994258478604,0.5815198513356526,93.70995635595399,1.1385182918629864,-0.2076146329341835,0.13508762105565775,0.48852881436116946,257.79918304619156,29.06295175744477,9.892167397418964,-1.2436496062367581,2.0053522829578814
GUIDED_NOGPS,4.70012092590332,30.77236410591265,258.47619901138734,28.60257787945315,9.74087988863171,-3.3023573642728636,252.2203170555954,1.9758259427994886,-36.619927948956146,0.23634759717089,0.5932804765910625,93.7733883227759,1.1807694381972784,-0.21396955322646957,0.13209429457091454,0.488409798040603,257.5195582916194,29.621841924825887,9.615433901320046,-5.068307491165513,2.979380534680281
GUIDED_NOGPS,4.730576276779175,32.84420882829691,257.50646751611623,29.00082856496464,9.731868932137647,-3.2220727777669316,252.00552998879192,1.7846902409417709,-36.95679898451033,0.29590500578397644,0.6326195914459857,93.86405908400782,1.1641456934329077,-0.09273443209899015,0.12888291111067726,0.488327833020838,257.5195582916194,29.621841924825887,9.615433901320046,-5.068307491165513,3.0366763141933633
GUIDED_NOGPS,4.771346092224121,24.533975982545524,257.2432712858673,29.361782415713158,9.727993351039668,-3.126778612490894,251.80338583445933,1.60480527212205,-37.295323575694525,0.3255724393720293,0.6352669300796003,93.98076652635582,1.1679711578868757,-0.20785398289162926,0.12507114449963574,0.48824417076831644,254.93087502058762,29.435357751011026,9.641110778300456,-1.1563390218264118,3.6096341093241864
GUIDED_NOGPS,4.806529521942139,28.43962273106366,257.074490531957,29.453188734181744,9.671502815183603,-2.971021503028914,251.6137497897584,1.4360510773705215,-37.63544314634174,0.39254810043441074,0.7131099557200009,94.28112409510715,1.1557576987856797,-0.22333094443244547,0.11884086012115656,0.48817326350961865,256.1852996300014,29.523950312801194,9.59336809755843,0.14661743151023643,5.042028597151244
GUIDED_NOGPS,4.841825008392334,28.340274868579304,257.1810600581059,29.545388445253025,9.611742955211495,-2.8091100086442573,251.4364628387005,1.278286150808654,-37.97709867926669,0.5290952146088957,0.6218292799395407,94.48683573252958,1.165786800905181,-0.27691322464267065,0.11236440034577029,0.4881027895913804,256.1852996300014,29.523950312801194,9.59336809755843,0.14661743151023643,5.500394833255903
GUIDED_NOGPS,4.884166717529297,23.62096560734821,256.43018696943426,29.231583126223164,9.51069537612348,-2.6188184980818097,251.27134126299228,1.1313470043575506,-38.32023073356058,0.6608321680603993,0.5580106603775861,94.75886167660369,1.1088294951515691,-0.14584294928784364,0.10475273992327239,0.488042268472579,249.3257587114369,28.052815329676598,9.11019600587996,6.752460838309332,6.130648407899809
GUIDED_NOGPS,4.91940975189209,28.38169736503769,255.79062832412262,28.967503094677124,9.34435840912498,-2.389703008766006,251.11817615288186,0.9950477324470768,-38.66477946188603,0.8308675396528983,0.38634612858548045,95.00344392059267,1.1036467587037988,-0.125963420939883,0.09558812035064024,0.48799771553224724,256.8594939715228,28.301441767095668,8.783749066327552,-3.2889631043745737,6.359831525952138
GUIDED_NOGPS,4.952883958816528,29.880344803020588,254.94988596170373,28.50477308675927,9.095954860298466,-2.1751655937665886,250.9767329180038,0.869179576725216,-39.01068462777181,0.9466235579938646,0.32203904377616416,95.22183238911465,1.0619097786267162,-0.062114387173557384,0.08700662375066355,0.48797334012798244,251.07324414684047,27.12170771142174,8.399093034167887,3.956856978516143,6.932789321082962
GUIDED_NOGPS,4.989107131958008,27.611180598528037,254.1549105963511,27.897712624421594,8.747561032712523,-1.9508771767597175,250.84675079822466,0.75351049076626,-39.357885622907745,1.0583682275796236,0.2262676786989792,95.45823889666714,1.027664092832849,-0.046744668174627316,0.0780350870703887,0.4879736383360949,251.1597553687983,26.488648001112814,7.851398959628723,1.5905896090742289,7.333859777674538
GUIDED_NOGPS,5.0238142013549805,28.82128525094827,254.0805412573185,27.256006034634687,8.286646981230147,-1.6871385719900827,250.72794237448846,0.6477847047802499,-39.706321484439556,1.2165633061633465,-0.010965041619235666,95.74396620021628,1.0012671206634196,-0.1525645099338484,0.0674855428796033,0.4880017578835826,256.9246035793583,26.315417363866654,7.288797840146553,0.9129856525872242,8.13600069085769
GUIDED_NOGPS,5.065161466598511,24.19265044326906,253.55061720682207,26.608408229290866,7.763054762449286,-1.4501922224672925,250.61999307966238,0.551722290321564,-40.055930912263605,1.3144220944447638,-0.1313407757992164,96.12140928394035,0.9848712967511013,-0.07771135579410278,0.0580076888986917,0.4880452535813218,250.69148261661607,24.81482630295749,6.492234911975648,3.389701355469313,7.276563998161455
GUIDED_NOGPS,5.096795558929443,31.617898926546857,253.17806912265735,25.551724225576955,7.049334484715125,-1.1674215002594361,250.52256070938182,0.4650187249980178,-40.40665228632186,1.3842556560662667,-0.33171870249054164,96.34510480944745,0.881106815857548,-0.08069868655386549,0.04669686001037745,0.4881360033072408,253.20491495668335,23.018021748526124,5.215147677656748,-7.248893167493364,7.505747116213785
GUIDED_NOGPS,5.138807535171509,23.814359119943223,252.8055210384926,24.73098703299783,6.412545413412897,-0.9478533755889756,250.43527493289616,0.38734445717979327,-40.75842368389662,1.2819600195886915,-0.5644802369037634,96.66168407747753,0.8995435506700166,-0.07774273471125714,0.037914135023559024,0.48820725772567264,253.20491495668335,23.018021748526124,5.215147677656748,-7.248893167493364,7.16197243913529
GUIDED_NOGPS,5.176826000213623,26.303833032309853,252.8071389843739,23.789589735087112,5.684887391839888,-0.6868310557111481,250.35773680391418,0.3183444707081122,-41.11118289690546,1.162952404315976,-0.6545308383033867,96.90085681164388,0.843745964191373,-0.1310770374237669,0.027473242228445924,0.48830098242781367,249.3387022784875,21.781661511559204,4.213108851763677,0.021489992827270044,6.130648407899809
GUIDED_NOGPS,5.212564945220947,27.99076385088691,251.87868170149957,22.456613359747017,4.734003796980075,-0.46382792246105736,250.28951827144903,0.25763784960436453,-41.46486744919591,0.971224191836958,-0.8298741740154846,97.13665543236021,0.7408117895571715,0.0390575403413542,0.018553116898442294,0.488450282188456,249.4318357085284,19.65053548716619,2.534379865847492,4.365105006305171,5.958761069360562
GUIDED_NOGPS,5.242182970046997,33.77137934088585,251.50605256724958,21.20268428542826,3.765857840179747,-0.26347399320695963,250.23016169066483,0.20481734277912267,-41.819414613840436,0.9250969361640999,-0.9047264305730659,97.2026692106884,0.6768960735429234,-0.01699719553161617,0.010538959728278386,0.48860368188649494,248.09221107284023,18.54518093136369,1.6515051279740038,-6.589373681974635,5.958761069360562
GUIDED_NOGPS,5.283105373382568,24.441903696322324,251.1226095302548,20.308116121995774,3.0531293302431983,-0.14187209197249223,250.17917933372058,0.15944892874041727,-42.17476143043126,0.7616950656378586,-0.9547109288579828,97.4417121712605,0.7196263195372545,-0.013081102865194394,0.005674883678899689,0.4886930273098314,248.09221107284023,18.54518093136369,1.6515051279740038,-6.589373681974635,3.8388172273765155
GUIDED_NOGPS,5.326489448547363,23.053226338353305,250.10889043212748,19.105164763937477,2.039324939700702,-0.0010038163322467347,250.13605290061724,0.12107138030366116,-42.53084472237509,0.6730454000700284,-1.0604395891671357,97.61671527817457,0.6491127906141368,0.10476494465719001,4.015265328986939e-05,0.48885745758448107,248.8148507943395,17.00326495823465,0.14612572494426607,-2.7277857014760514,2.521014298575622
GUIDED_NOGPS,5.354520797729492,35.68193148272606,249.81961506545477,17.99006658939918,1.1258311548075208,0.11942547103741222,250.10023303004192,0.0891958292996975,-42.88760111418803,0.6275443340058431,-0.9895317668552367,97.67115871604874,0.5590264579634235,0.04968702701585622,-0.004777018841496489,0.4889966419327511,248.3772796832343,16.206170638867718,-0.35436007270222813,-11.303401322819468,1.7188733853924698
GUIDED_NOGPS,5.396812200546265,23.650667629014794,249.57257170926982,17.250195999525012,0.4645135408657559,0.137626753550593,250.07113881021382,0.06330533128421223,-43.244967048790485,0.5469652839943234,-0.9726931093953338,97.72666083324427,0.6173645900894966,0.04097486431560002,-0.00550507014202372,0.4890726298525859,251.2285681072037,15.95118253779535,-0.7722082038613323,-0.7017444857283266,0.34377467707849396
GUIDED_NOGPS,5.438608169555664,23.929028246073447,248.4912781467831,16.56437982114745,-0.03805693501558958,0.18225514356442596,250.0481572897299,0.0428544302460665,-43.60287880480183,0.4675243142532572,-0.9045995384648917,97.75463045789546,0.5954923424602041,0.19439874636306595,-0.007290205742577038,0.48910879453255346,244.55456645678927,15.116100039475896,-0.8613472514327236,4.351195608871919,0.0
GUIDED_NOGPS,5.471087694168091,30.798123168878085,248.38970252419617,15.849770524196042,-0.5397524113835726,0.20978324186817504,250.03064298840997,0.027268723317106947,-43.96127251383541,0.4786800942411507,-0.888889783208745,97.75638581651215,0.545158293863203,0.08474340447294185,-0.008391329674727001,0.489144619974387,248.52609729779198,14.972134446606649,-0.8569722538659114,-0.24985931729139566,0.0
GUIDED_NOGPS,5.512173414230347,24.344018619444782,248.2764852228541,15.443544421870442,-0.740372007145608,0.21578396685004136,250.01791740814247,0.015944425480270752,-44.32008417779322,0.3830262564424576,-0.7141360849210896,97.78541412048472,0.5770668122531283,0.08896913647073082,-0.008631358674001655,0.4891050719573381,248.52609729779198,14.972134446606649,-0.8569722538659114,-0.24985931729139566,-0.11459155902616465
