Mode,Time,Freq,North-Vision,East-Vision,Down-Vision,Yaw-Vision,North-Desired,East-Desired,Down-Desired,Roll-UAV,Pitch-UAV,Yaw-UAV,Roll-Control,Pitch-Control,Yaw-Control,Thrust-Control,northVraw,eastVraw,downVraw,N-Velocity,E-Velocity,D-Velocity,N-Acceleration,E-Acceleration,D-Acceleration,yawVraw,yawRate,Landing-State,Q-Size,N-diff,E-diff,D-diff,Y-diff
GUIDED_NOGPS,0.06785964965820312,14.744067999184459,0.07177142350337445,0.08708584367096642,0.3372126688334988,0.07757629211834784,0,0,0.5,2.0439057211525777,-0.23468802128513555,8.17738848851076,0,0,0.0,0.5,0.0,0.0,0.0,-0.08284602081403136,-0.15207744436338544,1.7928846180438995,0.867125391960144,-3.782842308282852,20.60691863298416,0.0,-0.2802867377101109,False,0,0,0,0,0
GUIDED_NOGPS,0.10126829147338867,29.936861639484672,0.0773154827792388,0.09399968860102462,0.3847098519416682,0.08311088343357068,0,0,0.5,2.0432402045953246,-0.23398024293239297,8.173477351437281,0,0,2.0928640278329307,0.5,0.0,0.0,0.0,-0.08284602081403136,-0.15207744436338544,1.7928846180438995,0.867125391960144,-3.782842308282852,20.60691863298416,0.0,-0.2802867377101109,False,1,0,0,0,0
GUIDED_NOGPS,0.14330768585205078,23.792744703179512,0.07638643811283682,0.0913994288210462,0.3830418349327043,0.08001943554292579,0,0,0.5,2.0421778967359763,-0.23364374939406407,8.173669450507688,0,0,4.093032540812346,0.5,0.0,0.0,0.0,0.259454851038754,0.02613571414258331,1.9453572109341621,-0.1592058688402176,2.1403031423687935,23.35767149925232,0.0,-0.13382819195671752,False,0,0,0,0,0
GUIDED_NOGPS,0.19491958618164062,19.378599149879875,0.07756442499319918,0.09140399948644484,0.39459096646440545,0.07921329434992573,0,0,0.5,2.040720718565236,-0.2341295465987812,8.183311116294806,0,0,5.911915622135862,0.5,0.0,0.0,0.0,0.259454851038754,0.02613571414258331,1.9453572109341621,-0.1592058688402176,2.1403031423687935,23.35767149925232,0.0,-0.13382819195671752,False,1,0,0,0,0
GUIDED_NOGPS,0.2092137336730957,70.02060065775196,0.0788574892187958,0.0927794878887972,0.41611780104478086,0.08102023979781488,0,0,0.5,2.041494877818975,-0.23451619933882742,8.180133370783459,0,0,7.468952709129846,0.5,0.0,0.0,0.0,-0.021748772996943444,-0.060612993547692895,1.8498361110687256,-5.196469649672508,-0.16534277237951756,14.71649706363678,0.0,0.06857321162675702,False,0,0,0,0,0
GUIDED_NOGPS,0.2879922389984131,12.695201053316586,0.0784260300623617,0.0915274331200446,0.40721413145396723,0.078356410294279,0,0,0.5,2.0423785335428453,-0.23490018403622906,8.180003597189229,0,0,8.695180719384028,0.5,0.0,0.0,0.0,0.4257597494870424,0.3588257823139429,1.1587250977754593,7.732485979795456,5.900049954652786,19.478555023670197,0.0,0.010201681268100794,False,0,0,0,0,0
GUIDED_NOGPS,0.34023237228393555,19.156621663591356,0.08916378825762838,0.10305901880820989,0.4846781794771024,0.08655950402631571,0,0,0.5,2.042568071292313,-0.23579323127020824,8.188787220461865,0,0,9.536288510260055,0.5,0.0,0.0,0.0,0.19290151540189981,0.06828414043411613,2.1398399025201797,-5.1797885447740555,1.8901510164141655,20.551858842372894,0.0,-0.16156462968078728,False,0,0,0,0,0
GUIDED_NOGPS,0.3678886890411377,36.14564068976809,0.0887777685972143,0.10231696591925322,0.4913448386129919,0.08826848308088163,0,0,0.5,2.042568071292313,-0.23579323127020824,8.188787220461865,0,0,9.95502238601579,0.5,0.0,0.0,0.0,0.10419260943308473,0.07755851256661117,1.7057273536920547,8.237145841121674,-3.965376690030098,19.51638162136078,0.0,0.43327347688658197,False,1,0,0,0,0
GUIDED_NOGPS,0.4314548969268799,15.734048579199099,0.08678578996564404,0.09976514044854577,0.4867826593537513,0.08835075684819309,0,0,0.5,2.042757609041781,-0.2368301393635808,8.189320828990772,0,0,9.932836109684285,0.5,0.0,0.0,0.0,0.10419260943308473,0.07755851256661117,1.7057273536920547,8.237145841121674,-3.965376690030098,19.51638162136078,0.0,0.43327347688658197,False,1,0,0,0,0
GUIDED_NOGPS,0.46247172355651855,32.3078653243262,0.09029257559131995,0.1043685870061884,0.5305534847783122,0.0925212825209446,0,0,0.5,2.042757609041781,-0.2368301393635808,8.189320828990772,0,0,9.470712338657458,0.5,0.0,0.0,0.0,-0.0649779278319329,0.02648275112733245,1.8440261483192444,-0.3921900875866413,0.010462975478731096,22.878843545913696,0.0,0.00621453499473271,False,0,0,0,0,0
GUIDED_NOGPS,0.5109958648681641,20.596458490881055,0.08945199790406051,0.1041184339701008,0.5448401109985667,0.09223324491373638,0,0,0.5,2.042757609041781,-0.2368301393635808,8.189320828990772,0,0,8.589119101584899,0.5,0.0,0.0,0.0,-0.0649779278319329,0.02648275112733245,1.8440261483192444,-0.3921900875866413,0.010462975478731096,22.878843545913696,0.0,0.00621453499473271,False,0,0,0,0,0
GUIDED_NOGPS,0.5644650459289551,18.704947934087006,0.09004513718917678,0.10561393253375395,0.5721857642381338,0.09352210389437207,0,0,0.5,2.04209102526747,-0.23651680443540646,8.18750826753978,0,0,7.327103244279351,0.5,0.0,0.0,0.0,-0.0649779278319329,0.02648275112733245,1.8440261483192444,-0.3921900875866413,0.010462975478731096,22.878843545913696,0.0,0.00621453499473271,False,0,0,0,0,0
GUIDED_NOGPS,0.6229662895202637,17.104458500022428,0.09222664250461814,0.10509197913352109,0.5941955522553666,0.09354521090929724,0,0,0.5,2.0407348058303993,-0.23767430805631207,8.191019838546813,0,0,5.740560997021648,0.5,0.0,0.0,0.0,0.22472385317087173,-0.11838581413030624,1.726209744811058,-0.05571097135543823,-3.945300355553627,19.40990388393402,0.0,-0.05408354560185014,False,0,0,0,0,0
GUIDED_NOGPS,0.6638312339782715,24.490427004081443,0.08927312599393378,0.10459775266998506,0.6034989374838301,0.09273998466164483,0,0,0.5,2.042356121984631,-0.23637539817524605,8.192599319792379,0,0,3.8997622619605226,0.5,0.0,0.0,0.0,-0.26288966182619333,0.0523629249073565,1.3152307830750942,-1.8554488196969032,1.9194722175598145,18.612058460712433,0.0,-0.0033500527079125407,False,0,0,0,0,0
GUIDED_NOGPS,0.7041797637939453,24.7707308430533,0.0840937148969998,0.10136107946540293,0.5905519283721252,0.08945411522450505,0,0,0.5,2.0414387422017337,-0.23722703738738202,8.194025121781618,0,0,1.8862382729548939,0.5,0.0,0.0,0.0,-0.26288966182619333,0.0523629249073565,1.3152307830750942,-1.8554488196969032,1.9194722175598145,18.612058460712433,0.0,-0.0033500527079125407,False,1,0,0,0,0
GUIDED_NOGPS,0.7309823036193848,37.37172998788225,0.07932967458826401,0.09832364355686332,0.57814950895291,0.08638686983202762,0,0,0.5,2.0414387422017337,-0.23722703738738202,8.194025121781618,0,0,-0.21082952277810635,0.5,0.0,0.0,0.0,-0.26288966182619333,0.0523629249073565,1.3152307830750942,-1.8554488196969032,1.9194722175598145,18.612058460712433,0.0,-0.0033500527079125407,False,0,0,0,0,0
GUIDED_NOGPS,0.7733099460601807,23.61192332592113,0.07708082730004369,0.09495899105240801,0.5689246854463135,0.08330726150437748,0,0,0.5,2.040967459149003,-0.2382149602178009,8.201209627014826,0,0,-2.298559420348432,0.5,0.0,0.0,0.0,0.04930514260195196,-0.0028213074983796105,1.8328260630369186,-2.104049175977707,-3.9629127830266953,17.325490713119507,0.0,-0.01859433624171346,False,0,0,0,0,0
GUIDED_NOGPS,0.8118674755096436,26.167298862048312,0.0769276253208122,0.0940213768042793,0.5824372027544845,0.08080842080837816,0,0,0.5,2.0419744851647565,-0.23591670828379738,8.196339702136607,0,0,-4.284483301829301,0.5,0.0,0.0,0.0,0.08445779676549137,-0.02191331295762211,1.9506236538290977,1.1786148883402348,4.0809620171785355,18.424037098884583,0.0,-0.25215086732172765,False,1,0,0,0,0
GUIDED_NOGPS,0.9036421775817871,10.89565452316133,0.07589410444304927,0.09188622455022873,0.584648680431338,0.07730869344091129,0,0,0.5,2.040316029856913,-0.2358302637021144,8.199834197670715,0,0,-6.080642162619563,0.5,0.0,0.0,0.0,0.08445779676549137,-0.02191331295762211,1.9506236538290977,1.1786148883402348,4.0809620171785355,18.424037098884583,0.0,-0.25215086732172765,False,0,0,0,0,0
GUIDED_NOGPS,0.9368140697479248,30.143620996952798,0.07239774232797329,0.0913266906016927,0.5856480395886433,0.07357322019353758,0,0,0.5,2.040283373014944,-0.23593944000712883,8.201168645879806,0,0,-7.607481923646012,0.5,0.0,0.0,0.0,-0.2780334325507283,0.1855703187175095,1.715666987001896,-1.1560618877410889,-1.7718713730573654,16.189484298229218,0.0,-0.30805180353175654,False,0,0,0,0,0
GUIDED_NOGPS,0.9671134948730469,33.01769632848416,0.07092085736565285,0.08884635804282182,0.579122866833252,0.07181654937241769,0,0,0.5,2.0408231714027867,-0.2348091504211975,8.203020480918525,0,0,-8.79737697910487,0.5,0.0,0.0,0.0,0.08933713543228805,0.0366072723409161,1.9955642521381378,-3.6468159407377243,2.422848343849182,23.37445765733719,0.0,0.052116594528178614,False,0,0,0,0,0
GUIDED_NOGPS,1.0110242366790771,22.778912839228592,0.06970415028332556,0.08678215774228237,0.5756441353710537,0.07034047352328791,0,0,0.5,2.0407205051218247,-0.23508993522910848,8.206828311380807,0,0,-9.597625417490859,0.5,0.0,0.0,0.0,0.08933713543228805,0.0366072723409161,1.9955642521381378,-3.6468159407377243,2.422848343849182,23.37445765733719,0.0,0.052116594528178614,False,0,0,0,0,0
GUIDED_NOGPS,1.1046466827392578,10.685471461617633,0.06843838671112855,0.086321617426627,0.5743969502361155,0.06851727597466188,0,0,0.5,2.0402063199433695,-0.23656066705648263,8.208132877512279,0,0,-9.972783253900806,0.5,0.0,0.0,0.0,0.020704048802144825,0.19837466534227133,1.51143167167902,1.3023585081100464,0.2251722849905491,17.78627187013626,0.0,-0.06466189446039995,False,0,0,0,0,0
GUIDED_NOGPS,1.1999735832214355,10.494207837309034,0.06650823738978223,0.08396341780198768,0.5670337864792218,0.06759839068150056,0,0,0.5,2.0384294035421084,-0.23682458983488017,8.213877920377907,0,0,-9.9062342875998,0.5,0.0,0.0,0.0,-0.04230760969221592,-0.03211291041225195,1.3638069853186607,1.8172409385442734,-0.032636834657751024,13.152028620243073,0.0,0.12094258652023891,False,0,0,0,0,0
GUIDED_NOGPS,1.2592747211456299,16.85678000160759,0.06598001079885013,0.08515403493891156,0.5847059038604413,0.06504081816716563,0,0,0.5,2.0393158340303295,-0.23527360328475835,8.217766859336583,0,0,-9.4009260539328,0.5,0.0,0.0,0.0,-0.05408264114521444,0.1743539934977889,1.4530403539538383,0.9367842227220535,1.8199153244495392,12.113666534423828,0.0,-0.36902388839625544,False,0,0,0,0,0
GUIDED_NOGPS,1.2790307998657227,50.66502385697892,0.06625613363189861,0.08280290480255262,0.5782699344407056,0.0642685115843502,0,0,0.5,2.0393158340303295,-0.23527360328475835,8.217766859336583,0,0,-8.479239274368842,0.5,0.0,0.0,0.0,0.3111870028078556,-0.022502885258290917,1.7123639583587646,5.118826776742935,-1.929597556591034,21.82697355747223,0.0,0.13363469216392254,False,0,0,0,0,0
GUIDED_NOGPS,1.3068101406097412,36.06452278589854,0.06641214799437527,0.08049014077937292,0.5709858646917176,0.0634638898755091,0,0,0.5,2.0401200888050983,-0.23555919056942953,8.215856967689918,0,0,-7.181996586895462,0.5,0.0,0.0,0.0,0.3111870028078556,-0.022502885258290917,1.7123639583587646,5.118826776742935,-1.929597556591034,21.82697355747223,0.0,0.13363469216392254,False,1,0,0,0,0
GUIDED_NOGPS,1.377324104309082,14.17856804813738,0.06804558931708128,0.08011070751593641,0.5865600551946982,0.06386016116224269,0,0,0.5,2.038917975511176,-0.23526122356688772,8.223228449351653,0,0,-5.566654461310076,0.5,0.0,0.0,0.0,0.3111870028078556,-0.022502885258290917,1.7123639583587646,5.118826776742935,-1.929597556591034,21.82697355747223,0.0,0.13363469216392254,False,0,0,0,0,0
GUIDED_NOGPS,1.4148480892181396,26.691171042751144,0.06628851788449303,0.08419969366815157,0.6108367263502082,0.06505937806238607,0,0,0.5,2.040159148949414,-0.23629322246179432,8.220330741596277,0,0,-3.7047583816978453,0.5,0.0,0.0,0.0,-0.3208956681191921,0.5712179467082024,1.6869435086846352,-3.184109926223755,0.17498026136308908,19.31665539741516,0.0,0.18226199717620353,False,0,0,0,0,0
GUIDED_NOGPS,1.466761589050293,19.25388125338548,0.06510580445835229,0.09037400259430663,0.6534680009739865,0.06732938390878915,0,0,0.5,2.040713461489243,-0.23570038338617838,8.219960203833804,0,0,-1.6787740091854046,0.5,0.0,0.0,0.0,-0.3208956681191921,0.5712179467082024,1.6869435086846352,-3.184109926223755,0.17498026136308908,19.31665539741516,0.0,0.18226199717620353,False,0,0,0,0,0
GUIDED_NOGPS,1.5181777477264404,19.452476138355795,0.06467118835140688,0.08808348864233405,0.6444169467785856,0.0637979201475455,0,0,0.5,2.041302565305157,-0.2348879110400642,8.224386166415972,0,0,0.42156532334096364,0.5,0.0,0.0,0.0,0.18241448560729623,0.039216637378558517,1.651863381266594,-1.900455355644226,2.266380563378334,21.755625307559967,0.0,-0.2521127409923372,False,0,0,0,0,0
GUIDED_NOGPS,1.561035394668579,23.338771603770436,0.06404034333703262,0.08115528734509095,0.6373441100410366,0.06092095417396434,0,0,0.5,2.040655404881298,-0.23500946706294928,8.22493343532322,0,0,2.5032330106138545,0.5,0.0,0.0,0.0,0.15943298349156976,-0.6740488111972809,2.0028825849294662,-2.222657762467861,-1.9774027168750763,12.628090381622314,0.0,-0.1866681895623758,False,1,0,0,0,0
GUIDED_NOGPS,1.6210284233093262,20.732064653254906,0.06347366945289756,0.07482171642496863,0.6315595740049554,0.058281567650288996,0,0,0.5,2.040655404881298,-0.23500946706294928,8.22493343532322,0,0,4.474029437436339,0.5,0.0,0.0,0.0,0.15943298349156976,-0.6740488111972809,2.0028825849294662,-2.222657762467861,-1.9774027168750763,12.628090381622314,0.0,-0.1866681895623758,False,0,0,0,0,0
GUIDED_NOGPS,1.6588327884674072,26.447134786117836,0.06268569656054687,0.07160162439695303,0.6292283197054681,0.05647913252977495,0,0,0.5,2.0405271253909487,-0.23545193525511918,8.223772303164317,0,0,6.246665612729069,0.5,0.0,0.0,0.0,0.12752991169691086,-0.2298673614859581,2.65615563839674,4.289968311786652,-1.6459394246339798,16.871032118797302,0.0,-0.07328355420429977,False,0,0,0,0,0
GUIDED_NOGPS,1.718956708908081,16.65106751252511,0.062336257512303775,0.07244077449584872,0.6378727440618854,0.05625769906778911,0,0,0.5,2.04067888365657,-0.23625971184617894,8.228185459141791,0,0,7.742629306011935,0.5,0.0,0.0,0.0,0.04353203112259507,0.26738450396806,1.4611391350626945,-0.62369704246521,2.4435164406895638,18.84092688560486,0.0,0.0841631117372045,False,0,0,0,0,0
GUIDED_NOGPS,1.7737452983856201,18.26143216025705,0.06107164444949517,0.07266015813631665,0.628203044228988,0.055383995509290365,0,0,0.5,2.0418528224201657,-0.2384622344100965,8.231939501864359,0,0,8.895662450393434,0.5,0.0,0.0,0.0,0.037014149711467326,0.32059946097433567,1.3852479867637157,8.341091871261597,-1.287977397441864,27.27043926715851,0.0,0.06471163344540072,False,0,0,0,0,0
GUIDED_NOGPS,1.8353667259216309,16.21990022816041,0.060711147803888976,0.07393287778656113,0.6473938368271733,0.05450744959077781,0,0,0.5,2.04340754422999,-0.24025014314705312,8.232323700005173,0,0,9.654695793623906,0.5,0.0,0.0,0.0,-0.027103081811219454,0.24491276126354933,1.7920030280947685,1.292155310511589,2.5310853496193886,25.711455941200256,0.0,-0.06847831601999747,False,0,0,0,0,0
GUIDED_NOGPS,1.8793113231658936,22.761235985543266,0.05914606959397308,0.07368432122266283,0.640613386463156,0.052907829092716574,0,0,0.5,2.04340754422999,-0.24025014314705312,8.232323700005173,0,0,9.986110817918139,0.5,0.0,0.0,0.0,-0.027103081811219454,0.24491276126354933,1.7920030280947685,1.292155310511589,2.5310853496193886,25.711455941200256,0.0,-0.06847831601999747,False,1,0,0,0,0
GUIDED_NOGPS,1.929717779159546,19.863908464044858,0.06055837997047876,0.07156322263183795,0.6308114697620826,0.053524805407189666,0,0,0.5,2.045163116290095,-0.24202524527931596,8.233213332144567,0,0,9.875228745343794,0.5,0.0,0.0,0.0,0.48301187343895435,-0.06161874043755233,1.4556593261659145,2.4397779256105423,2.525293454527855,23.52350354194641,0.0,0.30513245795053145,False,0,0,0,0,0
GUIDED_NOGPS,1.9761383533477783,21.522716776650007,0.05865215700957575,0.06655673264668238,0.6268977234826592,0.052800509860108015,0,0,0.5,2.0477637108165774,-0.24496169301389253,8.235866860637117,0,0,9.32696067890069,0.5,0.0,0.0,0.0,-0.1044285949319601,-0.6171520333737135,2.0942866802215576,-2.872360683977604,-1.4777238480746746,21.831703186035156,0.0,0.06792801888434864,False,0,0,0,0,0
GUIDED_NOGPS,1.9990770816802979,43.71707906860395,0.05904117154015222,0.06681703505654546,0.6197467636966094,0.050759893510668945,0,0,0.5,2.0479079985627937,-0.2454032007107104,8.239339158056422,0,0,8.365590083745087,0.5,0.0,0.0,0.0,0.29610786586999893,0.29676835983991623,1.3929943554103374,3.4401848912239075,0.37763959262520075,17.064255475997925,0.0,-0.181607179469955,False,0,0,0,0,0
GUIDED_NOGPS,2.027207136154175,35.57177871445412,0.05847733082508149,0.06654645679252011,0.6139927361179742,0.05107786420254372,0,0,0.5,2.0479079985627937,-0.2454032007107104,8.239339158056422,0,0,7.033697242732391,0.5,0.0,0.0,0.0,0.1327300793491304,0.21224278025329113,1.793823204934597,4.196183010935783,0.5036530084908009,20.20832449197769,0.0,0.25165004903692173,False,0,0,0,0,0
GUIDED_NOGPS,2.0881218910217285,16.425062656641604,0.058723435338283614,0.06705843647113602,0.6237182327858608,0.05183806207998141,0,0,0.5,2.0504387970936953,-0.24868628054566513,8.236232275757713,0,0,5.390273323461356,0.5,0.0,0.0,0.0,0.1327300793491304,0.21224278025329113,1.793823204934597,4.196183010935783,0.5036530084908009,20.20832449197769,0.0,0.25165004903692173,False,0,0,0,0,0
GUIDED_NOGPS,2.12930965423584,24.258974996674322,0.05869323954694083,0.06774389948312626,0.6514646287329106,0.05151749552057712,0,0,0.5,2.051342729941664,-0.25272932564748957,8.246387059506228,0,0,3.508107587104019,0.5,0.0,0.0,0.0,-0.08288687095046043,0.06874273531138897,1.7675332725048065,4.752355068922043,-3.5284578800201416,18.27411651611328,0.0,-0.052876236294877664,False,0,0,0,0,0
GUIDED_NOGPS,2.1833887100219727,18.49601354688492,0.05898354185452496,0.06812884759364181,0.6758320543119863,0.05246509346160635,0,0,0.5,2.053058601527218,-0.2535673044812855,8.244321781055946,0,0,1.4705634627465556,0.5,0.0,0.0,0.0,0.024648616090416908,0.05680967587977648,1.842411421239376,3.8997169584035873,-1.676589623093605,14.703412353992462,0.0,0.18924044947597315,False,0,0,0,0,0
GUIDED_NOGPS,2.2167677879333496,30.00238914441448,0.054225078495856574,0.06431837310051942,0.6701610968881435,0.05286536793565594,0,0,0.5,2.0532942430535837,-0.2539129760863116,8.248193644541697,0,0,-0.6321137211366181,0.5,0.0,0.0,0.0,-0.5803450010716915,-0.38819811306893826,2.1064233034849167,-0.4852939397096634,0.4208977334201336,21.915385127067566,0.0,0.2607658702992294,False,0,0,0,0,0
GUIDED_NOGPS,2.2463886737823486,33.80349615970471,0.04980569079152042,0.06078462068965408,0.6657548175265348,0.05325339737046133,0,0,0.5,2.0537117383666006,-0.2539423245554015,8.248460021919328,0,0,-2.706793812973938,0.5,0.0,0.0,0.0,-0.5803450010716915,-0.38819811306893826,2.1064233034849167,-0.4852939397096634,0.4208977334201336,21.915385127067566,0.0,0.2607658702992294,False,1,0,0,0,0
GUIDED_NOGPS,2.2750096321105957,34.97876740889,0.0482774136348265,0.05718871522012697,0.6612428720722248,0.05317812357092155,0,0,0.5,2.0537117383666006,-0.2539423245554015,8.248460021919328,0,0,-4.661586686741114,0.5,0.0,0.0,0.0,-0.10376916034147143,-0.43637738563120365,2.032908797264099,-3.3942729234695435,0.2795752603560686,17.995698750019073,0.0,0.18328521821080962,False,0,0,0,0,0
GUIDED_NOGPS,2.33078932762146,17.921772050214926,0.04768708826647333,0.057147714335894106,0.6761237523239355,0.052252548830963405,0,0,0.5,2.054078220704254,-0.25604367494223823,8.249125965363403,0,0,-6.409912168353249,0.5,0.0,0.0,0.0,-0.007160895620472729,0.10652057826519012,1.740344613790512,-1.6641058027744293,0.6305712275207043,25.507381558418274,0.0,-0.11422149361396124,False,0,0,0,0,0
GUIDED_NOGPS,2.350043296813965,52.125818678928724,0.04716304937392555,0.05725318859969464,0.6963512436171635,0.05142696726434826,0,0,0.5,2.054078220704254,-0.25604367494223823,8.249125965363403,0,0,-7.874334777772317,0.5,0.0,0.0,0.0,-0.007160895620472729,0.10652057826519012,1.740344613790512,-1.6641058027744293,0.6305712275207043,25.507381558418274,0.0,-0.11422149361396124,False,1,0,0,0,0
GUIDED_NOGPS,2.406444787979126,17.72238630649816,0.046525854477077286,0.055453232161509276,0.69054336031259,0.05073288698888053,0,0,0.5,2.0555723245851945,-0.2584872818395161,8.25497346106658,0,0,-8.989993441398719,0.5,0.0,0.0,0.0,0.04319950821809471,-0.12127282097935677,1.7567068338394165,1.9734321162104607,0.24736647028476,16.9655978679657,0.0,0.05724110070048605,False,0,0,0,0,0
GUIDED_NOGPS,2.4908533096313477,11.85447803378027,0.04624202987976623,0.05408618886096783,0.7068029248536287,0.05075550962446443,0,0,0.5,2.0566969579207193,-0.257887185687907,8.253070399609086,0,0,-9.707474268578167,0.5,0.0,0.0,0.0,0.04319950821809471,-0.12127282097935677,1.7567068338394165,1.9734321162104607,0.24736647028476,16.9655978679657,0.0,0.05724110070048605,False,0,0,0,0,0
GUIDED_NOGPS,2.575706958770752,11.786354784592861,0.04574373047849473,0.052891151369754266,0.7063053306948571,0.05207616797865878,0,0,0.5,2.056772943775236,-0.2580129038573175,8.259954376518813,0,0,-9.994999153428735,0.5,0.0,0.0,0.0,0.048963382141664624,-0.04483219818212092,1.7522431910037994,5.170388892292976,-3.709639236330986,17.866523563861847,0.0,0.3631067300996294,False,0,0,0,0,0
GUIDED_NOGPS,2.6464343070983887,14.134085479071679,0.04469579351974671,0.05177191077929458,0.7007022040988161,0.0506428437253922,0,0,0.5,2.0569620546378804,-0.258381840794204,8.258420999050145,0,0,-9.839833266128725,0.5,0.0,0.0,0.0,-0.030847906600683928,-0.022959557827562094,2.03416608273983,-5.167769640684128,-0.04353894619271159,14.013008773326874,0.0,-0.05934577280041523,False,0,0,0,0,0
GUIDED_NOGPS,3.0362350940704346,2.56591362906699,0.04503105425673821,0.0507357432427742,0.7316607216823986,0.051691408334627494,0,0,0.5,2.0564751902161054,-0.25750245393856486,8.263893688122618,0,0,-9.248849094149707,0.5,0.0,0.0,0.0,0.10788858635351062,-0.08573426748625934,1.7333703115582466,-1.880522072315216,0.054367666598409414,18.813754618167877,0.0,0.13181111169680848,True,0,0,0,0,0
GUIDED_NOGPS,3.3914458751678467,2.8150239165728728,0.044097005778349574,0.04791688271244225,0.7234677132373244,0.04906584006438766,0,0,0.5,2.0559531076314226,-0.25981361919896795,8.278319047649685,0,0,-8.24822205135675,0.5,0.0,0.0,0.0,-0.0108658081444446,-0.3119431436061859,1.640022173523903,-9.541480988264084,-0.11194043327122927,16.261619329452515,0.0,-0.25478078363687345,True,0,0,0,0,0
GUIDED_NOGPS,3.7864458560943604,2.5317557183713433,0.049376016062342355,0.0449791108714042,1.1285765211174121,0.0592251328956237,0,0,0.5,2.0603901692709923,-0.2590965560578224,8.298351992485332,0,0,-6.882271136822208,0.5,0.0,0.0,0.0,0.22034188732504845,-0.11015381896868348,1.6506968066096306,4.1037000715732574,0.15367623418569565,15.695129334926605,0.0,0.07116771634590321,True,0,0,0,0,0
GUIDED_NOGPS,4.192980527877808,2.4598710567353885,0.07083314833034682,0.03467883867090455,1.3570686482942482,0.07377453426710326,0,0,0.5,2.0573451855616356,-0.2620256399947,8.317661791042605,0,0,-5.211495991996031,0.5,0.0,0.0,0.0,0.1900357659906149,0.09862176375463605,1.650535874068737,8.740746229887009,-0.01992433099076152,13.225239515304565,0.0,0.24156327369541453,True,0,0,0,0,0
GUIDED_NOGPS,4.573266983032227,2.6296923031588504,0.050574013571460255,0.03452816828169391,1.2836528109496623,0.054878383970305575,0,0,0.5,2.0548340238245983,-0.25808536789554315,8.33778182079017,0,0,-3.309897297378446,0.5,0.0,0.0,0.0,-0.26192469522356987,0.09854992385953665,1.5636207535862923,-3.6783352494239807,-0.03567493404261768,16.83894842863083,0.0,-0.23883138479039454,True,0,0,0,0,0
GUIDED_NOGPS,4.958770751953125,2.5941190623007313,0.01634023949142277,0.03320601878193845,1.0784171853909852,0.04409117162806124,0,0,0.5,2.0520825248061407,-0.2589897276303351,8.35770462882545,0,0,-1.2616991916130784,0.5,0.0,0.0,0.0,-0.01597070076968521,0.05956821842119098,1.6932988539338112,-1.1549953371286392,0.2705373102799058,21.385371685028076,0.0,0.2862848711009986,True,1,0,0,0,0
GUIDED_NOGPS,5.3864545822143555,2.3384691552404617,0.01953527988962799,0.004575626152340834,0.9042344800905776,0.0620630147702782,0,0,0.5,2.0529996911456267,-0.25808814265989344,8.375854148997467,0,0,0.8423811189212129,0.5,0.0,0.0,0.0,0.2430858090519905,-0.28461888432502747,1.6285687685012817,-0.2467090729624033,-1.6827821731567383,18.904025852680206,0.0,0.3030509311205436,True,0,0,0,0,0
GUIDED_NOGPS,5.771357297897339,2.5982409560635475,0.02929887560385758,-0.03145312235408915,0.7891299727360197,0.0619260914715313,0,0,0.5,2.047080691899576,-0.26276799618011576,8.384994649654237,0,0,2.909151336452391,0.5,0.0,0.0,0.0,0.07544509717263281,-0.22993753664195538,1.5594704076647758,3.1035952270030975,-0.0012270378647372127,12.289346009492874,0.0,0.0071159765578822495,True,0,0,0,0,0
GUIDED_NOGPS,6.159620046615601,2.5754457580681014,0.058674944971977325,-0.050824948321921325,0.7164183650366742,0.06408025679073742,0,0,0.5,2.0444256693031453,-0.2682849747604878,8.403571056649378,0,0,4.847071672991346,0.5,0.0,0.0,0.0,0.44060233049094677,-0.0917241326533258,1.61043182015419,3.9816074073314667,-1.7268359661102295,16.19088053703308,0.0,0.2569565990939192,True,0,0,0,0,0
GUIDED_NOGPS,6.529825210571289,2.701702516059923,0.07196054790852308,-0.05786231429583122,0.6885949289574957,0.044267048348022725,0,0,0.5,2.043684380334787,-0.2649234544717837,8.420394666348766,0,0,6.570309259822431,0.5,0.0,0.0,0.0,0.04879735643044114,-0.1855036709457636,1.7245706170797348,-6.8801045417785645,-1.8801452592015266,14.327608048915863,0.0,-0.18413265525578046,True,0,0,0,0,0
GUIDED_NOGPS,6.900628089904785,2.6966252836909073,0.06264834721250082,-0.055202965590579536,0.6736663381617211,0.030002773597636315,0,0,0.5,2.041725183260051,-0.262160429509102,8.43324908236673,0,0,8.002539790539762,0.5,0.0,0.0,0.0,0.048970262287184596,-0.04727699561044574,1.4789462089538574,5.981006100773811,0.12595158768817782,16.588297486305237,0.0,0.13040067763320085,True,0,0,0,0,0
GUIDED_NOGPS,7.27092432975769,2.70068136716431,0.037797412633517505,-0.01984635137530969,0.6804049152355616,0.013617025457859751,0,0,0.5,2.0435748838646552,-0.26642823052330217,8.4456125785381,0,0,9.080328018195505,0.5,0.0,0.0,0.0,-0.10992044117301702,0.307448604144156,1.804618164896965,-5.453573167324066,2.3451924324035645,23.850351572036743,0.0,-0.12827770276073014,True,0,0,0,0,0
GUIDED_NOGPS,7.693803548812866,2.364813405276185,0.03719602616403715,-0.012013091218547822,0.6895616801330297,0.0007874988477205944,0,0,0.5,2.045056181140902,-0.2668772087395247,8.461448372128773,0,0,9.755937380195567,0.5,0.0,0.0,0.0,0.27744132094085217,-0.2521580783650279,1.6085729002952576,9.398235380649567,0.014596774417441338,16.802695393562317,0.0,-0.00196703445000417,True,0,0,0,0,0
GUIDED_NOGPS,8.046862602233887,2.833204315020839,-0.023318561221023118,-0.02759144233467719,0.6904913305341001,0.004303352130529474,0,0,0.5,2.0451447601567003,-0.26713355427681174,8.47640904773204,0,0,9.999444309209432,0.5,0.0,0.0,0.0,-0.836259126663208,-0.17009112052619457,1.6098469495773315,-9.499575197696686,-1.80744007229805,16.767537593841553,0.0,0.1043085079002125,True,0,0,0,0,0
GUIDED_NOGPS,8.43609094619751,2.568846087417731,-0.07017065320995622,-0.04479155880286466,0.6802138279330984,0.023941002686288022,0,0,0.5,2.045475597444623,-0.2665562965702399,8.48789998723694,0,0,9.800063584670868,0.5,0.0,0.0,0.0,-0.07315883412957191,-0.18676103791221976,1.4782450161874294,-1.2866057455539703,0.022549554705619812,13.49029690027237,0.0,0.22325276383022682,True,0,0,0,0,0
GUIDED_NOGPS,8.8274564743042,2.555532808859513,-0.08433900097058035,-0.06600673055780616,0.6695768971717394,0.033476587193837115,0,0,0.5,2.0438118060514903,-0.2675295985269667,8.501071153277664,0,0,9.166626023425668,0.5,0.0,0.0,0.0,-0.23461098317056894,-0.2975453156977892,1.5905536711215973,-6.135011836886406,-1.7348416149616241,16.851776838302612,0.0,0.037350762744189116,True,0,0,0,0,0
GUIDED_NOGPS,9.20904541015625,2.6206456167974084,-0.07115136753992153,-0.07403524749493876,0.6489998925475532,0.02909049756126076,0,0,0.5,2.0400746253584354,-0.2679651298082608,8.515524687335057,0,0,8.127187352021913,0.5,0.0,0.0,0.0,0.0679030257742852,-0.10995171032845974,1.2819113209843636,-4.636650159955025,-1.9917229190468788,8.577359467744827,0.0,-0.01023042275748906,True,0,0,0,0,0
GUIDED_NOGPS,9.590290307998657,2.6230416948349085,-0.030841526390002164,-0.06950028448520039,0.6320267170701583,-0.011605043457207136,0,0,0.5,2.0412694815763643,-0.26684455189755557,8.52959999966716,0,0,6.7277855841685845,0.5,0.0,0.0,0.0,0.23228039499372244,-0.10363187175244093,1.473472360521555,1.972380094230175,-0.11778483167290688,11.10997274518013,0.0,-0.4424508232122726,True,1,0,0,0,0
GUIDED_NOGPS,10.001801490783691,2.4303886659616696,0.01084444039844149,-0.05190367333879784,0.640647438883964,-0.050115149101875464,0,0,0.5,2.042807127913264,-0.26785798121565624,8.545266746075878,0,0,5.030401940639225,0.5,0.0,0.0,0.0,0.18954288680106401,0.03383313014637679,1.6816463321447372,3.2709628343582153,0.41348645463585854,22.19303697347641,0.0,-0.1913271523086914,True,0,0,0,0,0
GUIDED_NOGPS,10.412346839904785,2.4358665515995757,0.017998010716582948,0.004633940052684013,0.6248604579138549,-0.0410072668185046,0,0,0.5,2.043227184547219,-0.2674480631437497,8.558808449879074,0,0,3.1102156249790487,0.5,0.0,0.0,0.0,-0.13048555701971054,0.5096906796097755,1.1860021390020847,2.111414447426796,0.35536247305572033,14.319983124732971,0.0,0.20324312434707945,True,0,0,0,0,0
GUIDED_NOGPS,10.80173635482788,2.5681021239493984,0.00882959331917617,0.02863961463508173,0.6039729260643192,-0.010486552188847385,0,0,0.5,2.044047661021267,-0.26606356245464696,8.571197559259831,0,0,1.0522740443667222,0.5,0.0,0.0,0.0,-0.02059561520582065,-0.15098227886483073,1.430462021380663,1.5782097354531288,0.302297156304121,16.980451345443726,0.0,0.12860878017249064,True,0,0,0,0,0
GUIDED_NOGPS,11.186185598373413,2.6012833059827662,-0.015129193666657346,0.021584869597535788,0.5913916649467055,-0.0030288010225047596,0,0,0.5,2.0486358405962233,-0.2669370796164681,8.587061527380833,0,0,-1.0522740443666747,0.5,0.0,0.0,0.0,-0.2536228159442544,-0.0014124241715762764,1.3850935734808445,-3.412935882806778,2.1566415205597878,16.46892875432968,0.0,-0.1392415037401361,True,0,0,0,0,0
GUIDED_NOGPS,11.582204341888428,2.5256773641884425,-0.01661987527162529,-0.014454287592648,0.5691552649399474,0.006641694024265839,0,0,0.5,2.049617893732824,-0.2653262221894029,8.60192401901478,0,0,-3.110215624979003,0.5,0.0,0.0,0.0,0.14822455123066902,-0.38850847631692886,1.2220019474625587,3.4724466502666473,0.23551408667117357,15.169085562229156,0.0,0.1786168906348117,True,0,0,0,0,0
GUIDED_NOGPS,11.966499328613281,2.601749633554555,0.014055116679421196,-0.05626522576693013,0.5475975690393111,0.045847678036293776,0,0,0.5,2.049995475127879,-0.26098467647650775,8.617554053156708,0,0,-5.030401940639183,0.5,0.0,0.0,0.0,0.3022456541657448,-0.2911485033109784,1.1820451356470585,-1.7574110999703407,0.2856154227629304,13.893690705299377,0.0,0.4404114514560684,True,0,0,0,0,0
GUIDED_NOGPS,12.34048318862915,2.674060496711858,0.034559033101832,-0.0764517465868208,0.5266999753860491,0.0484185495074415,0,0,0.5,2.0511472157766724,-0.25797608486882295,8.621424209095165,0,0,-6.727785584168561,0.5,0.0,0.0,0.0,0.0518680433742702,-0.16158982180058956,1.164410077035427,-6.95621445775032,2.325565926730633,19.759830832481384,0.0,-0.19051878874824982,True,0,0,0,0,0
GUIDED_NOGPS,12.704086303710938,2.750274909199639,0.04891725959864139,-0.06760466879197341,0.5173980154169338,0.02967670915968416,0,0,0.5,2.0496074350056577,-0.254227271509838,8.629973044615083,0,0,-8.127187352021895,0.5,0.0,0.0,0.0,0.22300707641988993,-0.0015060301848279778,1.266187895089388,-12.617671489715576,2.0279893651604652,9.769026935100555,0.0,0.0038108453504704346,True,1,0,0,0,0
GUIDED_NOGPS,13.091920375823975,2.57857442342853,0.052570010719230724,-0.07952265691779337,0.5002304359369271,0.025405423143964177,0,0,0.5,2.051895975264435,-0.25045476593216953,8.641913069057912,0,0,-9.16662602342566,0.5,0.0,0.0,0.0,0.05898612434975803,-0.42124497704207897,0.9749281220138073,8.167985081672668,0.06243211682885885,10.699241608381271,0.0,0.11498076518974336,True,0,0,0,0,0
GUIDED_NOGPS,13.12236213684082,32.85321302127393,0.06474646712667312,-0.08258761641190508,0.4755755474963218,0.007142584909561649,0,0,0.5,2.0506040022942447,-0.24322490397400523,8.652617683034615,0,0,-9.800063584670857,0.5,0.0,0.0,0.0,0.2993779955431819,-0.0764300231821835,0.963260605931282,-2.421831525862217,4.029462113976479,10.074399411678314,0.0,-0.1983858726714219,False,0,0,0,0,0
GUIDED_NOGPS,13.15815281867981,27.973775652440693,0.08654619400844549,-0.08269167086783173,0.47882728997426066,0.018359731037367884,0,0,0.5,2.0496738159066537,-0.2422378349172326,8.655673338914548,0,0,-9.999444309209434,0.5,0.0,0.0,0.0,0.33324933610856533,-0.233936938457191,1.3321979902684689,7.1317315101623535,-3.5557322204113007,15.03458172082901,0.0,0.35146165777115435,False,0,0,0,0,0
GUIDED_NOGPS,13.194830894470215,27.25202068768355,0.06819077326793929,-0.06374247973790141,0.36825790566214794,0.022744019941010402,0,0,0.5,2.0498814963461043,-0.2419858649698826,8.662702457344139,0,0,-9.755937380195574,0.5,0.0,0.0,0.0,0.33324933610856533,-0.233936938457191,1.3321979902684689,7.1317315101623535,-3.5557322204113007,15.03458172082901,0.0,0.35146165777115435,False,0,0,0,0,0
GUIDED_NOGPS,13.256990671157837,16.094364311012367,0.04798763024507102,-0.048196195053138394,0.30797116714226813,0.014351141145929548,0,0,0.5,2.0498814963461043,-0.2419858649698826,8.662702457344139,0,0,-9.080328018195518,0.5,0.0,0.0,0.0,-0.11233782861381769,-0.00010500295957172057,1.0983072221279144,-0.07171090692281723,-1.9497660920023918,6.70645534992218,0.0,-0.06477842122290008,False,0,0,0,0,0
GUIDED_NOGPS,13.30032992362976,23.0750407112363,0.03672741575955346,-0.039354305284374065,0.2755388218950173,0.010315113437429867,0,0,0.5,2.0498814963461043,-0.2419858649698826,8.662702457344139,0,0,-8.00253979053977,0.5,0.0,0.0,0.0,-0.11233782861381769,-0.00010500295957172057,1.0983072221279144,-0.07171090692281723,-1.9497660920023918,6.70645534992218,0.0,-0.06477842122290008,False,0,0,0,0,0
GUIDED_NOGPS,13.330530405044556,33.12774662348946,0.02789770138576464,-0.031984536970927,0.23727194905180907,0.006415256396317063,0,0,0.5,2.0508033584406444,-0.2421889563759847,8.662910778113824,0,0,-6.5703092598224675,0.5,0.0,0.0,0.0,-0.11233782861381769,-0.00010500295957172057,1.0983072221279144,-0.07171090692281723,-1.9497660920023918,6.70645534992218,0.0,-0.06477842122290008,False,1,0,0,0,0
GUIDED_NOGPS,13.386837005615234,17.76419465503367,0.025669818607942804,-0.02971029055828809,0.21146225923948106,0.004973834975816112,0,0,0.5,2.050891937456443,-0.2421607818456584,8.663891764033366,0,0,-4.847071672991403,0.5,0.0,0.0,0.0,0.1782365026883781,-0.23049938026815653,1.3081911951303482,3.467099368572235,-1.7071593552827835,15.406517684459686,0.0,0.009068116659823296,False,1,0,0,0,0
GUIDED_NOGPS,13.452503204345703,15.231797795653042,0.025319591675169076,-0.029633844817822545,0.20946299971535656,0.004947636693704882,0,0,0.5,2.0500814928227387,-0.23965677046290826,8.666057787773907,0,0,-2.9091513364524535,0.5,0.0,0.0,0.0,0.1782365026883781,-0.23049938026815653,1.3081911951303482,3.467099368572235,-1.7071593552827835,15.406517684459686,0.0,0.009068116659823296,False,0,0,0,0,0
GUIDED_NOGPS,13.498114109039307,21.92882275747769,0.02370592462225205,-0.027492166323774804,0.18942926695042647,0.0035920281224050762,0,0,0.5,2.0495111720270427,-0.24018344208093972,8.666646037816175,0,0,-0.8423811189212783,0.5,0.0,0.0,0.0,0.18097027204930782,-0.19069655099883676,1.0226494632661343,-2.0580723881721497,-1.939930021762848,9.51763466000557,0.0,-0.04608627453783791,False,0,0,0,0,0
GUIDED_NOGPS,13.562844514846802,15.466064883441375,0.025876747010494926,-0.02991543927138646,0.2078221165439906,0.003760212141470755,0,0,0.5,2.048595926678261,-0.23945602693433335,8.671965901405969,0,0,1.261699191613031,0.5,0.0,0.0,0.0,0.18097027204930782,-0.19069655099883676,1.0226494632661343,-2.0580723881721497,-1.939930021762848,9.51763466000557,0.0,-0.04608627453783791,False,1,0,0,0,0
GUIDED_NOGPS,13.595950603485107,30.174848920863308,0.02197087552563308,-0.02569530735794478,0.1967054436075366,0.002685734793392119,0,0,0.5,2.048780555229263,-0.23945698742968538,8.670741589997244,0,0,3.3098972973784346,0.5,0.0,0.0,0.0,-0.11260311584919691,0.09854844538494945,1.2493998743593693,-5.497198924422264,1.9925514236092567,11.174774914979935,0.0,-0.05987330486219955,False,0,0,0,0,0
GUIDED_NOGPS,13.631951093673706,27.825865431820294,0.01954260630081298,-0.023863679125820797,0.1877148920139683,0.0034892486132604445,0,0,0.5,2.048780555229263,-0.23945698742968538,8.670741589997244,0,0,5.211495991996021,0.5,0.0,0.0,0.0,-0.03173706936649978,-0.082648906391114,1.3358437456190586,-1.5650177374482155,-1.9823968410491943,9.770011156797409,0.0,0.1312160314653711,False,1,0,0,0,0
GUIDED_NOGPS,13.695430755615234,15.76035771991132,0.0174685647365872,-0.022194538950622927,0.17852194989268222,0.004053378212587764,0,0,0.5,2.0481342485790504,-0.23897652631025731,8.676858878172636,0,0,6.882271136822187,0.5,0.0,0.0,0.0,-0.03173706936649978,-0.082648906391114,1.3358437456190586,-1.5650177374482155,-1.9823968410491943,9.770011156797409,0.0,0.1312160314653711,False,0,0,0,0,0
GUIDED_NOGPS,13.7421133518219,21.42760660662195,0.015244935127757344,-0.021518271086885143,0.169516670608406,0.004691109287341028,0,0,0.5,2.0486362674830465,-0.23882156639346264,8.676631774382733,0,0,8.248222051356745,0.5,0.0,0.0,0.0,-0.10347419884055853,-0.20416968036442995,1.2962481006979942,-1.2012211605906487,0.0028869661036878824,10.017649084329605,0.0,0.16824236689409122,False,0,0,0,0,0
GUIDED_NOGPS,13.7676100730896,39.25486672656484,0.013452048547203289,-0.020967379374527344,0.16251219386171475,0.005218995505777766,0,0,0.5,2.0495626118892294,-0.2381912679991174,8.675842887533596,0,0,9.248849094149701,0.5,0.0,0.0,0.0,-0.10347419884055853,-0.20416968036442995,1.2962481006979942,-1.2012211605906487,0.0028869661036878824,10.017649084329605,0.0,0.16824236689409122,False,0,0,0,0,0
GUIDED_NOGPS,13.816306829452515,20.526103552902025,0.014333491256866445,-0.018770736385645997,0.15622327763993474,0.004809705056043673,0,0,0.5,2.048926550522772,-0.23805871964053685,8.678272727330828,0,0,9.83983326612872,0.5,0.0,0.0,0.0,0.3413948928937316,0.10558400535956025,1.2995228171348572,0.5659736692905426,0.2564821857959032,15.900234878063202,0.0,0.015729725555341027,False,0,0,0,0,0
GUIDED_NOGPS,13.839340209960938,43.42783777347511,0.01646311807625815,-0.01852325207593035,0.1714493878981813,0.005444916244873017,0,0,0.5,2.048926550522772,-0.23805871964053685,8.678272727330828,0,0,9.994999153428735,0.5,0.0,0.0,0.0,0.3413948928937316,0.10558400535956025,1.2995228171348572,0.5659736692905426,0.2564821857959032,15.900234878063202,0.0,0.015729725555341027,False,0,0,0,0,0
GUIDED_NOGPS,13.874383449554443,28.542777036774915,0.01857890235145455,-0.01953564911045342,0.17877017381985674,0.003958173796624648,0,0,0.5,2.0492176873361436,-0.2375906382389794,8.68243145876172,0,0,9.707474268578174,0.5,0.0,0.0,0.0,0.40263342671096325,-0.23096546065062284,1.4215446077287197,8.286145329475403,0.39477073587477207,19.368311762809753,0.0,-0.25696879204880474,False,0,0,0,0,0
GUIDED_NOGPS,13.932199001312256,17.315663884141255,0.021937711005961008,-0.021645486178399426,0.19792738436408125,0.0025970883903156474,0,0,0.5,2.047442905368998,-0.2383184802724089,8.684216699456032,0,0,8.989993441398749,0.5,0.0,0.0,0.0,0.40263342671096325,-0.23096546065062284,1.4215446077287197,8.286145329475403,0.39477073587477207,19.368311762809753,0.0,-0.25696879204880474,False,0,0,0,0,0
GUIDED_NOGPS,13.95810604095459,38.56689409125182,0.022111477405969044,-0.022032792769146905,0.22454103677587955,0.0029101534262302975,0,0,0.5,2.0464034359546868,-0.2371207425684237,8.686491152449646,0,0,7.874334777772347,0.5,0.0,0.0,0.0,-0.18828068859875202,0.124769052490592,1.1710627004504204,-1.146391686052084,2.049906365573406,10.835105925798416,0.0,0.0019559053771231487,False,1,0,0,0,0
GUIDED_NOGPS,14.001521587371826,23.037272197994135,0.01982818882926405,-0.02021111046259218,0.22481194556247894,0.0028193672099811324,0,0,0.5,2.0472708699792785,-0.2366650408847369,8.686881327005983,0,0,6.409912168353272,0.5,0.0,0.0,0.0,-0.18828068859875202,0.124769052490592,1.1710627004504204,-1.146391686052084,2.049906365573406,10.835105925798416,0.0,0.0019559053771231487,False,1,0,0,0,0
GUIDED_NOGPS,14.048640012741089,21.30147992402312,0.021142526283868552,-0.02226303851343727,0.23515709341607452,0.0019157199414472996,0,0,0.5,2.0470736482669945,-0.23643302789636803,8.689453747002139,0,0,4.661586686741125,0.5,0.0,0.0,0.0,0.17560221021994948,-0.27887546457350254,1.062101125717163,-1.146391686052084,-1.8319021910429,10.835105925798416,0.0,-0.12274208790248603,False,0,0,0,0,0
GUIDED_NOGPS,14.102328777313232,18.579008216872275,0.021661105134156863,-0.02350721183993498,0.23464182639204786,0.0009265320450602237,0,0,0.5,2.0458990691731636,-0.23533816991675613,8.691114336744098,0,0,2.706793812973967,0.5,0.0,0.0,0.0,0.17560221021994948,-0.27887546457350254,1.062101125717163,-2.025839686393738,-1.8319021910429,12.810945510864258,0.0,-0.12274208790248603,False,1,0,0,0,0
GUIDED_NOGPS,14.129575729370117,36.71388181332773,0.019596295115472825,-0.02257324480373008,0.22795268397586727,0.0025362622211404055,0,0,0.5,2.0459620349795746,-0.23586633563866855,8.691741006600447,0,0,0.6321137211366836,0.5,0.0,0.0,0.0,-0.10717917466536164,-0.07152747130021453,1.1926877312362194,-1.2059902772307396,0.23548395838588476,19.434799253940582,0.0,0.23871551169834232,False,0,0,0,0,0
GUIDED_NOGPS,14.145449161529541,63.051381497850336,0.018983013098673184,-0.019404941766219257,0.219148604847343,0.0011663183518932625,0,0,0.5,2.0459620349795746,-0.23586633563866855,8.691741006600447,0,0,-1.4705634627465083,0.5,0.0,0.0,0.0,0.09001063881441951,0.2769400831311941,0.9350382722914219,2.7696456760168076,-0.2305479720234871,4.271146655082703,0.0,-0.18695124220653464,False,1,0,0,0,0
GUIDED_NOGPS,14.200291633605957,18.239910937934873,0.01773989516213525,-0.016845828089912772,0.2201074618668516,0.0011735027524745608,0,0,0.5,2.0453932082877597,-0.2346158774120273,8.690818931062497,0,0,-3.5081075871039906,0.5,0.0,0.0,0.0,-0.10000696638599038,0.30705491080880165,1.235340442508459,-2.722007781267166,-1.8233509734272957,15.731731057167053,0.0,0.007484870139075746,False,0,0,0,0,0
GUIDED_NOGPS,14.215957164764404,63.853850135493104,0.018962250413438256,-0.019175189049459408,0.23908103392660796,0.0015915158966639637,0,0,0.5,2.0453932082877597,-0.2346158774120273,8.690818931062497,0,0,-5.390273323461346,0.5,0.0,0.0,0.0,0.08869482553564012,-0.27720509096980095,1.0286671109497547,-0.8993275463581085,-0.07951463339850307,9.307722002267838,0.0,0.056972488837140754,False,0,0,0,0,0
GUIDED_NOGPS,14.264424324035645,20.638923743867576,0.018714397091092582,-0.02014486681247812,0.2350938162153365,0.0018912153962599566,0,0,0.5,2.045838878131103,-0.2340802411707102,8.694227195458332,0,0,-7.033697242732356,0.5,0.0,0.0,0.0,0.08869482553564012,-0.27720509096980095,1.0286671109497547,-0.8993275463581085,-0.07951463339850307,9.307722002267838,0.0,0.056972488837140754,False,0,0,0,0,0
GUIDED_NOGPS,14.307920694351196,22.992566604538975,0.019718312130767687,-0.02247950786888184,0.250069102738527,0.002343221013458943,0,0,0.5,2.0447744358376387,-0.23372720576798517,8.69385409637492,0,0,-8.36559008374508,0.5,0.0,0.0,0.0,0.08869482553564012,-0.27720509096980095,1.0286671109497547,-0.8993275463581085,-0.07951463339850307,9.307722002267838,0.0,0.056972488837140754,False,1,0,0,0,0
GUIDED_NOGPS,14.370852708816528,15.90227294269303,0.01807003270070827,-0.02306500577316217,0.26997212289339634,0.0016430130380213706,0,0,0.5,2.044332607975704,-0.23383264681329724,8.692744190634793,0,0,-9.326960678900685,0.5,0.0,0.0,0.0,-0.30626871157437563,0.02489919133950025,1.1918429285287857,-2.0027030259370804,-0.09899849537760019,8.656824380159378,0.0,-0.10969689349522448,False,1,0,0,0,0
GUIDED_NOGPS,14.41425085067749,23.054746932852556,0.01781153051998363,-0.0234170998621494,0.28344632550062365,0.0031165537152383904,0,0,0.5,2.044332607975704,-0.23383264681329724,8.692744190634793,0,0,-9.875228745343788,0.5,0.0,0.0,0.0,-0.05149603821337223,-0.003814621959463693,0.9789181873202324,-1.3353532180190086,-1.9344979897141457,11.217865347862244,0.0,0.18798883065078156,False,1,0,0,0,0
GUIDED_NOGPS,14.493854522705078,12.557119676185115,0.01656285870132581,-0.022241915653124462,0.27524583770918315,0.004305694538068511,0,0,0.5,2.0437650619443577,-0.23347384843846,8.694213535079992,0,0,-9.986110817918139,0.5,0.0,0.0,0.0,-0.05149603821337223,-0.003814621959463693,0.9789181873202324,-1.3353532180190086,-1.9344979897141457,11.217865347862244,0.0,0.18798883065078156,False,0,0,0,0,0
GUIDED_NOGPS,14.557363033294678,15.748049470972974,0.015621712183431344,-0.02109003216338115,0.2705839363059715,0.0057386900076701565,0,0,0.5,2.042248973392027,-0.23263362844884264,8.698186143856,0,0,-9.654695793623914,0.5,0.0,0.0,0.0,-0.03223262610845268,0.02100429846905172,1.2191449292004108,3.244655579328537,2.110135182738304,12.398627400398254,0.0,0.24026815243490374,False,0,0,0,0,0
GUIDED_NOGPS,14.64368200302124,11.586411124800415,0.013540993325375512,-0.02273464652517262,0.27154247588666447,0.005604778201369352,0,0,0.5,2.04256081421632,-0.23294557599484184,8.697934280630356,0,0,-8.895662450393443,0.5,0.0,0.0,0.0,-0.24260154459625483,-0.33529261127114296,1.2548798695206642,-7.231716811656952,-1.7020756378769875,16.004227101802826,0.0,0.002224160389764738,False,0,0,0,0,0
GUIDED_NOGPS,14.706203699111938,15.997131861886945,0.010303486364365415,-0.02375612245564479,0.26597317556417255,0.004961289320693154,0,0,0.5,2.0430865253389996,-0.2319890293459227,8.702706875312902,0,0,-7.742629306011964,0.5,0.0,0.0,0.0,-0.4239266738295555,-0.32580834813416004,1.1644951067864895,3.7250548601150513,0.2703289035707712,15.100142359733582,0.0,-0.05575716206202144,False,0,0,0,0,0
GUIDED_NOGPS,14.732918977737427,37.50338883027236,0.010013413671728134,-0.02219986581879194,0.2605062817367088,0.005515341995546051,0,0,0.5,2.042649393232119,-0.23158946327947696,8.702207417729845,0,0,-6.246665612729058,0.5,0.0,0.0,0.0,0.015455047832801938,0.06998971221037209,1.2921219691634178,-4.741115868091583,0.2672716975212097,13.944253325462341,0.0,0.13798350829302405,False,0,0,0,0,0
GUIDED_NOGPS,14.789154767990112,17.780837597344515,0.006516437415481852,-0.020381673646474273,0.25515340301597417,0.0032554105734085826,0,0,0.5,2.0432828932776372,-0.2318987427828316,8.702330361134907,0,0,-4.47402943743635,0.5,0.0,0.0,0.0,-0.5566553212702274,0.154687010217458,1.0788463056087494,0.42944885790348053,0.042329865391366184,7.612644135951996,0.0,-0.3527725204832679,False,0,0,0,0,0
GUIDED_NOGPS,14.855694770812988,15.030707868510548,0.005743400076875708,-0.021425516590565907,0.27822922902491787,0.0053483138929243425,0,0,0.5,2.042171066546806,-0.23124528577833178,8.705532866081995,0,0,-2.5032330106138923,0.5,0.0,0.0,0.0,-0.0734205124899745,-0.020924204727634788,1.3614065013825893,1.6327742487192154,0.27461559511721134,13.806861639022827,0.0,0.3014830558604819,False,0,0,0,0,0
GUIDED_NOGPS,14.920647621154785,15.398496240601503,0.0040624135688431765,-0.02271502370312212,0.2975712308691095,0.006091079123700718,0,0,0.5,2.042676073658564,-0.22994829688796983,8.70924934276413,0,0,-0.4215653233410202,0.5,0.0,0.0,0.0,-0.20120011176913977,-0.08230296080000699,1.006749365478754,-7.3800526559352875,0.21947992499917746,9.464269876480103,0.0,0.059831343221507606,False,0,0,0,0,0
GUIDED_NOGPS,14.962494611740112,23.929847382684354,0.005890135094198029,-0.022842775841835406,0.29075933270851384,0.005803681867175164,0,0,0.5,2.041852182089931,-0.23111081642904716,8.7115562391563,0,0,1.6787740091853753,0.5,0.0,0.0,0.0,0.29686696361750364,-0.1679384964518249,0.948481447994709,-1.615726388990879,0.3415708430111408,13.491174578666687,0.0,-0.0006967860170470821,False,0,0,0,0,0
GUIDED_NOGPS,14.996121883392334,29.716277586878743,0.003730550157358845,-0.02236998804068607,0.2863420650524903,0.0052101669817712064,0,0,0.5,2.0397655592984925,-0.23100953753026054,8.7140962157539,0,0,3.7047583816977925,0.5,0.0,0.0,0.0,-0.3327863058075309,-0.06952649564482272,1.215491909533739,3.0606336891651154,0.5244883708655834,18.74762922525406,0.0,-0.056700121703773275,False,0,0,0,0,0
GUIDED_NOGPS,15.033434867858887,26.806659636340395,0.0017771593350962534,-0.021883963734217117,0.28154688323564586,0.004656194903488,0,0,0.5,2.0395854130591333,-0.2316898884046173,8.715522871516786,0,0,5.566654461310008,0.5,0.0,0.0,0.0,-0.3327863058075309,-0.06952649564482272,1.215491909533739,3.0606336891651154,0.5244883708655834,18.74762922525406,0.0,-0.056700121703773275,False,0,0,0,0,0
GUIDED_NOGPS,15.076146364212036,23.429509881687874,0.0018499426177556238,-0.01924779942343114,0.2766198041652556,0.0037512282812237445,0,0,0.5,2.0415147280562502,-0.23128349214900154,8.716578135743553,0,0,7.181996586895435,0.5,0.0,0.0,0.0,0.005680481262970716,0.3307770937681198,1.1047414503991604,-2.6070747524499893,-1.5944071114063263,13.19354772567749,0.0,-0.1302967840526226,False,0,0,0,0,0
GUIDED_NOGPS,15.103865146636963,36.08220710064262,0.002634645367264347,-0.019683532177040847,0.27061539301796717,0.0042929839810081786,0,0,0.5,2.0415147280562502,-0.23128349214900154,8.716578135743553,0,0,8.479239274368812,0.5,0.0,0.0,0.0,0.14275267021730542,-0.2159325871616602,0.8861497975885868,-1.8826743587851524,0.15990856336429715,9.430784732103348,0.0,0.13168815495153502,False,0,0,0,0,0
GUIDED_NOGPS,15.135550737380981,31.576481216592637,0.003342776889735919,-0.020086898043480645,0.2652497078847044,0.004791112965862536,0,0,0.5,2.0415147280562502,-0.23128349214900154,8.716578135743553,0,0,9.400926053932787,0.5,0.0,0.0,0.0,0.14275267021730542,-0.2159325871616602,0.8861497975885868,-1.8826743587851524,0.15990856336429715,9.430784732103348,0.0,0.13168815495153502,False,0,0,0,0,0
GUIDED_NOGPS,15.167247295379639,31.583614457831324,0.0038784584040384685,-0.020993674272929176,0.2789815763661241,0.0055535024972649845,0,0,0.5,2.0415147280562502,-0.23128349214900154,8.716578135743553,0,0,9.90623428759979,0.5,0.0,0.0,0.0,0.15540994936600327,-0.1015900750644505,1.3513299636542797,3.7723876535892487,0.19834593404084444,12.118951976299286,0.0,0.11374684882749825,False,1,0,0,0,0
GUIDED_NOGPS,15.203688144683838,27.442270071512226,0.004494370176010224,-0.022054952648555202,0.294918420612127,0.0064156318716494425,0,0,0.5,2.041222524025821,-0.23105542786374658,8.717048565022637,0,0,9.972783253900808,0.5,0.0,0.0,0.0,0.15540994936600327,-0.1015900750644505,1.3513299636542797,3.7723876535892487,0.19834593404084444,12.118951976299286,0.0,0.11374684882749825,False,0,0,0,0,0
GUIDED_NOGPS,15.274936437606812,14.041767380198324,0.0031544067311743366,-0.022678681330306417,0.3106248611836283,0.007087117154154186,0,0,0.5,2.041290399030698,-0.23074678869062662,8.716764258398435,0,0,9.597625417490868,0.5,0.0,0.0,0.0,-0.19191419705748558,-0.002511602178856265,0.9544140659272671,-9.244411438703537,2.0580915734171867,6.98225200176239,0.0,0.06296937491809211,False,0,0,0,0,0
GUIDED_NOGPS,15.297843217849731,43.6343056884857,0.0014246094032990238,-0.024211628402197524,0.341514729973126,0.00822139036741587,0,0,0.5,2.041290399030698,-0.23074678869062662,8.716764258398435,0,0,8.797376979104893,0.5,0.0,0.0,0.0,-0.19191419705748558,-0.002511602178856265,0.9544140659272671,-9.244411438703537,2.0580915734171867,6.98225200176239,0.0,0.06296937491809211,False,1,0,0,0,0
GUIDED_NOGPS,15.352195739746094,18.421359146547672,0.001666193413984968,-0.02340443060650096,0.33726794426165607,0.008682193288062863,0,0,0.5,2.041290399030698,-0.23074678869062662,8.716764258398435,0,0,7.607481923646038,0.5,0.0,0.0,0.0,0.030915168463252485,-0.011676585563691333,1.3595141470432281,-3.1943991780281067,2.442626841366291,16.06355756521225,0.0,0.12379086878562678,False,0,0,0,0,0
GUIDED_NOGPS,15.413867950439453,16.221092079158144,9.085380380989615e-05,-0.024541952790599394,0.36236417446609864,0.008825056116736885,0,0,0.5,2.0415608318331477,-0.23110846855151995,8.717347385798826,0,0,6.0806421626196085,0.5,0.0,0.0,0.0,-0.1618812559172511,-0.0354285555658862,1.2698381207883358,-0.22274928633123636,0.37041218020021915,13.916784524917603,0.0,-0.059448419071057156,False,0,0,0,0,0
GUIDED_NOGPS,15.469515085220337,22.75925986217375,-0.0015434242854593708,-0.025312043671187553,0.38202939091875815,0.008693798359192652,0,0,0.5,2.0415608318331477,-0.23110846855151995,8.717347385798826,0,0,4.284483301829312,0.5,0.0,0.0,0.0,-0.1618812559172511,-0.0354285555658862,1.2698381207883358,-0.22274928633123636,0.37041218020021915,13.916784524917603,0.0,-0.059448419071057156,False,0,0,0,0,0
GUIDED_NOGPS,15.484837532043457,37.632601790873366,-0.0010202236230433112,-0.024503606399057878,0.3759161051897379,0.008330636810680535,0,0,0.5,2.0415608318331477,-0.23110846855151995,8.717347385798826,0,0,2.2985594203484614,0.5,0.0,0.0,0.0,0.04854821017943323,-0.016131151642184705,1.1924859136343002,-3.3397462218999863,0.529038580134511,17.91755110025406,0.0,-0.002709170521901757,False,0,0,0,0,0
GUIDED_NOGPS,15.528778314590454,22.528462009474804,-0.0008306052798816751,-0.024456997626333177,0.38334124345008314,0.008293499600065122,0,0,0.5,2.0415608318331477,-0.23110846855151995,8.717347385798826,0,0,0.21082952277812303,0.5,0.0,0.0,0.0,0.04854821017943323,-0.016131151642184705,1.1924859136343002,-3.3397462218999863,0.529038580134511,17.91755110025406,0.0,-0.002709170521901757,False,0,0,0,0,0
GUIDED_NOGPS,15.598110914230347,14.425561039363037,-0.0007449487761621449,-0.024740987962106904,0.3973463615062924,0.00839087886232467,0,0,0.5,2.0415727846641953,-0.2316640617518182,8.71771280091942,0,0,-1.88623827295486,0.5,0.0,0.0,0.0,0.04854821017943323,-0.016131151642184705,1.1924859136343002,-3.3397462218999863,0.529038580134511,17.91755110025406,0.0,-0.002709170521901757,False,0,0,0,0,0
GUIDED_NOGPS,15.638034343719482,25.051538879631124,0.0003184350130062629,-0.02369189010035541,0.4099900147002284,0.007554530793520052,0,0,0.5,2.0426391479483637,-0.23228464847093733,8.718595602869645,0,0,-3.899762261960466,0.5,0.0,0.0,0.0,0.16603305703029037,0.1489386078901589,1.0097213089466095,1.688862405717373,2.107749320566654,6.432119756937027,0.0,-0.11841189471104341,False,0,0,0,0,0
GUIDED_NOGPS,15.697923421859741,16.71643504218661,-0.002327790829245628,-0.02378615227825667,0.4033891814379037,0.008552243250014569,0,0,0.5,2.0426391479483637,-0.23228464847093733,8.718595602869645,0,0,-5.740560997021641,0.5,0.0,0.0,0.0,-0.35975570790469646,-0.12224632082507014,1.2008330784738064,-4.729438200592995,0.5482799839228392,18.5870960354805,0.0,0.16930687588862153,False,0,0,0,0,0
GUIDED_NOGPS,15.789294004440308,10.942528495733141,0.0007980629114522275,-0.024317254251932152,0.39287615173210105,0.008697622633814454,0,0,0.5,2.043619493537672,-0.23252381181359355,8.720479881306922,0,0,-7.32710324427933,0.5,0.0,0.0,0.0,0.41103572584688663,-0.18827024614438415,0.6266793236136436,4.320506006479263,0.17273272387683392,6.143186986446381,0.0,0.06500609864197157,False,0,0,0,0,0
GUIDED_NOGPS,15.830398559570312,24.332579159269958,0.00044198910523497113,-0.021583687787725424,0.3885580530995766,0.008383573072953081,0,0,0.5,2.0433132022420795,-0.23259648929523072,8.720562697350609,0,0,-8.589119101584894,0.5,0.0,0.0,0.0,-0.05548737244680524,0.28482365887612104,1.3331585563719273,2.9391949996352196,2.4407032877206802,14.49025422334671,0.0,-0.0017226117282849005,False,0,0,0,0,0
GUIDED_NOGPS,15.879090070724487,20.53937162109222,9.773016571701674e-05,-0.019107613663280263,0.385738424982065,0.008120191937749625,0,0,0.5,2.0426547293174075,-0.23296606656235186,8.719488650103624,0,0,-9.470712338657446,0.5,0.0,0.0,0.0,-0.05548737244680524,0.28482365887612104,1.3331585563719273,2.9391949996352196,2.4407032877206802,14.49025422334671,0.0,-0.0017226117282849005,False,1,0,0,0,0
GUIDED_NOGPS,15.903409719467163,41.23503445835013,5.224116013731609e-05,-0.01887456058872147,0.38100071508273775,0.008658021962987535,0,0,0.5,2.042657504081758,-0.23299039911127004,8.719287159523109,0,0,-9.932836109684285,0.5,0.0,0.0,0.0,-0.014204579929355532,-0.04695038078352809,1.1879416182637215,4.641605168581009,-1.481617335230112,15.964652597904205,0.0,0.12595549180377869,False,0,0,0,0,0
GUIDED_NOGPS,15.952299356460571,20.44266817433008,8.317019991219848e-06,-0.01865097269763922,0.376519456411949,0.009152033067352301,0,0,0.5,2.0424321078391476,-0.23302038791059462,8.719372536887734,0,0,-9.955022386015791,0.5,0.0,0.0,0.0,-0.014204579929355532,-0.04695038078352809,1.1879416182637215,4.641605168581009,-1.481617335230112,15.964652597904205,0.0,0.12595549180377869,False,1,0,0,0,0
GUIDED_NOGPS,16.006354093551636,18.50409186964252,-0.0013946194299367903,-0.020836321110095573,0.38926529010178323,0.008481176067313875,0,0,0.5,2.042809475790791,-0.2325925405921168,8.721032272856046,0,0,-9.536288510260064,0.5,0.0,0.0,0.0,-0.19200470997020602,-0.3407556563615799,1.0328791104257107,-1.4300854876637459,2.497176267206669,16.01918190717697,0.0,-0.1356106045258264,False,0,0,0,0,0
GUIDED_NOGPS,16.07167649269104,15.310472713998905,-0.0025599010514748438,-0.022511547782695814,0.38735125394878517,0.007455007403583074,0,0,0.5,2.0424393649151407,-0.23259894389446367,8.722826051286821,0,0,-8.695180719384034,0.5,0.0,0.0,0.0,-0.19200470997020602,-0.3407556563615799,1.0328791104257107,-1.4300854876637459,2.497176267206669,16.01918190717697,0.0,-0.1356106045258264,False,0,0,0,0,0
GUIDED_NOGPS,16.122254610061646,19.774565547414973,0.000664008052622185,-0.022404691316676145,0.3832016598712767,0.007297785458118449,0,0,0.5,2.0418528224201657,-0.23204121626004984,8.723447598501293,0,0,-7.468952709129892,0.5,0.0,0.0,0.0,0.5156864412128925,-0.08760006166994572,1.221245527267456,1.6842599958181381,0.4198234062641859,9.088990837335587,0.0,0.009578946774652814,False,1,0,0,0,0
GUIDED_NOGPS,16.21146249771118,11.210639981183313,0.0037164296348177264,-0.02273997055797258,0.3882120235347989,0.007299672182686789,0,0,0.5,2.0414944509321518,-0.23168839430073634,8.722586140892226,0,0,-5.911915622135907,0.5,0.0,0.0,0.0,0.5156864412128925,-0.08760006166994572,1.221245527267456,1.6842599958181381,0.4198234062641859,9.088990837335587,0.0,0.009578946774652814,False,0,0,0,0,0
GUIDED_NOGPS,16.242814540863037,31.95976744363251,0.0033463474379666703,-0.022549843737873762,0.38310345331861884,0.008880679372684483,0,0,0.5,2.0414944509321518,-0.23168839430073634,8.722586140892226,0,0,-4.093032540812416,0.5,0.0,0.0,0.0,-0.04612755146808922,-0.07812430849298835,1.1121387593448162,-1.1064747348427773,0.5377385765314102,12.310933321714401,0.0,0.3086702824971865,False,0,0,0,0,0
GUIDED_NOGPS,16.301414251327515,17.05819864813203,0.004249984155294817,-0.02202672228733664,0.3776880856213562,0.010202868845780354,0,0,0.5,2.041713230429004,-0.23138477104778812,8.721997037076312,0,0,-2.092864027832957,0.5,0.0,0.0,0.0,0.17805196112021804,-0.021703133825212717,1.0976745747029781,-6.5809279680252075,0.5171708296984434,12.630003690719604,0.0,0.28623041635062363,False,1,0,0,0,0
GUIDED_NOGPS,16.36127495765686,16.73998627053433,0.0054162002222220675,-0.022612456221918667,0.3949925017173741,0.01228751123132016,0,0,0.5,2.042214609002765,-0.23137601986791406,8.72298570695867,0,0,-4.7773604779478537e-14,0.5,0.0,0.0,0.0,0.17805196112021804,-0.021703133825212717,1.0976745747029781,-6.5809279680252075,0.5171708296984434,12.630003690719604,0.0,0.28623041635062363,False,1,0,0,0,0
GUIDED_NOGPS,16.388835430145264,40.230430570609165,0.008416476539292657,-0.020406649295533937,0.3895096350362703,0.011148346910008631,0,0,0.5,2.042214609002765,-0.23137601986791406,8.72298570695867,0,0,0.0,0.5,0.0,0.0,0.0,0.5440373439341784,0.2870288211852312,0.7713585626333952,-1.5556441619992256,0.7130117155611515,17.325831949710846,0.0,-0.14086770241240737,False,0,0,0,0,0
GUIDED_NOGPS,16.466876983642578,12.380941698079234,0.007836679670490737,-0.019506633696476504,0.3853069727222471,0.01214111471318546,0,0,0.5,2.0429603802827656,-0.2316426106889561,8.723802768338134,0,0,0.0,0.5,0.0,0.0,0.0,-0.05546694155782461,0.06595512386411428,1.2426318600773811,-2.7398303151130676,0.3352969419211149,8.391256630420685,0.0,0.23952630317759044,False,0,0,0,0,0
