Mode,Time,Freq,North-Vision,East-Vision,Down-Vision,Yaw-Vision,North-Desired,East-Desired,Down-Desired,Roll-UAV,Pitch-UAV,Yaw-UAV,Roll-Control,Pitch-Control,Yaw-Control,Thrust-Control,northVraw,eastVraw,downVraw,yawVraw,zGyro
GUIDED_NOGPS,0.003176450729370117,317.12566157568426,334.6906027435143,-3.3340559162773555,9.470660191997528,4.124367557314022,334.4639381124288,-3.469310195188825,-2.591032648900563,0.031136764693038617,-0.6186961441012089,-101.93949419255145,0.18733379609578282,-0.31394160778964986,-0.28870572901198155,0.4879383071591019,334.6906027435143,-3.3340559162773555,9.470660191997528,4.544732026679379,2.807493196141034
GUIDED_NOGPS,0.025861740112304688,44.10321549494227,334.72323073705167,-3.709772314014758,10.111015700341701,5.672727382727269,334.4636853397509,-3.4694015634625917,-2.5910596013040803,0.13563425672387022,-0.6886891479511493,-101.86107679069053,-0.05915266458251209,-0.01472412481833843,-0.39709091679090885,0.4872979246983542,334.755858730589,-4.08548871175216,10.751371208685875,4.567300301856481,2.46371851906254
GUIDED_NOGPS,0.07267403602600098,21.36647937117619,334.6509722469334,-4.013915208829004,12.58487821416663,5.696859312240408,334.4619363293848,-3.470033768095082,-2.5912471853434,0.17621177025268128,-0.6126791743292508,-101.70161236413824,-0.04120527635798484,-0.0030653428223640063,-0.3987801518568286,0.48482387460049,334.5064552666969,-4.622200998457495,17.532603241816496,4.75614725183144,1.4896902673401404
GUIDED_NOGPS,0.12345075607299805,19.699614396490585,334.5488408640134,-4.253115928096333,15.745216258262792,5.765250960319218,334.4572505665494,-3.471727503608992,-2.591753064811804,0.28438458440785414,-0.8175134526084655,-101.63345390641068,-0.045394875305003184,0.0020888193289759645,-0.40356756722234527,0.4816630306769254,334.2424467152534,-4.051658074079343,18.95167432428601,4.967932809011253,1.604281826366305
GUIDED_NOGPS,0.1721642017364502,20.53323803416084,334.3946160585281,-3.982997716021315,19.007542919082386,5.835577543725207,334.4482475722893,-3.474981763725353,-2.5927316856886335,0.3309778404090068,-0.9274151450570847,-101.55551461779167,-0.003589730539856662,0.011066276885601285,-0.4084904280607645,0.47839972539522896,333.7777168365867,-3.2751340755271054,20.538351191144653,5.321723186190559,1.3750987083139758
GUIDED_NOGPS,0.21997332572937012,20.920056660614886,334.12383372151277,-3.4714778712944487,21.602639632029007,5.879852243924682,334.4336060753942,-3.4802741406849345,-2.5943342979549744,0.38223350093148656,-1.1310782593370536,-101.52182812480517,0.032663075026222836,0.028449279972133763,-0.4115896570747278,0.475803026070016,333.33669105843774,-3.087641464276895,25.317893380656372,5.446378349439875,0.40107045659157625
GUIDED_NOGPS,0.26695847511291504,21.288073655253623,333.6152013277677,-2.3049177164585246,23.865871463765206,5.912261281409616,334.41206318431887,-3.488061124569646,-2.5967089774093473,0.42130687873901385,-1.2031265097969333,-101.54005789969993,0.1221620803357418,0.06296585426578266,-0.4138582896986731,0.47353741955882545,332.2126967618638,-0.5519776095715707,25.741369819494615,6.041454595753852,0.34377467707849396
GUIDED_NOGPS,0.30643701553344727,25.335419296772596,333.14639924195137,-1.6920654941626456,25.638796284835063,5.932926065940435,334.3824135591024,-3.498778402623939,-2.6000006474833928,0.3645759678231226,-1.1369523287449705,-101.51071540702556,0.11976709905446645,0.08295271421983028,-0.41530482461583046,0.47176120306768154,332.1624448376154,-1.436577408639468,25.857125654354217,5.969482982951095,0.2864788975654116
GUIDED_NOGPS,0.35933423042297363,18.90944502051305,332.6515871384064,-1.1854455798703885,26.54009559910473,5.9312205174503205,334.3435085832884,-3.51284115857621,-2.6043511010575617,0.2605560287452366,-1.1431694017152687,-101.57331409076872,0.12275858615439332,0.09368656532982714,-0.4151854362215225,0.4708555532998377,331.76838619752857,-1.567781721400123,28.021791323465372,6.016886263058596,-0.5729577951308232
GUIDED_NOGPS,0.40309691429138184,22.856619710634586,332.3266531198827,-2.7621726175408483,27.966814238037546,5.887075550254821,334.29425553584394,-3.5306443719602028,-2.6098990222768013,0.21137742608131507,-1.0045777131014229,-101.67523417356365,-0.07589091614866732,0.09785345911857819,-0.4120952885178375,0.46942328673968564,332.15304674396816,-5.282158722582951,30.02152573629307,5.464191882919694,-1.8334649444186344
GUIDED_NOGPS,0.45185422897338867,20.512351022364374,331.97701783686693,-3.6967823258160135,30.431570918739894,5.831705591145512,334.23361676307985,-3.5525631174364087,-2.616780008366243,0.13745287463166544,-0.9486720811363395,-101.72917900762842,-0.061816406440009,0.10843800022491505,-0.40821939138018587,0.4669516490728939,331.588514643359,-4.240406533464965,33.251395696461266,5.689664549283118,-1.3178029288008934
GUIDED_NOGPS,0.5100498199462891,17.185755786558058,331.6606440583604,-3.9511581934543245,32.490171397441735,5.762932139012218,334.16060885057004,-3.578952864113473,-2.6251265914468913,0.0629731835489672,-0.7293306945034292,-101.84514878954606,-0.026470275726245912,0.11304817603188476,-0.4034052497308553,0.4648847020111114,330.6308278693309,-2.3309093243150567,34.19759275957089,6.0492508043544335,-2.0626480624709638
GUIDED_NOGPS,0.5543341636657715,22.585478277726324,331.0880655866665,-3.125584272103176,34.70616419949166,5.66548771340849,334.0743017950711,-3.6101497748695923,-2.6350682603513103,0.010352992636579053,-0.7370830659330995,-101.96452683585954,0.07751331889523229,0.15298641565414253,-0.39658413993859437,0.462658767540157,329.299552479146,-2.805436958529506,36.66950414244285,5.946158646536856,-2.0626480624709638
GUIDED_NOGPS,0.5994563102722168,22.16487697640991,330.4704283728073,-2.4113438690407474,35.696344765006664,5.591077802366409,333.9738181764422,-3.64647100567392,-2.646731482439312,-0.09477246992139043,-0.637072874784834,-102.1024283552021,0.09950079695627245,0.17529446934139314,-0.3913754461656487,0.461656923752554,328.6802001282323,-2.097685324277678,36.22193739300626,6.064741839992833,-1.8334649444186344
GUIDED_NOGPS,0.6460428237915039,21.47049428723535,329.57517625458394,-1.7232003537404756,35.77794692204421,5.509458200888744,333.85833232956446,-3.6882150049079687,-2.6602397254136436,-0.204380377524313,-0.42831369233209493,-102.22063160897834,0.12608848692453228,0.22271240515281604,-0.38566207406221215,0.46156181335254215,327.67678615285143,-0.266478778414242,34.44239923068352,6.367220064884221,-2.521014298575622
GUIDED_NOGPS,0.6921477317810059,21.743974701262346,328.6542065459634,-1.4409082471636294,35.080801976640956,5.412251280295052,333.7270695162608,-3.7356618126870096,-2.675713479135676,-0.29354130676390244,-0.29050971662862174,-102.2885851610308,0.11401793575499791,0.25634634412837476,-0.3788575896206537,0.46224348454422337,326.9836661002563,-1.958560638798967,34.5780693062331,6.027799156714658,-2.635605857601787
GUIDED_NOGPS,0.7414984703063965,20.232331759178418,327.8100326441975,-1.3792829058590235,34.90829931572029,5.319175567715192,333.57930509721547,-3.7890733601814786,-2.693270277441091,-0.35613534811286784,-0.19455601751710916,-102.43871271898767,0.10384313870528142,0.27405240500096173,-0.37234228974006345,0.4623984304068386,326.4099583605015,-1.9128093003638604,35.70442941024426,6.027306860405087,-2.291831180523293
GUIDED_NOGPS,0.7907428741455078,20.30962918486524,327.2190557841056,-2.5298571235133376,35.08086652428006,5.220874998037357,333.4143637038937,-3.848693768938375,-2.7130247199555693,-0.3981355687014514,-0.060120819178333174,-102.512164573322,-0.013014542016808468,0.2755662286017638,-0.365461249862615,0.46220610875576434,326.3446681786863,-3.718201431377184,34.96010085636285,5.697788044412052,-2.0053522829578814
GUIDED_NOGPS,0.84433913230896,18.660094139001842,326.47109002026474,-2.83540048733056,35.193460470020035,5.127017631577835,333.23161841046146,-3.9147496502026664,-2.735088493910478,-0.4032805687763222,0.0707641748959171,-102.6794359060956,0.030458765433038052,0.30421897263379355,-0.3588912342104485,0.4620714510360695,324.940371309028,-2.8751907302506328,34.915851143453025,5.809618201533848,-2.177239621497128
GUIDED_NOGPS,0.885547399520874,24.274559281423265,325.69534092339484,-3.24675119986127,34.98632186881385,5.032967755171951,333.030489905705,-3.9874504042386896,-2.7595703959585576,-0.45647712360099624,0.19869639281460624,-102.74598243917904,0.0055368354927340935,0.3379753114793162,-0.3523077428620366,0.46225410773522757,323.7980406685018,-3.1468614379559914,35.08301360662572,5.751856493945298,-1.7188733853924698
GUIDED_NOGPS,0.9351890087127686,20.14864916797971,324.9800109174509,-3.18699646770868,34.70238818983299,4.954880930111065,332.81044566495046,-4.066988519651554,-2.786576353989612,-0.5419539528559439,0.4444621805207091,-102.8768898448115,0.044346999026740594,0.34595495017165545,-0.3468416651077746,0.4625110354561774,323.4070160705367,-3.538937234919414,34.10829981942024,5.662072041851717,-2.635605857601787
GUIDED_NOGPS,0.9836142063140869,20.655287547645546,324.3134134445224,-3.8606958882326112,34.1304578016793,4.852405100346276,332.5709991219837,-4.153539872708542,-2.816209448946194,-0.6274446559326432,0.5892066956379731,-102.98074970133072,-0.023973057947319288,0.3601028421018515,-0.33966835702423936,0.4630533327493745,323.076970995859,-4.896288991822426,33.20005997899196,5.40595480516909,-2.2345354010102105
GUIDED_NOGPS,1.0335383415222168,20.034219061220785,323.4857594278318,-4.809619064646255,33.052492751807485,4.759056606859173,332.31170884096974,-4.247264026660512,-2.8485699366392945,-0.7028259319857831,0.7397967854677101,-103.06468589604101,-0.07344606790934155,0.3911091225504791,-0.33313396248014215,0.4640989373115532,322.2063980952335,-5.993630967196921,31.849118457010274,5.183606614471491,-1.8907607239317168
GUIDED_NOGPS,1.0739588737487793,24.746032307928303,322.7843653462759,-5.420933990205935,32.23108632913571,4.674387989849521,332.0321776883726,-4.348304531063303,-2.8837552695640283,-0.7124012168719064,0.7591185368560299,-103.15015205312538,-0.07977283101967009,0.40506123987550857,-0.3272071592894665,0.4648851584013003,321.4334009012485,-5.372882011598451,31.644080551404887,5.279484868386703,-1.8334649444186344
GUIDED_NOGPS,1.1214909553527832,21.04274970776077,322.2605033774583,-5.797727573492488,31.647598570404444,4.6088507520003175,331.7320520048746,-4.456789221099134,-2.9218601187153244,-0.7329048577909029,0.9181375070083859,-103.24576104112721,-0.06993672766896186,0.39752446342017905,-0.32261955264002223,0.46543054131088024,321.17873082441366,-6.02666974168209,31.449596702798168,5.132003761945065,-1.776169164905552
GUIDED_NOGPS,1.1640608310699463,23.49776468083676,321.61371058367746,-6.019532618298338,31.277129402992514,4.544059659648806,331.41102077729664,-4.572830516898006,-2.9629763954036124,-0.7161965075337592,0.9658783948726594,-103.29171455386306,-0.0647621255513224,0.4198387903792201,-0.3180841761754164,0.46575989420160385,320.17305210163244,-6.65904610161447,30.73771095477449,5.003014732510309,-1.088619810748564
GUIDED_NOGPS,1.2087764739990234,22.368189769188106,320.915204132338,-6.492417427152716,30.65349212687684,4.499558537836366,331.06881481051704,-4.696525722859106,-3.0071932730705093,-0.7935592321372904,1.1223219568210974,-103.33149357558922,-0.0947320884789416,0.4354221173882064,-0.31496909764854564,0.4663393146000526,319.5844387391617,-6.791536438161587,29.773168723057864,4.975865012927898,-1.0313240312354819
GUIDED_NOGPS,1.260216236114502,19.444269826479193,320.2429141825876,-7.088916313849147,29.73372870081023,4.460647158307272,330.7052058993919,-4.827957326972211,-3.05459720910451,-0.7453187266074011,1.146053235648895,-103.38362840952392,-0.11726219157352159,0.4424964574338488,-0.31224530108150905,0.46721167409008524,318.8449483464815,-7.8161664017713814,28.69030642459833,4.7923709019604495,-0.7448451336700702
GUIDED_NOGPS,1.3024535179138184,23.681246647658302,319.6742049409944,-7.807672258561946,28.9239954000562,4.427814794135621,330.32000600067437,-4.967193300139084,-3.105271966656671,-0.700533869910715,1.0660971202340217,-103.41736271383462,-0.1544449424720341,0.44524428169665325,-0.3099470355894935,0.46797073263328715,318.5898546932824,-8.81531393575287,28.308511052512397,4.621598445084157,-0.2864788975654116
GUIDED_NOGPS,1.3465759754180908,22.670688070915087,319.04069546286746,-8.480428195582357,28.19044929838816,4.40690449084079,329.9130664049343,-5.114287395494884,-3.1592986364563025,-0.7060406565681848,1.0542113104177302,-103.45661581099468,-0.17029644707050895,0.45718973587710127,-0.30848331435885534,0.46865025206515554,318.011183433779,-8.809804249222818,27.57253041805375,4.632743491476446,-0.6302535746439055
GUIDED_NOGPS,1.390566110610962,22.735696358974636,318.5231518577663,-9.38745048915932,26.581367210412406,4.375559081849,329.48427690847797,-5.269279447729563,-3.2167556586266537,-0.7741879085166351,1.0543615745794706,-103.49636068177499,-0.21603527220086574,0.4518582486160047,-0.30628913572943006,0.47020187713096095,317.58533407612686,-10.537233282502275,23.863060160671065,4.345347617729173,-0.9167324722093172
GUIDED_NOGPS,1.4369778633117676,21.548591274326462,318.0786145125998,-10.203313791293041,25.94998016976388,4.343606767652196,329.0335649852679,-5.432195672409267,-3.2777188445006,-0.7769827899084926,1.0622295256165022,-103.53732815641672,-0.23329739496027688,0.4456756114338534,-0.30405247373565375,0.4707723009857355,317.3617520133291,-11.262903842154028,26.414349930566836,4.224442408896177,-0.6302535746439055
GUIDED_NOGPS,1.480207920074463,23.138944975891782,317.6130601702261,-10.334311038270544,25.469180341512303,4.310858300802199,328.56089495884214,-5.603048965297747,-3.342261398436332,-0.8167872114006228,1.016256162643381,-103.57238068723723,-0.1869806265648907,0.4457662249610116,-0.30176008105615393,0.47118855826005135,316.51717663461295,-9.202795990155325,26.130130933299014,4.607088440085791,-0.9740282517223995
GUIDED_NOGPS,1.5317714214324951,19.396881185371537,317.1759833515725,-10.714151848697583,26.295971434263326,4.260185575515679,328.06626717423416,-5.78183920167775,-3.4104539396330438,-0.8168272854011437,0.8361532522968419,-103.6327458991218,-0.20979473677976046,0.4411567559341413,-0.29821299028609755,0.4702935746261036,316.4044706000143,-11.676755713783399,26.343433438924134,4.157167963021378,-1.604281826366305
GUIDED_NOGPS,1.5742719173431396,23.531513335801886,316.80036422408045,-10.952961440519559,25.770236574663546,4.200536965879929,327.54971716989246,-5.968553535672429,-3.482364523946619,-0.8224836958901192,0.7835744560660838,-103.69425175259776,-0.2039933078250075,0.42947924909636226,-0.2940375876115951,0.47074739890138984,316.13308779631876,-11.979332617619955,24.837145351767496,4.112654281730033,-1.0313240312354819
GUIDED_NOGPS,1.6236276626586914,20.264687693259123,316.38489502355276,-11.75790629178656,24.958481976420188,4.158392210060421,327.0113148496002,-6.163166699566744,-3.55805866570532,-0.8445741818523801,0.7529549314603281,-103.76136519138231,-0.26221317600143035,0.42746011566740044,-0.2910874547042295,0.4714834593578745,315.5079880734885,-11.617630543956322,23.694867138568938,4.163665813428411,-0.8594366926962349
GUIDED_NOGPS,1.6689372062683105,22.07621373531517,315.98713634769,-11.915928298499894,23.506738840482047,4.100477012285386,326.45116365439486,-6.365641303128859,-3.637599359525474,-0.8862350807774315,0.9074461265232003,-103.81414889328816,-0.22056156513484837,0.41815765293112744,-0.28703339085997703,0.4728556617999925,315.3729586340153,-12.150821733923406,21.98820403110971,4.050804923453714,-1.5469860468532228
GUIDED_NOGPS,1.7108688354492188,23.853906832050868,315.62529599197694,-11.517611285783579,23.014850462727896,4.039689873681014,325.8693997344878,-6.575928132931555,-3.7210471021271627,-0.8705823149121721,0.9030131203084505,-103.88618689846429,-0.155839171036361,0.40482766951462135,-0.282778291157671,0.47326410243514494,314.7079748560475,-10.784381579471,23.361480218505033,4.282636160261729,-1.6615776058793874
GUIDED_NOGPS,1.770371675491333,16.808547131853775,315.30612860110085,-11.883185133597564,23.48798321920789,3.9755749113608485,325.266191121184,-6.793966451673615,-3.808459914149909,-0.8155148752242963,0.7475072152670083,-103.98797037747582,-0.2130403447990161,0.3954160467782478,-0.2782902437952594,0.4727035568666422,314.8086336456341,-12.71435208739828,25.11426540800891,3.8854918427791993,-1.604281826366305
GUIDED_NOGPS,1.815591812133789,22.118706724253403,314.8927926511806,-11.324274274298105,24.75095178598944,3.8848259378597247,324.6417368988018,-7.019684297501252,-3.8998933619683642,-0.8134940997253246,0.9534937678035453,-104.07866162927525,-0.12237953127550116,0.38779109312519433,-0.27193781565018077,0.4713491548520422,314.0664080467174,-10.474089156025027,25.777109731454363,4.24633655197724,-1.8907607239317168
GUIDED_NOGPS,1.866361141204834,19.70970470479878,314.5644089066591,-11.673163059637966,25.474466717899436,3.816994499700181,323.99626637659225,-7.252998783329483,-3.995400579507997,-0.7777882186220252,0.821824582635213,-104.16356771084767,-0.18609674029356024,0.37074147834095333,-0.26718961497901267,0.4705301327025926,313.86606935088065,-11.831047935490588,25.532025014235035,3.906434901848988,-1.3178029288008934
GUIDED_NOGPS,1.916947841644287,19.764501870753108,314.1746353679324,-10.939442446966188,25.650906563547476,3.7476342498740856,323.3300382606591,-7.493816396163548,-4.095032290060781,-0.67282982222435,0.7045002888277884,-104.25619190618222,-0.08312334544886571,0.3627305625167676,-0.26233439749118603,0.47025406114639173,313.424090940382,-10.513190249382946,25.643584944953037,4.090106889230804,-1.432394487827058
GUIDED_NOGPS,1.9658021926879883,20.473601999375195,313.93987960157085,-11.661691325782058,24.98471267561621,3.6728402264043947,322.6433398258781,-7.742033296420313,-4.198836828100881,-0.5859123033022056,0.7936186761274107,-104.31881108049289,-0.18873059495712396,0.33353885044532766,-0.2570988158483076,0.4708164504962829,313.53419602423963,-12.640835792472638,23.778528067660563,3.584376492958085,-1.604281826366305
GUIDED_NOGPS,2.0113906860351562,21.93891652413158,313.59985502321837,-11.43412786864259,24.763914323281018,3.60766342953821,321.9364860878171,-7.9975356172496666,-4.306860161100344,-0.47636252567840076,0.4614247418810242,-104.38850633078371,-0.10866642258357037,0.3229330193049257,-0.25253644006767473,0.47092922551561867,313.10851075387154,-11.148357564072176,24.869629957229463,3.8064501661841894,-1.260507149287811
GUIDED_NOGPS,2.0624988079071045,19.569739555630207,313.33331765269133,-11.481100642763044,24.626622357126337,3.5611542494303157,321.2098189746552,-8.260199763855919,-4.41914591134478,-0.424094609776584,0.5267444022347949,-104.4314887112306,-0.11926343448372408,0.30197482027066325,-0.24928079746012213,0.4709542317315289,312.73372119408225,-10.65410857174431,25.23170904648898,3.779473371551258,-0.7448451336700702
GUIDED_NOGPS,2.106626272201538,22.675590636319402,313.06876922460737,-10.768331605622977,25.270449349545796,3.514220367696946,320.46370649910267,-8.529892712819208,-4.535735377749062,-0.4033903320507184,0.5047138405103303,-104.47871946934124,-0.026057484338082526,0.2774112422773832,-0.24599542573878624,0.47019381527270515,312.5433272104608,-10.502528681052437,25.710009044918927,3.739716115966523,-0.9740282517223995
GUIDED_NOGPS,2.1545798778533936,20.883911989205284,312.82749294942676,-10.348926105562105,25.271313996560625,3.4748568231280412,319.6985419303206,-8.806472311416918,-4.656667557673,-0.28305571240788996,0.17755183469153926,-104.54024581338471,-0.02131350540121861,0.2566020796968131,-0.2432399776189629,0.47007201844576635,312.217709564479,-9.890141063889558,24.872223898273955,3.8024962310775132,-1.088619810748564
GUIDED_NOGPS,2.199737310409546,22.13142814930508,312.55140710749737,-10.1110762850349,25.36113302206577,3.4474939049446793,318.9147429658405,-9.089787576945046,-4.781979168737036,-0.28719963620210426,0.14103529551112393,-104.54416634196829,-0.009604757819425179,0.23576707476308928,-0.24132457334612759,0.4698568878091972,312.15376681459276,-9.940559110162695,25.5011661230044,3.7549194059378346,-0.2864788975654116
GUIDED_NOGPS,2.2467586994171143,21.268858643840897,312.27055723015326,-9.560892086764929,24.894484959312404,3.443948592236873,318.1127509034839,-9.379678996039631,-4.911704670637933,-0.2524365346476781,0.09640641258743747,-104.52719332188082,0.0427776871804177,0.2157773487402998,-0.24107640145658113,0.47019381037004965,311.7042613671509,-8.851976086242521,24.310064856658833,3.871856017750056,0.40107045659157625
GUIDED_NOGPS,2.2937302589416504,21.295207148659625,312.1297483169057,-10.155266762165086,23.7229147787951,3.4403895872894843,317.29302981328215,-9.675978823998161,-5.04587628696446,-0.20564136117918694,0.19057038869299514,-104.53766400187844,-0.041630511044394775,0.1784743198742768,-0.24082727111026392,0.4712312089342404,312.02967662784476,-11.673265090090032,21.35751335672205,3.295706776991556,-0.057295779513082325
GUIDED_NOGPS,2.3405609130859375,21.358210399278946,311.976417027263,-10.481686971779487,22.21025177571157,3.459073197362583,316.4560657093958,-9.978511384100948,-5.184524027013079,-0.08697172687857474,0.12736360467028557,-104.48995513052591,-0.025042937644356614,0.1510621028312516,-0.24213512381538083,0.47260522419727535,311.7766707622473,-10.919819739005892,20.963177113753797,3.429463509923538,1.088619810748564
GUIDED_NOGPS,2.3884270191192627,20.896397451163068,311.80255933695264,-11.045728908437006,21.39996779430162,3.5076477277127753,315.60236572203445,-10.287093366932556,-5.327675707603633,-0.013489937105785917,0.11735545654551284,-104.42548497495015,-0.04979773540232879,0.12516256199334516,-0.2455353409398943,0.47327235649809474,311.3484211129274,-10.544101896215079,21.879212912428986,3.502295737234589,1.7188733853924698
GUIDED_NOGPS,2.4299685955047607,24.078072975269237,311.7118736577769,-11.265166607656466,21.024767949641085,3.560480267845319,314.7324572693765,-10.601534129703182,-5.475356974895037,-0.010008148124772746,0.3134802831376093,-104.34973817705472,-0.023137498073473175,0.08052719591957802,-0.24923361874917235,0.47349987507546387,311.7003384187139,-12.331578187748416,20.231913822740434,3.1777708551991664,1.1459155902616465
GUIDED_NOGPS,2.4779889583587646,20.828325263811298,311.61324582786125,-11.045241208544809,21.210145620807143,3.6202399123580027,313.84688722948846,-10.92163599557009,-5.627591326200965,-0.010112235138442716,0.12699626855898583,-104.27595847364024,0.025339124799572413,0.05624126030542177,-0.2534167938650602,0.4731622630529919,311.21112221757255,-10.260043541670916,21.519310127251988,3.5918769005695235,1.8334649444186344
GUIDED_NOGPS,2.5244431495666504,21.53122417236051,311.28138852020334,-10.454379673967823,21.123671609879768,3.70452356109013,312.9462211122449,-11.247194552958977,-5.784400131805531,-0.03656276968933856,0.05771424471296149,-104.19767084537355,0.08749510552360237,0.045986637335815365,-0.2593166492763091,0.4730919282583147,310.37039008955526,-8.771517292484123,21.61979087964686,3.9623714396367933,2.0626480624709638
GUIDED_NOGPS,2.5657405853271484,24.220031759780568,310.96251494003417,-8.958109263658512,21.217074198924934,3.7797584665080715,312.03104223124797,-11.577998954885395,-5.9458026567789855,-0.049465784104072784,-0.18772945688509296,-104.16483129584412,0.23448840969237614,0.015515433526672402,-0.264583092655565,0.4728371231442961,310.18230286140135,-7.842766956820488,20.51212158987593,4.173060312933003,1.2032113697747289
GUIDED_NOGPS,2.6035571098327637,26.451971771472536,310.7272454821115,-8.240461901944771,20.76103209831895,3.8376017940633966,311.10195087574704,-11.913832218276143,-6.111816082793399,-0.1419202852563166,-0.0761339842440165,-104.10779238608535,0.22727066458035783,-0.023812964891966708,-0.2686321255844378,0.47312715181888765,310.1720738233141,-8.107101456529698,20.15118382543403,4.181334696679425,1.260507149287811
GUIDED_NOGPS,2.648057460784912,22.475224923507252,310.4537186094143,-8.56494561782676,20.116579939951805,3.8762820106471856,310.1595634825583,-12.25447152329069,-6.2824555299383515,-0.1332813499362934,-0.203695877843644,-104.06911302481558,0.1456621476688393,-0.04068419256367346,-0.27133974074530304,0.47360096453010986,310.33270405522757,-9.744968440130087,19.686434404545427,3.9420879534423414,0.7448451336700702
GUIDED_NOGPS,2.6896142959594727,24.068677408988663,310.2473448491469,-9.484594824682826,20.034694392801836,3.917048983159359,309.2045118079846,-12.599688512642553,-6.4577340785366175,-0.07015627471957275,-0.5022423792478435,-104.04858147617051,0.0804415758060904,-0.07937940062371042,-0.27419342882115516,0.4735075715286615,310.1792534162355,-10.60171457738869,20.266464948426016,3.835711432870023,0.8594366926962349
GUIDED_NOGPS,2.7377896308898926,20.76295610591607,310.0769070830369,-9.814463322943185,19.939484762028844,3.954738972546684,308.23744209973495,-12.94924959092071,-6.637662790959856,-0.0018622870957796778,-0.5834378538319569,-104.02578913491018,0.12389501145719746,-0.10734125602839403,-0.2768317280782679,0.4734228524470113,309.51820125900514,-9.096706951310772,19.86555493311507,4.199717289686028,0.8021409131831525
GUIDED_NOGPS,2.7864577770233154,20.55084421884034,309.943606088485,-9.968421822260867,19.398605865579956,3.996375942126257,307.25901426884406,-13.302916223911005,-6.822250733444296,0.050507407962819564,-0.47028136280041516,-103.95838882818049,0.14308988803577788,-0.14340863566880974,-0.27974631594883803,0.47377914340097577,309.51579788864206,-10.206843938083136,18.06379771519876,4.035999626289749,0.9167324722093172
GUIDED_NOGPS,2.83392071723938,21.071186713153214,309.60955596732254,-8.9424241880549,19.49167402040743,4.038270530401317,306.2699010615923,-13.66044523791755,-7.01150499790643,0.09037227396106177,-0.5070004597784037,-103.92865701472343,0.2738258924433685,-0.15922672923157816,-0.2826789371280922,0.47349682098168616,308.50182321750185,-7.523721674770787,20.54566941290844,4.594636509424461,0.5729577951308232
GUIDED_NOGPS,2.8800930976867676,21.663003057598544,309.3086281636373,-9.302131176335905,18.935430432198462,4.070452681562029,305.27078723142495,-14.021589119084112,-7.205430723758693,0.18300119173108553,-0.7122849969343104,-103.91478490051914,0.18674820625602348,-0.19137673016405593,-0.2849316877093421,0.47385913884404285,308.8280650368016,-10.175827916153787,18.196824168488167,4.123404307616635,0.6875493541569879
GUIDED_NOGPS,2.9225540161132812,23.557814685216492,308.8911887570531,-8.80457073505654,19.430930389302162,4.111220122293852,304.2623687108723,-14.386096312715537,-7.404031119725158,0.1594981372711014,-0.6321373160575593,-103.86866746324321,0.28233235287081787,-0.21156144145460343,-0.28778540856056967,0.4731650384909727,308.09205638331434,-8.714162614245039,19.550297586509856,4.475598038175989,1.0313240312354819
GUIDED_NOGPS,2.9710607528686523,20.61934164470838,308.6064239932828,-9.776216299946247,19.03188560335205,4.155005149363585,303.2453517834689,-14.753711522599142,-7.607307485657219,0.24649437679147282,-0.7418057148573401,-103.83134047942909,0.16010171457295133,-0.24460441847237946,-0.29085036045545093,0.47336080691099075,308.0943774401537,-10.438658369439908,19.34853505505809,4.188483056365479,1.260507149287811
GUIDED_NOGPS,3.0137362480163574,23.434484299921778,308.3089558674425,-10.090726531032173,19.196315641721394,4.20672585910976,302.2204522556733,-15.124176010326114,-7.8152592343492815,0.2582381400173693,-0.5628644702782322,-103.75960983276562,0.20382901468360817,-0.27965394372809366,-0.2944708101376832,0.4729884251239293,308.0284572594406,-11.119358609411558,18.690114283596206,4.082508301388473,1.2032113697747289
GUIDED_NOGPS,3.063619375228882,20.051554671664054,308.0321852746949,-10.368306760889391,18.81586811038544,4.255713279535101,301.188394628788,-15.497227894612916,-8.027883913354447,0.3896304357200517,-0.8714058863156876,-103.70679881010308,0.20977252328754428,-0.3050508252393932,-0.2978999295674571,0.4731562479762601,307.1179702537639,-9.5469033038167,18.408954992502004,4.482939173828868,1.088619810748564
GUIDED_NOGPS,3.106588363647461,23.277893708653377,307.67108871037635,-10.729745405569277,18.28984696980461,4.3292335570189096,300.1499112708786,-15.872602450622704,-8.245177226800209,0.42087598985192126,-0.7396936922999253,-103.61535623749495,0.2057263931777498,-0.3335911652124197,-0.3030463489913237,0.4734649758033952,307.02258221520907,-11.522974303479566,17.770471633315587,4.175813069869276,2.291831180523293
GUIDED_NOGPS,3.148261070251465,23.99858101651857,307.25232407909107,-10.534827889683845,18.06984540893221,4.415096452249755,299.10574158869383,-16.250032409286682,-8.467133057204126,0.4261345418217435,-0.742629606425973,-103.51655072096155,0.2690281927564633,-0.35695603738734094,-0.30905675165748286,0.47346302153386366,305.99823322688775,-10.534606061755253,18.03010960097901,4.48932831796278,2.291831180523293
GUIDED_NOGPS,3.193284511566162,22.213828350501814,306.8143527788954,-11.150021691482657,17.518202412815512,4.5012878022585925,298.05663119958507,-16.629248256625573,-8.69374348728952,0.4419057154195674,-0.714210576671725,-103.41872875166862,0.2029712264237932,-0.3775837191873705,-0.3150901461581015,0.473788054099895,305.9045209391755,-11.392484709213136,16.75402600415191,4.406987956825703,2.2345354010102105
GUIDED_NOGPS,3.2323262691497803,25.621111145047493,306.2747393722588,-10.907963593066482,16.61474127261734,4.602404029533535,297.0033311034259,-17.009978533070967,-8.924998821801172,0.4664829238482418,-0.7043439415288185,-103.31880308411134,0.29186410658649226,-0.39735886169796947,-0.32216828206734743,0.4744602599055815,305.33039022625763,-10.796800008231038,15.060088212721071,4.61720340367146,2.521014298575622
GUIDED_NOGPS,3.274880886077881,23.501582907956003,305.7386233260795,-10.63376406245147,16.062324504021436,4.7056307154223305,295.94659685453206,-17.391950132786743,-9.16088760932098,0.5131365309740139,-0.8784581633554315,-103.24522828637195,0.31650187124223444,-0.4155883996312738,-0.3293941500795632,0.47477678788665756,304.4373900228672,-9.712007469910224,16.372859295191297,4.94244448927184,3.0366763141933633
GUIDED_NOGPS,3.3226704597473145,20.93519743245469,305.18872010944506,-11.028742091613928,15.710508346418385,4.839777483436127,294.8871877335806,-17.77488860299047,-9.401396664083688,0.5140568989646731,-0.9569557132173898,-103.04509691350141,0.26946517723965485,-0.43199556686304696,-0.3387844238405289,0.4748880949894979,304.2730661320367,-12.577418796700508,15.698577531342753,4.638751788067542,3.9534087864026803
GUIDED_NOGPS,3.367098569869995,22.508876247719222,304.5823867790144,-10.387857680537214,15.623784172457285,4.999572469483945,293.8258659195301,-18.15851844327481,-9.646511087792536,0.5179133411639386,-0.6711108023484752,-102.8565085603282,0.38038113663576,-0.4491157928474786,-0.34997007286387616,0.4747297047397502,302.96656657473466,-8.874146775000897,14.79991569083777,5.475031032220874,3.323155211758775
GUIDED_NOGPS,3.4070568084716797,25.032251903841104,304.0570347784886,-11.332192311612225,14.714959068878791,5.144940997419513,292.7633956615396,-18.542563404928934,-9.896214291434976,0.624229237659154,-0.7836762685733992,-102.73257477783831,0.24718896626679948,-0.48097423941033496,-0.36014586981936597,0.47538882663968623,303.2777609365461,-12.545011363135256,13.646383984455817,4.943080396472293,3.380450991271857
GUIDED_NOGPS,3.448538064956665,24.11434222176228,303.5587604728788,-11.270985101054897,14.188169885568916,5.287495250843753,291.70054245088926,-18.926746790259863,-10.150488017098343,0.726771081111967,-0.7450889014140006,-102.57074027564403,0.3397570570250871,-0.5043704251584277,-0.3701246675590627,0.47566134209733274,302.8390186982084,-12.393797165028525,14.118209981413123,5.154612201348847,4.1252961249419275
GUIDED_NOGPS,3.4900708198547363,24.079317055807838,302.97009267554165,-12.400288176738337,13.418462867710007,5.457706666599857,290.6380721928988,-19.31079175191397,-10.40931235978554,0.7689080655665094,-0.52109797022531,-102.37722735607922,0.22433956067611138,-0.5171627095768759,-0.38203946666199,0.4761722247725044,301.4940510361813,-12.262056002051214,12.490794637261047,5.529478698338122,4.755549699585833
GUIDED_NOGPS,3.5388708114624023,20.497414795773754,302.3188683714338,-12.464212378629322,13.92365732800337,5.636327429593496,289.5767503788482,-19.694421592198328,-10.672665789230741,0.8949165180167822,-0.4932502217621102,-102.14431790538178,0.3109192869586179,-0.5253700568387201,-0.3945429200715448,0.47540367688276586,301.0169446114976,-12.736783968808211,15.161967365335906,5.63711233018853,4.583662361046586
GUIDED_NOGPS,3.5942940711975098,18.044441002740456,301.7949101275249,-12.584426297681178,12.877184807001505,5.827841248175402,288.5173412578968,-20.07736006240205,-10.940525171715073,1.0314582427451253,-0.440866299366109,-101.93726072069285,0.316282292979407,-0.5511010962428878,-0.4079488873722782,0.4761822900212834,300.34677535519,-12.754438922184091,10.97879241840753,5.821841270550349,3.4377467707849396
GUIDED_NOGPS,3.6440224647521973,20.112032299673455,300.98263760362516,-12.951207003927308,12.993043954968096,6.021644164630212,287.46060700900296,-20.459331662117826,-11.212865791882301,1.0722296696133413,-0.5217634867825631,-101.78323995490906,0.3040008275983604,-0.5474124944268245,-0.42151509152411487,0.4757940902531496,299.2163983170477,-13.362398120789596,12.838372081160822,6.177518933429245,3.0366763141933633
GUIDED_NOGPS,3.6859610080718994,23.85010889281876,299.9229079774717,-13.260524345376114,12.723485072221223,6.162195357139086,286.4073069128438,-20.84006193856323,-11.489661374554508,1.0344111256223922,-0.5034882484411362,-101.68269957032648,0.31137855834938166,-0.5325001325407158,-0.43135367499973604,0.47578685355322425,297.5403705674413,-13.664735993154629,14.353290717095284,6.573172502641522,2.0626480624709638
GUIDED_NOGPS,3.730950355529785,22.231961030631663,299.0364039861255,-13.854283524763114,13.576606729128748,6.230668701502071,285.35819652373505,-21.219277785902115,-11.770884106547804,0.9296906652677567,-0.3896951624346081,-101.64648590734707,0.2837405195569181,-0.5508959550216067,-0.43614680910514503,0.47465250916432344,297.06153107945005,-14.535716460345093,13.53815738913011,6.614515043821888,0.5729577951308232
GUIDED_NOGPS,3.78305983543396,19.193264082734636,298.1316199180108,-14.509915209851092,14.117012027159857,6.2639451496752026,284.3140268415503,-21.596707744566096,-12.056504658487988,0.7537691647145878,-0.3211821752004449,-101.69374398621439,0.27119723657836325,-0.5544183447937747,-0.43847616047726423,0.4738264833143522,296.493024270924,-15.329293176053524,14.459587975254145,6.6728489468717855,-0.34377467707849396
GUIDED_NOGPS,3.830737829208374,20.978652741932258,297.2073665788595,-15.415046064237467,15.097029491336967,6.258939409571165,283.2755434836409,-21.972082300575885,-12.346492206626259,0.4963337320072536,-0.1689820817172889,-101.75645195298428,0.23304913670789507,-0.5587951525179429,-0.4381257586699816,0.4725564783020368,295.72550865943316,-16.380128556313757,17.29334310962661,6.665959253250859,-1.2032113697747289
GUIDED_NOGPS,3.874181032180786,23.022982890453893,296.2434158402278,-16.502992902774754,16.001483647160388,6.196767172346006,282.24348585675557,-22.34513418486268,-12.64081445465489,0.3185111443481468,0.06575444458312432,-101.8519038466352,0.18873401161739692,-0.5596397418577633,-0.4337737020642205,0.4713577018981847,294.39664462388924,-17.79955697595695,16.251519856600375,6.651922532397467,-2.635605857601787
GUIDED_NOGPS,3.915648937225342,24.11933432241889,295.56762515475276,-18.0653331771997,16.270100891758457,6.098067743192449,281.21858632896,-22.71559867258965,-12.93943765552292,0.20733374064925594,0.16641777257077223,-101.99946325346416,0.10434334154008626,-0.5947526555520425,-0.42686474202347147,0.47079046145271863,294.1614171400661,-20.01631399932836,15.265439709048355,6.316046254312711,-3.0939720937064457
GUIDED_NOGPS,3.9511847496032715,28.149124514271524,294.7063993859009,-19.981717717755625,15.266781780713439,5.978717141794134,280.2015694015566,-23.083213882473267,-13.242326633251835,0.10371025936813474,0.2661758870499819,-102.05921374832343,-0.002423153623712121,-0.589438938294073,-0.41851019992558947,0.47149089158603474,292.7554022351911,-22.12928217798154,14.283385776491556,6.0639465147753,-3.495042550298022
GUIDED_NOGPS,4.003617286682129,19.07464220584022,293.7994334073828,-21.487007656755207,15.003777185180423,5.844417227310575,279.19315088100393,-23.447721076104678,-13.549444804751268,-0.012884178033663799,0.3119774280767949,-102.29809278435546,0.0179521250465184,-0.5868737587300326,-0.40910920591174027,0.4714467780100683,291.9581943783335,-22.31542679295568,15.462506070001329,6.073756896706898,-4.755549699585833
GUIDED_NOGPS,4.033337831497192,33.66080012840576,292.8875377191585,-22.528667754507733,14.397303233478354,5.655059188497803,278.1940370508366,-23.80886495727126,-13.860754201634677,-0.06131055275438477,0.2323963327360376,-102.39973965958359,-0.012638088526678692,-0.5937952391873533,-0.39585414319484624,0.471741942564887,291.16603021831156,-23.141294292585933,13.446017853942143,5.944842390919983,-5.099324376664327
GUIDED_NOGPS,4.084583282470703,19.517014494776763,292.1388169019215,-23.07499459983477,14.744262350527919,5.4958895996748325,277.2049238435848,-24.166393971277785,-14.176215492035045,-0.24401451119465573,0.25859971315655683,-102.81677734992623,0.03742853729770173,-0.6094744050160673,-0.3847122719772383,0.47107952215743704,290.6530405377042,-23.76826271396266,15.324263127640252,5.8489861714616715,-6.359831525952138
GUIDED_NOGPS,4.130984544754028,21.554349613550404,291.13598501049273,-23.598579528113106,15.59964860914313,5.210426959921698,276.22649601269393,-24.52006060426808,-14.495788002420547,-0.39559980761123126,0.29398777702003914,-103.1268201269206,0.030789095013217978,-0.5935226581860343,-0.3647298871945189,0.46990456338843634,289.1472576829225,-23.886181577790683,18.02866484584696,5.794901604631186,-6.64631042351755
GUIDED_NOGPS,4.171659469604492,24.58920709365382,290.30865794895755,-24.16746193116551,17.047522145025134,4.9113300990124396,275.2594263044442,-24.869621682546253,-14.819429739410253,-0.42498947127956144,0.159092181242522,-103.39505531600535,0.01680202550196345,-0.611618354642879,-0.3437931069308708,0.4681330481155646,288.6187669275151,-24.847941501743136,17.78963846158816,5.544343231949497,-7.62033867523995
GUIDED_NOGPS,4.215898752212524,22.61019379531549,289.3855983860848,-24.644870108090956,18.21050344837117,4.620871496648767,274.30437462987055,-25.21483867189812,-15.147097411589815,-0.46664498075847094,-0.06826880797133526,-103.79867168462891,0.018755031279911058,-0.6054166979086386,-0.32346100476541373,0.466642399140039,287.3428965639695,-25.200487244738998,18.813207037678357,5.304780815229402,-8.13600069085769
GUIDED_NOGPS,4.262347936630249,21.532771694209572,288.56533985728845,-25.652563132780966,18.193346603525132,4.280819060397798,273.36198723668184,-25.555477976912655,-15.47874645132715,-0.5641268813359209,0.17276387208336033,-104.11708827354575,-0.04204952894407243,-0.6167249232745577,-0.2996573342278459,0.4663279069451477,287.0647375743298,-26.909260651860702,17.977194311308843,4.845303888062915,-8.59436692696235
GUIDED_NOGPS,4.311579942703247,20.338484664807854,287.746787407595,-26.221854788740288,19.039752759676045,3.9105863308436377,272.4328958811809,-25.891311240303416,-15.814331036588136,-0.5647943188838781,-0.020159303335292634,-104.571111438244,-0.02261113925017242,-0.6207795547052444,-0.2737410431590547,0.4651459162037358,286.56027828923703,-26.555816469621103,20.3288569300409,4.763900475836766,-8.651662706475431
GUIDED_NOGPS,4.3485846519470215,27.02759269521735,287.0886907865112,-26.891045829894548,19.514450512137085,3.5070506951766482,271.5177170001839,-26.222115642229845,-16.15380411275228,-0.5716731731517273,-0.01575105655628409,-104.98694701529271,-0.049269190962308335,-0.6456860731115234,-0.2454935486623654,0.4643317453751106,285.85677457750376,-27.208060368201767,20.237300295061473,4.468819565554516,-9.281916281119337
GUIDED_NOGPS,4.393042802810669,22.495958637038942,286.44674516129334,-27.93873443314055,19.232515485834686,3.1949594736798086,270.6170508829404,-26.547674199618697,-16.497117414428438,-0.6875030429130943,0.16723867593164315,-105.41240632888199,-0.09918165823250466,-0.6532527491521973,-0.22364716315758662,0.4642703670997369,285.4090388014257,-30.05232646159871,17.13138923240164,3.7442252248655805,-8.88084582452776
GUIDED_NOGPS,4.437688589096069,22.403674919210534,285.83116444719406,-28.697501180132917,19.18537499193663,2.8019078408056934,269.73148084305234,-26.86777606548563,-16.844221487270467,-0.7594589790974728,0.09122165867716311,-105.8198339430624,-0.09793551819746664,-0.6655951200865424,-0.19613354885639855,0.4639704035207929,284.2649929934733,-28.83211671059821,20.187435448346744,3.6224974945383144,-9.511099399171666
GUIDED_NOGPS,4.485464096069336,20.934361508322727,285.16245547597237,-29.50555434905561,18.939668722945694,2.411354577577286,268.86157239039443,-27.182216828256244,-17.195065709792935,-0.822350507201304,0.13403947425373836,-106.25911072934261,-0.11932465092239246,-0.6689146079408173,-0.16879482043041005,0.4638652655672614,283.7211927182213,-29.632219874969852,19.500181488088657,3.2571549123299697,-9.797578296737077
GUIDED_NOGPS,4.525081634521484,25.248487548232916,284.33272936152906,-29.993447072799487,19.663641940483533,1.9620054673513583,268.0078724030331,-27.490798811087842,-17.549598315186813,-0.9290692247749913,0.054876514556232756,-106.58340128094565,-0.10916099109146192,-0.6596889967459385,-0.1373403827145951,0.46278675974432965,282.4116477170205,-31.51600463283035,19.303308885015163,2.4740833005635032,-9.969465635276325
GUIDED_NOGPS,4.56939172744751,22.573808959979335,283.55380883442547,-31.163460333187132,18.58311802070527,1.6230328112468024,267.17090829914673,-27.793331371190632,-17.907766413135132,-1.0162831632349436,-0.01968183042362643,-107.04964365406906,-0.18919436179683202,-0.664851398651217,-0.11361229678727618,0.4635091155661596,281.96217194198556,-32.34215649176114,16.945863689011954,2.1013911281180118,-8.13600069085769
GUIDED_NOGPS,4.610591888427734,24.27624526838529,282.74482922742106,-32.30387329454184,17.97465777068112,1.2685381275081844,266.3511872089449,-28.08963119914918,-18.269516011628717,-0.9996259326748693,-0.08433981620155213,-107.32197012646664,-0.2260336976266203,-0.6628059925236635,-0.08879766892557292,0.4637558262176902,281.364140766404,-33.05345875903398,17.67480073801621,1.7275763374469166,-7.677634454753031
GUIDED_NOGPS,4.64650821685791,27.848959889515235,282.02610982498123,-32.72947740148461,17.476689668218196,0.9555269663679136,265.5491951465884,-28.37952261824377,-18.634792038781836,-1.028865865789988,-0.05712492745363633,-107.57172282365732,-0.1812090450236835,-0.6728634335993376,-0.06688688764575396,0.463888518293,280.671395981274,-32.79281695365866,17.809404577626395,1.5526290244059648,-8.021409131831525
GUIDED_NOGPS,4.693954229354858,21.081671734814407,281.2880938211957,-33.45171332162758,17.70496965211318,0.7142868761852214,264.76539618210825,-28.66283788377187,-19.003538364647905,-0.9797021641442363,-0.18405630921550703,-107.99016070277982,-0.2154801181091988,-0.6714576899142903,-0.0500000813329655,0.46329149198323893,280.03111269929354,-34.50886425219005,17.630703640696915,0.998914346608686,-5.958761069360562
GUIDED_NOGPS,4.741487264633179,21.04211630018713,280.5643340524333,-34.28187174014489,16.974681656476758,0.42960309026941607,264.0002316133262,-28.939417482369578,-19.375697823035164,-0.9904523482893075,-0.09853785849530458,-108.22707264433087,-0.2450980485095893,-0.6736211402958409,-0.03007221631885913,0.4636496205204881,278.792848873209,-35.543934014585915,15.483936751106935,0.4230646591231523,-4.8128454790989155
GUIDED_NOGPS,4.795994997024536,18.34858917712936,279.6717554702836,-35.12293279426496,16.521056449505817,0.18772224569755974,263.25411913777367,-29.209110431332874,-19.75121223332238,-1.0412254132582435,0.066594984737859,-108.47840311521983,-0.2647884917563387,-0.6579665166747194,-0.013140557198829183,0.4637277313171718,277.499279031237,-35.31600011601886,16.448528956713574,0.14423201272542527,-4.5263665815335035
GUIDED_NOGPS,4.83340859413147,26.742054156066896,278.753399872512,-35.27450508971001,16.008363574792764,-0.042561748793289333,262.52745202461176,-29.47177457793913,-20.130022422274546,-0.9626453675177162,-0.00018932430605629095,-108.6172813516137,-0.22020466194118388,-0.6436866010835692,0.002979322415530254,0.4638616140029327,276.77236277754616,-34.9635811385252,16.09262501655776,0.10697091034233402,-3.0366763141933633
GUIDED_NOGPS,4.879352569580078,21.768124516688204,277.84596665871874,-35.48707771875258,15.821126228600173,-0.13027214912369536,261.8205982865508,-29.72727689876848,-20.51206824585852,-0.882730713485539,0.09017151709227365,-108.68266675253824,-0.2248164050405702,-0.6386115883927973,0.009119050438658677,0.4636668055255413,276.13422991230766,-36.18165190171361,14.922224712529168,-0.22940677067365964,-1.1459155902616465
GUIDED_NOGPS,4.923696756362915,22.55657018704355,276.94733510009576,-35.933647872672104,14.859522999477322,-0.19666599699959392,261.1338998517698,-29.975493799025244,-20.897288611058745,-0.753058077988966,0.2032333459707872,-108.70203033883521,-0.24928913871892092,-0.6295194541428241,0.013766619789971575,0.46424318838946393,275.5379549061787,-36.65571057777742,13.56371926934502,-0.40144292387139774,-0.17188733853924698
GUIDED_NOGPS,4.966681957244873,23.26898304050418,276.0478029070906,-36.4822579265611,13.43539052706925,-0.21273540940381916,260.46767173583663,-30.216311411859337,-21.285621497692965,-0.5527438908364187,0.0998735873648652,-108.68997505495015,-0.2698213833772722,-0.6190159512596654,0.014891478658267343,0.4652789879752378,274.295187908183,-36.6094113001922,11.820227599333542,-0.46512629295755653,0.6875493541569879
GUIDED_NOGPS,5.0118913650512695,22.123256746207566,275.27589865834,-36.67313840843595,12.36416568287907,-0.17322577857296104,259.822201213627,-30.449625897687554,-21.67700398022785,-0.402735701107455,0.1093267826195744,-108.6162363326707,-0.24416129128258893,-0.6224998052634563,0.012125804500107274,0.46595883033689306,273.6397577874841,-36.75429334733819,11.708550179958635,-0.4789573902353614,2.3491269600363753
GUIDED_NOGPS,5.060102701187134,20.74662656800285,274.41565471811947,-36.866079185413525,11.432381187279601,-0.08492083610651,259.19774699124486,-30.675343743515185,-22.071372249594738,-0.29725527548594977,0.051855436508971495,-108.439279791654,-0.24392220429863307,-0.6074927310240041,0.0059444585274557,0.46649624656312566,272.4711430764432,-37.23453290871015,10.768365782546612,-0.4705005029619262,3.2658594322456924
GUIDED_NOGPS,5.099653720855713,25.2897437443473,273.5845417965641,-37.239532371755416,11.496252993341487,0.04572800103720321,258.59453837794103,-30.89338206225726,-22.468661635005283,-0.27213098491301324,-0.016525856140257415,-108.32716906661742,-0.26421566281035946,-0.5963976735039935,-0.003200960072604225,0.4660350853716532,271.97866530453103,-37.72977085921786,12.011843017519206,-0.4780003580109925,3.6096341093241864
GUIDED_NOGPS,5.147063493728638,21.095031408899104,272.78966312844466,-37.3797689312699,12.02277661380927,0.17866396164933926,258.012774458034,-31.10366889205993,-22.86880662576718,-0.22697532364958956,-0.23035389273079224,-108.1590098092517,-0.24551402938153447,-0.5924162788372173,-0.01250647731545375,0.4651084167604236,271.5635615655816,-37.17500302588163,13.288121041361979,-0.22328370712789203,4.010704565915763
GUIDED_NOGPS,5.189053297042847,23.82152755690854,272.01519999215145,-37.557108437280455,12.782034136701284,0.3566198837079246,257.4526232628286,-31.30614349562208,-23.271740893099828,-0.21529139127999683,-0.34167530403142193,-107.96992285226906,-0.24738500844515862,-0.5825267365610196,-0.024963391859554724,0.4639462249701989,270.42287222671695,-37.76655142674183,13.046138351222654,-0.016703671291110708,4.354479242994256
GUIDED_NOGPS,5.226765155792236,26.522391268606697,271.2827418585008,-37.51837440343396,12.996503231720729,0.5278597289444752,256.9142209425364,-31.500756659516355,-23.67739731195001,-0.2443740833018599,-0.32638336425340964,-107.7913885375541,-0.2215382391093414,-0.5752504472470755,-0.03695018102611327,0.46332609945632924,269.97746711923077,-37.613568757678365,12.655250302577535,0.19655324307111208,4.5263665815335035
GUIDED_NOGPS,5.271588563919067,22.314875505426688,270.7053867303809,-37.72408924364515,12.942367407494112,0.6816626156220881,256.3976709381947,-31.687470993511056,-24.085707982807605,-0.14183568162405835,-0.4746144774985535,-107.62092067624893,-0.24238453459286538,-0.5847999288057226,-0.04771638309354617,0.46297192460969827,269.58436743584355,-37.79214754651523,13.125713568682132,0.35740787338635704,4.239887683968092
GUIDED_NOGPS,5.318939924240112,21.12116344299361,270.10891656759594,-37.79545559514496,12.538473502378373,0.8839518090982401,255.90304315358674,-31.866261229891023,-24.49660425352127,-0.019022143539551624,-0.5128182868473736,-107.33239299514007,-0.23031282324158897,-0.57904959067123,-0.06187662663687681,0.46296492224410035,268.9963144906062,-37.980650481241256,11.834456635875435,0.53655398636379,5.443099053742821
GUIDED_NOGPS,5.361083507537842,23.73390975656681,269.46867868913824,-37.78631996358782,11.995887007479801,1.1224184348103892,255.43037312716098,-32.03711452277953,-24.910016741114124,0.023509684545955783,-0.6149850035043648,-107.09408086480916,-0.21722456316590508,-0.5673434595897071,-0.07856929043672725,0.4630940962514061,268.3623721732929,-37.58616186300694,11.02749081788182,0.8341832168398075,5.7868737308213145
GUIDED_NOGPS,5.403236389160156,23.729210158579292,268.8611981006717,-38.22993790815689,11.8358629980953,1.3358462123679011,254.97966120395085,-32.20003074745924,-25.325875353599404,0.09941791236160485,-0.703054102992744,-106.87633443406915,-0.26151110396268246,-0.5625712730438288,-0.09350923486575309,0.4628382616483053,267.3854692843842,-39.12300138022244,12.645641540528619,0.9524130275890921,5.500394833255903
GUIDED_NOGPS,5.449247360229492,21.738903285995647,268.1288387400843,-38.87691663719719,12.294404058134154,1.546904545493893,254.55087170749454,-32.3550227996939,-25.744109311796223,0.129910825003664,-0.8301788644854906,-106.69271162842253,-0.2936895444014498,-0.5423613564948384,-0.10828331818457253,0.46196148663006964,266.3156703162937,-39.92158666836216,13.210079815991998,1.288758392473047,4.870141258611998
GUIDED_NOGPS,5.495187282562256,21.772305392329894,267.33058354388305,-39.71330022923874,12.989319833380316,1.7796942499334893,254.1439321117545,-32.50211689504971,-26.164647171145205,0.11214223462022127,-0.8239738510679456,-106.40893775897601,-0.33452600908090074,-0.5215545168285393,-0.12457859749534426,0.4608460329954745,265.5930914548373,-40.095312639131585,13.112238143620312,1.5087990909956996,5.443099053742821
GUIDED_NOGPS,5.5430920124053955,20.87694742815048,266.5513673976699,-40.38509219159668,13.122843311129893,1.9955363840173308,253.75873221303698,-32.641352868216615,-26.587416843524178,0.05981527493468088,-0.8737267632513167,-106.20860148043036,-0.3444628086927714,-0.5073406727817809,-0.13968754688121318,0.46028973984534594,265.10023375954023,-41.13837726729626,13.046211973777346,1.528233717525458,4.297183463481175
GUIDED_NOGPS,5.59624719619751,18.816047660276972,265.6499110351052,-41.04939471502286,12.734073744060195,2.2126631707499698,253.39512330191178,-32.772784472329704,-27.012345619063858,0.023966306704354935,-0.9331053329659399,-105.982645162308,-0.36301504904978604,-0.4807399194768924,-0.1548864219524979,0.46025358063687594,263.8550903604699,-41.91449423864073,12.043771114782897,1.8607325195683329,4.640958140559668
GUIDED_NOGPS,5.6335930824279785,26.785089819976882,264.80769407399356,-41.69305279345557,12.114290352069512,2.436472573546365,253.05291733513218,-32.89647967829083,-27.439360187963583,-0.08556826307637595,-0.731962345046294,-105.82216303756938,-0.39596635385566775,-0.45124074731873504,-0.17055308014824555,0.4604463494599669,263.17438447882597,-42.026286874429694,11.252887967648263,2.0868196024170524,3.8388172273765155
GUIDED_NOGPS,5.673741579055786,24.913302763192284,264.01892818278685,-42.361345800529826,11.342285844663047,2.576039884115769,252.73188610755415,-33.01252097408968,-27.86838666230693,-0.10917072213518887,-0.7129294893155246,-105.6803478198324,-0.4178916375764821,-0.43824585161298557,-0.18032279188810382,0.46078932749303003,262.37184086025985,-43.143256288519005,10.730198451557953,2.070989904476262,3.8388172273765155
GUIDED_NOGPS,5.71877646446228,22.21147562687002,263.25002544903475,-42.98120870891862,11.387954555187234,2.7168365838617166,252.43176042405628,-33.121005664125505,-28.29935059787748,-0.18761016869845576,-0.8568929082681741,-105.53100573363008,-0.4313820498176772,-0.42389128759977907,-0.19017856087032017,0.46031269484693527,261.7485777860771,-43.774082963807125,12.180777246355456,2.152238775088988,3.724225668350351
GUIDED_NOGPS,5.761786460876465,23.25504959497896,262.2912423033494,-43.62625759595425,10.868413143177401,2.866121442534544,252.15222927145913,-33.222046168528294,-28.732177015974408,-0.24786713809293962,-0.5848551180847344,-105.40472919625489,-0.4576345166108526,-0.3808333750800466,-0.20062850097741808,0.4603994098408482,260.3063180311135,-43.961433535536585,9.69426373161877,2.558038961865514,3.0366763141933633
GUIDED_NOGPS,5.802553653717041,24.53426300180747,261.4526778253438,-44.094397443252255,10.489501330955791,2.9999761506372185,251.8929389904452,-33.31577032248026,-29.16679042522829,-0.2529088849174668,-0.7155962512995914,-105.26013409152571,-0.4624699946643365,-0.3630804560943185,-0.20999833054460532,0.46034370824381593,259.6622679704416,-44.547675830413034,9.593463014893123,2.6308190882919895,3.20856365273261
GUIDED_NOGPS,5.8426268100738525,24.960152344679837,260.44789845538423,-44.44518406280928,9.78848797441856,3.103033899439172,251.65349244747836,-33.40232167553722,-29.603114843416673,-0.27259743880855747,-0.5389256177326895,-105.15398612163455,-0.46591443031214536,-0.31772965227653066,-0.21721237296074206,0.4606083971821648,258.1504876290283,-44.826442822478214,10.077737176743756,2.977590178759964,1.8334649444186344
GUIDED_NOGPS,5.891117811203003,20.62593250094664,259.41233519570335,-45.265008152334325,9.51888774429738,3.187866910075915,251.43344820672388,-33.48185979095015,-30.04107381927984,-0.25833434963513124,-0.6404903172473676,-105.0812924182981,-0.5220093722235303,-0.29259194892452456,-0.22315068370531407,0.4604400384364228,257.1940245618552,-46.420905804111726,8.885463041255225,2.8202696208314655,2.0053522829578814
GUIDED_NOGPS,5.935986518859863,22.293170620219726,258.357089035059,-45.94939090918218,9.512941456444167,3.275340600366502,251.23231970196747,-33.554560544986145,-30.48059045433649,-0.25830505452689423,-0.4477594543425328,-105.04453917037426,-0.5422037190317862,-0.2519996981294373,-0.22927384202565518,0.46000646808921936,256.4723469828554,-46.60082410095661,9.575624151333486,2.953405705263863,1.3178029288008934
GUIDED_NOGPS,5.97645378112793,24.717158145345685,257.42934270207917,-46.42202973047481,8.642981053706274,3.315398190917923,251.0495744085352,-33.62061642625039,-30.921587424699386,-0.2904135336912862,-0.3590963418397741,-105.00930222444617,-0.5481467564687924,-0.22446832284835644,-0.23207787336425462,0.46043543152159433,255.66758636621412,-46.2443592863561,7.467855968530074,3.1917980186227135,-0.057295779513082325
GUIDED_NOGPS,6.0248332023620605,20.67422464953962,256.4440537705318,-46.67214848452708,8.193109409715882,3.3114901079037713,250.8846330152133,-33.680236835007406,-31.363987002891083,-0.3121132848082547,-0.33392239899322274,-105.05670373728606,-0.5381046963673113,-0.196215886055609,-0.231804307553264,0.46044290358739304,254.73582331270478,-47.17126206626852,7.535848109284049,3.132616224703267,-0.9167324722093172
GUIDED_NOGPS,6.0800864696502686,18.099961161696804,255.41858519387029,-47.13809644576158,7.21120508645403,3.2870993151096735,250.73686859616788,-33.733648382501855,-31.807711079659587,-0.35305146434175416,-0.1752453651861906,-105.15259276304387,-0.5659186664161762,-0.16461014988584213,-0.23009695205767716,0.46098108383388636,253.0231447457206,-47.9986679846601,6.629911181547932,3.1944012589484174,-1.0313240312354819
GUIDED_NOGPS,6.121238946914673,24.307900944079652,254.18583895182482,-48.09813999872993,6.483717750770899,3.2337251513964236,250.6056057828643,-33.781095190280865,-32.25268118579409,-0.4185154124417414,-0.13527424438962973,-105.2066127291895,-0.6472804879446452,-0.08787117291737001,-0.22636076059774968,0.461263601063435,251.03029335162807,-49.124489945261125,5.285393961480678,3.0604988639342623,-1.5469860468532228
GUIDED_NOGPS,6.166642427444458,22.029023261676794,252.95338773896728,-48.93047854870857,5.9472213140350325,3.1579695235495855,250.49011993598668,-33.82283918951492,-32.69881851394058,-0.46406167514832514,-0.15392471624858423,-105.35494394739466,-0.6651585557317017,-0.04997417714956809,-0.22105786664847102,0.4613539601720244,250.31009091856788,-49.66827771620444,5.926358799076449,2.9835422406771572,-2.5783100780887045
GUIDED_NOGPS,6.2156453132629395,20.411529683142973,251.70930794481365,-49.59379614480713,5.470608567770569,3.050644455266763,250.38963631735777,-33.8591604203192,-33.1460439404176,-0.5640665302113016,0.10556121395278176,-105.49833010864074,-0.6772781369833432,-0.007867140268797812,-0.21354511186867345,0.4613833474918118,249.44718739544595,-49.988620772955784,5.200072942754542,2.94839756228096,-3.0366763141933633
GUIDED_NOGPS,6.26238226890564,21.400165311182995,250.2908989891399,-50.220310085367196,5.11668536831181,2.922395322446443,250.30332926185866,-33.890357331075364,-33.59427804703188,-0.5549108217114581,0.1145119634166719,-105.64733751557374,-0.7014976252254255,0.060540885777041045,-0.20456767257125105,0.4612890365846563,247.64377853433592,-51.00403176694133,4.223624363104403,2.731264041735109,-2.807493196141034
GUIDED_NOGPS,6.311325311660767,20.435994757382783,249.03605817300104,-50.707324401973985,4.237772165549018,2.7804421159953248,250.23032134934903,-33.91674707775243,-34.04344114289411,-0.6409917491819818,0.12802869434071557,-105.81491620686,-0.7108557628241431,0.09501321290684557,-0.19463094811967274,0.46171878669155686,246.7489406650264,-51.12932066602481,3.2896191907880747,2.6817004036369165,-3.666929888837269
GUIDED_NOGPS,6.359941005706787,20.572213339088297,248.00554317670804,-51.30454942966381,3.8481900991377125,2.6090016798791607,250.16968257658488,-33.93866582322863,-34.4934532862345,-0.7190433623963322,0.3897109572470638,-105.99847071061492,-0.7419040082192779,0.12118246252846387,-0.18263011759154127,0.4616583566146278,245.87771837016297,-51.78029585602525,4.031326743520626,2.504414821507847,-4.1252961249419275
GUIDED_NOGPS,6.398182153701782,26.154897607941933,246.77369242234226,-51.5523938413757,3.2510023929814653,2.435988976546399,250.1204295291406,-33.95646903661256,-34.944234306218604,-0.7507983525907496,0.3747615941446099,-106.14601645706554,-0.7343911909656057,0.2016595648690601,-0.17051922835824793,0.46180476330079995,244.15083714673924,-51.747565002076996,2.4320612446356598,2.465723519248018,-3.4377467707849396
GUIDED_NOGPS,6.438056945800781,25.083599959333306,245.54042178700894,-51.77338672263346,2.7277232733790533,2.308451457466774,250.08152455332623,-33.970531792564856,-35.39570382476288,-0.7990931794688816,0.5735706850805214,-106.28272269330334,-0.7409039012314074,0.24672418904923168,-0.1615916020226742,0.4618765729018581,243.28083421877923,-51.792299309798125,1.7197818319808398,2.407100078761518,-3.323155211758775
