Mode,Time,Freq,North-Vision,East-Vision,Down-Vision,Yaw-Vision,North-Desired,East-Desired,Down-Desired,Roll-UAV,Pitch-UAV,Yaw-UAV,Roll-Control,Pitch-Control,Yaw-Control,Thrust-Control
GUIDED_NOGPS,0.0016632080078125,609.2829750145264,0.0,0.0,0.0,0.0,300,0,30,1.0816413501245015,-0.5233998506973101,97.50272625111623,-0.0,10.0,0.0,0.5636407703658588
GUIDED_NOGPS,0.0025293827056884766,1161.8570637119115,0.0,0.0,0.0,0.0,300,0,30,1.0816413501245015,-0.5233998506973101,97.50272625111623,-0.0,10.0,0.0,0.5060010734558106
GUIDED_NOGPS,0.0033233165740966797,1263.3445783132531,0.0,0.0,0.0,0.0,300,0,30,1.0816413501245015,-0.5233998506973101,97.50272625111623,-0.0,10.0,0.0,0.5060015824317932
GUIDED_NOGPS,0.0041429996490478516,1230.361982986213,0.0,0.0,0.0,0.0,300,0,30,1.0816413501245015,-0.5233998506973101,97.50272625111623,-0.0,10.0,0.0,0.5060020532131195
GUIDED_NOGPS,0.006547451019287109,417.55141861622695,0.0,0.0,0.0,0.0,300,0,30,1.0816413501245015,-0.5233998506973101,97.50272625111623,-0.0,10.0,0.0,0.5060028910636902
GUIDED_NOGPS,0.0075495243072509766,1004.6237125748503,0.0,0.0,0.0,0.0,300,0,30,1.0816413501245015,-0.5233998506973101,97.50272625111623,-0.0,10.0,0.0,0.5060040579319001
GUIDED_NOGPS,0.008478164672851562,1084.0796071336263,0.0,0.0,0.0,0.0,300,0,30,1.0816413501245015,-0.5233998506973101,97.50272625111623,-0.0,10.0,0.0,0.5060045930862427
GUIDED_NOGPS,0.009335756301879883,1173.8886090120347,0.0,0.0,0.0,0.0,300,0,30,1.0816413501245015,-0.5233998506973101,97.50272625111623,-0.0,10.0,0.0,0.5060051488399505
GUIDED_NOGPS,0.010381221771240234,968.6614318706697,0.0,0.0,0.0,0.0,300,0,30,1.0816413501245015,-0.5233998506973101,97.50272625111623,-0.0,10.0,0.0,0.5060056592464447
GUIDED_NOGPS,0.011805057525634766,706.5876010781672,102.38727025730724,-24.679280794922576,-34.99318857336268,1.1992744856244015,300,0,30,1.0816413501245015,-0.5233998506973101,97.50272625111623,-1.8653226931805693,8.52912277817622,-0.5996372428122008,0.5379080697640984
GUIDED_NOGPS,0.013124465942382812,765.9430241051863,204.77454051461447,-49.35856158984515,-69.98637714672536,2.1804990647716394,300,0,30,1.0816413501245015,-0.5233998506973101,97.50272625111623,-2.9423885071987863,-0.4069877169548395,-1.0902495323858197,0.5474567347229448
GUIDED_NOGPS,0.01424717903137207,891.4567481402763,306.35757029914157,-73.80934343482886,-104.73282956044038,3.1769032375220596,300,0,30,1.0816413501245015,-0.5233998506973101,97.50272625111623,-3.9185972666548103,-8.529106795973375,-1.5884516187610298,0.554416149959932
GUIDED_NOGPS,0.015623092651367188,733.0136315973435,305.5105212312657,-73.57629410229896,-104.41640891958379,3.863201755941807,300,0,30,1.0816413501245015,-0.5233998506973101,97.50272625111623,-2.93308898677993,-0.3599935280235345,-1.9316008779709035,0.5266217885914277
GUIDED_NOGPS,0.0227508544921875,140.37631781518792,305.34374955336824,-73.4755213298302,-104.32880913004743,4.5303150399580145,300,0,30,1.0257770194595557,-0.6368576704651258,97.57160187870663,-2.9391389721927434,-0.41885928267992484,-2.2651575199790073,0.5268898073344153
GUIDED_NOGPS,0.03464937210083008,84.13343229093535,305.34015822723694,-73.47781469438632,-104.24176317017032,5.085193091962512,300,0,30,1.0257770194595557,-0.6368576704651258,97.57160187870663,-2.940765150679897,-0.4209510269186037,-2.542596545981256,0.5269071630115034
GUIDED_NOGPS,0.03716397285461426,398.5465602432535,306.11937415127886,-73.57222445160188,-104.41606128288983,5.686382865295369,300,0,30,1.0172987269871598,-0.681189706964181,97.60742622090335,-2.946406894660503,-0.5108745941332343,-2.8431914326476844,0.5270188747449517
GUIDED_NOGPS,0.03834986686706543,848.8775551507792,305.57073638259834,-73.41466766805365,-104.12010975807077,6.069682006583528,300,0,30,1.0172987269871598,-0.681189706964181,97.60742622090335,-2.933312301376767,-0.4030178108594019,-3.034841003291764,0.5267054728283578
GUIDED_NOGPS,0.03944063186645508,923.2454325335681,305.51445158572983,-73.29079840139144,-104.02087675904386,6.405916116244573,300,0,30,1.0172987269871598,-0.681189706964181,97.60742622090335,-2.9280113269301618,-0.4298441736439941,-3.2029580581222863,0.5267945304323262
GUIDED_NOGPS,0.04055190086364746,904.3346269943942,304.7181681337839,-73.07936312466082,-103.72998416862926,6.706757161730771,300,0,30,1.0172987269871598,-0.681189706964181,97.60742622090335,-2.915528238838221,-0.2977321265690326,-3.3533785808653853,0.5265612220553167
GUIDED_NOGPS,0.04156756401062012,991.5612293144208,304.60633556213656,-72.99384350557038,-103.66233100491617,7.015486940034753,300,0,30,1.0172987269871598,-0.681189706964181,97.60742622090335,-2.918165666913382,-0.352446395917281,-3.5077434700173766,0.5267594710283934
GUIDED_NOGPS,0.04552602767944336,253.0805527062089,304.1245276085377,-72.84709257738854,-103.44500946141318,7.308528874517676,300,0,30,0.987362541463523,-0.7212655751149665,97.64000622324431,-2.9133425975654155,-0.30462014504321633,-3.654264437258838,0.526695997994822
GUIDED_NOGPS,0.04732990264892578,556.4213319182807,304.3004352558617,-72.83020120478078,-103.42317990643045,7.571012606069098,300,0,30,0.987362541463523,-0.7212655751149665,97.64000622324431,-2.9154334442445293,-0.34502598997810624,-3.785506303034549,0.5267761220164798
GUIDED_NOGPS,0.06328511238098145,62.72044023746505,304.39514006277204,-72.79854882406892,-103.37409150342798,7.7734032027714415,300,0,30,0.9385674565895403,-0.7972860608248844,97.71827336094348,-2.9143593271124244,-0.34806446494690224,-3.8867016013857207,0.5267720340952112
GUIDED_NOGPS,0.07229423522949219,111.18986267960341,306.3588270958299,-73.18110904026335,-104.00055334443533,8.019672813280009,300,0,30,0.9385674565895403,-0.7972860608248844,97.71827336094348,-2.9324699712515483,-0.5166541089541862,-4.009836406640004,0.5269925871436446
GUIDED_NOGPS,0.07550764083862305,311.10399050585966,306.80006198048915,-73.19655490958745,-104.14227989330227,8.284078281614565,300,0,30,0.9385674565895403,-0.7972860608248844,97.71827336094348,-2.9325528850670177,-0.542637887559393,-4.142039140807283,0.5270178610615094
GUIDED_NOGPS,0.07741785049438477,525.4703081934352,307.32563039300766,-73.23430655434885,-104.31829813151116,8.475454019137317,300,0,30,0.9385674565895403,-0.7972860608248844,97.71827336094348,-2.9349925455298633,-0.6037806716879563,-4.237727009568658,0.5271235353093016
GUIDED_NOGPS,0.07894468307495117,658.6532663316583,305.95141113036146,-72.84749191335833,-103.83338483210089,8.70649936982538,300,0,30,0.9385674565895403,-0.7972860608248844,97.71827336094348,-2.908373756083664,-0.39624235121163065,-4.35324968491269,0.5266912459257584
GUIDED_NOGPS,0.08061671257019043,600.4730136005727,305.47203038624326,-72.70649911862456,-103.70334416142448,8.905192838052326,300,0,30,0.9385674565895403,-0.7972860608248844,97.71827336094348,-2.9077785588500875,-0.39476025504595946,-4.452596419026163,0.5268291684988319
GUIDED_NOGPS,0.08276605606079102,466.3446742272626,304.9656191855966,-72.55826586513315,-103.61355518330714,9.045294663351099,300,0,30,0.9164946330695862,-0.806257514299696,97.76407660951759,-2.9036289531634325,-0.3652931105946039,-4.522647331675549,0.5268709735590035
GUIDED_NOGPS,0.0838468074798584,934.5597147950089,305.6814388069195,-72.70458871416916,-103.90972527643095,9.18598690178912,300,0,30,0.9164946330695862,-0.806257514299696,97.76407660951759,-2.9173657396548807,-0.48702524830429156,-4.59299345089456,0.5271397105812791
GUIDED_NOGPS,0.10177922248840332,55.80426018812948,305.0233751768233,-72.46706516446697,-103.68915394114094,9.624727717420871,300,0,30,0.8558975682792034,-0.8114141470404971,97.81496151883418,-2.904577130621674,-0.39268628586110027,-4.812363858710436,0.5269726050853027
GUIDED_NOGPS,0.10810470581054688,158.99560272934042,304.33382589286134,-72.22201950010752,-103.4085328811163,10.027364137461806,300,0,30,0.8558975682792034,-0.8114141470404971,97.81496151883418,-2.886722671499448,-0.29159208816072535,-5.013682068730903,0.5267305492673044
GUIDED_NOGPS,0.11216068267822266,245.87044961603846,304.1752432004426,-72.12909566010738,-103.3549699233502,10.453066175911832,300,0,30,0.8558975682792034,-0.8114141470404971,97.81496151883418,-2.8919587016249784,-0.3268723754628761,-5.226533087955916,0.5269398897631997
GUIDED_NOGPS,0.11365866661071777,670.5521982414069,305.3134167279496,-72.28582272686957,-103.79207547781478,10.894281547279121,300,0,30,0.8558975682792034,-0.8114141470404971,97.81496151883418,-2.904363173815809,-0.49980712536350735,-5.4471407736395605,0.5273446933735682
GUIDED_NOGPS,0.11510777473449707,693.1588167245084,305.92965333819353,-72.29071881415956,-104.07830227651846,11.301109119152754,300,0,30,0.8558975682792034,-0.8114141470404971,97.81496151883418,-2.899311564567719,-0.505936006222997,-5.650554559576377,0.5272702360396725
GUIDED_NOGPS,0.11711931228637695,505.5814850530376,304.70798304916303,-71.89147578885745,-103.75350338023799,11.70292078419052,300,0,30,0.8558975682792034,-0.8114141470404971,97.81496151883418,-2.8693458519180983,-0.2859209083658977,-5.85146039209526,0.526810660864646
GUIDED_NOGPS,0.11967349052429199,392.02766613702215,304.04685644786747,-71.71772191600728,-103.5872712812017,12.025312858072203,300,0,30,0.7761709045317602,-0.8230838987634341,97.86798427736099,-2.8729634454357194,-0.2913495649619073,-6.0126564290361015,0.5269428397778443
GUIDED_NOGPS,0.12568998336791992,166.4538455432971,304.6720866157656,-71.84037159927534,-103.90918597465334,12.39438211252372,300,0,30,0.7761709045317602,-0.8230838987634341,97.86798427736099,-2.8828463697044104,-0.3782736809897719,-6.19719105626186,0.527142733330178
GUIDED_NOGPS,0.14880895614624023,43.266564198842595,305.9748093149435,-72.09005631048568,-104.45287101904735,12.805574901004785,300,0,30,0.5573682490696347,-0.8376548266971869,97.9612095293425,-2.894094778904808,-0.4785906703984054,-6.402787450502393,0.5272873078673503
GUIDED_NOGPS,0.15085077285766602,491.2513469196533,306.7937268541516,-72.24856376544058,-104.81465262246877,12.805760463351758,300,0,30,0.5573682490696347,-0.8376548266971869,97.9612095293425,-2.90522785984085,-0.5924593272051077,-6.402880231675879,0.5275786556006956
GUIDED_NOGPS,0.1530437469482422,458.44398294895615,306.1534965904787,-72.01052936959549,-104.65895394017197,12.815983728493999,300,0,30,0.5573682490696347,-0.8376548266971869,97.9612095293425,-2.884792928311473,-0.4559237922170572,-6.407991864246999,0.527238392097168
GUIDED_NOGPS,0.15454339981079102,670.4450127877238,305.46997126145806,-71.7662514254785,-104.46400690601276,12.75472018425182,300,0,30,0.5573682490696347,-0.8376548266971869,97.9612095293425,-2.8753669911873,-0.4010615590384886,-6.37736009212591,0.5271914267676697
GUIDED_NOGPS,0.15568995475769043,877.1024675867837,304.7567324651133,-71.51329002218034,-104.25284010665138,12.761408812036235,300,0,30,0.5573682490696347,-0.8376548266971869,97.9612095293425,-2.861126665757455,-0.32001194571812347,-6.3807044060181175,0.5270781362624026
GUIDED_NOGPS,0.15691924095153809,820.1611263199061,304.75673246511326,-71.51329002218033,-104.25284010665138,12.731297314647655,300,0,30,0.5573682490696347,-0.8376548266971869,97.9612095293425,-2.8710722560884565,-0.3756583872242888,-6.365648657323828,0.5272458416892116
GUIDED_NOGPS,0.15812349319458008,834.189339697693,304.75673246511326,-71.51329002218033,-104.25284010665138,12.712829214330515,300,0,30,0.5573682490696347,-0.8376548266971869,97.9612095293425,-2.8711629626044646,-0.375670453978022,-6.356414607165258,0.5272492473799263
GUIDED_NOGPS,0.15921235084533691,925.6905760317811,304.75673246511326,-71.51329002218033,-104.25284010665138,12.632669659171283,300,0,30,0.5573682490696347,-0.8376548266971869,97.9612095293425,-2.871244768969842,-0.3756813367382452,-6.316334829585641,0.5272523189032438
GUIDED_NOGPS,0.16035056114196777,886.9325438781983,304.75673246511326,-71.51329002218033,-104.25284010665138,12.635902143948522,300,0,30,0.5573682490696347,-0.8376548266971869,97.9612095293425,-2.8713225003620373,-0.37569167740182535,-6.317951071974261,0.5272552374265461
GUIDED_NOGPS,0.16137957572937012,978.834072345391,304.75673246511326,-71.51329002218033,-104.25284010665138,12.641820371616152,300,0,30,0.5573682490696347,-0.8376548266971869,97.9612095293425,-2.8714049887312942,-0.3757026508895202,-6.320910185808076,0.5272583345565607
GUIDED_NOGPS,0.1624906063079834,906.4845472228226,304.75673246511326,-71.51329002218033,-104.25284010665138,12.647738599283782,300,0,30,0.5573682490696347,-0.8376548266971869,97.9612095293425,-2.8714793271541876,-0.37571254018392897,-6.323869299641891,0.5272611256865449
GUIDED_NOGPS,0.16364121437072754,874.906967042136,304.75673246511326,-71.51329002218033,-104.25284010665138,12.628341602040479,300,0,30,0.5573682490696347,-0.8376548266971869,97.9612095293425,-2.871556751644637,-0.3757228400201469,-6.314170801020239,0.5272640326868335
GUIDED_NOGPS,0.16508722305297852,696.9597873047524,304.75673246511326,-71.51329002218033,-104.25284010665138,12.59934411025165,300,0,30,0.5573682490696347,-0.8376548266971869,97.9612095293425,-2.8716403994204898,-0.3757339677445435,-6.299672055125825,0.5272671733482331
GUIDED_NOGPS,0.1851058006286621,49.97145376128863,304.75673246511326,-71.51329002218033,-104.25284010665138,12.573219838313726,300,0,30,-0.29427864702914647,-1.0973226106852045,98.17883301667744,-2.872461736692883,-0.3758432308386394,-6.286609919156863,0.5272980114935542
GUIDED_NOGPS,0.18662691116333008,658.9637077769049,304.75673246511326,-71.51329002218033,-104.25284010665138,12.575668054323335,300,0,30,-0.29427864702914647,-1.0973226106852045,98.17883301667744,-2.873208104688794,-0.37594252071541534,-6.287834027161668,0.527326034822696
GUIDED_NOGPS,0.1931009292602539,154.6629300490431,304.75673246511326,-71.51329002218033,-104.25284010665138,12.529520352841143,300,0,30,-0.29427864702914647,-1.0973226106852045,98.17883301667744,-2.8736381763353696,-0.3759997334590314,-6.264760176420571,0.5273421824058891
GUIDED_NOGPS,0.1954507827758789,426.85772440464075,304.75673246511326,-71.51329002218033,-104.25284010665138,12.451841462470053,300,0,30,-0.29427864702914647,-1.0973226106852045,98.17883301667744,-2.873753690742504,-0.37601510042454045,-6.225920731235027,0.527346519540211
GUIDED_NOGPS,0.19724559783935547,559.5389541088581,304.75673246511326,-71.51329002218033,-104.25284010665138,12.419827974246893,300,0,30,-0.29427864702914647,-1.0973226106852045,98.17883301667744,-2.8739157860146256,-0.37603666407636244,-6.209913987123446,0.5273526056119449
GUIDED_NOGPS,0.19854116439819336,776.5791520088873,304.75673246511326,-71.51329002218033,-104.25284010665138,12.339353451673436,300,0,30,-0.29427864702914647,-1.0973226106852045,98.17883301667744,-2.8740529881451358,-0.3760549161754696,-6.169676725836718,0.5273577570392345
GUIDED_NOGPS,0.2015247344970703,336.2437069103736,304.75673246511326,-71.51329002218033,-104.25284010665138,12.273670996017815,300,0,30,-0.29427864702914647,-1.0973226106852045,98.17883301667744,-2.8742007272355887,-0.3760745700140136,-6.1368354980089075,0.5273633040899944
GUIDED_NOGPS,0.21823906898498535,59.87415063095986,304.75673246511326,-71.51329002218033,-104.25284010665138,12.251380897310964,300,0,30,-0.4814519771054123,-1.1296003771553922,98.22715660505528,-2.875459740497817,-0.3762420574630344,-6.125690448655482,0.5274105753331811
GUIDED_NOGPS,0.22000622749328613,567.3345056134181,304.75673246511326,-71.51329002218033,-104.25284010665138,12.219160263778283,300,0,30,-0.4814519771054123,-1.1296003771553922,98.22715660505528,-2.8755841209553883,-0.3762586038856747,-6.109580131889142,0.5274152453545653
GUIDED_NOGPS,0.2230830192565918,325.92307094568343,304.75673246511326,-71.51329002218033,-104.25284010665138,12.190400875163574,300,0,30,-0.4814519771054123,-1.1296003771553922,98.22715660505528,-2.875669712442298,-0.37626999018336554,-6.095200437581787,0.5274184589950517
GUIDED_NOGPS,0.22517681121826172,478.8564904669483,304.75673246511326,-71.51329002218033,-104.25284010665138,12.197745882139682,300,0,30,-0.4814519771054123,-1.1296003771553922,98.22715660505528,-2.8759110736153444,-0.3763020986355789,-6.098872941069841,0.5274275212051565
GUIDED_NOGPS,0.22639226913452148,830.8843106180666,304.75673246511326,-71.51329002218033,-104.25284010665138,12.182025270706697,300,0,30,-0.4814519771054123,-1.1296003771553922,98.22715660505528,-2.8760440473218005,-0.3763197882243619,-6.091012635353349,0.527432513870924
GUIDED_NOGPS,0.22869038581848145,436.8611602958025,304.75673246511326,-71.51329002218033,-104.25284010665138,12.150791326356451,300,0,30,-0.6416080136720167,-1.2432318864993672,98.2612733999595,-2.87613814680711,-0.3763323063472614,-6.0753956631782255,0.5274360469549568
GUIDED_NOGPS,0.23164892196655273,338.9336565656566,304.75673246511326,-71.51329002218033,-104.25284010665138,12.15394518149986,300,0,30,-0.6416080136720167,-1.2432318864993672,98.2612733999595,-2.8764113575613415,-0.3763686517724003,-6.07697259074993,0.5274463049978162
GUIDED_NOGPS,0.24558496475219727,71.80920748514784,304.75673246511326,-71.51329002218033,-104.25284010665138,12.162114943479136,300,0,30,-0.8059073070221743,-1.2989730603158411,98.3062570258332,-2.8765058491988817,-0.37638122206359603,-6.081057471739568,0.5274498528056998
GUIDED_NOGPS,0.2478330135345459,446.15508988405486,304.75673246511326,-71.51329002218033,-104.25284010665138,12.249704296614492,300,0,30,-0.8059073070221743,-1.2989730603158411,98.3062570258332,-2.8775690761973287,-0.3765226639236958,-6.124852148307246,0.5274897730063157
GUIDED_NOGPS,0.24993109703063965,478.58329529895025,304.75673246511326,-71.51329002218033,-104.25284010665138,12.290616469180017,300,0,30,-0.9626199677517402,-1.3522812994056157,98.35908170887409,-2.8777176336924373,-0.37654242663520576,-6.145308234590009,0.5274953507851122
GUIDED_NOGPS,0.2519216537475586,504.3049176385716,304.75673246511326,-71.51329002218033,-104.25284010665138,12.289405107715993,300,0,30,-0.9626199677517402,-1.3522812994056157,98.35908170887409,-2.8778356885640233,-0.3765581315605466,-6.1447025538579965,0.5274997833043807
GUIDED_NOGPS,0.25386619567871094,516.2220307692307,304.75673246511326,-71.51329002218033,-104.25284010665138,12.299442810511263,300,0,30,-0.9626199677517402,-1.3522812994056157,98.35908170887409,-2.877986530772129,-0.3765781982090866,-6.149721405255631,0.5275054468656124
GUIDED_NOGPS,0.25659751892089844,367.2127473297146,304.75673246511326,-71.51329002218033,-104.25284010665138,12.299442810511263,300,0,30,-0.9626199677517402,-1.3522812994056157,98.35908170887409,-2.8781369126276157,-0.3765982036165832,-6.149721405255631,0.5275110931423236
GUIDED_NOGPS,0.25986194610595703,306.870354111794,304.75673246511326,-71.51329002218033,-104.25284010665138,12.299442810511263,300,0,30,-1.080379792840459,-1.41162112914104,98.40875767470759,-2.878338495924375,-0.37662502038901313,-6.149721405255631,0.5275186618418197
GUIDED_NOGPS,0.26134634017944336,679.4595820508666,304.75673246511326,-71.51329002218033,-104.25284010665138,12.299442810511263,300,0,30,-1.080379792840459,-1.41162112914104,98.40875767470759,-2.878546609408284,-0.3766527058769841,-6.149721405255631,0.5275264757254408
GUIDED_NOGPS,0.26389026641845703,393.8313615023474,304.75673246511326,-71.51329002218033,-104.25284010665138,12.299442810511263,300,0,30,-1.080379792840459,-1.41162112914104,98.40875767470759,-2.8786601801043603,-0.3766678142691989,-6.149721405255631,0.5275307398806758
GUIDED_NOGPS,0.2658045291900635,524.1569607598101,304.75673246511326,-71.51329002218033,-104.25284010665138,12.299442810511263,300,0,30,-1.1670632177009717,-1.4708927637064704,98.4470886963297,-2.878810988212272,-0.37668787638136525,-6.149721405255631,0.5275364021615726
GUIDED_NOGPS,0.27312350273132324,136.80052185257665,304.75673246511326,-71.51329002218033,-104.25284010665138,12.299442810511263,300,0,30,-1.2941905405146572,-1.5609936310295167,98.51668149378295,-2.8789522653159643,-0.3767066705771155,-6.149721405255631,0.5275417065888774
GUIDED_NOGPS,0.2788262367248535,175.6335161844144,304.75673246511326,-71.51329002218033,-104.25284010665138,12.299442810511263,300,0,30,-1.2941905405146572,-1.5609936310295167,98.51668149378295,-2.879766629098687,-0.37681500598281387,-6.149721405255631,0.5275722829057206
GUIDED_NOGPS,0.28742527961730957,116.40174284683485,304.75673246511326,-71.51329002218033,-104.25284010665138,12.299442810511263,300,0,30,-1.35100565485641,-1.6170106804554358,98.55245802465548,-2.880323587567092,-0.37688909857252856,-6.149721405255631,0.5275931946149096
GUIDED_NOGPS,0.2904808521270752,328.2184834494092,304.75673246511326,-71.51329002218033,-104.25284010665138,12.299442810511263,300,0,30,-1.375580035159881,-1.6676165125114122,98.59443636729438,-2.88052614271938,-0.3769160446316056,-6.149721405255631,0.5276007998039491
GUIDED_NOGPS,0.29347944259643555,334.4206665603572,304.75673246511326,-71.51329002218033,-104.25284010665138,12.299442810511263,300,0,30,-1.375580035159881,-1.6676165125114122,98.59443636729438,-2.8807320226405824,-0.3769434329871069,-6.149721405255631,0.5276085298256371
GUIDED_NOGPS,0.29526400566101074,562.7672078357708,304.75673246511326,-71.51329002218033,-104.25284010665138,12.299442810511263,300,0,30,-1.375580035159881,-1.6676165125114122,98.59443636729438,-2.8809453193539767,-0.3769718080038623,-6.149721405255631,0.5276165383201561
GUIDED_NOGPS,0.2979755401611328,370.09653225094854,304.75673246511326,-71.51329002218033,-104.25284010665138,12.299442810511263,300,0,30,-1.3856943713819063,-1.7185540356289575,98.64115486121727,-2.8811100062408417,-0.37699371642007656,-6.149721405255631,0.5276227216973389
GUIDED_NOGPS,0.29975461959838867,564.1296570275723,304.75673246511326,-71.51329002218033,-104.25284010665138,12.299442810511263,300,0,30,-1.3856943713819063,-1.7185540356289575,98.64115486121727,-2.8812428435465214,-0.3770113878633652,-6.149721405255631,0.5276277092417672
GUIDED_NOGPS,0.3025791645050049,357.3269722269552,305.46709240115035,-71.87463402938947,-104.15871217666505,12.336210621633208,300,0,30,-1.3856943713819063,-1.7185540356289575,98.64115486121727,-2.9050663109980603,-0.4701478567854842,-6.168105310816604,0.527566054403233
GUIDED_NOGPS,0.3058054447174072,309.7713441654357,306.72474257544064,-72.51014517891419,-103.96294427091983,12.333093529190092,300,0,30,-1.3957188479276637,-1.747326741116165,98.69641109160267,-2.9298631250249736,-0.567489338353928,-6.166546764595046,0.52753389167532
GUIDED_NOGPS,0.3077554702758789,514.3860681873927,306.6597037378569,-72.88720782742227,-103.278806939669,12.335606129461882,300,0,30,-1.3957188479276637,-1.747326741116165,98.69641109160267,-2.9459675202923603,-0.52617487601903,-6.167803064730941,0.5271199454528129
GUIDED_NOGPS,0.3091163635253906,900.6450504616706,306.5427684375227,-73.028348096963,-102.95647069095146,12.370330504522293,300,0,30,-1.3957188479276637,-1.747326741116165,98.69641109160267,-2.946261320193872,-0.5138707068456372,-6.185165252261147,0.527224944621344
GUIDED_NOGPS,0.3115830421447754,371.4403117251151,305.35949794050555,-72.74127972248813,-102.84024744218624,12.436968166519666,300,0,30,-1.3797581899412248,-1.7784221378080003,98.75138728423211,-2.923433319664758,-0.3613304002791913,-6.218484083259833,0.5273131845286403
GUIDED_NOGPS,0.3278369903564453,61.65374099661914,305.4989164553624,-72.71265984902986,-103.21239361892663,12.503605828517037,300,0,30,-1.3797581899412248,-1.7784221378080003,98.75138728423211,-2.9311120044952372,-0.43758920029478393,-6.251802914258518,0.5275161126712089
GUIDED_NOGPS,0.33835434913635254,95.05504815864023,304.97987149693273,-72.55861834732984,-103.31686664312004,12.570243490514407,300,0,30,-1.2671813044937823,-2.0030210625545277,98.8537035179989,-2.9252724456996932,-0.3909815689073353,-6.285121745257204,0.5275541184331943
GUIDED_NOGPS,0.33987903594970703,659.0672532998115,304.97987149693273,-72.55861834732984,-103.31686664312004,12.63688115251178,300,0,30,-1.2671813044937823,-2.0030210625545277,98.8537035179989,-2.926007798469006,-0.3953131097324119,-6.31844057625589,0.5275488995407154
GUIDED_NOGPS,0.34129905700683594,707.8994092827004,304.97987149693273,-72.55861834732984,-103.31686664312004,12.70351881450915,300,0,30,-1.2671813044937823,-2.0030210625545277,98.8537035179989,-2.9261045362814766,-0.39532638842723744,-6.351759407254575,0.5275524543994871
GUIDED_NOGPS,0.34276318550109863,685.6799084518555,304.97987149693273,-72.55861834732984,-103.31686664312004,12.770156476506521,300,0,30,-1.2671813044937823,-2.0030210625545277,98.8537035179989,-2.926210460034295,-0.3953409280281704,-6.385078238253261,0.5275563468172729
GUIDED_NOGPS,0.34644389152526855,272.41046957199455,304.97987149693273,-72.55861834732984,-103.31686664312004,12.836794138503894,300,0,30,-1.23977911915222,-2.054082062685662,98.89958872884304,-2.9263033054991614,-0.3953536724407471,-6.418397069251947,0.527559758642564
GUIDED_NOGPS,0.34871768951416016,441.9243493836266,304.97987149693273,-72.55861834732984,-103.31686664312004,12.903431800501265,300,0,30,-1.23977911915222,-2.054082062685662,98.89958872884304,-2.9265961138349774,-0.3953938647133897,-6.451715900250632,0.5275705185745326
GUIDED_NOGPS,0.35050487518310547,561.5616548400053,304.97987149693273,-72.55861834732984,-103.31686664312004,12.970069462498635,300,0,30,-1.23977911915222,-2.054082062685662,98.89958872884304,-2.9267498875143505,-0.3954149724241023,-6.485034731249318,0.5275761693505736
GUIDED_NOGPS,0.3516559600830078,874.5421184320267,304.97987149693273,-72.55861834732984,-103.31686664312004,13.036707124496008,300,0,30,-1.23977911915222,-2.054082062685662,98.89958872884304,-2.9268649280102252,-0.3954307634327915,-6.518353562248004,0.5275803967845564
GUIDED_NOGPS,0.36745214462280273,63.33893083660526,304.97987149693273,-72.55861834732984,-103.31686664312004,13.103344786493379,300,0,30,-1.23977911915222,-2.054082062685662,98.89958872884304,-2.927864119589358,-0.3955679172479615,-6.551672393246689,0.5276171144325879
GUIDED_NOGPS,0.3692951202392578,544.8563263185243,304.97987149693273,-72.55861834732984,-103.31686664312004,13.16998244849075,300,0,30,-1.23977911915222,-2.054082062685662,98.89958872884304,-2.928121031830597,-0.3956031822509755,-6.584991224245375,0.527626555278013
GUIDED_NOGPS,0.37038230895996094,927.3278797258457,304.97987149693273,-72.55861834732984,-103.31686664312004,13.236620110488122,300,0,30,-1.23977911915222,-2.054082062685662,98.89958872884304,-2.928232837353129,-0.3956185292117512,-6.618310055244061,0.5276306638352808
GUIDED_NOGPS,0.3713347911834717,1055.7019884218475,304.97987149693273,-72.55861834732984,-103.31686664312004,13.303257772485493,300,0,30,-1.23977911915222,-2.054082062685662,98.89958872884304,-2.928303781875472,-0.39562826739620754,-6.651628886242746,0.5276332708588541
GUIDED_NOGPS,0.3724184036254883,931.8604754499,304.97987149693273,-72.55861834732984,-103.31686664312004,13.369895434482864,300,0,30,-1.23977911915222,-2.054082062685662,98.89958872884304,-2.928371422227182,-0.39563755203439926,-6.684947717241432,0.5276357564628952
GUIDED_NOGPS,0.3750877380371094,375.5981015492075,304.97987149693273,-72.55861834732984,-103.31686664312004,13.436533096480236,300,0,30,-1.2357404496403326,-2.095628395859557,98.95003650605275,-2.928493053765001,-0.3956542477610299,-6.718266548240118,0.5276402261002384
GUIDED_NOGPS,0.37753939628601074,409.20039024390246,304.97987149693273,-72.55861834732984,-103.31686664312004,13.503170758477607,300,0,30,-1.2357404496403326,-2.095628395859557,98.95003650605275,-2.928745727672181,-0.3956889309900396,-6.751585379238803,0.5276495111980958
GUIDED_NOGPS,0.3796863555908203,466.96771320418617,304.97987149693273,-72.55861834732984,-103.31686664312004,13.569808420474978,300,0,30,-1.2357404496403326,-2.095628395859557,98.95003650605275,-2.928837258388523,-0.3957014949339456,-6.784904210237489,0.5276528747098557
GUIDED_NOGPS,0.3816506862640381,511.3134219188102,304.97987149693273,-72.55861834732984,-103.31686664312004,13.63644608247235,300,0,30,-1.2357404496403326,-2.095628395859557,98.95003650605275,-2.928978801446756,-0.39572092381110274,-6.818223041236175,0.5276580760429153
GUIDED_NOGPS,0.382735013961792,933.311971517579,304.97987149693273,-72.55861834732984,-103.31686664312004,13.70308374446972,300,0,30,-1.2357404496403326,-2.095628395859557,98.95003650605275,-2.929122714512197,-0.3957406780067848,-6.85154187223486,0.527663364467472
GUIDED_NOGPS,0.39746689796447754,67.92725152638995,304.97987149693273,-72.55861834732984,-103.31686664312004,13.769721406467092,300,0,30,-1.2357404496403326,-2.095628395859557,98.95003650605275,-2.929198987225928,-0.39575114756427515,-6.884860703233546,0.5276661672879878
GUIDED_NOGPS,0.4000370502471924,393.68349915524686,304.97987149693273,-72.55861834732984,-103.31686664312004,13.836359068464464,300,0,30,-1.2053088619584582,-2.1540184024135267,98.9880191880272,-2.9303317468755345,-0.395906635571639,-6.918179534232232,0.5277077932093697
GUIDED_NOGPS,0.40642547607421875,156.3638532657322,304.97987149693273,-72.55861834732984,-103.31686664312004,13.902996730461835,300,0,30,-1.2053088619584582,-2.1540184024135267,98.9880191880272,-2.9308001087379876,-0.3959709251610002,-6.9514983652309175,0.5277250042691665
GUIDED_NOGPS,0.409027099609375,385.6831264367816,304.97987149693273,-72.55861834732984,-103.31686664312004,13.969634392459206,300,0,30,-1.2053088619584582,-2.1540184024135267,98.9880191880272,-2.931028321402887,-0.39600225072289913,-6.984817196229603,0.5277333904810613
GUIDED_NOGPS,0.41396188735961914,203.03533739955466,304.97987149693273,-72.55861834732984,-103.31686664312004,14.036272054456578,300,0,30,-1.2053088619584582,-2.1540184024135267,98.9880191880272,-2.9311301452162284,-0.39601622754652993,-7.018136027228289,0.5277371322369143
GUIDED_NOGPS,0.41716861724853516,312.40160881871,304.97987149693273,-72.55861834732984,-103.31686664312004,14.102909716453949,300,0,30,-1.2053088619584582,-2.1540184024135267,98.9880191880272,-2.931540398653773,-0.3960725408955622,-7.0514548582269745,0.5277522079657715
GUIDED_NOGPS,0.419506311416626,429.4362649738917,304.97987149693273,-72.55861834732984,-103.31686664312004,14.132779567329374,300,0,30,-1.2053088619584582,-2.1540184024135267,98.9880191880272,-2.931723944467492,-0.3960977352718318,-7.066389783664687,0.5277589527890132
GUIDED_NOGPS,0.4322795867919922,78.89962377727615,304.97987149693273,-72.55861834732984,-103.31686664312004,14.202534321769859,300,0,30,-1.2053088619584582,-2.1540184024135267,98.9880191880272,-2.9325850182542843,-0.3962159303782236,-7.101267160884929,0.5277905949734478
GUIDED_NOGPS,0.4351844787597656,337.16270096463023,304.97987149693273,-72.55861834732984,-103.31686664312004,14.266659383495442,300,0,30,-1.2053088619584582,-2.1540184024135267,98.9880191880272,-2.932831014622907,-0.396249697016353,-7.133329691747721,0.5277996346894229
GUIDED_NOGPS,0.4417400360107422,152.67003967531758,304.97987149693273,-72.55861834732984,-103.31686664312004,14.298572670432401,300,0,30,-1.2053088619584582,-2.1540184024135267,98.9880191880272,-2.933016013579732,-0.3962750908579955,-7.149286335216201,0.5278064329118307
GUIDED_NOGPS,0.44436192512512207,382.27342325920523,304.97987149693273,-72.55861834732984,-103.31686664312004,14.298572670432403,300,0,30,-1.2053088619584582,-2.1540184024135267,98.9880191880272,-2.9334853961022236,-0.39633952054803523,-7.1492863352162015,0.5278236814781846
GUIDED_NOGPS,0.45604681968688965,85.6592259777392,304.97987149693273,-72.55861834732984,-103.31686664312004,14.298572670432403,300,0,30,-1.1797162498601261,-2.2032811418022438,99.00025205683069,-2.9344141448393715,-0.39646700504179433,-7.1492863352162015,0.527857810538069
GUIDED_NOGPS,0.46998047828674316,71.79199972613526,304.97987149693273,-72.55861834732984,-103.31686664312004,14.298572670432403,300,0,30,-1.092428459979773,-2.3159835319756854,99.0364179084859,-2.9354309471290003,-0.39660657618731704,-7.1492863352162015,0.5278951753331372
GUIDED_NOGPS,0.47515249252319336,193.77703857703858,304.97987149693273,-72.55861834732984,-103.31686664312004,14.298572670432403,300,0,30,-1.092428459979773,-2.3159835319756854,99.0364179084859,-2.935552595966142,-0.39662327428853544,-7.1492863352162015,0.5278996456061849
GUIDED_NOGPS,0.47777628898620605,381.8905581353,304.97987149693273,-72.55861834732984,-103.31686664312004,14.298572670432403,300,0,30,-1.092428459979773,-2.3159835319756854,99.0364179084859,-2.935981688366094,-0.3966821735636523,-7.1492863352162015,0.5279154136170883
GUIDED_NOGPS,0.4800422191619873,443.5600676818951,304.97987149693273,-72.55861834732984,-103.31686664312004,14.298572670432403,300,0,30,-1.0528521027728976,-2.396764179289426,99.06481783505482,-2.936148765224614,-0.39670510733236214,-7.1492863352162015,0.5279215532497807
GUIDED_NOGPS,0.48238372802734375,428.07756685037765,304.97987149693273,-72.55861834732984,-103.31686664312004,14.298572670432403,300,0,30,-1.0528521027728976,-2.396764179289426,99.06481783505482,-2.936354938552409,-0.39673340766943854,-7.1492863352162015,0.527929129574323
GUIDED_NOGPS,0.484694242477417,435.0035262393694,304.97987149693273,-72.55861834732984,-103.31686664312004,14.298572670432403,300,0,30,-1.0528521027728976,-2.396764179289426,99.06481783505482,-2.9364271286259855,-0.39674331682421454,-7.1492863352162015,0.5279317823686103
GUIDED_NOGPS,0.5051627159118652,48.87213068910069,304.97987149693273,-72.55861834732984,-103.31686664312004,14.298572670432403,300,0,30,-1.0520845602649176,-2.4676180004182,99.08826587447547,-2.936608114139947,-0.3967681597614937,-7.1492863352162015,0.5279384331076069
GUIDED_NOGPS,0.5062990188598633,891.0779689823667,304.97987149693273,-72.55861834732984,-103.31686664312004,14.298572670432403,300,0,30,-1.0520845602649176,-2.4676180004182,99.08826587447547,-2.9380852514063025,-0.396970918687651,-7.1492863352162015,0.5279927139956496
GUIDED_NOGPS,0.5073163509368896,986.4308560677329,304.97987149693273,-72.55861834732984,-103.31686664312004,14.298572670432403,300,0,30,-1.0520845602649176,-2.4676180004182,99.08826587447547,-2.938163288650948,-0.39698163045309415,-7.1492863352162015,0.52799558165801
GUIDED_NOGPS,0.5087871551513672,683.8910810370129,304.97987149693273,-72.55861834732984,-103.31686664312004,14.298572670432403,300,0,30,-1.0520845602649176,-2.4676180004182,99.08826587447547,-2.9382357036157196,-0.39699157047751116,-7.1492863352162015,0.5279982427164538
GUIDED_NOGPS,0.5104115009307861,618.2641509433962,304.97987149693273,-72.55861834732984,-103.31686664312004,14.298572670432403,300,0,30,-1.0520845602649176,-2.4676180004182,99.08826587447547,-2.9383448969405257,-0.39700655887553316,-7.1492863352162015,0.5280022552823634
GUIDED_NOGPS,0.5117635726928711,743.53908881404,304.97987149693273,-72.55861834732984,-103.31686664312004,14.298572670432403,300,0,30,-1.0520845602649176,-2.4676180004182,99.08826587447547,-2.938461753865283,-0.3970225992159385,-7.1492863352162015,0.5280065494653038
GUIDED_NOGPS,0.5251517295837402,74.7368008410399,304.97987149693273,-72.55861834732984,-103.31686664312004,14.298572670432403,300,0,30,-0.9225543982455627,-2.853288046997555,99.13163074551588,-2.9394364496034897,-0.39715639061482216,-7.1492863352162015,0.5280423669559638
GUIDED_NOGPS,0.5286788940429688,287.61599122265653,304.97987149693273,-72.55861834732984,-103.31686664312004,14.298572670432403,300,0,30,-0.9225543982455627,-2.853288046997555,99.13163074551588,-2.939533152817315,-0.3971696645604722,-7.1492863352162015,0.5280459205433268
GUIDED_NOGPS,0.5410566329956055,80.68141422690725,304.97987149693273,-72.55861834732984,-103.31686664312004,14.298572670432403,300,0,30,-0.9225543982455627,-2.853288046997555,99.13163074551588,-2.9399274562793414,-0.39722378853957796,-7.1492863352162015,0.5280604101527657
GUIDED_NOGPS,0.5443251132965088,306.6235835952921,304.97987149693273,-72.55861834732984,-103.31686664312004,14.298572670432403,300,0,30,-0.9225543982455627,-2.853288046997555,99.13163074551588,-2.9407316498931357,-0.3973341760013728,-7.1492863352162015,0.5280899621412702
GUIDED_NOGPS,0.5470089912414551,373.62408694102976,304.97987149693273,-72.55861834732984,-103.31686664312004,14.298572670432403,300,0,30,-0.9379125054811596,-2.890872016679196,99.12288810337827,-2.9409543440740977,-0.3973647440697722,-7.1492863352162015,0.5280981455634748
GUIDED_NOGPS,0.5530288219451904,166.55299209784377,304.97987149693273,-72.55861834732984,-103.31686664312004,14.298572670432403,300,0,30,-0.9340809828001939,-2.888827655683247,99.10379772464809,-2.9411381147790117,-0.3973899693156828,-7.1492863352162015,0.5281048986508731
GUIDED_NOGPS,0.5612196922302246,122.1547064305685,304.97987149693273,-72.55861834732984,-103.31686664312004,14.298572670432403,300,0,30,-0.9340809828001939,-2.888827655683247,99.10379772464809,-2.941564127899525,-0.3974484459141761,-7.1492863352162015,0.5281205535064006
GUIDED_NOGPS,0.562840461730957,621.1023248926404,304.97987149693273,-72.55861834732984,-103.31686664312004,14.298572670432403,300,0,30,-0.9340809828001939,-2.888827655683247,99.10379772464809,-2.9421787901339505,-0.397532817392332,-7.1492863352162015,0.5281431407179557
GUIDED_NOGPS,0.5639581680297852,901.2256123764504,304.97987149693273,-72.55861834732984,-103.31686664312004,14.298572670432403,300,0,30,-0.9340809828001939,-2.888827655683247,99.10379772464809,-2.942265667332489,-0.3975447425721271,-7.1492863352162015,0.5281463332252431
GUIDED_NOGPS,0.5651760101318359,826.9526813880126,304.97987149693273,-72.55861834732984,-103.31686664312004,14.298572670432403,300,0,30,-0.9340809828001939,-2.888827655683247,99.10379772464809,-2.9423512816804718,-0.39755649440701474,-7.1492863352162015,0.5281494793261123
GUIDED_NOGPS,0.5662984848022461,897.9456219225005,304.97987149693273,-72.55861834732984,-103.31686664312004,14.298572670432403,300,0,30,-0.9340809828001939,-2.888827655683247,99.10379772464809,-2.9424346125178595,-0.39756793279631636,-7.1492863352162015,0.5281525415140064
GUIDED_NOGPS,0.5673537254333496,954.9872495446266,304.97987149693273,-72.55861834732984,-103.31686664312004,14.298572670432403,300,0,30,-0.9340809828001939,-2.888827655683247,99.10379772464809,-2.942515019769713,-0.3975789698802844,-7.1492863352162015,0.5281554962678637
GUIDED_NOGPS,0.5685670375823975,830.2264449722882,304.97987149693273,-72.55861834732984,-103.31686664312004,14.298572670432403,300,0,30,-0.9340809828001939,-2.888827655683247,99.10379772464809,-2.9425908427010543,-0.3975893776984927,-7.1492863352162015,0.5281582825600661
GUIDED_NOGPS,0.5794594287872314,91.8614949955102,304.97987149693273,-72.55861834732984,-103.31686664312004,14.298572670432403,300,0,30,-0.9005128441854027,-2.881617537240652,99.05841111761335,-2.9433289010042127,-0.397690687111232,-7.1492863352162015,0.528185404250809
GUIDED_NOGPS,0.5858206748962402,157.39067131974934,304.97987149693273,-72.55861834732984,-103.31686664312004,14.298572670432403,300,0,30,-0.9005128441854027,-2.881617537240652,99.05841111761335,-2.9438063277117545,-0.39775622098458613,-7.1492863352162015,0.5282029484196895
GUIDED_NOGPS,0.587965726852417,467.27985739750443,305.0604393849184,-73.6544465813039,-103.49333457791853,14.260762730901725,300,0,30,-0.9005128441854027,-2.881617537240652,99.05841111761335,-3.0155666134780117,-0.40830679391937535,-7.130381365450862,0.5283329852899056
GUIDED_NOGPS,0.5919523239135742,251.51739026145358,305.1029252318688,-74.85365505768443,-102.85112728706129,14.200245178095308,300,0,30,-0.9005128441854027,-2.881617537240652,99.05841111761335,-3.0633511762668304,-0.4095866994749315,-7.100122589047654,0.527827035235913
GUIDED_NOGPS,0.5945508480072021,386.96411108035795,304.5330017397527,-76.26322158246559,-101.32172273493893,14.14455162513094,300,0,30,-0.8372019531387033,-2.8711810081888727,99.02857685131873,-3.111315781724023,-0.3469374067464558,-7.07227581256547,0.5274184389354032
GUIDED_NOGPS,0.6021785736083984,131.28533867534745,303.75051117640794,-76.70864266437407,-99.81299097692606,14.116470089876767,300,0,30,-0.7985923878645022,-2.811687926083946,98.98083382902034,-3.1135706675942614,-0.29084422301506696,-7.0582350449383835,0.5273785812731224
GUIDED_NOGPS,0.6036484241485596,684.2257748776509,303.02161114693405,-77.16810021451012,-99.67863773253923,14.084132016124363,300,0,30,-0.7985923878645022,-2.811687926083946,98.98083382902034,-3.146598841697648,-0.18723270600822667,-7.042066008062181,0.5274235292627188
GUIDED_NOGPS,0.605280876159668,617.5359246171967,303.5837288085949,-77.678069557294,-101.33852988054315,14.024872842602084,300,0,30,-0.7985923878645022,-2.811687926083946,98.98083382902034,-3.1661841359153193,-0.3216928003218483,-7.012436421301042,0.5289064788179068
GUIDED_NOGPS,0.6069526672363281,610.1693337212686,304.2778456534988,-78.05635610897646,-102.80128129963909,13.965613669079804,300,0,30,-0.7985923878645022,-2.811687926083946,98.98083382902034,-3.1788341974229755,-0.3912988333413374,-6.982806834539902,0.5291992656748484
GUIDED_NOGPS,0.608757734298706,555.9051027170311,304.9564540055669,-78.3172259500249,-103.70832943076475,13.906354495557526,300,0,30,-0.7985923878645022,-2.811687926083946,98.98083382902034,-3.182406128491335,-0.42976996243054233,-6.953177247778763,0.5287926366702791
GUIDED_NOGPS,0.6100847721099854,753.1520919375113,304.9564540055669,-78.31722595002489,-103.70832943076475,13.847095322035246,300,0,30,-0.7985923878645022,-2.811687926083946,98.98083382902034,-3.176048017069128,-0.39609299440729384,-6.923547661017623,0.5283463228141861
GUIDED_NOGPS,0.6111710071563721,925.6905760317811,304.9564540055669,-78.31722595002489,-103.70832943076475,13.787836148512968,300,0,30,-0.7985923878645022,-2.811687926083946,98.98083382902034,-3.1761445340933916,-0.39610521093273154,-6.893918074256484,0.5283496184186766
GUIDED_NOGPS,0.6121766567230225,1001.0272076372315,304.9564540055669,-78.31722595002489,-103.70832943076475,13.728576974990688,300,0,30,-0.7985923878645022,-2.811687926083946,98.98083382902034,-3.1762229763489405,-0.3961151396662127,-6.864288487495344,0.5283522968544406
GUIDED_NOGPS,0.6132326126098633,952.8178100863244,304.9564540055669,-78.31722595002489,-103.70832943076475,13.669317801468408,300,0,30,-0.7985923878645022,-2.811687926083946,98.98083382902034,-3.1763059186243856,-0.3961256379842615,-6.834658900734204,0.5283551289448152
GUIDED_NOGPS,0.6141526699066162,1093.9760041731872,304.9564540055669,-78.31722595002489,-103.70832943076475,13.61005862794613,300,0,30,-0.7985923878645022,-2.811687926083946,98.98083382902034,-3.1763825309963245,-0.39613533510244126,-6.805029313973065,0.5283577448986214
GUIDED_NOGPS,0.6153199672698975,860.5465736561346,304.92634913846524,-77.85526321209359,-103.8453455407838,13.60497747490277,300,0,30,-0.7985923878645022,-2.811687926083946,98.98083382902034,-3.1341348399073765,-0.39062871336011296,-6.802488737451385,0.5285291852867515
GUIDED_NOGPS,0.6167268753051758,726.1606648199446,303.77318173335533,-77.22215958764876,-102.64808768315758,13.569134174070287,300,0,30,-0.7985923878645022,-2.811687926083946,98.98083382902034,-3.1057377784561573,-0.2031043374542285,-6.7845670870351436,0.5271299053204147
GUIDED_NOGPS,0.621147871017456,225.92534338809588,303.2690990880808,-76.83537880630705,-100.81142699814569,13.54920250391657,300,0,30,-0.7985923878645022,-2.811687926083946,98.98083382902034,-3.1050145911779747,-0.22890637672229686,-6.774601251958285,0.5266124039355287
GUIDED_NOGPS,0.6235074996948242,425.213300892133,302.63974720055575,-77.03775886743341,-98.07197830193154,13.534879092810607,300,0,30,-0.7985923878645022,-2.811687926083946,98.98083382902034,-3.127930264439071,-0.198025551471712,-6.767439546405304,0.5266944637416265
GUIDED_NOGPS,0.625171422958374,603.7575932057003,303.2155883429327,-77.49304501177129,-96.25181482993794,13.459514609270213,300,0,30,-0.7985923878645022,-2.811687926083946,98.98083382902034,-3.154641937585377,-0.28322456996432893,-6.729757304635107,0.5260633374805744
GUIDED_NOGPS,0.6518831253051758,37.446468109420756,303.2236064228064,-77.83164334907882,-95.121010752266,13.420348241353375,300,0,30,-0.7130545137938475,-2.6689403875252644,98.86844306622778,-3.161740456806111,-0.25777613784804587,-6.710174120676688,0.5264409206050573
GUIDED_NOGPS,0.6535518169403076,602.197272074659,303.3995057605112,-78.04803655099916,-95.03584101362345,13.364917860309872,300,0,30,-0.7130545137938475,-2.6689403875252644,98.86844306622778,-3.169099082346984,-0.27259214393410314,-6.682458930154936,0.5267175571267292
GUIDED_NOGPS,0.6572721004486084,269.53948975001606,302.79640212717726,-78.03142844194336,-95.77595244451793,13.310673075427895,300,0,30,-0.7130545137938475,-2.6689403875252644,98.86844306622778,-3.1678021993115517,-0.19803222176763696,-6.655336537713947,0.5271889521993748
GUIDED_NOGPS,0.6600964069366455,354.75801404042966,302.8234814957273,-78.03959462414754,-97.56886961419711,13.276160998376016,300,0,30,-0.7130545137938475,-2.6689403875252644,98.86844306622778,-3.168855355603894,-0.22665301341482338,-6.638080499188008,0.5278159000949726
GUIDED_NOGPS,0.6617417335510254,610.2581114506038,301.517298389318,-77.64932627153206,-99.52298132840603,13.235144796123818,300,0,30,-0.7130545137938475,-2.6689403875252644,98.86844306622778,-3.1472259804445804,-0.08023544738339236,-6.617572398061909,0.528255138839915
GUIDED_NOGPS,0.662992000579834,804.2768935762224,300.90798776205366,-77.41029403319475,-101.06680061650262,13.19412859387162,300,0,30,-0.7130545137938475,-2.6689403875252644,98.86844306622778,-3.1323024029805704,-0.013536256593421593,-6.59706429693581,0.5294476899042425
GUIDED_NOGPS,0.665717601776123,368.73002197802197,299.5872324355732,-77.01685246752466,-101.50785759887854,13.153112391619421,300,0,30,-0.7130545137938475,-2.6689403875252644,98.86844306622778,-3.1122148808379473,0.14066961947136464,-6.576556195809711,0.5284029016908791
GUIDED_NOGPS,0.6682553291320801,402.06134969325154,299.5872324355731,-77.01685246752466,-101.50785759887856,13.112096189367223,300,0,30,-0.7130545137938475,-2.6689403875252644,98.86844306622778,-3.128530553029995,0.03310676599691298,-6.556048094683612,0.5280537389739058
GUIDED_NOGPS,0.6817355155944824,74.23284131535166,299.5872324355731,-77.01685246752466,-101.50785759887856,13.071079987115024,300,0,30,-0.6685538569996574,-2.532386122996492,98.68138467542865,-3.129595434909122,0.03311818034807145,-6.535539993557512,0.5280901051275548
GUIDED_NOGPS,0.6874961853027344,173.90041046477882,299.5872324355731,-77.01685246752466,-101.50785759887856,13.030063784862826,300,0,30,-0.6685538569996574,-2.532386122996492,98.68138467542865,-3.1298914527177093,0.03312135333024257,-6.515031892431413,0.5281002142573287
GUIDED_NOGPS,0.688859224319458,736.4888498683056,299.5872324355731,-77.01685246752466,-101.50785759887856,12.989047582610628,300,0,30,-0.6685538569996574,-2.532386122996492,98.68138467542865,-3.1301262507896905,0.03312387010482368,-6.494523791305314,0.528108232707947
GUIDED_NOGPS,0.6902644634246826,715.3852976292001,299.7231063055727,-77.49439615125418,-101.7528166987297,12.97985712226202,300,0,30,-0.6685538569996574,-2.532386122996492,98.68138467542865,-3.164722648246429,0.013506028483867338,-6.48992856113101,0.5283190438104122
GUIDED_NOGPS,0.6914689540863037,834.8535031847134,300.32706544115064,-78.23367880722843,-101.3891600649016,12.99399951126687,300,0,30,-0.6685538569996574,-2.532386122996492,98.68138467542865,-3.2066997658992893,-0.07128213807490094,-6.496999755633435,0.5278198199767993
GUIDED_NOGPS,0.6940550804138184,387.8587016830035,300.47077274759533,-78.93370242448718,-100.14027609192453,13.03511857101041,300,0,30,-0.6563196008139894,-2.5005809202395044,98.64461776712646,-3.2403898079232585,-0.051225108829072705,-6.517559285505205,0.5266575248482154
GUIDED_NOGPS,0.6958084106445312,572.4449297120241,300.92223064064984,-79.30300916310286,-98.29641285586227,13.042794558763175,300,0,30,-0.6563196008139894,-2.5005809202395044,98.64461776712646,-3.2287480958690655,-0.08993438082848235,-6.5213972793815875,0.5268196289273219
GUIDED_NOGPS,0.6972541809082031,695.5728026533997,301.73119034128496,-79.65675120568847,-97.07145570159666,13.013469584982374,300,0,30,-0.6563196008139894,-2.5005809202395044,98.64461776712646,-3.2476158540391142,-0.18981377599655355,-6.506734792491187,0.5264639574829331
GUIDED_NOGPS,0.7001574039459229,346.9234077750207,302.2431259568255,-79.8190356105452,-96.60346616179255,13.020748653238417,300,0,30,-0.6563196008139894,-2.5005809202395044,98.64461776712646,-3.248384075314192,-0.21341625884386922,-6.510374326619209,0.5268413540193364
GUIDED_NOGPS,0.7138311862945557,73.17092913715501,303.0930656898559,-79.95675321307424,-97.19859225370341,13.056003849026022,300,0,30,-0.5749960068220855,-2.3219663508017936,98.38961265446405,-3.2501517365280512,-0.2531387060509291,-6.528001924513011,0.5273494928031102
GUIDED_NOGPS,0.7158045768737793,508.33886801599806,303.00973663012525,-79.7117598425878,-98.49090031272213,13.054136874558603,300,0,30,-0.5509117993132685,-2.3059320548383653,98.31795713988143,-3.2349895479492172,-0.23733681760233388,-6.5270684372793015,0.5281116858799132
GUIDED_NOGPS,0.7275390625,85.51950249770618,302.53472439588614,-79.3983801777883,-100.46313822166422,13.04916113050312,300,0,30,-0.5509117993132685,-2.3059320548383653,98.31795713988143,-3.2270749222653228,-0.19868496604026673,-6.52458056525156,0.5281717554581767
GUIDED_NOGPS,0.7293002605438232,564.9655172413793,301.2780835875479,-78.96274051023003,-101.72228066212544,13.044185386447635,300,0,30,-0.5509117993132685,-2.3059320548383653,98.31795713988143,-3.1995580411871827,-0.03531694663964026,-6.522092693223818,0.52892672592052
GUIDED_NOGPS,0.7303705215454102,939.584229390681,300.1291244988117,-78.66363753947259,-102.27395078736134,13.039209642392153,300,0,30,-0.5509117993132685,-2.3059320548383653,98.31795713988143,-3.188233718562563,0.07472720499397158,-6.519604821196077,0.5287779566560313
GUIDED_NOGPS,0.7314009666442871,978.6056929538031,300.1291244988117,-78.66363753947259,-102.27395078736134,13.03423389833667,300,0,30,-0.5509117993132685,-2.3059320548383653,98.31795713988143,-3.199398312190834,-0.010415886396929192,-6.517116949168335,0.5283719091757526
GUIDED_NOGPS,0.7328364849090576,700.1008178935069,300.1291244988117,-78.66363753947259,-102.27395078736134,13.029258154281186,300,0,30,-0.5509117993132685,-2.3059320548383653,98.31795713988143,-3.1994794270152145,-0.01041615269305716,-6.514629077140593,0.5283746370888327
GUIDED_NOGPS,0.7345926761627197,572.2887160594897,300.1291244988117,-78.66363753947259,-102.27395078736134,13.024282410225702,300,0,30,-0.5509117993132685,-2.3059320548383653,98.31795713988143,-3.1995954446576693,-0.010416533573484352,-6.512141205112851,0.5283785387929513
GUIDED_NOGPS,0.7373919486999512,358.120218579235,300.1291244988117,-78.66363753947259,-102.27395078736134,12.965128645691298,300,0,30,-0.5509117993132685,-2.3059320548383653,98.31795713988143,-3.1998020483352128,-0.010417211843575844,-6.482564322845649,0.5283854869294806
GUIDED_NOGPS,0.7403438091278076,339.70227585648337,300.1291244988117,-78.66363753947259,-102.27395078736134,12.936737028946018,300,0,30,-0.5246630088069393,-2.2794398854820015,98.27354724989802,-3.1999640904352464,-0.010417743820118189,-6.468368514473009,0.5283909364483271
GUIDED_NOGPS,0.7465965747833252,160.11849589616338,300.1291244988117,-78.66363753947259,-102.27395078736134,12.892433781521971,300,0,30,-0.5246630088069393,-2.2794398854820015,98.27354724989802,-3.2005356451804476,-0.010419620207285778,-6.446216890760986,0.5284101579861568
GUIDED_NOGPS,0.7499904632568359,295.31113145110186,300.1291244988117,-78.66363753947259,-102.27395078736134,12.842522275050174,300,0,30,-0.5438470358339482,-2.2484905908053814,98.21870766105198,-3.200859035450226,-0.010420681882230184,-6.421261137525087,0.5284210336867898
GUIDED_NOGPS,0.7574520111083984,134.20913861512864,300.1291244988117,-78.66363753947259,-102.27395078736134,12.853651841012807,300,0,30,-0.5799482141354622,-2.205676830653626,98.05863534766357,-3.200978560253874,-0.010421074276501524,-6.4268259205064036,0.5284250533376705
GUIDED_NOGPS,0.7587106227874756,799.8291380625477,302.1025453281034,-80.33772282892694,-103.02645215142478,12.887564528547069,300,0,30,-0.5799482141354622,-2.205676830653626,98.05863534766357,-3.2802632486136374,-0.19602407326542612,-6.443782264273534,0.5287001311129866
GUIDED_NOGPS,0.7602686882019043,673.2430176565008,303.53126224361677,-81.60947499797169,-103.56395960658456,12.929289412378841,300,0,30,-0.5799482141354622,-2.205676830653626,98.05863534766357,-3.3665576366595973,-0.3883748996481393,-6.4646447061894206,0.5291034432393253
GUIDED_NOGPS,0.7636544704437256,295.74841348187846,304.9599791591301,-82.88122716701643,-104.10146706174436,12.969828700049087,300,0,30,-0.578627372943858,-2.181926555362199,97.9533274910403,-3.391568908875795,-0.44403638158426195,-6.484914350024543,0.5289983729122872
GUIDED_NOGPS,0.7700960636138916,155.7946660723572,304.41527524535167,-82.47889404660681,-103.88647315284072,12.990635279889235,300,0,30,-0.578627372943858,-2.181926555362199,97.9533274910403,-3.3432819992504776,-0.3225663061659374,-6.495317639944617,0.5286612983283737
GUIDED_NOGPS,0.7741737365722656,245.56814988290398,304.41527524535167,-82.47889404660683,-103.88647315284072,13.0179459849297,300,0,30,-0.578627372943858,-2.181926555362199,97.9533274910403,-3.355405950430038,-0.3534772757435572,-6.50897299246485,0.5288069276198886
GUIDED_NOGPS,0.7844672203063965,97.20287369640788,304.41527524535167,-82.47889404660683,-103.88647315284072,13.045256689970165,300,0,30,-0.5781629200802971,-2.132019216870562,97.78764076215414,-3.3562844619999033,-0.353571333027715,-6.522628344985082,0.5288354490536621
GUIDED_NOGPS,0.7855496406555176,928.3541389995573,304.41527524535167,-82.47889404660683,-103.88647315284072,13.07256739501063,300,0,30,-0.5781629200802971,-2.132019216870562,97.78764076215414,-3.3563842790055802,-0.3535820198721332,-6.536283697505315,0.5288386896758857
GUIDED_NOGPS,0.7888109683990479,310.0461265523359,304.41527524535167,-82.47889404660683,-103.88647315284072,13.099878100051095,300,0,30,-0.5781629200802971,-2.132019216870562,97.78764076215414,-3.3564659063480877,-0.35359075925179834,-6.549939050025547,0.5288413397591893
GUIDED_NOGPS,0.7900905609130859,785.5973028657052,304.41527524535167,-82.47889404660683,-103.88647315284072,13.12718880509156,300,0,30,-0.5781629200802971,-2.132019216870562,97.78764076215414,-3.356737846728606,-0.3536198743761994,-6.56359440254578,0.5288501684756449
GUIDED_NOGPS,0.7913563251495361,793.9246640166572,304.41527524535167,-82.47889404660683,-103.88647315284072,13.154499510132025,300,0,30,-0.5781629200802971,-2.132019216870562,97.78764076215414,-3.3568507209627647,-0.3536319591845053,-6.5772497550660125,0.5288538330090498
GUIDED_NOGPS,0.7957186698913574,229.71159428227176,304.41527524535167,-82.47889404660683,-103.88647315284072,13.181810215172492,300,0,30,-0.6021073755153934,-2.094106544335114,97.68403362263422,-3.3569499283689197,-0.35364258076253724,-6.590905107586246,0.5288570538402392
GUIDED_NOGPS,0.7974176406860352,591.5802538787024,304.41527524535167,-82.47889404660683,-103.88647315284072,13.177295178309368,300,0,30,-0.6021073755153934,-2.094106544335114,97.68403362263422,-3.357331341024971,-0.35368341646670115,-6.588647589154684,0.5288694366433611
GUIDED_NOGPS,0.7990150451660156,629.5863104172921,304.41527524535167,-82.47889404660683,-103.88647315284072,13.187257231623466,300,0,30,-0.6021073755153934,-2.094106544335114,97.68403362263422,-3.3574613627037615,-0.3536973371552933,-6.593628615811733,0.5288736578794017
GUIDED_NOGPS,0.8017542362213135,366.44277476847805,304.41527524535167,-82.47889404660683,-103.88647315284072,13.192950227474606,300,0,30,-0.6021073755153934,-2.094106544335114,97.68403362263422,-3.3576168105819884,-0.3537139800838051,-6.596475113737303,0.5288787045930889
GUIDED_NOGPS,0.8053767681121826,276.4685254762376,304.41527524535167,-82.47889404660683,-103.88647315284072,13.227262295474478,300,0,30,-0.6427374494843018,-2.1067677940656133,97.57912191698281,-3.3580050664842918,-0.3537555484557897,-6.613631147737239,0.5288913095665287
GUIDED_NOGPS,0.8067748546600342,719.5580717104134,304.41527524535167,-82.47889404660683,-103.88647315284072,13.270963307297723,300,0,30,-0.6427374494843018,-2.1067677940656133,97.57912191698281,-3.3581140864763084,-0.3537672206121047,-6.635481653648862,0.5288948489695247
GUIDED_NOGPS,0.807999849319458,821.1245105716523,304.41527524535167,-82.47889404660683,-103.88647315284072,13.282316815582352,300,0,30,-0.6427374494843018,-2.1067677940656133,97.57912191698281,-3.3582261151369357,-0.3537792148896166,-6.641158407791176,0.5288984860508499
GUIDED_NOGPS,0.8103189468383789,433.29586776859503,304.41527524535167,-82.47889404660683,-103.88647315284072,13.292615296105291,300,0,30,-0.6427374494843018,-2.1067677940656133,97.57912191698281,-3.3583420373687063,-0.35379162602985414,-6.6463076480526455,0.5289022495394251
GUIDED_NOGPS,0.8120980262756348,563.9021242269428,304.41527524535167,-82.47889404660683,-103.88647315284072,13.340035946883257,300,0,30,-0.6427374494843018,-2.1067677940656133,97.57912191698281,-3.358518250959698,-0.3538104922262355,-6.670017973441628,0.5289079704251116
GUIDED_NOGPS,0.814173698425293,483.38181399101074,304.41527524535167,-82.47889404660683,-103.88647315284072,13.390565367249284,300,0,30,-0.6872944019782915,-2.1013200778722934,97.47785070215903,-3.3586760192490104,-0.35382738358808885,-6.695282683624642,0.5289130924724125
GUIDED_NOGPS,0.8213319778442383,140.32465707594514,304.41527524535167,-82.47889404660683,-103.88647315284072,13.441094787615311,300,0,30,-0.6872944019782915,-2.1013200778722934,97.47785070215903,-3.3593101010748705,-0.3538952711566992,-6.720547393807656,0.5289336783399452
GUIDED_NOGPS,0.8238067626953125,402.87234655652674,304.41527524535167,-82.47889404660683,-103.88647315284072,13.49162420798134,300,0,30,-0.7421668077488517,-2.0773315997335624,97.38543824268876,-3.359523028288715,-0.35391806807383097,-6.74581210399067,0.528940591156619
GUIDED_NOGPS,0.8273494243621826,282.94009713977334,304.41527524535167,-82.47889404660683,-103.88647315284072,13.542153628347368,300,0,30,-0.7421668077488517,-2.0773315997335624,97.38543824268876,-3.3597356998640504,-0.3539408376211878,-6.771076814173684,0.5289474956738268
GUIDED_NOGPS,0.8287441730499268,720.5469850541144,304.41527524535167,-82.47889404660683,-103.88647315284072,13.592683048713395,300,0,30,-0.7421668077488517,-2.0773315997335624,97.38543824268876,-3.359920192209847,-0.35396059017720277,-6.796341524356698,0.5289534853345244
GUIDED_NOGPS,0.8316388130187988,346.55077253573495,304.41527524535167,-82.47889404660683,-103.88647315284072,13.643212469079424,300,0,30,-0.7421668077488517,-2.0773315997335624,97.38543824268876,-3.3601037799886107,-0.3539802458863219,-6.821606234539712,0.528959445627881
GUIDED_NOGPS,0.83656907081604,203.19271388431355,304.41527524535167,-82.47889404660683,-103.88647315284072,13.693741889445452,300,0,30,-0.7622990037708758,-2.0702260685626337,97.29730148163893,-3.3605215523065017,-0.35402497441462477,-6.846870944722726,0.5289730088704221
GUIDED_NOGPS,0.8401625156402588,279.39674926725286,304.41527524535167,-82.47889404660683,-103.88647315284072,13.744271309811479,300,0,30,-0.7622990037708758,-2.0702260685626337,97.29730148163893,-3.360713517162574,-0.354045527010214,-6.8721356549057395,0.528979241130892
GUIDED_NOGPS,0.8454396724700928,189.74458267360325,304.41527524535167,-82.47889404660683,-103.88647315284072,13.794800730177508,300,0,30,-0.8037335993188177,-2.047432660085243,97.18192592617906,-3.361112391895269,-0.354088232280541,-6.897400365088754,0.5289921908513769
GUIDED_NOGPS,0.8476507663726807,457.29437418229395,304.41527524535167,-82.47889404660683,-103.88647315284072,13.845330150543536,300,0,30,-0.8037335993188177,-2.047432660085243,97.18192592617906,-3.3614263946428373,-0.3541218507855982,-6.922665075271768,0.5290023851491832
GUIDED_NOGPS,0.8500227928161621,421.4110318496936,304.41527524535167,-82.47889404660683,-103.88647315284072,13.895859570909563,300,0,30,-0.8037335993188177,-2.047432660085243,97.18192592617906,-3.361635172647029,-0.3541442034702295,-6.9479297854547815,0.5290091632591412
