Mode,Time,Freq,time2delay,actualDelay,North-Desired,East-Desired,Down-Desired,Roll-UAV,Pitch-UAV,Yaw-UAV,Roll-Control,Pitch-Control,Yaw-Control,Thrust-Control,North-Pos,East-Pos,Down-Pos,Yaw-Ang,North-Vel,East-Vel,Down-Vel,Yaw-Vel,North-Acc,East-Acc,Down-Acc,North-Avg,East-Avg,Down-Avg,Yaw-Avg,North-Dif,East-Dif,Down-Dif,Yaw-Dif,North-One,East-One,Down-One,Yaw-One,North-Two,East-Two,Down-Two,Yaw-Two,Landing-State,Q-Size,Kalman-Time,Kalman-Dt
STABILIZE,0.03440451622009277,29.075623028664516,0.0333130677541097,0.033448219299316406,0.0,0.0,0.0,-0.6364307836419999,-1.2550556910045998,66.25176943961316,-0.002231825795349916,0.0021378544735294333,0.017222444480034033,0.4,0.08519046240632355,0.08866815282101012,0.11971756369739418,0.0860399968119021,-0.022519458434544504,0.12032038066536188,1.6506325453519821,-0.07563908901388149,0.9654093533754349,0.18814601935446262,21.070030331611633,0.0,0.0,0.0,0.0,0.0,0.0,0.0,0.0,0.0,0.0,0.0,0.0,0.0,0.0,0.0,0.0,False,0,0.14874672889709473,0.034890380859375
STABILIZE,0.06781673431396484,29.92895777140329,0.032265456517537434,0.0325164794921875,0.0,0.0,0.0,-0.6362630704813643,-1.254370004044954,66.25542359081912,-0.002672022697312888,0.0025380140732820383,0.020334667389892685,0.4,0.1007117038388332,0.10565757547588045,0.15098631131588552,0.10151600105926567,-0.022519458434544504,0.12032038066536188,1.6506325453519821,-0.07563908901388149,0.9654093533754349,0.18814601935446262,21.070030331611633,0.0,0.0,0.0,0.0,0.0,0.0,0.0,0.0,0.0,0.0,0.0,0.0,0.0,0.0,0.0,0.0,False,0,0.178725004196167,0.034890380859375
STABILIZE,0.10130715370178223,29.85949824871145,0.032463820775349934,0.03258180618286133,0.0,0.0,0.0,-0.6356966450279293,-1.254694758195647,66.25715162867914,-0.0030578018484232086,0.0028923151752048423,0.023232768895866326,0.4,0.11432962527390682,0.1203899265621028,0.18340584213153896,0.1159095443219659,0.07449488039128482,0.13113344321027398,1.903156004846096,0.1814142533063286,4.650669172406197,0.2662273123860359,28.85604202747345,0.0,0.0,0.0,0.0,0.0,0.0,0.0,0.0,0.0,0.0,0.0,0.0,0.0,0.0,0.0,0.0,False,0,0.2073683738708496,0.034925048828125
STABILIZE,0.13473749160766602,29.9110293383538,0.03240946133931478,0.03255414962768555,0.0,0.0,0.0,-0.636808204954496,-1.255541488209317,66.2602115534273,-0.00337991812118167,0.003168925404758602,0.025422321752623548,0.4,0.1247775969599109,0.13251867325566608,0.21586050140291335,0.12675128071508102,-0.09473034297116101,0.04637214296963066,1.8821829929947853,-0.06903641718038156,0.1816650852560997,0.14451785245910287,30.871331691741943,0.0,0.0,0.0,0.0,0.0,0.0,0.0,0.0,0.0,0.0,0.0,0.0,0.0,0.0,0.0,0.0,False,0,0.23630118370056152,0.02993603515625
STABILIZE,0.16822481155395508,29.863750284802915,0.032447131474812825,0.03261923789978027,0.0,0.0,0.0,-0.6368693031310559,-1.2550765017372272,66.26157076107214,-0.0035747473904097367,0.0033216635232616756,0.026601482257776428,0.4,0.13022087975068417,0.13953706135155722,0.24250679340017775,0.132536101780448,-0.09473034297116101,0.04637214296963066,1.8821829929947853,-0.06903641718038156,0.1816650852560997,0.14451785245910287,30.871331691741943,0.0,0.0,0.0,0.0,0.0,0.0,0.0,0.0,0.0,0.0,0.0,0.0,0.0,0.0,0.0,0.0,False,0,0.2649521827697754,0.02993603515625
STABILIZE,0.20197606086730957,29.62769572004775,0.03244498570760091,0.03293132781982422,0.0,0.0,0.0,-0.6360339923399045,-1.2550185518509878,66.26314853477041,-0.0037595706175260354,0.0034589074233856423,0.02791724860507296,0.4,0.13501494964835603,0.14611195953333445,0.26695212400297935,0.13899755554029686,-0.014005808043293655,0.14181046281009912,1.606171578168869,0.17310041898254214,3.935074061155319,1.8467171117663383,18.03276240825653,0.0,0.0,0.0,0.0,0.0,0.0,0.0,0.0,0.0,0.0,0.0,0.0,0.0,0.0,0.0,0.0,False,1,0.2938845157623291,0.069850830078125
STABILIZE,0.23551535606384277,29.817256357212425,0.0325048287709554,0.03263235092163086,0.0,0.0,0.0,-0.6358295135516272,-1.2546150370814282,66.26570302551998,-0.004544116287888686,0.00404067145674304,0.033894806022881876,0.4,0.15761181947885303,0.17640853542428261,0.36543975233070536,0.16874417044070844,-0.09366398444399238,0.13324952451512218,1.8667636439204216,0.17937420119925007,1.3754069805145264,0.04835615691263229,27.168166637420654,0.0,0.0,0.0,0.0,0.0,0.0,0.0,0.0,0.0,0.0,0.0,0.0,0.0,0.0,0.0,0.0,False,0,0.3508789539337158,0.029935302734375
STABILIZE,0.2688724994659424,29.97644368210406,0.03239944775899251,0.03252720832824707,0.0,0.0,0.0,-0.6348835857124333,-1.2550128956005813,66.26783404454103,-0.004572150259312104,0.00401295445869091,0.0346156388815474,0.4,0.1556842966364282,0.17657844385746072,0.39025361841316625,0.17220433857484813,-0.13121734373271465,0.024854825460352004,1.9353494048118591,0.30903527073095904,3.8042519241571426,-0.1718370127491653,26.76708698272705,0.0,0.0,0.0,0.0,0.0,0.0,0.0,0.0,0.0,0.0,0.0,0.0,0.0,0.0,0.0,0.0,False,0,0.37970709800720215,0.03492578125
STABILIZE,0.3023500442504883,29.87013061003575,0.03248265584309896,0.0326390266418457,0.0,0.0,0.0,-0.6344451729450832,-1.256148948158625,66.26999238431875,-0.004640755239437139,0.004014339700879098,0.03572647833356374,0.4,0.15493565827195066,0.1783520914794873,0.4213936507499473,0.17760991158935857,-0.13121734373271465,0.024854825460352004,1.9353494048118591,0.30903527073095904,3.8042519241571426,-0.1718370127491653,26.76708698272705,0.0,0.0,0.0,0.0,0.0,0.0,0.0,0.0,0.0,0.0,0.0,0.0,0.0,0.0,0.0,0.0,False,0,0.40827393531799316,0.03492578125
STABILIZE,0.33585596084594727,29.84611224569668,0.032505305608113606,0.032630205154418945,0.0,0.0,0.0,-0.6345301767837381,-1.255538926888378,66.27207559201561,-0.004683528146660675,0.004059093429820092,0.03602755598003327,0.4,0.15590119054916896,0.17909513536857458,0.45039275236840154,0.17896564883169547,0.08330753771588206,0.02412807516520843,1.8021516501903534,0.04415619581351388,6.9099098443984985,-0.19225478172302246,23.573358356952667,0.0,0.0,0.0,0.0,0.0,0.0,0.0,0.0,0.0,0.0,0.0,0.0,0.0,0.0,0.0,0.0,False,0,0.4380686283111572,0.06985009765625
STABILIZE,0.3693370819091797,29.869917888604817,0.03244927724202474,0.03258228302001953,0.0,0.0,0.0,-0.6349591980409796,-1.255280660360387,66.27423393179333,-0.005036742754178821,0.0042500661309658174,0.03912526550353343,0.4,0.1627667051444603,0.1921257627954988,0.5208211755896487,0.194291700870077,-0.22367271594703197,0.010391996329417452,1.6062166541814804,0.10804125297237074,-3.725108504295349,-0.27754982002079487,21.345190703868866,0.0,0.0,0.0,0.0,0.0,0.0,0.0,0.0,0.0,0.0,0.0,0.0,0.0,0.0,0.0,0.0,False,0,0.47143030166625977,0.029935791015625
STABILIZE,0.40275120735168457,29.92660877755025,0.03239277203877767,0.032529592514038086,0.0,0.0,0.0,-0.6342535007614997,-1.2556554669910915,66.27762170562166,-0.004940869244604922,0.004072394237648382,0.038529604530794334,0.4,0.15480744415423156,0.18732124103968859,0.5357108946778338,0.1911535250360194,-0.22367271594703197,0.010391996329417452,1.6062166541814804,0.10804125297237074,-3.725108504295349,-0.27754982002079487,21.345190703868866,0.0,0.0,0.0,0.0,0.0,0.0,0.0,0.0,0.0,0.0,0.0,0.0,0.0,0.0,0.0,0.0,False,0,0.5000081062316895,0.029935791015625
STABILIZE,0.4369473457336426,29.242252480252105,0.03244951566060384,0.03334331512451172,0.0,0.0,0.0,-0.6343169468155867,-1.2562903544187853,66.27940438499503,-0.004882168060921318,0.00396472727582666,0.038114963024213584,0.4,0.14966634655692154,0.18398696129690742,0.5517734182479475,0.18891878428185413,-0.03440259606577456,0.11172543745487928,1.703149825334549,0.1728632566718693,1.1951218359172344,-0.08666891953907907,20.627734065055847,0.0,0.0,0.0,0.0,0.0,0.0,0.0,0.0,0.0,0.0,0.0,0.0,0.0,0.0,0.0,0.0,False,1,0.5286679267883301,0.06985107421875
STABILIZE,0.47037696838378906,29.91316254920979,0.0324740727742513,0.032636404037475586,0.0,0.0,0.0,-0.6342059028807212,-1.2561823520525346,66.28310634752518,-0.004925720319652457,0.00374634723980653,0.03935801467995602,0.4,0.14020653161780786,0.1847521268460668,0.6345967298228897,0.1949708290805097,-0.24548755027353764,0.01615599321667105,1.9901981577277184,0.16361418001968034,-4.1256919503211975,-0.019160343799740076,26.98909044265747,0.0,0.0,0.0,0.0,0.0,0.0,0.0,0.0,0.0,0.0,0.0,0.0,0.0,0.0,0.0,0.0,False,0,0.5865449905395508,0.034925048828125
STABILIZE,0.5039181709289551,29.81386521470256,0.03252747853597005,0.03266763687133789,0.0,0.0,0.0,-0.6346038147607272,-1.2555518402147776,66.28474559292599,-0.0048134692530589695,0.003528343842753734,0.03885118235202685,0.4,0.13076199804111854,0.1793382273375137,0.6571035865693711,0.19227580857002927,-0.24548755027353764,0.01615599321667105,1.9901981577277184,0.16361418001968034,-4.1256919503211975,-0.019160343799740076,26.98909044265747,0.0,0.0,0.0,0.0,0.0,0.0,0.0,0.0,0.0,0.0,0.0,0.0,0.0,0.0,0.0,0.0,False,0,0.6152174472808838,0.034925048828125
STABILIZE,0.5373115539550781,29.94690770966314,0.03244832356770833,0.03256368637084961,0.0,0.0,0.0,-0.6342526469878534,-1.2557172588587389,66.28642581946181,-0.004719341966733157,0.003452440902651651,0.03752760754001822,0.4,0.1270116493417866,0.1746655034418351,0.6762622727049393,0.1855029022094519,0.07805684581398964,0.06435000104829669,1.8408982083201408,-0.057823914605865154,7.175925374031067,-0.17443315591663122,20.192037522792816,0.0,0.0,0.0,0.0,0.0,0.0,0.0,0.0,0.0,0.0,0.0,0.0,0.0,0.0,0.0,0.0,False,0,0.6439166069030762,0.034925048828125
STABILIZE,0.5721395015716553,28.711787134711088,0.032492669423421223,0.03405404090881348,0.0,0.0,0.0,-0.6343088359659473,-1.2547646609129337,66.28833144224023,-0.004623700201699643,0.0034716042722627905,0.03656222005178317,0.4,0.12704097297126649,0.16990160945011804,0.6905951018463896,0.1805186013148914,0.28412737883627415,0.062164757400751114,1.6153717413544655,0.05074266929310816,7.022897154092789,-0.06970607792027295,22.08847999572754,0.0,0.0,0.0,0.0,0.0,0.0,0.0,0.0,0.0,0.0,0.0,0.0,0.0,0.0,0.0,0.0,False,0,0.6730661392211914,0.029935791015625
STABILIZE,0.6056578159332275,29.834223647990214,0.03255179723103841,0.03268599510192871,0.0,0.0,0.0,-0.6343323681020722,-1.2542565588717083,66.2940824615214,-0.004505116909527472,0.003480256287055003,0.0353882956715226,0.4,0.12667483133341134,0.16429202724091713,0.6978579387236238,0.17450295715247777,0.28412737883627415,0.062164757400751114,1.6153717413544655,0.05074266929310816,7.022897154092789,-0.06970607792027295,22.08847999572754,0.0,0.0,0.0,0.0,0.0,0.0,0.0,0.0,0.0,0.0,0.0,0.0,0.0,0.0,0.0,0.0,False,0,0.7013912200927734,0.029935791015625
STABILIZE,0.6392271518707275,29.790360384675484,0.03247788747151693,0.03277444839477539,0.0,0.0,0.0,-0.6362172335087313,-1.2536260470339515,66.29714921645872,-0.004524364645349174,0.0031544551131719146,0.03540303312099664,0.4,0.11303733019139493,0.16421902896309482,0.7590430015618891,0.17443013723924952,-0.17683315090835094,0.16325798351317644,1.6789838671684265,0.014926417935710834,1.3773897662758827,-0.09694927139207721,19.528043270111084,0.0,0.0,0.0,0.0,0.0,0.0,0.0,0.0,0.0,0.0,0.0,0.0,0.0,0.0,0.0,0.0,False,0,0.7586574554443359,0.02993603515625
STABILIZE,0.67268967628479,29.883112349223765,0.032509835561116536,0.03261899948120117,0.0,0.0,0.0,-0.6363868676600708,-1.253177922591375,66.29986080155922,-0.004400415548572932,0.0030141690815345228,0.03454879223446455,0.4,0.10682564747789892,0.15843965978661656,0.763430916000776,0.17001677803199014,-0.03957518783863634,0.07957300986163318,1.7415570095181465,0.17125361320420737,2.18866728246212,-3.8233429193496704,22.1848264336586,0.0,0.0,0.0,0.0,0.0,0.0,0.0,0.0,0.0,0.0,0.0,0.0,0.0,0.0,0.0,0.0,False,0,0.787316083908081,0.034925048828125
STABILIZE,0.7062582969665527,29.793111286324148,0.032505067189534505,0.03263378143310547,0.0,0.0,0.0,-0.6376563223503412,-1.2531085534826172,66.30285925460485,-0.004299229003707642,0.002885176743975308,0.03389792404155033,0.4,0.10110262791333283,0.1535922576733128,0.7738720145385244,0.16662308011239618,-0.03957518783863634,0.07957300986163318,1.7415570095181465,0.17125361320420737,2.18866728246212,-3.8233429193496704,22.1848264336586,0.0,0.0,0.0,0.0,0.0,0.0,0.0,0.0,0.0,0.0,0.0,0.0,0.0,0.0,0.0,0.0,False,0,0.8160414695739746,0.034925048828125
STABILIZE,0.7396471500396729,29.94797683734015,0.03238108952840169,0.03250622749328613,0.0,0.0,0.0,-0.6404595280352496,-1.2526248907120157,66.30863076445353,-0.004172989760398324,0.002733194215677994,0.03281262121010628,0.4,0.0944869055014894,0.14778028673627103,0.7814712928486025,0.16106190526705152,-0.09575318545103073,0.022352802625391632,1.6175676137208939,0.05096921946416234,-1.100759580731392,3.8611434400081635,21.081574261188507,0.0,0.0,0.0,0.0,0.0,0.0,0.0,0.0,0.0,0.0,0.0,0.0,0.0,0.0,0.0,0.0,False,0,0.8448090553283691,0.034925048828125
STABILIZE,0.7731161117553711,29.87970621130844,0.03243902524312337,0.0325620174407959,0.0,0.0,0.0,-0.6404362627033893,-1.2524840180603842,66.30912936826293,-0.004081710162460504,0.002707959431564852,0.03196508001796382,0.4,0.09295748479704766,0.14337316921340565,0.7919252681243244,0.15669320801134,0.1667020027525723,0.0909250695258379,1.7968909814953804,0.10928334021521476,6.6684335470199585,-1.8111951649188995,24.409760534763336,0.0,0.0,0.0,0.0,0.0,0.0,0.0,0.0,0.0,0.0,0.0,0.0,0.0,0.0,0.0,0.0,False,0,0.8734087944030762,0.02993603515625
STABILIZE,0.8064775466918945,29.97387302404025,0.032398255666097005,0.032523155212402344,0.0,0.0,0.0,-0.646931505799807,-1.2552022199066377,66.32643023743057,-0.0039817826039408415,0.0026832704203547707,0.031025917122764788,0.4,0.09145628186805328,0.1386460335390911,0.7961546401229728,0.15187042852259097,0.1667020027525723,0.0909250695258379,1.7968909814953804,0.10928334021521476,6.6684335470199585,-1.8111951649188995,24.409760534763336,0.0,0.0,0.0,0.0,0.0,0.0,0.0,0.0,0.0,0.0,0.0,0.0,0.0,0.0,0.0,0.0,False,0,0.9021222591400146,0.02993603515625
STABILIZE,0.8399374485015869,29.88438985115888,0.032500537236531575,0.032607078552246094,0.0,0.0,0.0,-0.6499323600838226,-1.2542193129963906,66.33106793587702,-0.0037473200808139317,0.002784936272481504,0.02828371788579759,0.4,0.09495425670042672,0.12859620675780575,0.8407591756937746,0.13804410935282904,0.600146409124136,0.0029412542062345892,1.5514431521296501,-0.40376516536184925,18.845272064208984,3.7935812026262283,22.080962359905243,0.0,0.0,0.0,0.0,0.0,0.0,0.0,0.0,0.0,0.0,0.0,0.0,0.0,0.0,0.0,0.0,False,0,0.9594883918762207,0.02993603515625
STABILIZE,0.8733670711517334,29.913802571801472,0.032477410634358723,0.032599449157714844,0.0,0.0,0.0,-0.6487852084683778,-1.2524467721850665,66.30979189661242,-0.0039912468005306855,0.002401472601958059,0.026601138970032544,0.4,0.07919157210345665,0.13766749308075243,0.8361897380725833,0.12952286381225708,-0.5821536295115948,0.7996232248842716,1.5587283298373222,-0.08836267089066403,-22.108395397663116,15.459498763084412,24.132905900478363,0.0,0.0,0.0,0.0,0.0,0.0,0.0,0.0,0.0,0.0,0.0,0.0,0.0,0.0,0.0,0.0,False,0,0.9881911277770996,0.034925048828125
STABILIZE,0.9067926406860352,29.917429883876856,0.03249100049336751,0.03261423110961914,0.0,0.0,0.0,-0.6501656537326609,-1.2526831607633724,66.31182046279592,-0.003622300511264558,0.0017694028100712386,0.03024422290772873,0.4,0.05363422787237265,0.12229009906706824,0.8450356374159628,0.14761488232097567,-1.121502835303545,-0.5014818161725998,1.9504718482494354,1.2707921266871918,-6.000326946377754,-43.11014711856842,30.708491802215576,0.0,0.0,0.0,0.0,0.0,0.0,0.0,0.0,0.0,0.0,0.0,0.0,0.0,0.0,0.0,0.0,False,0,1.0169594287872314,0.034925048828125
STABILIZE,0.9403657913208008,29.78951405559738,0.03250625928243001,0.03264427185058594,0.0,0.0,0.0,-0.6526201462439284,-1.2514228841397992,66.31450472713973,-0.003264327167306855,0.0019643128929786842,0.028251174008522083,0.4,0.061043930953097084,0.10739001198768235,0.8462028955715654,0.13753457573409575,0.594156002625823,-0.4874348174780607,1.5576761215925217,-0.21263072577337272,-1.7365876585245132,42.19205379486084,18.09091717004776,0.0,0.0,0.0,0.0,0.0,0.0,0.0,0.0,0.0,0.0,0.0,0.0,0.0,0.0,0.0,0.0,False,0,1.0456414222717285,0.034926025390625
STABILIZE,0.9736716747283936,30.021931457038967,0.0323670228322347,0.03249502182006836,0.0,0.0,0.0,-0.647759185988995,-1.248992617455744,66.27385144119981,-0.003553512952716103,0.0016455125160679711,0.026244294221710415,0.4,0.0480376241558506,0.11836655760053198,0.8446547741214705,0.12739369884679302,-0.49421824514865875,0.8678948506712914,1.423442643135786,-0.2244299042449962,-21.72289788722992,26.539242267608643,27.285555005073547,0.0,0.0,0.0,0.0,0.0,0.0,0.0,0.0,0.0,0.0,0.0,0.0,0.0,0.0,0.0,0.0,False,0,1.074730396270752,0.029935791015625
STABILIZE,1.0079917907714844,29.13783545332657,0.03253796895345052,0.03309917449951172,0.0,0.0,0.0,-0.6587903150245358,-1.2498445768329973,66.31912876520782,-0.0029612159480673634,0.0011235683067288438,0.03107984244986999,0.4,0.02701049266852656,0.09419160962401346,0.8430806137188731,0.15144317575938787,-0.9650850668549538,-1.0080943815410137,1.7040887847542763,1.6222856142070954,20.895832777023315,-2.955007180571556,22.88861870765686,0.0,0.0,0.0,0.0,0.0,0.0,0.0,0.0,0.0,0.0,0.0,0.0,0.0,0.0,0.0,0.0,False,0,1.1046361923217773,0.034925048828125
STABILIZE,1.0414402484893799,29.895039949822166,0.032083781560262044,0.03258228302001953,0.0,0.0,0.0,-0.6633614191265669,-1.2481879357941519,66.33242031333268,-0.002380105338364559,0.0005987221690988766,0.035994880558224814,0.4,0.005963552174538509,0.07061013909718314,0.847029018190519,0.17586958822667192,-0.9650850668549538,-1.0080943815410137,1.7040887847542763,1.6222856142070954,20.895832777023315,-2.955007180571556,22.88861870765686,0.0,0.0,0.0,0.0,0.0,0.0,0.0,0.0,0.0,0.0,0.0,0.0,0.0,0.0,0.0,0.0,False,1,1.1333539485931396,0.034925048828125
STABILIZE,1.0749869346618652,29.809839234694604,0.032480510075887044,0.032764434814453125,0.0,0.0,0.0,-0.6603096052280405,-1.2513717644427298,66.30505174532843,-0.002829678601145806,0.0011643124662829988,0.027620824603276972,0.4,0.028406726511125843,0.08808443867857145,0.8504880327896449,0.13388686472459785,0.0591632560826838,0.2405840903520584,1.7185721546411514,0.07650895095727962,-28.72363030910492,-36.33205592632294,29.093292355537415,0.0,0.0,0.0,0.0,0.0,0.0,0.0,0.0,0.0,0.0,0.0,0.0,0.0,0.0,0.0,0.0,False,0,1.1910254955291748,0.02993603515625
STABILIZE,1.108569860458374,29.7772476855796,0.03253820737202962,0.03271317481994629,0.0,0.0,0.0,-0.6604438077730607,-1.2657690561611763,66.35706363585808,-0.0026515500959118344,0.0005040840996507875,0.028417665939304722,0.4,0.001977566826720196,0.08058746030993522,0.8462085598786555,0.13775563634445964,-1.3533569872379303,-0.17498962115496397,1.5548800118267536,0.5383246678074342,-13.852611184120178,23.91248345375061,8.56778547167778,0.0,0.0,0.0,0.0,0.0,0.0,0.0,0.0,0.0,0.0,0.0,0.0,0.0,0.0,0.0,0.0,False,0,1.221480369567871,0.034925048828125
STABILIZE,1.1419553756713867,29.952254111530852,0.03243735631306966,0.03255271911621094,0.0,0.0,0.0,-0.6808075365357776,-1.287536335437478,66.42439564069606,-0.002478125906842104,-0.0001631353343563643,0.02933557839723678,0.4,-0.02458861509526048,0.07332315471152964,0.847223187099379,0.1422263859856147,-1.3533569872379303,-0.17498962115496397,1.5548800118267536,0.5383246678074342,-13.852611184120178,23.91248345375061,8.56778547167778,0.0,0.0,0.0,0.0,0.0,0.0,0.0,0.0,0.0,0.0,0.0,0.0,0.0,0.0,0.0,0.0,False,0,1.2499940395355225,0.034925048828125
STABILIZE,1.1754438877105713,29.862899780708,0.03250292142232259,0.03260374069213867,0.0,0.0,0.0,-0.6782911454351569,-1.2870164940086166,66.39768277085214,-0.0025683673077887275,0.0010433633985329404,0.019429618936036175,0.4,0.023465761898927115,0.07644046811496237,0.8582236678704097,0.09261918472588301,2.8178205713629723,0.3983553498983383,2.1261872723698616,-2.4987056064255126,87.16872334480286,-26.69847011566162,19.595828652381897,0.0,0.0,0.0,0.0,0.0,0.0,0.0,0.0,0.0,0.0,0.0,0.0,0.0,0.0,0.0,0.0,False,0,1.2786357402801514,0.034926025390625
STABILIZE,1.2088606357574463,29.92361968223619,0.032431634267171223,0.03254270553588867,0.0,0.0,0.0,-0.6758334512727159,-1.2883399498820123,66.38448001518651,-0.002566966217625104,0.002440881465380585,0.008647606434425647,0.4,0.07884789402972639,0.0759795754608649,0.8633079600866479,0.03867678877415112,3.2120108604431152,0.18763955449685454,1.8035970628261566,-2.7451371241322806,-16.148865222930908,29.643777012825012,29.867905378341675,0.0,0.0,0.0,0.0,0.0,0.0,0.0,0.0,0.0,0.0,0.0,0.0,0.0,0.0,0.0,0.0,False,0,1.307326316833496,0.029935791015625
STABILIZE,1.24226713180542,29.935365992919948,0.032451899846394856,0.03256559371948242,0.0,0.0,0.0,-0.6238525633985983,-1.2498557826121044,66.36408507032485,-0.0026956929696436535,0.0022940717456958566,0.009901049724945033,0.4,0.07260244780656244,0.08069111614115561,0.8676669309186446,0.0449064828196093,-0.23269616067409515,0.4797017201781273,2.055920846760273,0.5920943715530076,-55.11763095855713,-23.909078538417816,20.31344771385193,0.0,0.0,0.0,0.0,0.0,0.0,0.0,0.0,0.0,0.0,0.0,0.0,0.0,0.0,0.0,0.0,False,0,1.3361549377441406,0.034925048828125
STABILIZE,1.275780200958252,29.839742175994765,0.03247669537862142,0.032611846923828125,0.0,0.0,0.0,-0.6469807045061722,-1.2861121342738246,66.31684748202504,-0.002072222392648954,0.001582317926382423,0.017548904778121963,0.4,0.043932700797797875,0.055435568978326764,0.8831820380773,0.08307625559333387,-1.5544832684099674,-1.2473887763917446,2.3945990949869156,2.451400996894474,-32.983532547950745,-41.809821128845215,12.260131537914276,0.0,0.0,0.0,0.0,0.0,0.0,0.0,0.0,0.0,0.0,0.0,0.0,0.0,0.0,0.0,0.0,False,0,1.3702270984649658,0.034925048828125
STABILIZE,1.3094775676727295,29.673809843859438,0.03240826924641927,0.03286123275756836,0.0,0.0,0.0,-0.644829301639324,-1.2499152266022246,66.34217382346745,-0.0022194591272472457,0.0017420702368002574,0.007349075704769989,0.4,0.04998232799106849,0.06104813175757502,0.926992140974387,0.032050058774040054,0.4452160093933344,0.5200703162699938,4.027775302529335,-2.6858448922776343,-3.095507435500622,35.64605414867401,101.61231756210327,0.0,0.0,0.0,0.0,0.0,0.0,0.0,0.0,0.0,0.0,0.0,0.0,0.0,0.0,0.0,0.0,False,1,1.3987417221069336,0.034926025390625
STABILIZE,1.3429715633392334,29.856522543813444,0.032491477330525716,0.032625675201416016,0.0,0.0,0.0,-0.6471045016848787,-1.2724711792842514,66.35812231517943,-0.001790768606662141,0.0018902797004924999,0.004614513657767841,0.4,0.05558640522481549,0.04368140331663846,0.8670246765106778,0.018361887989237255,5.117018520832062,1.9185371696949005,-3.19521464407444,-0.5761898491838098,258.03918838500977,75.32821297645569,-142.61491298675537,0.0,0.0,0.0,0.0,0.0,0.0,0.0,0.0,0.0,0.0,0.0,0.0,0.0,0.0,0.0,0.0,False,0,1.4560096263885498,0.034925048828125
STABILIZE,1.376399040222168,29.915509432616524,0.03245738347371419,0.03256702423095703,0.0,0.0,0.0,-0.6392470093750137,-1.2776799455783265,66.33658672872637,-0.0023286753827403473,0.003521073563010976,-0.0415368208484586,0.4,0.11980818919388683,0.06539304385078033,0.8300164632419196,-0.21221736390123036,3.810196742415428,1.4302559196949005,-0.5928531289100647,-13.195081094328492,-50.741201639175415,79.35326099395752,-132.03216791152954,0.0,0.0,0.0,0.0,0.0,0.0,0.0,0.0,0.0,0.0,0.0,0.0,0.0,0.0,0.0,0.0,False,0,1.4850473403930664,0.029935791015625
STABILIZE,1.4098660945892334,29.880557672990474,0.032462390263875325,0.0326077938079834,0.0,0.0,0.0,-0.6493093721263234,-1.2509543758514186,66.36662590069609,-0.001325203006642265,-0.0008317498907406166,-0.010388630936327444,0.4,-0.05372342629249735,0.024568830903295258,0.8287029739318634,-0.05642922320593621,-10.084833204746246,-2.242991141974926,1.7344534397125244,9.201127977163535,-235.84346771240234,-89.15917873382568,-29.6912282705307,0.0,0.0,0.0,0.0,0.0,0.0,0.0,0.0,0.0,0.0,0.0,0.0,0.0,0.0,0.0,0.0,False,0,1.5219125747680664,0.034925048828125
STABILIZE,1.443349838256836,29.865451438336656,0.032463820775349934,0.032602787017822266,0.0,0.0,0.0,-0.6412681050391028,-1.2823838114823496,66.36247314568072,-0.0015265954161669498,0.0002453197570439266,-0.0322075121772063,0.4,-0.010707424118753542,0.0325113219345858,0.8304129724977535,-0.16538527222104885,2.664419449865818,0.6295664235949516,1.6525521874427795,-6.248031656485054,124.1805911064148,10.435764491558075,138.2845640182495,0.0,0.0,0.0,0.0,0.0,0.0,0.0,0.0,0.0,0.0,0.0,0.0,0.0,0.0,0.0,0.0,False,0,1.5515949726104736,0.034925048828125
STABILIZE,1.476835012435913,29.863537654237483,0.03240516980489095,0.03253817558288574,0.0,0.0,0.0,-0.6402140147510994,-1.2699957693186505,66.33265253976445,-0.0015602267968065533,0.0019941910816936655,-0.04241317486670075,0.4,0.0588726001054416,0.03394744632640693,0.7911624656355413,-0.21623279124455574,4.175437614321709,0.2298122039064765,-0.752765079960227,-2.8149711126406065,112.95762062072754,-11.572758108377457,-109.22377109527588,0.0,0.0,0.0,0.0,0.0,0.0,0.0,0.0,0.0,0.0,0.0,0.0,0.0,0.0,0.0,0.0,False,0,1.5793147087097168,0.02993603515625
STABILIZE,1.5101981163024902,29.97387302404025,0.03240636189778646,0.03253674507141113,0.0,0.0,0.0,-0.6473962254676323,-1.2591240291506944,66.38043654319786,-0.0015993496082477845,0.003734182954554042,-0.051682795514576226,0.4,0.1277304307031505,0.03570401544667534,0.7487025402963163,-0.2623615516661417,4.175437614321709,0.2298122039064765,-0.752765079960227,-2.8149711126406065,112.95762062072754,-11.572758108377457,-109.22377109527588,0.0,0.0,0.0,0.0,0.0,0.0,0.0,0.0,0.0,0.0,0.0,0.0,0.0,0.0,0.0,0.0,False,0,1.608020544052124,0.02993603515625
STABILIZE,1.5447723865509033,28.921646911179607,0.03249862988789876,0.0337519645690918,0.0,0.0,0.0,-0.6459656210016319,-1.2782689426725342,66.3686954480146,-0.0011299287016276627,0.0026190273274266074,-0.05093672507094353,0.4,0.0827560744568829,0.016623958358067358,0.7537420611655811,-0.2584078752000413,-2.5873230770230293,-1.0252533480525017,2.030782401561737,0.1196591512865112,-131.4265012741089,-12.900812923908234,56.718164682388306,0.0,0.0,0.0,0.0,0.0,0.0,0.0,0.0,0.0,0.0,0.0,0.0,0.0,0.0,0.0,0.0,True,1,1.6368157863616943,0.034926025390625
STABILIZE,1.5782487392425537,29.87183249056335,0.0325045903523763,0.032624244689941406,0.0,0.0,0.0,-0.6454283305738753,-1.254846943348091,66.34847125788221,-0.0012901351625113334,0.002906537585495011,-0.08287202413772782,0.4,0.0935812269280481,0.023281864152609,0.8023689589760905,-0.41773505072463674,2.934916131198406,-0.8236490190029144,2.182295359671116,-6.571263955653561,135.88145971298218,-67.88942217826843,119.28802728652954,0.0,0.0,0.0,0.0,0.0,0.0,0.0,0.0,0.0,0.0,0.0,0.0,0.0,0.0,0.0,0.0,True,0,1.6942381858825684,0.029935791015625
STABILIZE,1.6118016242980957,29.80623796360122,0.03246334393819173,0.032608985900878906,0.0,0.0,0.0,-0.6501641062679271,-1.2615431967773483,66.3901080910626,-0.0009212109347758426,0.003854778993934245,-0.07783720653840925,0.4,0.1309331843522421,0.008686792590178821,0.7990253430118134,-0.39223276512938154,2.372884750366211,-0.7804413326084614,1.5101434662938118,1.2227067411566557,16.706867516040802,0.20976339001208544,110.27613878250122,0.0,0.0,0.0,0.0,0.0,0.0,0.0,0.0,0.0,0.0,0.0,0.0,0.0,0.0,0.0,0.0,True,0,1.7230429649353027,0.0399150390625
STABILIZE,1.6461312770843506,29.128931669340446,0.03236058553059896,0.03344297409057617,0.0,0.0,0.0,-0.647689336632561,-1.2491027542561104,66.34341691789639,-0.0016041474579507366,0.002020186212922026,-0.10625191143439773,0.4,0.05689098392615455,0.03550435469302726,0.7987161840977234,-0.5338473719714083,-4.4234514236450195,1.724553108215332,1.2136733159422874,-8.16658739811203,-81.45670890808105,34.08649563789368,119.74114179611206,0.0,0.0,0.0,0.0,0.0,0.0,0.0,0.0,0.0,0.0,0.0,0.0,0.0,0.0,0.0,0.0,True,0,1.7517828941345215,0.029936279296875
STABILIZE,1.679588794708252,29.88779705704208,0.03244927724202474,0.032575368881225586,0.0,0.0,0.0,-0.6475193289552512,-1.2533445151741,66.35126480525274,-0.0023124408868986012,0.00012713752138127467,-0.13197872661568116,0.4,-0.019195791613824266,0.06280242399340726,0.7903490409803846,-0.6619278967421864,-4.4234514236450195,1.724553108215332,1.2136733159422874,-8.16658739811203,-81.45670890808105,34.08649563789368,119.74114179611206,0.0,0.0,0.0,0.0,0.0,0.0,0.0,0.0,0.0,0.0,0.0,0.0,0.0,0.0,0.0,0.0,True,0,1.7803068161010742,0.029936279296875
STABILIZE,1.713010549545288,29.920631183969295,0.03243592580159505,0.03255724906921387,0.0,0.0,0.0,-0.6502417463088831,-1.2594407791734537,66.38745797766464,-0.0019456476023753159,-0.0005313128739382775,-0.12129227117021578,0.4,-0.04504844725684214,0.047593535370027265,0.7929718144681939,-0.6079872643416616,-1.4607598073780537,-0.822123046964407,1.8513629212975502,2.681588403764247,40.33190310001373,-54.160380363464355,76.60536170005798,0.0,0.0,0.0,0.0,0.0,0.0,0.0,0.0,0.0,0.0,0.0,0.0,0.0,0.0,0.0,0.0,True,0,1.809175729751587,0.034925048828125
STABILIZE,1.7466559410095215,29.72196317975028,0.032454522450764973,0.03279709815979004,0.0,0.0,0.0,-0.6518522835708309,-1.2469989492700408,66.35993914549866,-0.002098702887884474,-0.00045538163733696514,-0.12251876384100079,0.4,-0.04185917749702475,0.05345794698731157,0.7664177580694936,-0.6136035458901595,-2.3145636543631554,1.3318778946995735,1.5705879777669907,-2.5582354007972286,-103.65513563156128,24.158082902431488,7.7965036034584045,0.0,0.0,0.0,0.0,0.0,0.0,0.0,0.0,0.0,0.0,0.0,0.0,0.0,0.0,0.0,0.0,True,0,1.8664050102233887,0.034925048828125
STABILIZE,1.7800447940826416,29.947549177108993,0.032468589146931966,0.03258013725280762,0.0,0.0,0.0,-0.6518522835708309,-1.2469989492700408,66.35993914549866,-0.0018527317429629534,-0.0015552701540685666,-0.11574321319265592,0.4,-0.08524642607323733,0.042956321888246926,0.772283337074552,-0.5792412863546734,-2.5029728189110756,-0.5627566948533058,1.7930904403328896,1.71781349371254,-28.543880581855774,-30.628252029418945,13.062962889671326,0.0,0.0,0.0,0.0,0.0,0.0,0.0,0.0,0.0,0.0,0.0,0.0,0.0,0.0,0.0,0.0,True,0,1.894991397857666,0.034926025390625
STABILIZE,1.8134548664093018,29.931734330509745,0.03253224690755208,0.03263545036315918,0.0,0.0,0.0,-0.653218534848245,-1.2530609556018386,66.38424095856556,-0.0016330422394334992,-0.0007883500066025701,-0.11277545725339624,0.4,-0.05417552193767433,0.034304628578879226,0.7642114251472473,-0.563931713604256,1.9895270466804504,-0.43853064998984337,0.9489484131336212,0.4416080685821429,79.32623028755188,12.284712493419647,-4.182889312505722,0.0,0.0,0.0,0.0,0.0,0.0,0.0,0.0,0.0,0.0,0.0,0.0,0.0,0.0,0.0,0.0,True,0,1.925516128540039,0.02993603515625
STABILIZE,1.8470096588134766,29.803696413725476,0.03253987630208333,0.0326845645904541,0.0,0.0,0.0,-0.6539160145563797,-1.250209031458241,66.37285503321915,-0.0014107279317970849,2.2057005409023146e-05,-0.1086176054822794,0.4,-0.021536995525901284,0.025594310561364943,0.752699148498015,-0.5426882288994309,1.9895270466804504,-0.43853064998984337,0.9489484131336212,0.4416080685821429,79.32623028755188,12.284712493419647,-4.182889312505722,0.0,0.0,0.0,0.0,0.0,0.0,0.0,0.0,0.0,0.0,0.0,0.0,0.0,0.0,0.0,0.0,True,0,1.954244613647461,0.02993603515625
STABILIZE,1.880462884902954,29.893761537200568,0.032447131474812825,0.03256034851074219,0.0,0.0,0.0,-0.652757070192446,-1.2535576384205456,66.37526608999616,-0.0016714916813673232,0.000525220615554946,-0.1074835348281983,0.4,-0.0014949883631181007,0.03602014247017906,0.7500997108416698,-0.5365693469131259,1.2362745590507984,0.7237011566758156,1.4665471389889717,-0.4830799633662554,-6.025734543800354,10.379001498222351,-1.9038939848542213,0.0,0.0,0.0,0.0,0.0,0.0,0.0,0.0,0.0,0.0,0.0,0.0,0.0,0.0,0.0,0.0,True,0,1.9830725193023682,0.02494677734375
STABILIZE,1.9140677452087402,29.75781139143514,0.03242185910542806,0.03255605697631836,0.0,0.0,0.0,-0.6527834304537741,-1.2550840789783375,66.38454148688903,-0.001468689077726547,-0.0003698954688328095,-0.10002314254742393,0.4,-0.03698560459151231,0.02743637384855709,0.7555996931498229,-0.4988503125307076,-2.216188609600067,-0.4448540974408388,2.162611670792103,1.2404248921939034,-11.790113896131516,-6.568780541419983,36.66850924491882,0.0,0.0,0.0,0.0,0.0,0.0,0.0,0.0,0.0,0.0,0.0,0.0,0.0,0.0,0.0,0.0,True,0,2.0118939876556396,0.0449033203125
STABILIZE,1.9474725723266602,29.934297765438885,0.032209189732869466,0.032422780990600586,0.0,0.0,0.0,-0.6532526857940951,-1.249240211813157,66.38279295846152,-0.0014393171379630423,-5.781041504269183e-05,-0.10053938872034858,0.4,-0.02436385056144405,0.02622934180076196,0.7669418892801124,-0.5010113795249498,0.8798332884907722,0.009463794413022697,1.612706482410431,-0.3638643741693984,-3.151749074459076,-22.02375829219818,42.28493273258209,0.0,0.0,0.0,0.0,0.0,0.0,0.0,0.0,0.0,0.0,0.0,0.0,0.0,0.0,0.0,0.0,True,0,2.0405683517456055,0.06486181640625
STABILIZE,1.9811434745788574,29.702388624115684,0.03239944775899251,0.03283071517944336,0.0,0.0,0.0,-0.6549106608542627,-1.251680830502673,66.39335926110752,-0.001041587281437684,-0.00018373287261364902,-0.10678287688657774,0.4,-0.02912660709564118,0.010217428335873602,0.8347105138933247,-0.5317804436422404,-0.945497490465641,-0.6785508710891008,2.6163773611187935,-0.9466141664837557,-37.4184787273407,-10.133983194828033,55.318647623062134,0.0,0.0,0.0,0.0,0.0,0.0,0.0,0.0,0.0,0.0,0.0,0.0,0.0,0.0,0.0,0.0,True,0,2.097944736480713,0.034925048828125
STABILIZE,2.0147292613983154,29.772174900624645,0.03247240384419759,0.032604217529296875,0.0,0.0,0.0,-0.6522479542950156,-1.2515051665749566,66.3901559023868,-0.0010477731289641674,-0.0003911866485075988,-0.09909035845468986,0.4,-0.03719903536040282,0.010343283795833208,0.830689382743002,-0.49290517908131737,-0.43631168082356453,0.07443733047693968,1.4430481009185314,0.9964840456566634,45.68863809108734,3.9443884044885635,57.98723101615906,0.0,0.0,0.0,0.0,0.0,0.0,0.0,0.0,0.0,0.0,0.0,0.0,0.0,0.0,0.0,0.0,True,0,2.126598596572876,0.029935791015625
STABILIZE,2.0481820106506348,29.893761537200568,0.03234437306722005,0.03246498107910156,0.0,0.0,0.0,-0.6506417926230048,-1.254249408517421,66.38380382645867,-0.0010612542550627005,-0.0005820665670936765,-0.09110544278756101,0.4,-0.044570404336779466,0.010775796223458181,0.8229330219730405,-0.4526022401798337,-0.43631168082356453,0.07443733047693968,1.4430481009185314,0.9964840456566634,45.68863809108734,3.9443884044885635,57.98723101615906,0.0,0.0,0.0,0.0,0.0,0.0,0.0,0.0,0.0,0.0,0.0,0.0,0.0,0.0,0.0,0.0,True,0,2.155336618423462,0.029935791015625
STABILIZE,2.0817747116088867,29.766258835552275,0.03233817418416341,0.032767295837402344,0.0,0.0,0.0,-0.6562131459124725,-1.2510026140624317,66.40014846914252,-0.001077439667454426,-0.000459092631703533,-0.09487205038316171,0.4,-0.03945765936035393,0.011394554725071292,0.814456646121266,-0.4710382067934811,0.21646800450980663,0.08331745048053563,1.366982702165842,-2.0532406687572813,23.93997311592102,-7.844025641679764,49.849674105644226,0.0,0.0,0.0,0.0,0.0,0.0,0.0,0.0,0.0,0.0,0.0,0.0,0.0,0.0,0.0,0.0,True,0,2.1839914321899414,0.03492529296875
STABILIZE,2.115255355834961,29.86672743067918,0.032505305608113606,0.03264760971069336,0.0,0.0,0.0,-0.6545016499168553,-1.250654381136467,66.39934933700962,-0.001091000214096964,-0.0003484203722674626,-0.09905294956072508,0.4,-0.03486416828579649,0.011904461192789347,0.8105510910939071,-0.4915312567351878,0.21646800450980663,0.08331745048053563,1.366982702165842,-2.0532406687572813,23.93997311592102,-7.844025641679764,49.849674105644226,0.0,0.0,0.0,0.0,0.0,0.0,0.0,0.0,0.0,0.0,0.0,0.0,0.0,0.0,0.0,0.0,True,0,2.212754487991333,0.03492529296875
STABILIZE,2.1488826274871826,29.73840045377198,0.032485278447469075,0.03279590606689453,0.0,0.0,0.0,-0.6537122828200429,-1.2526136849329086,66.39430865740216,-0.0011420682640967575,-0.00088715405893782,-0.0990225977713573,0.4,-0.05612799712632423,0.013688988922626906,0.8080861027566434,-0.49096700536286,-1.1787735857069492,0.14794417656958103,1.4389622025191784,-0.9152458823902375,-13.525138795375824,7.412000745534897,30.584213137626648,0.0,0.0,0.0,0.0,0.0,0.0,0.0,0.0,0.0,0.0,0.0,0.0,0.0,0.0,0.0,0.0,True,0,2.24141263961792,0.06486181640625
STABILIZE,2.182640552520752,29.624347555850633,0.03249386151631673,0.032851457595825195,0.0,0.0,0.0,-0.6556440524163929,-1.2506967496536623,66.40687620547499,-0.001340583849315191,-0.0004654516010590236,-0.09303438724430854,0.4,-0.039089593083834806,0.021667181551159386,0.8258977154336088,-0.4606380602236738,0.4719158634543419,0.25451204273849726,1.5041672624647617,0.13506816477576575,37.72707283496857,-8.175904303789139,24.40778613090515,0.0,0.0,0.0,0.0,0.0,0.0,0.0,0.0,0.0,0.0,0.0,0.0,0.0,0.0,0.0,0.0,True,0,2.299316167831421,0.034925048828125
STABILIZE,2.216064214706421,29.919350581722984,0.03240397771199544,0.032532453536987305,0.0,0.0,0.0,-0.6561086653625124,-1.250383948334017,66.4067327715024,-0.0014063555921478281,-0.0010703426308665707,-0.09030667805423985,0.4,-0.06295474428390097,0.023985556645527872,0.8314197982847665,-0.4466257452217064,-1.2851607985794544,0.16144688706845045,1.9648581743240356,-0.29262878281861815,-40.69066643714905,7.530991733074188,29.383161664009094,0.0,0.0,0.0,0.0,0.0,0.0,0.0,0.0,0.0,0.0,0.0,0.0,0.0,0.0,0.0,0.0,True,0,2.3279972076416016,0.06486083984375
STABILIZE,2.249567747116089,29.848661035162504,0.03242925008138021,0.03255510330200195,0.0,0.0,0.0,-0.6540206551888984,-1.2529105847183926,66.39804477087816,-0.0014290624100245517,-0.0012784231143900134,-0.0883209312563685,0.4,-0.07089553141741234,0.024706090411895063,0.8559066862858966,-0.4363324857123682,-0.28000897727906704,0.03746412985492498,1.7066655680537224,-0.05040933071520641,4.278641194105148,-4.174389690160751,27.170979976654053,0.0,0.0,0.0,0.0,0.0,0.0,0.0,0.0,0.0,0.0,0.0,0.0,0.0,0.0,0.0,0.0,True,0,2.3566808700561523,0.034925048828125
STABILIZE,2.283379316329956,29.57359017387503,0.032355578740437825,0.03290987014770508,0.0,0.0,0.0,-0.6536122312208728,-1.251479126478746,66.40921896036029,-0.0014266792210796443,-0.0013789208322896253,-0.084395777731414,0.4,-0.07449110381777356,0.02446692287609461,0.8539722619490345,-0.4163541207923335,-0.28000897727906704,0.03746412985492498,1.7066655680537224,-0.05040933071520641,4.278641194105148,-4.174389690160751,27.170979976654053,0.0,0.0,0.0,0.0,0.0,0.0,0.0,0.0,0.0,0.0,0.0,0.0,0.0,0.0,0.0,0.0,True,0,2.3854033946990967,0.034925048828125
STABILIZE,2.3167941570281982,29.927676456317606,0.03237417538960775,0.03248858451843262,0.0,0.0,0.0,-0.6549632212943601,-1.251271552761001,66.41425963996777,-0.001294872131859946,-0.0010444966619614108,-0.08062440208506813,0.4,-0.06073405757209488,0.01920337874944064,0.85053329369806,-0.39716529174189136,0.562488567084074,-0.20889588631689548,1.6131175681948662,-0.04803570657649475,20.06746530532837,-7.933635264635086,24.323250353336334,0.0,0.0,0.0,0.0,0.0,0.0,0.0,0.0,0.0,0.0,0.0,0.0,0.0,0.0,0.0,0.0,True,0,2.414034366607666,0.03492626953125
STABILIZE,2.3510940074920654,29.155456694008063,0.03245404561360677,0.033333778381347656,0.0,0.0,0.0,-0.6541711861549031,-1.2512528764624893,66.40688303566415,-0.0014158558034827555,-0.0010521532762419307,-0.07953260997285824,0.4,-0.06073596221431921,0.023913981556255966,0.8424710303303593,-0.39137185566709004,-0.10718887206166983,0.27975772973150015,1.3641002587974072,-0.672755543917126,-16.174085438251495,9.469743818044662,18.591219186782837,0.0,0.0,0.0,0.0,0.0,0.0,0.0,0.0,0.0,0.0,0.0,0.0,0.0,0.0,0.0,0.0,True,1,2.442898988723755,0.029935791015625
STABILIZE,2.3845221996307373,29.914015918751605,0.03234723409016927,0.032477617263793945,0.0,0.0,0.0,-0.6540158527121382,-1.2508400769045267,66.41171880959652,-0.0013290714153892493,-0.0012640307633582733,-0.07103969099816927,0.4,-0.06877938490891519,0.020313993403275398,0.8327710150693066,-0.3486155470824799,-0.023061936371959746,-0.14525298029184341,1.3516579754650593,0.13172685491009403,20.654158294200897,3.745252639055252,23.515959084033966,0.0,0.0,0.0,0.0,0.0,0.0,0.0,0.0,0.0,0.0,0.0,0.0,0.0,0.0,0.0,0.0,True,0,2.5003445148468018,0.034925048828125
STABILIZE,2.417978525161743,29.892057157110788,0.03237512906392415,0.032511234283447266,0.0,0.0,0.0,-0.654246905205155,-1.2507151057870567,66.4184192251723,-0.0014080790927890401,-0.0011928375325853475,-0.06833202946996769,0.4,-0.06558645482908818,0.02337805582363333,0.8307179541852034,-0.334797306040757,0.055473786778748035,0.2047659596428275,1.5897678211331367,-0.16414636114577277,-16.635482013225555,1.779601350426674,22.293956577777863,0.0,0.0,0.0,0.0,0.0,0.0,0.0,0.0,0.0,0.0,0.0,0.0,0.0,0.0,0.0,0.0,True,0,2.5291543006896973,0.029935791015625
STABILIZE,2.451457977294922,29.86672743067918,0.03235462506612142,0.03247427940368652,0.0,0.0,0.0,-0.6549470529559343,-1.2507052873901248,66.4180094138221,-0.0014824437194303217,-0.0011115942790428457,-0.06566186116270047,0.4,-0.06200824335771827,0.02624177640443906,0.8248967477555113,-0.3211778670100052,0.055473786778748035,0.2047659596428275,1.5897678211331367,-0.16414636114577277,-16.635482013225555,1.779601350426674,22.293956577777863,0.0,0.0,0.0,0.0,0.0,0.0,0.0,0.0,0.0,0.0,0.0,0.0,0.0,0.0,0.0,0.0,True,0,2.5579185485839844,0.029935791015625
STABILIZE,2.486318826675415,28.686259087769212,0.03233531316121419,0.03398585319519043,0.0,0.0,0.0,-0.6548173860834098,-1.2510473304571543,66.42023605549153,-0.0014497172038238299,-0.001555945830579113,-0.06316942484618272,0.4,-0.07931845375293897,0.024708869332330366,0.8127267510469617,-0.30844625575100115,-1.0742394253611565,-0.029389074188657105,1.2071453034877777,-0.16875644535084047,-16.91785752773285,-4.235435649752617,16.916078329086304,0.0,0.0,0.0,0.0,0.0,0.0,0.0,0.0,0.0,0.0,0.0,0.0,0.0,0.0,0.0,0.0,True,0,2.5864717960357666,0.03492626953125
STABILIZE,2.5197701454162598,29.892909322861357,0.03243974049886068,0.03257179260253906,0.0,0.0,0.0,-0.6560840660093298,-1.2505248209856483,66.42504450866721,-0.0014737306946293071,-0.0014173783265535936,-0.059546035160529656,0.4,-0.07336945740698073,0.02558056399806794,0.8111778986699798,-0.29008667301052204,0.21695729810744524,0.09200693457387388,1.5322289429605007,0.19698729805736923,21.592462062835693,3.7454210221767426,19.980576634407043,0.0,0.0,0.0,0.0,0.0,0.0,0.0,0.0,0.0,0.0,0.0,0.0,0.0,0.0,0.0,0.0,True,0,2.615262508392334,0.034925048828125
STABILIZE,2.5531880855560303,29.92361968223619,0.03245094617207845,0.03255939483642578,0.0,0.0,0.0,-0.6576562368180492,-1.250006900547491,66.42813175417206,-0.001528030674101066,-0.002000791953490649,-0.05275000980283045,0.4,-0.09616629546587979,0.02753510234947178,0.8343390031297807,-0.25589277471349475,-0.5427910014986992,0.050341663882136345,1.2670345604419708,0.13526933519116377,-0.4512920044362545,3.730117529630661,16.77086055278778,0.0,0.0,0.0,0.0,0.0,0.0,0.0,0.0,0.0,0.0,0.0,0.0,0.0,0.0,0.0,0.0,True,0,2.6727147102355957,0.034926025390625
STABILIZE,2.5866329669952393,29.899728398406033,0.03246596654256185,0.03258776664733887,0.0,0.0,0.0,-0.6566787193539441,-1.2526367368213573,66.4250923199914,-0.0015312792192555776,-0.002204840467106105,-0.04947883904615874,0.4,-0.10375570903312582,0.02750689766869218,0.8252709944520222,-0.23933672633197958,-0.5427910014986992,0.050341663882136345,1.2670345604419708,0.13526933519116377,-0.4512920044362545,3.730117529630661,16.77086055278778,0.0,0.0,0.0,0.0,0.0,0.0,0.0,0.0,0.0,0.0,0.0,0.0,0.0,0.0,0.0,0.0,True,0,2.7016563415527344,0.034926025390625
STABILIZE,2.620107889175415,29.873747337981925,0.032465489705403645,0.03261089324951172,0.0,0.0,0.0,-0.6573430619724335,-1.25235029576304,66.42985979203208,-0.0015222612327343875,-0.0019987062452197467,-0.04588751551087476,0.4,-0.09498069289212172,0.027060986464800107,0.8154494212285645,-0.22119488059886008,0.30636100564152,0.028396392008289695,1.2028340250253677,0.2541557146061115,16.800549626350403,-4.034066945314407,18.064340949058533,0.0,0.0,0.0,0.0,0.0,0.0,0.0,0.0,0.0,0.0,0.0,0.0,0.0,0.0,0.0,0.0,True,0,2.7300519943237305,0.0349248046875
STABILIZE,2.6537117958068848,29.75717802640634,0.032450230916341145,0.03281545639038086,0.0,0.0,0.0,-0.6581512120894636,-1.251892779810355,66.43367786777812,-0.0014648064555702021,-0.001984642680002055,-0.04314730819824352,0.4,-0.09388982432101156,0.02465158061527238,0.8142672497399956,-0.20731949252732992,-0.09838358964771032,-0.07551913149654865,1.634967140853405,0.06525234563784904,-9.887207299470901,0.07544805994257331,26.175755262374878,0.0,0.0,0.0,0.0,0.0,0.0,0.0,0.0,0.0,0.0,0.0,0.0,0.0,0.0,0.0,0.0,True,0,2.758838415145874,0.029936279296875
STABILIZE,2.6891911029815674,28.186011504757808,0.03253987630208333,0.03457450866699219,0.0,0.0,0.0,-0.6567442464812938,-1.2529405735177173,66.43104824494766,-0.0015383359718311362,-0.002336446935974019,-0.04146168079811163,0.4,-0.10735603669533678,0.027400881988116913,0.8072388551243593,-0.19871570812097747,-0.9188749827444553,0.20560878328979015,1.505985762923956,-0.16335356561416206,-1.9653502851724625,-0.04437070747371763,16.7024165391922,0.0,0.0,0.0,0.0,0.0,0.0,0.0,0.0,0.0,0.0,0.0,0.0,0.0,0.0,0.0,0.0,True,0,2.787473440170288,0.0399150390625
STABILIZE,2.7226483821868896,29.8905659839512,0.03241732915242513,0.032564640045166016,0.0,0.0,0.0,-0.656778397427144,-1.2526448476709968,66.43550152828651,-0.0015541138990907081,-0.0022489284969226106,-0.039037338724596866,0.4,-0.10329087451306135,0.027913909955344266,0.8091221474805413,-0.18643792953482877,0.10563365649431944,0.06919771549291909,1.539880409836769,0.029546931442012366,8.855404704809189,-3.93841490149498,18.293584883213043,0.0,0.0,0.0,0.0,0.0,0.0,0.0,0.0,0.0,0.0,0.0,0.0,0.0,0.0,0.0,0.0,True,0,2.816240072250366,0.029935791015625
STABILIZE,2.7561304569244385,29.86672743067918,0.032422812779744466,0.032555580139160156,0.0,0.0,0.0,-0.6569631860607045,-1.2514946011260843,66.44241367972656,-0.0014987824630730965,-0.002015975224631423,-0.03503474954546931,0.4,-0.09344405019927324,0.02562216452449996,0.7971402092910486,-0.1662858076691558,0.030856841476634145,-0.07714407984167337,1.4859020709991455,-0.041668042609232195,-7.515396922826767,4.125485196709633,29.99035120010376,0.0,0.0,0.0,0.0,0.0,0.0,0.0,0.0,0.0,0.0,0.0,0.0,0.0,0.0,0.0,0.0,True,0,2.8739633560180664,0.034925048828125
STABILIZE,2.789494752883911,29.97066032140739,0.032384427388509114,0.03250408172607422,0.0,0.0,0.0,-0.6565928083807899,-1.2508098746617906,66.43906688703325,-0.0015386152515823037,-0.0022626807622221816,-0.03438241144506125,0.4,-0.1027639700257838,0.02704764367100063,0.7951513537454794,-0.1628880859583403,-0.6837861146777868,0.12953211553394794,1.4704090543091297,-0.35505505764609513,-11.640909314155579,0.13695420930162072,25.89290738105774,0.0,0.0,0.0,0.0,0.0,0.0,0.0,0.0,0.0,0.0,0.0,0.0,0.0,0.0,0.0,0.0,True,0,2.902792453765869,0.02993603515625
STABILIZE,2.82304048538208,29.810262970859984,0.03247502644856771,0.03271341323852539,0.0,0.0,0.0,-0.6571545914400235,-1.2519404844128392,66.44498183085449,-0.0015743822198769856,-0.002489117996088148,-0.03387070223456185,0.4,-0.11122543396991137,0.028305298809329246,0.7895493562080252,-0.1601951646571884,-0.6837861146777868,0.12953211553394794,1.4704090543091297,-0.35505505764609513,-11.640909314155579,0.13695420930162072,25.89290738105774,0.0,0.0,0.0,0.0,0.0,0.0,0.0,0.0,0.0,0.0,0.0,0.0,0.0,0.0,0.0,0.0,True,0,2.9313724040985107,0.02993603515625
STABILIZE,2.8564743995666504,29.90804335424986,0.0324893315633138,0.03259420394897461,0.0,0.0,0.0,-0.6573491451096631,-1.251318510311545,66.44745435933403,-0.0016051551409817537,-0.002536962768497284,-0.03190230387894057,0.4,-0.11252959405904923,0.029391324092228555,0.7839458852108194,-0.15022761082542777,-0.2824827563017607,0.12098135193809867,1.4372450299561024,0.08303216181071865,3.2287903130054474,2.0744523033499718,25.269868969917297,0.0,0.0,0.0,0.0,0.0,0.0,0.0,0.0,0.0,0.0,0.0,0.0,0.0,0.0,0.0,0.0,True,0,2.9600327014923096,0.064861083984375
STABILIZE,2.8978769779205322,24.154754294731145,0.03248623212178548,0.04049229621887207,0.0,0.0,0.0,-0.6577289142996864,-1.250470819802523,66.44660058568778,-0.0016565400905489058,-0.002741779974554238,-0.03032064665865559,0.4,-0.11992544111635035,0.031234161599724503,0.8087609375153157,-0.14217244672393167,-0.2986021339893341,0.08789087296463549,1.6442490741610527,-0.1119081672390161,-16.878080368041992,0.18156967125833035,31.994828581809998,0.0,0.0,0.0,0.0,0.0,0.0,0.0,0.0,0.0,0.0,0.0,0.0,0.0,0.0,0.0,0.0,True,0,2.9888994693756104,0.034926025390625
STABILIZE,2.9312667846679688,29.947335351573656,0.03239920934041341,0.032530784606933594,0.0,0.0,0.0,-0.6582262908094808,-1.2495047749217891,66.4494897557067,-0.0016883986572686447,-0.0029332733636418798,-0.02660641049391771,0.4,-0.1268873704211402,0.03235464460313941,0.8053140696401481,-0.12349800281815915,-0.47689778730273247,0.08409033762291074,1.4409868977963924,0.2560335897410419,-1.4582306146621704,-0.005322977085597813,19.096532464027405,0.0,0.0,0.0,0.0,0.0,0.0,0.0,0.0,0.0,0.0,0.0,0.0,0.0,0.0,0.0,0.0,True,0,3.049267053604126,0.0349248046875
STABILIZE,2.964914083480835,29.71985715095516,0.03246882756551107,0.0328061580657959,0.0,0.0,0.0,-0.6580584709271395,-1.2491623049679366,66.4512860954584,-0.001728423074774103,-0.0028611405821266657,-0.0248857074308811,0.4,-0.1233304756350883,0.033797117435761116,0.7992788187626136,-0.114797831258902,-0.010624882997944951,0.13454407453536987,1.286114938557148,0.06891700893182534,2.050229348242283,2.0417626947164536,22.02277183532715,0.0,0.0,0.0,0.0,0.0,0.0,0.0,0.0,0.0,0.0,0.0,0.0,0.0,0.0,0.0,0.0,True,0,3.078047513961792,0.02993603515625
STABILIZE,3.0000391006469727,28.46915725456125,0.03247955640157064,0.034233808517456055,0.0,0.0,0.0,-0.6581450755913811,-1.249531775513352,66.45369032204626,-0.001738655310238728,-0.0028457764831914803,-0.02345878574607489,0.4,-0.1220235634959461,0.03403113757186529,0.7912354203873381,-0.10756894974137782,-0.1793390605598688,0.08170502260327339,1.3671644032001495,0.030211020596450658,-11.804334074258804,-1.879432052373886,20.3231081366539,0.0,0.0,0.0,0.0,0.0,0.0,0.0,0.0,0.0,0.0,0.0,0.0,0.0,0.0,0.0,0.0,True,0,3.1073970794677734,0.034925048828125
STABILIZE,3.0334391593933105,29.942418206868982,0.03242066701253255,0.03255486488342285,0.0,0.0,0.0,-0.6581842424574029,-1.2500476682390995,66.45478998250262,-0.001741209124413356,-0.0030160408848805124,-0.022320613970056944,0.4,-0.12814139255485782,0.033950942363147975,0.7946321017513175,-0.1017929522278255,-0.5443953908979893,0.05145738832652569,1.7567848786711693,-0.049706301478371115,-12.405084818601608,2.0856784656643867,23.552405834197998,0.0,0.0,0.0,0.0,0.0,0.0,0.0,0.0,0.0,0.0,0.0,0.0,0.0,0.0,0.0,0.0,True,0,3.1363842487335205,0.03492578125
STABILIZE,3.0669538974761963,29.836770407255912,0.03248599370320638,0.03261399269104004,0.0,0.0,0.0,-0.6580033491661034,-1.2497737136203584,66.45765866195403,-0.0017849980029643287,-0.0030360674858853306,-0.021243284554223616,0.4,-0.12825182956485814,0.03552240589484748,0.793667159532696,-0.096325689329927,-0.21324718836694956,0.1441905740648508,1.5046879649162292,-0.04755511205493444,4.605119302868843,1.952253095805645,18.46121847629547,0.0,0.0,0.0,0.0,0.0,0.0,0.0,0.0,0.0,0.0,0.0,0.0,0.0,0.0,0.0,0.0,True,0,3.165034294128418,0.029936279296875
STABILIZE,3.100336790084839,29.95546286905969,0.03241542180379232,0.03253436088562012,0.0,0.0,0.0,-0.6582445402211695,-1.2496449005214803,66.45920228470645,-0.0017909377126467427,-0.0029684481799185213,-0.02023038842696344,0.4,-0.1248735110452678,0.03558497747836498,0.7896049688008094,-0.09118504458973914,-0.06622368819080293,0.07407233933918178,1.5383906662464142,-0.02831952510381992,-0.18377513624727726,-1.9958149641752243,17.502181231975555,0.0,0.0,0.0,0.0,0.0,0.0,0.0,0.0,0.0,0.0,0.0,0.0,0.0,0.0,0.0,0.0,True,0,3.193563222885132,0.034870849609375
STABILIZE,3.133734941482544,29.941990705377602,0.032474788029988606,0.03259015083312988,0.0,0.0,0.0,-0.657091358829348,-1.250004445948258,66.46050002064875,-0.0017721951760416741,-0.0030905646840543076,-0.017938419253734263,0.4,-0.12905260742016716,0.03466700359371312,0.7912783455703417,-0.07965863711396903,-0.30655248556286097,0.07783693727105856,1.5438029542565346,0.07503245615779328,-3.103847987949848,0.08752806461416185,24.265846610069275,0.0,0.0,0.0,0.0,0.0,0.0,0.0,0.0,0.0,0.0,0.0,0.0,0.0,0.0,0.0,0.0,True,0,3.251155376434326,0.02993603515625
STABILIZE,3.167206048965454,29.876088040458722,0.03251174290974935,0.03263568878173828,0.0,0.0,0.0,-0.6568692175987639,-1.2502061499721848,66.46310232272252,-0.0017811287048860188,-0.0030703740900804204,-0.017098384857747118,0.4,-0.12755757958221792,0.034848126111470513,0.7882820586660462,-0.07539542266338198,-0.1738517777994275,0.08116753306239843,1.5639068558812141,-0.028752081517565354,5.443285405635834,0.22656726650893688,30.53995668888092,0.0,0.0,0.0,0.0,0.0,0.0,0.0,0.0,0.0,0.0,0.0,0.0,0.0,0.0,0.0,0.0,True,0,3.279529571533203,0.0399140625
STABILIZE,3.2006595134735107,29.892057157110788,0.0324888547261556,0.03260993957519531,0.0,0.0,0.0,-0.6569933349425877,-1.250045000196455,66.46473473793417,-0.001772758456032313,-0.003070268586940257,-0.01664057593724705,0.4,-0.12687119326272425,0.03433465573214894,0.7922730997188715,-0.07304531110355458,-0.1308149308897555,0.017257363651879132,1.493364293128252,-0.1603796052000033,-5.297067016363144,-0.07300819270312786,18.13543438911438,0.0,0.0,0.0,0.0,0.0,0.0,0.0,0.0,0.0,0.0,0.0,0.0,0.0,0.0,0.0,0.0,True,0,3.3083255290985107,0.029935791015625
STABILIZE,3.2341370582580566,29.8711942626395,0.03248337109883626,0.03261399269104004,0.0,0.0,0.0,-0.6575200065606193,-1.2500367826251098,66.46680428525268,-0.0017535405874292908,-0.003029804086819483,-0.016351922325514533,0.4,-0.12458284793387833,0.03339242149218544,0.7881048425877782,-0.07154219944994511,-0.1308149308897555,0.017257363651879132,1.493364293128252,-0.1603796052000033,-5.297067016363144,-0.07300819270312786,18.13543438911438,0.0,0.0,0.0,0.0,0.0,0.0,0.0,0.0,0.0,0.0,0.0,0.0,0.0,0.0,0.0,0.0,True,0,3.3378047943115234,0.029935791015625
STABILIZE,3.2676284313201904,29.85949824871145,0.032429011662801106,0.03257250785827637,0.0,0.0,0.0,-0.6563986282371206,-1.2504954725165585,66.46887383257119,-0.0017764887971256594,-0.0030780569853926065,-0.015887749507079992,0.4,-0.12583746877808852,0.03413033084789272,0.7821264823330263,-0.06916347904059515,-0.332513521425426,0.11354717426002026,1.3609406538307667,-0.09930786227262435,-5.742064118385315,1.915917545557022,21.398307383060455,0.0,0.0,0.0,0.0,0.0,0.0,0.0,0.0,0.0,0.0,0.0,0.0,0.0,0.0,0.0,0.0,True,0,3.3664135932922363,0.02993603515625
STABILIZE,3.301002025604248,29.96252455620245,0.03242662747701009,0.032590627670288086,0.0,0.0,0.0,-0.6571717736346544,-1.2484331822740378,66.47366862536853,-0.0017498730808954417,-0.0031346943817582612,-0.014655551934376636,0.4,-0.12741193381279503,0.032900424844865,0.7763908534702565,-0.06294982929687545,-0.3507167100906372,-0.0027526642952580005,1.3478551991283894,0.13848704798132735,4.099313169717789,-0.13842858606949449,19.13074254989624,0.0,0.0,0.0,0.0,0.0,0.0,0.0,0.0,0.0,0.0,0.0,0.0,0.0,0.0,0.0,0.0,True,0,3.3952109813690186,0.03492626953125
STABILIZE,3.334538698196411,29.819800220397426,0.03253820737202962,0.03267717361450195,0.0,0.0,0.0,-0.6579011097719648,-1.2481147247039859,66.47494587074333,-0.001712059336165065,-0.0031765893373906823,-0.014036144303495077,0.4,-0.12839461073509587,0.031225767274033884,0.780767739128767,-0.05980274205679425,-0.44461009092628956,0.0015786747098900378,1.5670018270611763,-0.16180694131376405,-9.591751545667648,-2.002614736557007,24.413755536079407,0.0,0.0,0.0,0.0,0.0,0.0,0.0,0.0,0.0,0.0,0.0,0.0,0.0,0.0,0.0,0.0,True,0,3.4524848461151123,0.034925048828125
STABILIZE,3.3680505752563477,29.840166762711743,0.0324588139851888,0.03260159492492676,0.0,0.0,0.0,-0.6573180357324279,-1.2480943408581815,66.47711787089939,-0.0016914054775678878,-0.0032908456816370993,-0.013895168105914362,0.4,-0.13225504205656022,0.03023470602138569,0.7828995397154898,-0.05904846506107909,-0.44461009092628956,0.0015786747098900378,1.5670018270611763,-0.16180694131376405,-9.591751545667648,-2.002614736557007,24.413755536079407,0.0,0.0,0.0,0.0,0.0,0.0,0.0,0.0,0.0,0.0,0.0,0.0,0.0,0.0,0.0,0.0,True,0,3.481245279312134,0.034925048828125
STABILIZE,3.4014713764190674,29.92105807574601,0.03240683873494466,0.032562971115112305,0.0,0.0,0.0,-0.6595076983307987,-1.2474909363336932,66.48112036175301,-0.0016975229030742574,-0.0033125609616596165,-0.012929843115891465,0.4,-0.13240895660178753,0.030327346305836885,0.7832270069695567,-0.0541765009342283,-0.2277417341247201,0.06558733293786645,1.4627899043262005,0.09091467369048277,-6.0512445867061615,-0.1528751803562045,16.180811822414398,0.0,0.0,0.0,0.0,0.0,0.0,0.0,0.0,0.0,0.0,0.0,0.0,0.0,0.0,0.0,0.0,True,0,3.509950876235962,0.06486181640625
STABILIZE,3.4348626136779785,29.945624857208134,0.03246596654256185,0.03258013725280762,0.0,0.0,0.0,-0.6603186765730319,-1.2474175118001156,66.48254104110039,-0.0017236567908963478,-0.003444751934988604,-0.011758056032162952,0.4,-0.1369579534804704,0.031214936861836552,0.8062405239356469,-0.048277218860867104,-0.2277417341247201,0.06558733293786645,1.4627899043262005,0.09091467369048277,-6.0512445867061615,-0.1528751803562045,16.180811822414398,0.0,0.0,0.0,0.0,0.0,0.0,0.0,0.0,0.0,0.0,0.0,0.0,0.0,0.0,0.0,0.0,True,0,3.5388712882995605,0.06486181640625
STABILIZE,3.4683640003204346,29.851422715044198,0.032518895467122395,0.032623291015625,0.0,0.0,0.0,-0.661181521564275,-1.246741963402519,66.48742462635694,-0.0017264819864805444,-0.0036362892493281363,-0.011549619053626798,0.4,-0.14384893093357765,0.031157604670165328,0.8279367466081811,-0.04719559603887393,-0.38107261061668396,0.020730102551169693,1.5386037528514862,-0.16076752526030563,-6.268439441919327,-0.19003581255674362,17.758654057979584,0.0,0.0,0.0,0.0,0.0,0.0,0.0,0.0,0.0,0.0,0.0,0.0,0.0,0.0,0.0,0.0,True,0,3.567234754562378,0.034925048828125
STABILIZE,3.501795768737793,29.909962847016708,0.03243568738301595,0.032590389251708984,0.0,0.0,0.0,-0.6600415203031175,-1.2467475129312198,66.48897507929854,-0.0017399591510132526,-0.003763428332124961,-0.010867261964974437,0.4,-0.14813718706600273,0.03153264581070606,0.8203627233744625,-0.04374719296901282,-0.4979194141924381,0.08661479223519564,1.3282490894198418,0.02640813268316755,-8.871285617351532,1.9314924255013466,22.811967134475708,0.0,0.0,0.0,0.0,0.0,0.0,0.0,0.0,0.0,0.0,0.0,0.0,0.0,0.0,0.0,0.0,True,0,3.5960264205932617,0.029936279296875
STABILIZE,3.5352351665496826,29.90697707583158,0.032485278447469075,0.03261590003967285,0.0,0.0,0.0,-0.6597217287117434,-1.2463309781135548,66.48989715483648,-0.0017374324342334002,-0.0037907557055259075,-0.009687540733591814,0.4,-0.14842878724356043,0.031279068893497,0.8036984883847125,-0.03781696856378973,-0.1606893027201295,0.046287040458992124,1.5437835827469826,0.0190465961503888,2.3407943546772003,-0.05442323163151741,19.327017664909363,0.0,0.0,0.0,0.0,0.0,0.0,0.0,0.0,0.0,0.0,0.0,0.0,0.0,0.0,0.0,0.0,True,0,3.653352975845337,0.0349248046875
STABILIZE,3.5691308975219727,29.500372772158844,0.03249791463216146,0.03314328193664551,0.0,0.0,0.0,-0.6615426144557864,-1.2465844421647856,66.4929024380713,-0.0017735089763466123,-0.003740100789971498,-0.00954322648088851,0.4,-0.14561183019918858,0.03254867055196563,0.8020985423818373,-0.03706394648222929,-0.12081434251740575,0.13117088237777352,1.531920861452818,-0.09054884502327719,-3.697006404399872,0.05057534435763955,21.21749073266983,0.0,0.0,0.0,0.0,0.0,0.0,0.0,0.0,0.0,0.0,0.0,0.0,0.0,0.0,0.0,0.0,True,0,3.6861441135406494,0.034926025390625
STABILIZE,3.6026909351348877,29.798614614045682,0.03257730801900228,0.0327143669128418,0.0,0.0,0.0,-0.6606396421031696,-1.2462215883651286,66.49432311741866,-0.0017838965717315786,-0.0037645245236276196,-0.009260546428147276,0.4,-0.14580598438889975,0.0327916298113783,0.8023232887165915,-0.035620723455917505,-0.28172628954052925,0.07616188959218562,1.6169939190149307,-0.046859446615798064,-0.5987034179270267,1.8897945061326027,18.156014382839203,0.0,0.0,0.0,0.0,0.0,0.0,0.0,0.0,0.0,0.0,0.0,0.0,0.0,0.0,0.0,0.0,True,0,3.7146270275115967,0.06984423828125
STABILIZE,3.636307954788208,29.748524738992284,0.03245213826497396,0.03264045715332031,0.0,0.0,0.0,-0.6602668098240222,-1.2474826120406424,66.49575745714436,-0.0018242105609828111,-0.003927252308343162,-0.008849599592003817,0.4,-0.15150124052360353,0.03422238622973821,0.8291713881627417,-0.03353789572707044,-0.28172628954052925,0.07616188959218562,1.6169939190149307,-0.046859446615798064,-0.5987034179270267,1.8897945061326027,18.156014382839203,0.0,0.0,0.0,0.0,0.0,0.0,0.0,0.0,0.0,0.0,0.0,0.0,0.0,0.0,0.0,0.0,True,0,3.7433314323425293,0.06984423828125
