Mode,Time,Freq,North-Vision,East-Vision,Down-Vision,Yaw-Vision,North-Desired,East-Desired,Down-Desired,Roll-UAV,Pitch-UAV,Yaw-UAV,Roll-Control,Pitch-Control,Yaw-Control,Thrust-Control,northVraw,eastVraw,downVraw,N-Velocity,E-Velocity,D-Velocity,N-Acceleration,E-Acceleration,D-Acceleration,yawVraw,yawRate,Landing-State,Q-Size
GUIDED_NOGPS,0.005717754364013672,175.25191158651234,5.59677441891766,34.70394081490308,69.81238258769054,5.230629887043436,5.0856257700723635,34.81089518236778,69.69496173477422,-0.8306693040844092,0.6427429990130024,-15.525732030659956,-0.1443473057474996,4.003511989034323,10.0,0.4997651119854406,7.897140690126104,34.21557740575564,69.27632537265757,16.543850302696228,-2.033870108425617,0.9317129850387573,34.51620936393738,1.9873838871717453,-13.427385687828064,6.129459704197577,1.738832120222785,False,3
GUIDED_NOGPS,0.020818233489990234,66.2408439804798,6.953696430297327,34.27107023469306,70.66513185748889,5.780482486199159,5.3516241759156955,34.79539075075721,69.74137036241935,-0.8957141026849398,0.639220969278803,-15.626531962431004,-0.11008159995299094,4.009299855935125,10.0,0.49815130218162273,7.897140690126104,34.21557740575564,69.27632537265757,5.424708500504494,-1.005528960376978,-1.004562433809042,-62.18599081039429,8.132057636976242,-45.41094899177551,6.129459704197577,5.064095203491506,False,2
GUIDED_NOGPS,0.04906582832336426,35.40722106382799,7.021384047767923,34.27919022518063,70.54179859295972,5.851287608583428,5.616932790573205,34.78000289195574,69.7872908308511,-1.0193719028436703,0.6554247926718649,-15.776896869461543,0.04305429581119097,-0.30544055185759694,4.515715446829919,0.498488108519557,8.373791660428378,34.06761873316536,69.42791956500969,7.398374378681183,-1.4096295461058617,1.7572816461324692,-38.028115034103394,13.139921426773071,-33.218732476234436,6.536766129412818,4.983691070355762,False,2
GUIDED_NOGPS,0.05519223213195801,163.43142144638404,7.2156501135838305,34.24164261558439,70.53436205792995,5.950531839706555,5.880885739528895,34.76484394076955,69.83224779649463,-1.0193719028436703,0.6554247926718649,-15.776896869461543,0.1183100555069704,-0.5758221007394191,10.0,0.4985925560931831,8.87008523294434,34.04695928493746,69.45939695014323,7.068220525979996,-1.7909279093146324,3.0659623444080353,2.430257573723793,-3.1001487746834755,6.119239330291748,6.675516243416946,3.949100972432775,False,1
GUIDED_NOGPS,0.07863807678222656,42.654083573164655,7.224124683925561,34.25729136093828,70.45573044533579,6.0229626325547985,6.142842928027012,34.75002166528569,69.87577977410156,-1.1208231571851028,0.7664495176304221,-15.940768475575782,0.0652266352020083,-0.5532949775275605,4.840161521590101,0.49883578720478033,9.103191013600611,34.139182716633925,69.53588084134536,3.2108917832374573,-1.302809827029705,3.3608131110668182,-55.171775817871094,12.065089493989944,219.66753005981445,6.839919662795669,6.021818779381994,False,1
GUIDED_NOGPS,0.08494019508361816,158.89320756146532,7.3505544711756,34.22909804387945,70.4968411405432,6.158821086628857,6.402189698804522,34.73563932908451,69.9174390021431,-1.1208231571851028,0.7664495176304221,-15.940768475575782,0.17708590568626376,-1.2381710181957928,10.0,0.4988366055145065,9.148274805697952,34.05138607742794,69.53502735757938,4.759484529495239,-1.9490215927362442,7.227830588817596,47.65578210353851,-8.141356706619263,-96.76275253295898,6.910452245377741,8.129523376580957,False,0
GUIDED_NOGPS,0.10740113258361816,44.52457484979087,7.395391973816225,34.23114003463892,70.47884007131901,6.240245680904729,6.6583364898235935,34.72179575345218,69.95679130820295,-1.2415392802456735,0.859892215087456,-16.09281190159485,0.06748213013512563,-0.5017520808349537,5.196402214613758,0.4989503756226385,9.356210169704429,34.107308908602135,69.57065198518467,4.759484529495239,-1.9490215927362442,7.227830588817596,47.65578210353851,-8.141356706619263,-96.76275253295898,6.974973007581742,8.129523376580957,False,0
GUIDED_NOGPS,0.1415247917175293,29.310505314502546,7.620578060774845,34.16268837936665,70.56646307037917,6.38752518815201,6.910718492004074,34.70858537959308,69.99341597437041,-1.3426694089744093,1.060416003670158,-16.30425919037281,0.036632600009558945,0.013703655187771335,5.548839065922939,0.49884680539668635,9.356210169704429,34.107308908602135,69.57065198518467,7.181181758642197,-3.743518516421318,6.9557346403598785,-90.22258520126343,-7.488897442817688,119.80459690093994,6.974973007581742,7.12834912539861,False,0
GUIDED_NOGPS,0.18134450912475586,25.115292032430748,7.873115003424542,34.0543650002281,70.76495628227184,6.603690826807826,7.158795306955966,34.69609833084234,70.02690560263326,-1.4653678877198704,1.08382487622479,-16.538131697743218,0.04201389967987921,0.0695069820617005,6.132903898090143,0.4985144462953895,9.575165508302575,33.88675201839877,69.66603808631496,1.6338756307959557,-3.8112234324216843,10.27367189526558,-49.50938522815704,5.740196630358696,89.65407013893127,7.300155065941886,7.4068774095625605,False,0
GUIDED_NOGPS,0.2134394645690918,31.16101663434893,8.124304890458383,33.92680537823354,70.97004004618064,6.809925405086476,7.402050604711911,34.68442047487822,70.05686598027089,-1.4943849859133176,1.006602117138391,-16.708713964716996,0.05721745343164457,0.0803327044441663,6.651191572917858,0.4981618502273386,9.696042778511153,33.850808567953365,69.68450398706597,-0.07265248568728566,-4.351675137877464,8.635745197534561,8.029542118310928,-20.240843296051025,-47.57419228553772,7.393488731435273,4.856702485759593,False,0
GUIDED_NOGPS,0.24773740768432617,29.163362791247454,8.306624794090627,33.80728261034474,71.13865032890433,6.994741317479252,7.63999178145966,34.67363348593465,70.08291594524722,-1.4919547192292624,0.8808122307415587,-16.86969127817044,0.07145297319412273,-0.03574235709949013,6.366620641723822,0.4978738520003987,9.695780345818342,33.84559848340065,69.8329771440772,0.19429869716987014,-5.354477092623711,8.919722586870193,-21.805550158023834,-19.89983767271042,-21.567539870738983,7.581375053304264,5.7460622713606,False,0
GUIDED_NOGPS,0.2816493511199951,29.48917261938242,8.467495570946852,33.67150629078648,71.39751183347516,7.16427451366097,7.872149617274561,34.66381490701363,70.10468725160374,-1.4260313341858861,0.6995648368222194,-17.075377302383497,0.08568688227897757,-0.06718806646659545,6.2876795959960186,0.49739614558648665,9.741058629887682,33.741493402530494,70.01989243714577,-1.1108753271400928,-6.029948219656944,14.541243016719818,-39.58462178707123,-12.79798150062561,163.10982704162598,7.785562373423241,3.9436385286440574,False,0
GUIDED_NOGPS,0.3149402141571045,30.04149924436136,8.604587427576785,33.524741932181556,71.65239092146085,7.3328309174138955,8.09807793385203,34.65503821209771,70.12182443485253,-1.3116197958943545,0.6711783571882348,-17.230559200326187,0.1011479763097345,-0.10703318313456171,6.424897778402482,0.4969165853498979,9.944212472405582,33.68710524700911,70.08334156922074,-1.8974846228957176,-6.962588429450989,14.541144669055939,-44.68414485454559,2.497079223394394,71.10618352890015,7.894106614920993,4.388393980412253,False,0
GUIDED_NOGPS,0.3486359119415283,29.682209656987975,8.729198199826175,33.356200370225025,71.97759616357433,7.523560454530316,8.317353252240036,34.647372868362474,70.1339846773692,-1.1866395003575803,0.572362808814487,-17.34134828375838,0.11621565470381617,-0.12088391546673276,6.778117199407173,0.4962855252570256,9.828788059441944,33.447378271350644,70.46825466913981,-1.5339607372879982,-7.8648000955581665,18.406446278095245,-26.663511991500854,-4.361725226044655,141.45632982254028,8.18492048309889,5.517778139391733,False,0
GUIDED_NOGPS,0.3826792240142822,29.37825438295428,8.902127606689705,33.156327057687946,72.28947150186718,7.686645906621088,8.52957445057157,34.64088439838898,70.140837673786,-1.0713882756849602,0.47385867437820933,-17.428730308904935,0.12050295476642536,-0.02313446164406163,6.532853479711077,0.49566964302406885,9.610465497116282,32.75266697042281,71.89811982315454,3.506791964173317,-8.341816067695618,13.882754743099213,-62.6617431640625,12.066230177879333,140.7903790473938,8.597293509597211,3.102794643934709,False,0
GUIDED_NOGPS,0.41550397872924805,30.471895092447966,9.069311234586847,32.96161494612852,72.58213498901564,7.844914748883164,8.734362421797133,34.6356344423762,70.1420654963847,-1.0166923342549097,0.3032566105280109,-17.51576740949841,0.1291173942829079,-0.023908255792370076,6.634453079689274,0.4950803603040309,9.695123921412105,32.79152762030296,71.61325803426081,3.506791964173317,-8.341816067695618,13.882754743099213,-62.6617431640625,12.066230177879333,140.7903790473938,8.680749021490405,3.102794643934709,False,0
GUIDED_NOGPS,0.44806408882141113,30.715350703750897,9.176778350750515,32.75943687038294,72.94363001938032,7.963513441790993,8.931359731417214,34.63168082035354,70.1373624604897,-0.9705528055858869,0.24771735417887533,-17.549559770417048,0.1545650629910156,-0.1246322174205074,6.236007617563455,0.49434065898423457,9.695123921412105,32.79152762030296,71.61325803426081,0.24489553179591894,-9.254278987646103,19.317726790905,-24.32216703891754,3.623657301068306,148.77609014511108,8.680749021490405,1.1122640763814304,False,0
GUIDED_NOGPS,0.4822978973388672,29.213331011666376,9.280761290399393,32.555671582376334,73.3138872236283,8.079859052390475,9.120230275214759,34.62907759439325,70.126434989861,-0.9639913416710318,0.1757077903373416,-17.55787040308966,0.15915457151744627,-0.1137845457330149,6.204664885579971,0.4935695429389079,9.753792138490304,32.71825308046921,71.85430511961644,0.24489553179591894,-9.254278987646103,19.317726790905,-24.32216703891754,3.623657301068306,148.77609014511108,8.751242638024014,1.1122640763814304,False,0
GUIDED_NOGPS,0.51666259765625,29.10386843839989,9.34471383910958,32.31264418628785,73.80361751193492,8.197785686692189,9.30065893698766,34.6278751308229,70.10900148208717,-0.9749679892757712,0.15245697262897195,-17.525765098896017,0.18965234584851334,-0.17381096272038077,6.2903682254549995,0.49254505115001396,9.583746421754899,31.707815456429707,73.07764451900977,-1.6899898648262024,-9.041650593280792,23.719412088394165,-9.86134484410286,15.610246360301971,80.90784549713135,9.025350930400474,0.6781620121711613,False,0
GUIDED_NOGPS,0.5504779815673828,29.576092628372376,9.39354537173662,32.07723692773605,74.25543108394037,8.272111550289138,9.472351246281228,34.62812016243785,70.0847921739784,-0.9691077936896061,0.22410725784799243,-17.437788847291667,0.20218924331587365,-0.19679474707814404,5.843076902411806,0.4915817307246277,9.567729144661087,31.58968446717312,73.39194511908052,-1.8385158851742744,-8.834047615528107,21.3624507188797,-2.089269831776619,0.47208815813064575,11.865471303462982,9.042992583252758,-1.5182739994222603,False,0
GUIDED_NOGPS,0.583338737487793,30.435852780680367,9.439201999264355,31.845305632149778,74.72168753504107,8.339187403247807,9.635033036120669,34.62985585071371,70.05354900695951,-0.8951528532342352,0.26083446567562035,-17.347978689895168,0.2138279445328996,-0.20003599430850072,5.820745360476987,0.49057447082227384,9.694043832736957,31.49489912823971,74.03515776352889,-1.8385158851742744,-8.834047615528107,21.3624507188797,-2.089269831776619,0.47208815813064575,11.865471303462982,9.071686578542334,-1.5182739994222603,False,0
GUIDED_NOGPS,0.6166179180145264,30.052046314341396,9.46299192997076,31.613347988724627,75.19926996706229,8.385659591226196,9.788450100743574,34.63312184801878,70.0150254924629,-0.7574671785416207,0.2562142695889299,-17.247933494027407,0.2271219935600096,-0.22825874687160433,5.58943773683227,0.489528443585362,9.46985310014321,31.367026926663414,74.3654479968654,-2.000277116894722,-9.227634966373444,22.597798705101013,25.596585869789124,-6.957349181175232,-22.394512593746185,9.054276043130457,-2.172183077067764,False,0
GUIDED_NOGPS,0.6507411003112793,29.311324644466964,9.462315007032279,31.37063242738903,75.68109341507518,8.386639214376613,9.932367853332382,34.637954359826544,69.9689865773216,-0.5578101302924228,0.335102047368078,-17.128316391092973,0.24369419006994142,-0.25885772408452695,5.043481925945856,0.4884571460116308,9.46985310014321,31.367026926663414,74.3654479968654,-3.4180719405412674,-10.101797431707382,23.100340366363525,-27.579063177108765,19.52303946018219,20.262862741947174,9.054276043130457,-4.924984740665857,False,0
GUIDED_NOGPS,0.691211462020874,24.711333160511867,9.459400313865926,31.11796498311636,76.1542592132327,8.363974305386142,10.06657098374687,34.64438620692811,69.9152085091623,-0.3518212298783585,0.3247686114840834,-16.907588582780257,0.23943157800487663,-0.21879496967439033,4.794439617005065,0.48738305224087597,9.443084523113257,31.038741547910313,75.02223604210437,-3.1787972897291183,-10.198143124580383,21.350255608558655,-31.70943260192871,26.39991044998169,6.805767118930817,9.03699290320614,-6.0641962612005145,False,0
GUIDED_NOGPS,0.7181744575500488,37.10066164243003,9.489146641466393,30.746930544873972,76.82563405951544,8.32303151369103,10.190863116256626,34.65244688764467,69.85347870179828,-0.2848633913408426,0.31912714203391734,-16.76449782721578,0.3330444397555514,-0.22122441795130005,4.38342564397513,0.48590187765680365,8.998309861694079,28.988890685759273,78.51143061207135,-0.5751360207796097,-10.257954895496368,20.43798267841339,23.658905923366547,6.020375341176987,-2.428678423166275,8.864039155345578,-7.253403058912373,False,0
GUIDED_NOGPS,0.7542202472686768,27.743775631697314,9.483211642016618,30.45146770331882,77.33147142940308,8.244347697095975,10.30506646727353,34.66216264003998,69.78359560062246,-0.16582754817694795,0.2654230721373996,-16.461450871478778,0.28824380997931415,-0.22582729207988655,4.075614974257364,0.4847286171964661,9.096173865266888,28.53566720994654,79.17806572736154,-0.5751360207796097,-10.257954895496368,20.43798267841339,23.658905923366547,6.020375341176987,-2.428678423166275,8.743357069551482,-7.253403058912373,False,0
GUIDED_NOGPS,0.7858395576477051,31.634591887529602,9.4993170722994,30.137097585071274,77.88622740649045,8.1602594801779,10.409021503084228,34.6735565041328,69.70536854800044,-0.19761813006024337,0.2764233585999696,-16.270395112467888,0.31637350995868085,-0.19731781023848985,3.8254060556150584,0.4834420924162889,9.096173865266888,28.53566720994654,79.17806572736154,-0.10596232023090124,-9.446657449007034,19.217246770858765,19.396549463272095,24.21298921108246,0.9074360132217407,8.743357069551482,-8.263156027692256,False,0
GUIDED_NOGPS,0.8184359073638916,30.681647940074907,9.454579871526054,29.853080247423804,78.41153654019348,8.094156737833384,10.502586597582617,34.68664838410937,69.61861764866339,-0.1805518885627616,0.25497683141039396,-15.940239135915105,0.32828256787383286,-0.2928445291852149,4.05165494483925,0.4821948626954819,9.096173865266888,28.53566720994654,79.17806572736154,-3.646494075655937,-9.000562131404877,20.26500552892685,-29.151105880737305,24.986320734024048,4.319606721401215,8.743357069551482,-6.7967844223295115,False,0
GUIDED_NOGPS,0.8534588813781738,28.556185703878704,9.451891051088275,29.558630909798136,78.87270111835583,7.966167223408997,10.585637690002322,34.70145511053585,69.52317363510122,-0.15879832302565278,0.1346974669307339,-15.611353574547945,0.32425593840168027,-0.1945726121984696,3.315480460308213,0.4810554933417662,8.948701860736168,28.073586907059877,79.27406040229789,-0.563544686883688,-8.347225934267044,15.495911240577698,1.90063938498497,26.92093849182129,-61.96269392967224,8.254554266354386,-9.48807617702682,False,0
GUIDED_NOGPS,0.8884022235870361,28.624004476868375,9.43496129875755,29.241421964655938,79.41130130528413,7.785099942201775,10.658067942649168,34.71799050257083,69.41887773295544,-0.19010657615966897,0.1478239165767348,-15.416056268062476,0.3457235929783694,-0.2062784822800401,2.597883401401091,0.47974177414957947,8.771741160190688,27.776966836254104,79.97644800603975,-1.0812430642545223,-8.878319710493088,18.17539483308792,16.880184412002563,16.45694077014923,14.217393100261688,7.976942238488563,-12.093669548207977,False,0
GUIDED_NOGPS,0.9188978672027588,32.792850832271334,9.402968275918289,28.895173889671373,79.98142789943502,7.579446493589765,10.719787398633667,34.736265430177724,69.30558152641223,-0.19010657615966897,0.1478239165767348,-15.416056268062476,0.3882009094004563,-0.2404590422454469,1.8520848960221494,0.4783488648773833,8.469233404828154,26.83808404978391,81.16990131722872,-1.0812430642545223,-8.878319710493088,18.17539483308792,16.880184412002563,16.45694077014923,14.217393100261688,7.452109118348574,-12.093669548207977,False,0
GUIDED_NOGPS,0.9556958675384521,27.17961611736803,9.355979440077078,28.571344326465425,80.43489827710846,7.401268571484504,10.770722639603484,34.756287876337296,69.18314682359545,-0.156450392137608,0.09359632335250613,-14.929371138753218,0.37393404716820344,-0.22774078525456654,2.490660037417358,0.47716415691534586,8.21350609049274,26.53274026815773,81.7818431757823,-0.9011920541524887,-9.328418970108032,14.055770635604858,52.023011445999146,6.2206462025642395,125.37167072296143,7.173603365816999,-9.846534749952843,False,0
GUIDED_NOGPS,0.9869070053100586,32.04645405785364,9.278724691643893,28.219989540977902,80.93750608310881,7.234030356243496,10.81081644347594,34.778062999260065,69.05144552195962,0.06260594081916,0.14675312434177662,-14.357182286319155,0.4225830768637806,-0.29730535495341054,2.198739656889019,0.47586583783131325,8.21350609049274,26.53274026815773,81.7818431757823,-3.227824345231056,-9.835301339626312,14.557892084121704,-17.822252213954926,-1.6995036974549294,-46.52649462223053,7.173603365816999,-8.853893966364781,False,0
GUIDED_NOGPS,1.0260705947875977,25.535631008261646,9.204492087278517,27.87404524278797,81.43558802386018,7.057126851761166,10.84002744217046,34.8015931945988,68.91035947368295,0.22877206360769958,0.1048682699171428,-14.003488624112862,0.4034026792775872,-0.24074680516860728,2.440379391347658,0.47454797660209863,8.390658605235569,25.648312366282592,83.53145194849456,-3.227824345231056,-9.835301339626312,14.557892084121704,-17.822252213954926,-1.6995036974549294,-46.52649462223053,6.723024913347395,-8.853893966364781,False,0
GUIDED_NOGPS,1.0583200454711914,31.013094947612814,9.099320589696687,27.489450287008772,82.03995127920389,6.854115185500388,10.858329779341076,34.82687815766099,68.75978035106031,0.33409101928835744,0.010010496002299939,-13.74700904436336,0.4621510492256117,-0.3184301779363203,1.589453188326968,0.47300389747294713,7.756433577418354,25.44765197371698,83.77684325705674,-3.8044627755880356,-8.740980178117752,15.035557746887207,2.2184234112501144,6.4795054495334625,67.77324676513672,6.5494472297608475,-9.129569792776605,False,0
GUIDED_NOGPS,1.0951588153839111,27.148477296999904,9.023113176957422,27.16921570662325,82.42540622543495,6.676535450117825,10.865712768108883,34.85391494562128,68.59960951189629,0.4292185856754158,-0.036902017981697954,-13.521713547043195,0.43186750704320953,-0.23536555297317086,2.0794089046603763,0.47187186453801433,8.095157771230532,25.199283724162633,84.00143590506417,-2.604358270764351,-8.088411390781403,7.792643457651138,34.06498432159424,13.267861306667328,-135.66923141479492,6.403562300700686,-8.277376481544223,False,0
GUIDED_NOGPS,1.1270344257354736,31.377815681785876,8.976681435616312,26.8038562163847,82.85958473115424,6.497037504036723,10.862180548794544,34.882698039733924,68.42975786489814,0.5161405335483501,-0.0864714755528308,-13.280034987225111,0.47062445474284775,-0.18041248155378142,1.638745744150849,0.47062712141351076,8.206258756815181,24.888777566112033,83.74103462221427,-1.09077338129282,-8.092153817415237,7.953100651502609,44.05752122402191,16.632333397865295,-50.19215941429138,5.913283302266571,-6.219212100169009,False,0
GUIDED_NOGPS,1.160017728805542,30.322534936344642,8.922344520265085,26.481483647661804,83.18312587917757,6.290072677032039,10.847751746650744,34.913219407545284,68.25014573506881,0.5204080143974329,-0.17074149575880188,-13.16499325726094,0.46688882529127923,-0.17758126298947952,1.2556441581167666,0.46958154418017545,8.054531958725184,24.197418853641643,84.25738254277005,-1.1249835602939129,-8.041245490312576,7.258034497499466,-50.870680809020996,24.115005135536194,-32.44445621967316,5.460980005286075,-8.471820868157085,False,0
GUIDED_NOGPS,1.207136869430542,21.224838446863313,8.794278677976493,26.143343039171953,83.5472251344505,6.093361694948477,10.822459129594682,34.94546856510627,68.06070272909999,0.6072004021195485,-0.3638908144720057,-12.77265523850436,0.4629478863028283,-0.2513107882617537,1.923149961407266,0.4684182038654819,7.648302700846094,23.67368338923232,84.90561521878013,-4.917920008301735,-7.098524272441864,6.948409974575043,-16.76769107580185,20.96499800682068,-34.2239111661911,4.995444151198313,-6.314160694255471,False,0
GUIDED_NOGPS,1.2273163795471191,49.57044425797454,8.648325977175926,25.813818355219798,83.827782237218,5.9065540562517285,10.786349265940547,34.97943263918479,67.861367600765,0.651168570962742,-0.4080885417043351,-12.534593263851797,0.5812488083450327,-0.4197538919125463,0.08327245311269005,0.46743083947821407,7.31507805783289,23.385523135581167,85.02880454995503,-5.267240479588509,-6.7267172038555145,2.531834691762924,14.197209477424622,28.465861082077026,-79.26247119903564,4.869237311423373,-5.737360610358003,False,0
GUIDED_NOGPS,1.2593727111816406,31.199726259725963,8.52657862916308,25.600276410916273,83.90797451691682,5.758876709232686,10.739482182131999,35.015096429478255,67.65208811631199,0.5905312187284266,-0.3767674286047723,-12.340226570640743,0.4826440246924687,-0.26926585508069006,1.639704896245941,0.4668095853398237,7.6429362429524,23.211079317565073,85.16502311731163,-5.366206169128418,-5.9611476957798,-0.21582301706075668,-0.37441691383719444,18.87282431125641,-108.29516649246216,4.752305527094533,-6.245013566645555,False,0
GUIDED_NOGPS,1.2940590381622314,28.83218191691929,8.409525576238899,25.260945388775408,84.2537793625086,5.580659108437525,10.681931020474638,35.05244247082596,67.43282091985671,0.5629909354995832,-0.34550351833950826,-12.208470514003904,0.5256305833505162,-0.23602521541596522,1.294502897182852,0.46563273515779857,6.979246404967008,22.25790112828434,85.85240976062194,-2.8361625969409943,-5.835755914449692,6.363591551780701,-0.9341657161712646,12.362254410982132,29.36514914035797,4.078118136864086,-3.710490021325672,False,0
GUIDED_NOGPS,1.3296096324920654,28.131754921358866,8.296978928434315,24.91745689946921,84.53930139540248,5.384081954580145,10.61378169686849,35.09145109542164,67.2035313987757,0.5126242667862629,-0.27691550574618073,-12.080076617986006,0.5368196318704601,-0.21235696477261654,1.0191962672719401,0.464553796061543,6.979246404967008,22.25790112828434,85.85240976062194,-2.623949386179447,-6.440640240907669,2.566235326230526,2.34113372862339,16.974005103111267,-40.53548872470856,4.078118136864086,-5.104769833772578,False,0
GUIDED_NOGPS,1.3617064952850342,31.160785129492876,8.1665594111206,24.56662099562664,84.81687690536859,5.186153681467871,10.535132558540479,35.13210049502586,66.9641935490992,0.43524334613189597,-0.24786991285728993,-12.021104764692115,0.5684198888045476,-0.23756427496447063,0.6444504241316551,0.4634741393689301,6.520713588457573,21.928029657013166,85.86429037103532,-2.623949386179447,-6.440640240907669,2.566235326230526,2.34113372862339,16.974005103111267,-40.53548872470856,3.982179250835311,-5.104769833772578,False,0
GUIDED_NOGPS,1.4030485153198242,24.19362728132715,7.9440344864985715,24.241786052585088,85.09875212925293,5.070477978453667,10.446094041776929,35.17436678317851,66.71478984090422,0.34231029818082154,-0.36512355689548726,-11.991793007869006,0.5621586080543464,-0.35323904494680547,1.8898082363900857,0.46235253442893626,6.78973646414439,21.88611028217518,86.10497090494346,-10.008557885885239,-6.834723055362701,5.152906104922295,9.698005020618439,13.213220238685608,-48.301029205322266,3.8120315071973447,-0.17217023259495104,False,0
GUIDED_NOGPS,1.4288923740386963,38.69676812222642,7.80983514522052,23.882869476437083,85.36187667416064,4.9265351656822265,10.346788329656002,35.21822405741126,66.45531108370746,0.2576395379696411,-0.2848004255344315,-11.958670859262675,0.6244222558348558,-0.22964423706432158,0.8262331400513272,0.46126643598655576,6.763453672813302,21.627226385603528,86.1710283158046,-3.419032320380211,-5.955592170357704,0.4982020705938339,-18.368032574653625,13.038177788257599,-29.202792048454285,3.661036646849677,-0.5381098370136962,False,0
GUIDED_NOGPS,1.4802439212799072,19.475780089153044,7.729015985292413,23.629465743284594,85.47153489133477,4.86850866155092,10.23734900978021,35.263644461460025,66.18575629185838,0.2992686871872226,-0.20907635936232158,-11.93087284311437,0.5360865626921668,-0.12444133472126326,2.4688611286724425,0.4604288253766397,6.763453672813302,21.627226385603528,86.1710283158046,-1.4474894851446152,-6.022064387798309,-0.8543946780264378,5.8713700622320175,7.620085030794144,8.729615807533264,3.661036646849677,1.8576575615437314,False,0
GUIDED_NOGPS,1.4968516826629639,60.23442907816696,7.651611305872212,23.29919457787852,85.66057236588763,4.789093116831351,10.117920732008878,35.31059824747741,65.90613254993222,0.2561704069678537,-0.23485167902095141,-11.968563534501792,0.7106069151100937,0.012582706786917829,0.9473951734440909,0.4594654383927343,6.411702486853285,21.05672267351793,86.12522381154258,0.35300960298627615,-6.81789293885231,1.042973529547453,32.060426473617554,11.754587292671204,75.37036538124084,3.5637967789049734,1.9212972088050906,False,0
GUIDED_NOGPS,1.538473129272461,24.02703848401178,7.581709757040492,23.107526479633254,85.54784080158177,4.765783159825162,9.988658866190633,35.35905383824518,65.61645487812294,0.2845315935575681,-0.23381231632834587,-12.045206794725798,0.5548023815474606,-0.0639446226084648,2.636157299953027,0.45904497047964077,6.507562916802351,20.62669403941864,86.16805301944967,-1.9155938178300858,-7.07523301243782,-8.026982098817825,-40.3803825378418,-1.3012437149882317,-162.46094703674316,3.44804827368851,1.7096648645893033,False,0
GUIDED_NOGPS,1.5804228782653809,23.84265217490166,7.470511616414044,22.7309930212012,85.69235925318442,4.6847876702383475,9.849729159895862,35.40897788938674,65.31674609763625,0.3652697656324078,-0.2797081993430697,-12.211977816142706,0.638247975956676,-0.09391713565358448,1.8891551491156293,0.45809922009657955,6.74468357715482,20.936651623014704,86.89279135782644,-2.418235130608082,-6.954474002122879,-7.278753817081451,-7.015196233987808,17.7301287651062,-83.35673809051514,3.52740472592755,2.882789981900367,False,0
GUIDED_NOGPS,1.621659517288208,24.25687054686777,7.303899092823853,22.405457837146415,85.72246544412026,4.65107147362288,9.701307396149216,35.46033535157958,65.00703669608266,0.319972591387118,-0.21309656601910876,-12.262629645253876,0.6313272444571383,-0.17107306808829964,2.4572090014776986,0.4573525583662469,5.366548357996223,20.089541244238,86.02915382318076,-3.5463299602270126,-6.574995070695877,-6.76548033952713,-22.591981291770935,14.963877201080322,-83.71120691299438,3.4765597004467415,4.0379984458014295,False,0
GUIDED_NOGPS,1.6449401378631592,42.95682097501024,7.117547831624191,22.043683883077414,85.76473240187138,4.613959727569119,9.543579051162071,35.513089532767715,64.68736469287043,0.3197214752134142,-0.23222216291220227,-12.403190669504506,0.6918073932915437,-0.1980205022766866,2.285427270590399,0.45657685096363115,5.366548357996223,20.089541244238,86.02915382318076,-4.132049158215523,-6.118635460734367,-8.089900016784668,-0.8287003263831139,2.774987369775772,-95.89900970458984,3.4765597004467415,4.502235731516618,False,0
GUIDED_NOGPS,1.6854937076568604,24.66062640741764,6.975417968971155,21.78593731949083,85.870209187401,4.6148475286293875,9.376738952065018,35.567202160374194,64.35777550459859,0.3197214752134142,-0.23222216291220227,-12.403190669504506,0.6389328873981889,-0.10773789517173885,2.7776701304347027,0.45563696469705645,5.302334621618879,19.893030300201534,87.44985210808818,-2.771899849176407,-5.114481225609779,-2.4521613493561745,3.1514011323451996,11.91709190607071,91.90970659255981,3.8458835646549865,3.95663893995553,False,0
GUIDED_NOGPS,1.7164349555969238,32.32330207073004,6.810973986320173,21.437584399021144,85.91452411483334,4.640814507752478,9.200990934640329,35.622633443513514,64.01832181044993,0.4034475348850172,-0.26719998853866067,-12.519346574077035,0.7090544333329385,-0.11580045334468939,3.118789121796916,0.4548150018463676,5.499209322301612,19.677463251135222,85.77025616272826,-3.6163389682769775,-6.26678541302681,-4.769827425479889,-16.092152893543243,12.016569823026657,7.334555685520172,3.632494028792748,7.138859505870791,False,0
GUIDED_NOGPS,1.7451140880584717,34.874066683295915,6.754016168474552,21.161378181413998,85.86114061395881,4.704205403030553,9.01654750105444,35.67934213520412,63.669063417584084,0.36494693247241894,-0.19966073014804742,-12.62862960079724,0.6878818793699298,0.13952215558854633,3.7082312455106945,0.4541724262593639,5.476143979414845,19.31406515501221,85.46276403358186,1.8367938697338104,-6.192317977547646,-6.4109474420547485,72.52072095870972,10.671155154705048,8.21199044585228,3.822510960912564,7.701968902463791,False,0
GUIDED_NOGPS,1.7807042598724365,28.10103311045304,6.680267503440307,20.91588696698678,85.77918595424025,4.751752436038792,8.823629477590439,35.73728559458083,63.31006712653041,0.2507027338155527,-0.272860401091603,-12.93368804724481,0.6735459275902982,0.08149913731803832,3.3846096514995776,0.45355426961434325,5.626257088766648,19.20293213452407,85.39621213314858,-0.38912275340408087,-6.0640644282102585,-7.124026119709015,17.744526267051697,9.956328570842743,-10.995365679264069,3.8811136088645872,6.204990365656572,False,0
GUIDED_NOGPS,1.8118717670440674,32.08862367072145,6.6093852261712325,20.631793218162798,85.74279299707361,4.81016399673728,8.622465672380544,35.796419849107345,62.94140659658112,0.09125591634471895,-0.20782643474420923,-13.319980494812285,0.7071344361934171,0.1461823823027349,3.6370607732200577,0.4528329810713875,6.531787704906639,18.9041174876723,86.08948560025362,-2.2062696516513824,-5.709058418869972,-7.289913296699524,14.986319839954376,17.51210391521454,25.074952840805054,4.112464423785198,6.47049774794154,False,0
GUIDED_NOGPS,1.8565726280212402,22.372843022728606,6.474552273232421,20.404231697609845,85.65595243901987,4.910647245945904,8.413292533138545,35.85669965678865,62.563162211184164,-0.0839937177097029,-0.04425268891080683,-13.680906473575975,0.6850459946060672,-0.0007074356429043749,3.8452623358878824,0.45216756558065596,4.780936172296888,19.495950677913463,86.60578306846277,-2.1564550697803497,-5.764321610331535,-11.146954447031021,27.390772104263306,-9.40794050693512,-179.8295021057129,4.560267982195922,7.833351860017218,False,0
GUIDED_NOGPS,1.8891932964324951,30.6625825176001,6.319553490650609,20.026571830174486,85.49929304213006,5.0360576491913065,8.196353804892345,35.918078568383514,62.175420943336334,-0.20139266335032166,0.13590838476538308,-14.004594260984756,0.7707100059681042,0.027324761548661085,4.558112454765169,0.45164448212054426,4.548480011006959,18.367870960195262,85.337107929613,-1.0801497846841812,-6.35274201631546,-13.922573626041412,-48.227280378341675,20.725272595882416,179.3026566505432,4.764063947029982,8.65901927783421,False,0
GUIDED_NOGPS,1.9207422733306885,31.707531693894058,6.201823362675681,19.77030021749585,85.397892741808,5.15443448428217,7.971900187716388,35.98050898961696,61.778276220976245,-0.24291252954118295,0.151667338727895,-14.11013519781344,0.7414807198307988,0.12478338120409777,4.597482503080325,0.450993536074526,5.038863346917497,18.704761851215927,84.55736074618426,-2.221021428704262,-6.554750353097916,-5.631075799465179,-42.11612939834595,14.808961749076843,86.14389300346375,5.225863327226287,6.874591376033358,False,0
GUIDED_NOGPS,1.9530627727508545,30.939887727477263,6.090547307138413,19.514002173952353,85.24844499170504,5.274784436638757,7.7401889944641535,36.04394224339269,61.37182779237728,-0.2819492484427743,0.1853665315973859,-14.306579122305823,0.7487292638518845,0.1563241341710999,4.651421308228965,0.45041767769840835,4.999342975996477,18.163989800726775,83.48724291427467,-2.221021428704262,-6.554750353097916,-5.631075799465179,-42.11612939834595,14.808961749076843,86.14389300346375,5.3302640066580915,6.874591376033358,False,0
GUIDED_NOGPS,1.9862768650054932,30.109431307518914,6.051805848198583,19.235460283278726,85.05954172084103,5.373601201468729,7.501483808500643,36.10832863200559,60.9561815915407,-0.40014065610967325,0.2886296536987228,-14.528094109920385,0.7520229000977027,0.3117365027477494,4.411330129880689,0.44989999029010247,5.252480992929807,17.826163811320804,84.15493047018435,1.8221361562609673,-6.985972821712494,-10.32242625951767,62.05718517303467,0.7680485025048256,-1.1682738550007343,5.6770658118376724,4.4772180292473305,False,0
GUIDED_NOGPS,2.032217025756836,21.77106226155563,6.015505655333572,18.951257280025224,84.86555036135277,5.542203482502966,7.25605414143484,36.17361749935412,60.53144960358854,-0.5505532677426958,0.5091703255003521,-14.931418487956929,0.7450964531699396,0.2427510782573607,4.795039484445305,0.44934917953548936,5.516912091530461,17.876766098148167,83.72714096934709,1.12818144261837,-7.71450400352478,-9.46655422449112,48.497116565704346,0.7339652627706528,48.13636541366577,5.9491887151649205,8.338274448184057,False,0
GUIDED_NOGPS,2.0621235370635986,33.44206665603572,5.88979521555959,18.67184914779689,84.62248648569137,5.667585806310851,7.004175090852229,36.23975729315289,60.0977497301567,-0.5382242426822939,0.6525169463544378,-15.113922850126963,0.7985829782140054,0.23956952144075405,5.07869232758259,0.4489092718229944,5.038641937745541,17.845966774944657,83.58673761128873,-3.6218825727701187,-7.9138681292533875,-12.302440404891968,-27.099788188934326,1.1003419756889343,-37.75540888309479,6.080455261805636,5.197258279097367,False,0
GUIDED_NOGPS,2.087907314300537,38.792685972197816,5.7486441008883284,18.447173643838457,84.38948612545818,5.799796695007441,6.746126998047204,36.30669562714499,59.655205654787885,-0.6510766302132113,0.7532888636777183,-15.406050040928408,0.8051797272886465,0.2731640551359568,5.552374337759644,0.44843969237619913,4.321800031284489,17.949235833935695,83.65595084042164,-3.6218825727701187,-7.9138681292533875,-12.302440404891968,-27.099788188934326,1.1003419756889343,-37.75540888309479,6.533781942786376,5.197258279097367,False,0
GUIDED_NOGPS,2.1217055320739746,29.587985073047538,5.606278503739349,18.199518054039327,84.26302465493791,5.90811608299694,6.48219510575562,36.37437934331456,59.20394670832468,-0.7343938390299656,0.8055580068791516,-15.514617605333054,0.8007451458291965,0.22254152501701702,4.8145086404626625,0.44772168404994866,4.012531729322839,17.03410697025175,82.64177034322314,-3.750915452837944,-9.326555579900742,-3.026803955435753,-17.74921715259552,2.0762909203767776,58.68430137634277,6.590476042697663,4.220326076826689,False,0
GUIDED_NOGPS,2.1544110774993896,30.579867161469537,5.438356533009692,17.910521514405236,84.01437043562723,6.00226338610116,6.212669215887212,36.44275457409919,58.74410773430246,-0.7498832673245265,0.9264111072490927,-15.590557356072548,0.8334675935239945,0.20814939043170616,4.753920795714091,0.4472332599454957,4.050236706148275,17.226431860518357,81.63452303552914,-4.639697447419167,-9.0740367770195,-7.931721955537796,-17.546944320201874,-4.141905903816223,112.19655275344849,6.517085150652702,2.5472078469388313,False,0
GUIDED_NOGPS,2.18962025642395,28.409187274365173,5.26274605285028,17.619185128648798,83.73436015752694,6.109962212521342,5.93784334725814,36.511766804602395,58.27582895434252,-0.8219941100648468,0.9916287416521364,-15.654935304094503,0.8416480869243415,0.20138551872629923,4.892540138532812,0.44678519026112884,4.237429086746695,16.730927396676524,82.55790976773588,-6.0972727835178375,-8.87157917022705,-13.039013743400574,-13.659068942070007,1.2997087091207504,-37.267351150512695,7.238998960676794,1.7338462955720872,False,0
GUIDED_NOGPS,2.2220518589019775,30.83525580232755,5.070718852472526,17.330018770813254,83.43283290193213,6.218199283921715,5.658015393323405,36.58136093480608,57.79925583354496,-0.8774233896961746,1.0150420965184113,-15.705266968088328,0.8633356365989678,0.20499227368399153,5.063291775685311,0.44636846241687356,3.7921862345886947,16.65334204725315,82.01650329182701,-6.0972727835178375,-8.87157917022705,-13.039013743400574,-13.659068942070007,1.2997087091207504,-37.267351150512695,7.313573751563425,1.7338462955720872,False,0
GUIDED_NOGPS,2.2580482959747314,27.784391788498866,4.877592654584301,17.059467587577966,83.16936196559024,6.309949809451677,5.373486779909319,36.651481341783004,57.31453894588177,-0.9127126292601033,0.976363695743981,-15.673571475244882,0.8611171099965053,0.20358536620905943,4.805035098266461,0.4458514804872463,4.385590855681686,16.699516210653208,81.79075889295989,-8.380858600139618,-9.043008089065552,-10.317099839448929,4.54067587852478,-5.237870290875435,-15.360862016677856,7.403884390311747,0.7989140470857274,False,0
GUIDED_NOGPS,2.289231300354004,32.07684424662354,4.683824356865477,16.7788807052456,82.90952467373664,6.398532609710812,5.084562122946084,36.72207194190925,56.821833839589765,-0.9692262547830235,1.0049890185555044,-15.635214840413383,0.888673581364372,0.24724994002113715,4.978910020487401,0.4453208649830364,4.319365288731159,16.517996282727907,81.4554366076965,-8.413463830947876,-9.67368483543396,-9.370820224285126,-44.097280502319336,7.053302973508835,115.5045747756958,7.498450418413573,0.5347090431372645,False,0
GUIDED_NOGPS,2.321937322616577,30.57696906074126,4.501870235983716,16.49796785079297,82.64959564478714,6.407735314689495,4.791548886200134,36.79307625307665,56.32130090256368,-1.005735857052563,1.0553571813727056,-15.568758807336453,0.8938317693343355,0.27655155968733386,3.9568857557890698,0.44477058185089896,4.266583937138443,15.973602639758468,80.61729325025446,-8.338848501443863,-10.176169872283936,-8.060424774885178,36.93112134933472,-0.3543587401509285,-112.80702352523804,7.34007853900505,-3.782814467560114,False,0
GUIDED_NOGPS,2.356714963912964,28.75982418968863,4.3056992902776345,16.195712982261153,82.37283677549468,6.418784043627498,4.494757039006734,36.86443745690529,55.8131052277491,-1.0372062738185142,1.0423452441170082,-15.450360893168867,0.9111122112419496,0.2568866981310858,3.9782784302863776,0.44423377242099826,4.012807466292144,15.650498024144362,80.25608486995455,-8.338848501443863,-10.176169872283936,-8.060424774885178,36.93112134933472,-0.3543587401509285,-112.80702352523804,7.368378829974791,-3.782814467560114,False,0
GUIDED_NOGPS,2.3902971744537354,29.781899257281623,4.053457676216279,15.838956762341972,82.07006469594714,6.433144143914188,4.194498714002366,36.93609846095595,55.297416478535496,-1.0565681525682078,1.12281874636151,-15.39019204922293,0.9576179650028954,0.17800670363239623,4.031030253781994,0.44373605417804707,2.5682823468665723,14.657897554488596,80.09084647391805,-7.987119257450104,-11.022190004587173,-9.427360445261002,57.852864265441895,-20.835603773593903,-72.64541387557983,7.529452323799637,-3.8854756258799905,False,0
GUIDED_NOGPS,2.4383299350738525,20.82129436118406,3.7666459444894844,15.50800616535169,81.7699734166363,6.450268970738468,3.8910878648572815,37.00800196094256,54.77440875414921,-1.1694099212894,1.0445026233993802,-15.173348911000659,0.9373795235517122,0.11185065722920533,4.0130098903975275,0.44318666108941995,2.5682823468665723,14.657897554488596,80.09084647391805,-11.248742789030075,-11.07836589217186,-10.297136008739471,-98.85139465332031,3.960302099585533,1.5006985515356064,7.529452323799637,-3.2574491232074267,False,0
GUIDED_NOGPS,2.4570446014404297,53.449689061066366,3.4828661523548816,15.133018146056179,81.47044876601689,6.431225387062984,3.5848399240079214,37.080090502944664,54.24426045504654,-1.1506279682889227,1.0457380338655062,-15.064883799433565,1.103210623635994,0.18364073832401565,3.4515961584838504,0.4426846623752645,2.063776386429205,14.473028248182189,79.64728396182365,-9.14381667971611,-12.660200893878937,-8.537379652261734,23.68171662092209,-9.09959226846695,126.5413761138916,7.446032833229923,-5.433423595594783,False,0
GUIDED_NOGPS,2.498347043991089,24.215417301741258,3.2509001409960243,14.931411500070597,81.28006855484288,6.3608088635370335,3.276071460389412,37.15230654561991,53.70715414830661,-1.199294773672556,1.06428936125979,-14.74452231415058,0.9377099503632562,0.2098425939726291,3.1339817362207705,0.4419001764628758,2.021294453346134,14.914149655218392,79.45733457507698,-11.988281458616257,-13.382421433925629,-7.498646527528763,-29.506972432136536,-14.862878620624542,51.88239812850952,7.345693318393987,-7.5491041461970285,False,0
GUIDED_NOGPS,2.5241971015930176,38.69069977676512,2.983666475537989,14.517197985904765,80.89462502611602,6.319536514911123,2.965099837168067,37.22459252241646,53.16327643302442,-1.210313683072785,1.053513670627037,-14.523908911506458,1.080767094073474,0.21931297325895338,3.1468223478694695,0.4415265159711245,2.0972769602497734,13.441220988250626,78.29118145772595,-9.952353686094284,-15.333889424800873,-12.754029035568237,14.971145987510681,-11.1052967607975,-82.25889205932617,6.964568499164834,-5.177711985240084,False,0
GUIDED_NOGPS,2.560614824295044,27.46167494909417,2.7125229195792855,14.17585092685866,80.55267621404754,6.224734102904423,2.6522428694738647,37.29689090378549,52.61281780570401,-1.0856626239983465,1.070676441907398,-14.181643863328889,1.0242529646956597,0.1802897046875372,2.699635119776284,0.44102761837153814,2.168955803571342,13.005230572235169,78.11448542223019,-14.046819508075714,-15.010067820549011,-13.228891789913177,-30.14063537120819,-17.838501930236816,-68.1475043296814,6.855396440180488,-8.430141346294374,False,0
GUIDED_NOGPS,2.5925185680389404,31.351312563535252,2.3702406335870427,13.752055650548447,80.18554351909037,6.118376804478292,2.337818482132869,37.36914425939365,52.055972525651185,-1.0532574318114556,1.048808737505956,-13.920952618182428,1.0994496120573622,0.0628615782971926,2.3399460268355154,0.44057626880789275,1.6378791835734745,12.721468351474396,77.66371194372897,-14.558464288711548,-15.080182254314423,-10.678921639919281,-14.433234930038452,-8.702044934034348,-18.993563950061798,6.618292874827944,-8.548564019897702,False,0
GUIDED_NOGPS,2.6268310546875,29.146744682181748,2.044906206284684,13.35446417300588,79.83740783651808,6.00637228612456,2.022144367399777,37.441295320335506,51.492938480366774,-1.0132089377782032,0.9898484101562902,-13.590141797242968,1.0970058859830651,0.0951961375550592,2.2926846629135627,0.4400689892991867,1.4733791261566584,12.418543846269788,77.45578304075212,-14.558464288711548,-15.080182254314423,-10.678921639919281,-14.433234930038452,-8.702044934034348,-18.993563950061798,6.488932749042296,-8.548564019897702,False,0
GUIDED_NOGPS,2.660975456237793,29.291468797139505,1.619856024245252,12.913543298079244,79.4445685241488,5.834285477458813,1.7055376426903788,37.51328704134601,50.92391705093945,-0.9742113323817807,0.9344918613674525,-13.288595775576075,1.1484487073935739,-0.08558034163304584,1.4900578119165009,0.43963850726354065,-0.012158406949683787,11.95525518703591,76.7858766850523,-16.33138209581375,-15.417766571044922,-11.084645241498947,3.712252527475357,-6.421123445034027,57.874709367752075,6.082396664980019,-11.349834626836909,False,0
GUIDED_NOGPS,2.6953179836273193,29.121044226897173,1.1900498509677364,12.482932782703644,79.11651467641813,5.665209756619318,1.3883145083139912,37.58506266301296,50.34911297743889,-0.7936935947648692,0.8397004683536057,-12.844350026674691,1.1657001922939778,-0.10234642019983536,1.4361486150473177,0.43906571714391934,-0.012158406949683787,11.95525518703591,76.7858766850523,-17.85743683576584,-16.503438353538513,-7.9259321093559265,-25.00406503677368,-12.505199015140533,60.27742624282837,6.082396664980019,-11.146568197137329,False,0
GUIDED_NOGPS,2.737365484237671,23.78707741865965,0.7639627874901229,12.043378650411837,78.796974354538,5.492830135119854,1.0707899052060004,37.65656577398948,49.76873422430862,-0.6657163402863403,0.793302566434886,-12.516365196504324,1.1641984351461567,-0.07994577257334462,1.5866304027547344,0.43845034939514366,-0.2166988380462208,11.314518951889298,76.64198311449027,-17.85743683576584,-16.503438353538513,-7.9259321093559265,-25.00406503677368,-12.505199015140533,60.27742624282837,5.989017027263289,-11.146568197137329,False,0
GUIDED_NOGPS,2.7622029781341553,40.26944199085987,0.31767001576315357,11.586167428146688,78.43461501359776,5.324718218267359,0.7532771726603169,37.72774037320643,49.18299184575918,-0.5471501259887369,0.7172742366795931,-12.175159681421754,1.2707320585595123,-0.21484648338454923,0.6540223789827313,0.43794164969410565,-1.3944337018843203,10.592192061459158,76.38064007216707,-17.075198888778687,-17.25296527147293,-11.37106940150261,-4.237499088048935,-12.068074196577072,-121.54314517974854,5.676890337022909,-10.142463794801047,False,0
GUIDED_NOGPS,2.7944235801696777,31.039488484992006,-0.036502099672762994,11.212532642778207,78.17078395679218,5.15258757061354,0.43608770606181047,37.79853093208495,48.592099851161,-0.43660847683139936,0.640402698726921,-11.760387906336266,1.2074219706572713,-0.0037420996930213613,0.9417177653949911,0.43721174304686994,-0.386010312394353,10.609912408755791,76.08728354146751,-18.72629225254059,-18.042008578777313,-8.19525420665741,-36.217135190963745,19.943583011627197,180.88054656982422,5.3469952763982445,-10.986818610187193,False,0
GUIDED_NOGPS,2.8361222743988037,23.9893845801876,-0.48122809684283424,10.702588896866539,77.79481900073857,4.932962791383038,0.11953061461885461,37.86888245674883,47.9962750704375,-0.2694049123409583,0.5465905840853248,-11.321981115401597,1.2558885313617976,-0.14707872851392156,0.6596195155454314,0.43668097576440057,-1.0648489218155837,8.922067456675224,75.47954397602267,-19.21427547931671,-17.76842325925827,-11.120548099279404,24.3817538022995,6.2601640820503235,-170.66245079040527,4.873801337923037,-11.769056270166658,False,0
GUIDED_NOGPS,2.8661422729492188,33.310598419568755,-1.055148611707001,10.09962668766766,77.2828254095982,4.668078098790354,-0.1960876209041782,37.93874055023704,47.395737019458,-0.0576140863920856,0.37421160383386526,-10.927109950236588,1.352452012969731,-0.4254266687783777,-0.34521153267879523,0.4364233631545992,-2.9550233339521412,8.363099981626444,74.61260575209045,-19.503039121627808,-18.748071789741516,-15.578930079936981,-5.828683078289032,-10.222867131233215,-98.82043600082397,3.8221340635087055,-10.635057037742367,False,0
GUIDED_NOGPS,2.900108575820923,29.445283760635757,-1.5608127323905823,9.534037178364605,76.92122719910947,4.435826354755092,-0.510463490454578,38.00805147471617,46.79070776543084,0.10630036848702407,0.3197813994512105,-10.590311614715967,1.3544857849916938,-0.32264875141672433,-0.06763070424807571,0.43585444854977134,-2.9639277849862005,7.326374313945269,74.39682387019344,-19.036078453063965,-18.537987768650055,-8.186683803796768,-55.61448335647583,14.78346586227417,162.77735233306885,3.6589475496229604,-9.362296535913742,False,0
GUIDED_NOGPS,2.9493298530578613,20.318385498161597,-2.078356824176476,8.988577003923268,76.55789558744468,4.1923571394171875,-0.8232967969586138,38.07676221369286,46.18141179229628,0.3474826723732253,0.3133237757560808,-9.977694872584598,1.310985991497826,-0.2604392907333816,0.5347251361657175,0.4352430343245868,-3.6258288571764226,7.336505616822107,73.98540528563109,-19.036078453063965,-18.537987768650055,-8.186683803796768,-55.61448335647583,14.78346586227417,162.77735233306885,3.2516840289876576,-9.362296535913742,False,0
GUIDED_NOGPS,2.9690513610839844,50.718324506034,-2.770819245076297,8.263037518702872,76.08499943639093,3.923111334341789,-1.134290998589309,38.14482053422631,45.56807586611955,0.37479307704781545,0.2338074604907328,-9.794363203751347,1.6816181586058372,-1.1821201954012273,-3.0952333331060626,0.4349139028225485,-4.785554049892028,6.052686706612269,73.72067994416454,-20.196104049682617,-18.60918402671814,-9.4661183655262,-60.07876992225647,26.693743467330933,64.31224346160889,3.0653640664577892,-7.675561683585229,False,0
GUIDED_NOGPS,3.0002379417419434,32.07095777706412,-3.120967309450923,7.8972607313856455,75.78882650489413,3.710667659097588,-1.443153551033662,38.21217504914073,44.950928900483895,0.49050960835764257,0.24195811732637942,-9.47028011914435,1.362841822598674,-0.13127399785273974,-0.49857488383456516,0.43419502117328357,-5.7943248567411265,5.786307069513412,73.45961743683989,-15.764695405960083,-18.406982719898224,-13.13711553812027,15.006446838378906,14.845183491706848,-22.707289457321167,2.9443308373496393,-11.981670667519047,False,0
GUIDED_NOGPS,3.0342512130737305,29.405029480015983,-3.6190330209572754,7.2917242809248854,75.35853888824704,3.4090180070407765,-1.7495962497604065,38.27877527923776,44.33020182188348,0.7218989150779265,0.31356032441694537,-9.089511587068126,1.4644829503053236,-0.407824978705161,-1.5118732946051794,0.43372994599790027,-5.950401910773223,3.9285648266703515,72.74707568941555,-15.764695405960083,-18.406982719898224,-13.13711553812027,15.006446838378906,14.845183491706848,-22.707289457321167,2.11228850571383,-11.981670667519047,False,0
GUIDED_NOGPS,3.067415714263916,30.157492090882943,-4.201059760812801,6.690469274607023,74.9510730192722,3.117868254538709,-2.053335572287457,38.344571715509,43.70612743511651,0.8886255402652302,0.32486215305920085,-8.791165509027385,1.5014141072681937,-0.5986487595087694,-1.629212616634228,0.4332135551946453,-6.023487198708351,4.361717753157984,72.7743392714365,-20.433855056762695,-18.33127737045288,-10.993478447198868,-39.38058614730835,23.000390827655792,-5.670354515314102,1.9024693601100515,-10.225360093210199,False,0
GUIDED_NOGPS,3.1039533615112305,27.371710118445524,-4.766187791438916,6.066080835211701,74.56513131395523,2.84942109776093,-2.3540930204494206,38.4095158813484,43.07894028867811,1.0659297805993564,0.33437575279938236,-8.437031299619624,1.5126596988716243,-0.5598644045390503,-1.2378770593695156,0.4326393006538317,-5.971738756599416,3.2714895636841628,72.57709074654971,-20.765571296215057,-18.478578329086304,-10.10042056441307,-17.927539348602295,0.12198127806186676,51.481831073760986,1.728466269141236,-8.773016842629014,False,0
GUIDED_NOGPS,3.1352245807647705,31.983894828348763,-5.3739871961347045,5.470506045500595,74.14801896536184,2.524380315274766,-2.6515954626650444,38.47356039476478,42.44887654015351,1.2056015995974165,0.3226141136877675,-8.21170421267455,1.5647147159323804,-0.748754148110057,-2.6265263968391563,0.43213377937003944,-9.179693678247709,3.009514974520119,71.46972779484292,-15.65375030040741,-17.072205245494843,-10.002651810646057,27.919471263885498,31.472986936569214,-4.43911999464035,0.8530697862905481,-10.655737143001872,False,0
GUIDED_NOGPS,3.169138193130493,29.488135998368918,-5.89115676783221,4.894172891929731,73.76884204659628,2.2069769201856664,-2.945575476204935,38.53665903059425,41.81617382161081,1.4064729807758487,0.24724953958158236,-7.805857787286977,1.5578777935254788,-0.5777776812172635,-2.423962924104633,0.43154014094443927,-8.313145500667284,2.044037229402533,71.42406745992795,-15.65375030040741,-17.072205245494843,-10.002651810646057,27.919471263885498,31.472986936569214,-4.43911999464035,0.44667037086569106,-10.655737143001872,False,0
GUIDED_NOGPS,3.2105865478515625,24.129047104033873,-6.504885649411792,4.320517949579354,73.29945440300911,1.9139858901274371,-3.235771689458881,38.59876678271271,41.1810711049942,1.6336102812943882,0.1657338998801247,-7.436095251284582,1.548093644722651,-0.684700623565601,-1.6762775024011325,0.4311021026475802,-8.313145500667284,2.044037229402533,71.42406745992795,-21.593348681926727,-16.20001196861267,-15.743133425712585,-14.487995207309723,23.976053297519684,-62.458884716033936,0.44667037086569106,-8.718944796290963,False,0
GUIDED_NOGPS,3.236189365386963,39.064021607525376,-7.221418881128224,3.6515344410341917,72.83527377402798,1.5748602160338423,-3.5219291242034547,38.65983992624827,40.543808567516855,1.8893972371733692,0.11806921131377916,-7.225664806919306,1.7242473703562489,-1.2753009856102298,-4.4103399205795615,0.43069050261732456,-9.138638475724175,1.4121439070909034,71.02581075434708,-21.00682258605957,-15.473759174346924,-10.595346987247467,30.248868465423584,41.24724268913269,180.55624961853027,0.3071434397944533,-9.074666170907104,False,0
GUIDED_NOGPS,3.2708780765533447,28.835749888281597,-7.725183847514114,3.2420150513599553,72.49574506639027,1.3629898788882533,-3.803799537869578,38.71983607979372,39.90462745705395,2.076211021822857,0.009690971215190278,-6.9927600519769255,1.571052614589874,-0.6681340682531633,-1.6298524216320132,0.43000092214153074,-9.514058473645507,1.2704848672943057,70.80474297009579,-21.903717517852783,-14.889869093894958,-13.202698528766632,-60.42713522911072,29.952016472816467,-181.609845161438,0.18004547778125202,-7.737159744614989,False,0
GUIDED_NOGPS,3.304985284805298,29.31993037545525,-8.48022761090975,2.64549611072708,71.97505483313903,1.0723008642082494,-4.08114176580998,38.778714267619044,39.263769957535715,2.2306051001334684,-0.18614816137052922,-6.6956865235559215,1.6580660158778189,-1.162436153114035,-2.7397504086809024,0.42967064667441035,-12.554083959426617,-0.622441244447858,69.54436877000873,-22.187146544456482,-13.696680963039398,-16.20040535926819,-16.105636954307556,35.5468213558197,-85.71252226829529,-0.5544415024847493,-7.260645620753526,False,0
GUIDED_NOGPS,3.339627265930176,28.871279495580826,-9.216341539514273,2.066620179922951,71.47017572676788,0.7867440921551188,-4.353722063566737,38.83643498188381,38.62147905434037,2.257100898027829,-0.3586723365027044,-6.393582987698026,1.6710977696847593,-1.1776709121129223,-2.8290040749162824,0.4293048928249338,-12.853301492232426,-1.6236699529716156,69.2029744532501,-22.73937165737152,-12.444385886192322,-16.007199883461,2.128216065466404,41.55867397785187,-72.13894128799438,-0.7116339514420134,-7.698203760683821,False,0
GUIDED_NOGPS,3.3727855682373047,30.16204632566033,-9.94419266455502,1.548634167233474,71.01031769670038,0.4992813013343931,-4.621314449138703,38.89296024484966,37.97799839968718,2.2571211751519273,-0.5224489602987974,-6.166689652998903,1.6774627021251673,-1.2496470646130167,-3.1576536805342257,0.42884975678783793,-12.699550371566737,-0.992674373234648,69.33188118254985,-22.936522960662842,-10.583818703889847,-13.548217713832855,2.3098640143871307,43.59748661518097,4.906968027353287,-1.2313420300511517,-6.54115989688673,False,0
GUIDED_NOGPS,3.405963897705078,30.143620996952798,-10.668343579764873,1.078920501669069,70.54908420177158,0.21716918607896601,-4.8837010452493015,38.948253671092786,37.33357217802945,2.260093801544764,-0.6927611146352405,-6.0176075408718575,1.677986478378349,-1.3001285790971782,-3.271617494352229,0.42839522815787495,-14.068676375173975,-1.3754738408998484,68.71597085362761,-21.748316287994385,-9.117767214775085,-13.93652856349945,21.276895701885223,45.38460373878479,-29.437682032585144,-1.478124895144259,-6.821909273191403,False,0
GUIDED_NOGPS,3.4403185844421387,29.11275690458177,-11.408119668650063,0.6498590210256667,70.16666556095478,-0.06973560212932146,-5.140672421613717,39.002280529716366,36.68844497144754,2.267155149929499,-0.9585249491792002,-5.735933954595117,1.6733379174544467,-1.357179850547747,-3.388847635496161,0.42777797911686255,-14.702834178034722,-1.545093312604933,68.46950230250005,-22.697755694389343,-7.4748121201992035,-9.090077877044678,-13.616971671581268,39.48755860328674,46.818673610687256,-1.5184140467570115,-7.7815901251659225,False,0
GUIDED_NOGPS,3.475189447402954,28.679393906241454,-12.213722940263098,0.23026239569884194,69.75231808243355,-0.32647657977970057,-5.392027937206647,39.05500780656304,36.04286162504178,2.2493797960579522,-1.0704580892973692,-5.472025263462756,1.6794761433251413,-1.5158730996165672,-3.1332628329760666,0.4272212235446454,-17.10290569208183,-2.026521903098981,67.29351216046511,-21.44651710987091,-6.48418515920639,-8.671344071626663,-21.77930921316147,61.43298149108887,67.00611114501953,-1.8854122717388369,-5.205154831551549,False,0
GUIDED_NOGPS,3.5076003074645996,30.86248280023252,-12.958268528898234,-0.2192553717229319,69.2255958730786,-0.5880653950876422,-5.637576082529668,39.106404266427376,35.39706711232565,2.339239685769344,-1.4622456374955284,-5.266435715671726,1.7121793156533969,-1.5387303797108765,-3.5876020196088922,0.42689553827685345,-17.56143608770151,-3.211849660544041,66.85327443514583,-16.428162157535553,-5.48347570002079,-15.151824057102203,35.22050678730011,50.55258870124817,-61.94833517074585,-2.277783071950503,-4.58839045704669,False,0
GUIDED_NOGPS,3.542600154876709,28.575446246082574,-13.687977798850573,-0.5924960462905684,68.7699837323676,-0.8790411014384646,-5.877134821878956,39.15644051526831,34.75130640061864,2.3506757703174728,-1.7346498032949156,-5.03824592569077,1.6879289612316803,-1.5006029278680695,-3.8489614575538447,0.4264198770017231,-18.390769091155963,-2.9164998078498865,66.7210249383339,-17.467176914215088,-4.728957265615463,-12.814484536647797,44.20386850833893,43.52278709411621,3.1355269253253937,-2.456274119451339,-7.792085564599293,False,0
GUIDED_NOGPS,3.575672149658203,30.240769447068068,-14.48170321556103,-0.9573005908878341,68.27186084326974,-1.1705546089697174,-6.110531935612551,39.205089062421635,34.10582431643928,2.388056114984483,-2.083804911519442,-4.8599182241982,1.6965849569761093,-1.7332534974370521,-4.231725275300397,0.42603485537784835,-18.390769091155963,-2.9164998078498865,66.7210249383339,-21.09013795852661,-3.723572939634323,-15.13429582118988,-12.744295597076416,43.12203526496887,-43.389156460762024,-2.456274119451339,-7.553352523860776,False,0
GUIDED_NOGPS,3.608771800994873,30.218763959134858,-15.23061633451849,-1.2902918031648052,67.79653739639103,-1.4124671149408599,-6.337605362418104,39.252324382812446,33.46086541089818,2.505264509019429,-2.4445614162143525,-4.607614878239337,1.6949469228827607,-1.711577480548604,-3.772041518868424,0.4256046992685845,-18.64210428222996,-3.6492329128402647,66.36235452151104,-21.342799067497253,-2.5116100907325745,-15.128222107887268,-41.561657190322876,33.875349164009094,-45.67224979400635,-2.7600799624096286,-4.976447654740964,False,0
GUIDED_NOGPS,3.6424362659454346,29.705544066404148,-16.054096061416804,-1.6054932277239646,67.26433667366912,-1.5937005759460952,-6.5582035415802675,39.29812297916759,32.816673825091065,2.544938730030506,-2.5931846250065376,-4.554686461700439,1.691263306441726,-1.8928563435766668,-3.107086127801299,0.42528783484614313,-20.38437743683226,-4.131540391710905,65.29567191421542,-23.08436781167984,-1.243668608367443,-16.949689388275146,59.65756177902222,59.98772382736206,30.476975440979004,-3.020901172859782,-0.9206951994091441,False,0
GUIDED_NOGPS,3.6772689819335938,28.71394928528397,-16.864027098098585,-1.891121682171926,66.70195543447818,-1.8949534106422805,-6.772185755248211,39.342463444228144,32.17349315549169,2.6942020556139683,-2.9949397670812723,-4.291124829555279,1.6825579798826877,-1.9119771853505285,-4.625190164797021,0.4250308126209733,-21.71926259796075,-4.277009947913841,64.70759454182118,-19.863444566726685,0.1015088171698153,-18.146343529224396,112.05483675003052,69.2524254322052,236.31470203399658,-3.515069669182246,-8.023155133089055,False,0
