E-kp,E-ki,E-kd,E-I-Tot,E-P,E-I,E-D,E-PID,N-kp,N-ki,N-kd,N-I-Tot,N-P,N-I,N-D,N-PID,D-kp,D-ki,D-kd,D-I-Tot,D-P,D-I,D-D,D-PID,Y-kp,Y-ki,Y-kd,Y-I-Tot,Y-P,Y-I,Y-D,Y-PID,errorN,desiredN,actualN,errorE,desiredE,actualE,errorD,desiredD,actualD,errorY,desiredY,actualY,roll,pitch,yaw-rate,thrust,dt,Time,Mode
0.035,0.005,0.05,-0.002896528924007559,-0.003071588625791504,-1.4482644620037795e-05,-0.13294810378449357,-0.13603417505490512,0.035,0.005,0.05,-0.002784976959698842,-0.002953294711335685,-1.392488479849421e-05,-0.12782796774671487,-0.13079518734284906,0.002,8e-05,0,-0.003952567775796542,-0.00023951154820773136,-3.162054220637234e-07,-0.0,-0.0002398277536297951,0.1,0.02,0,-0.002867348566808763,-0.008687556209572983,-5.7346971336175267e-05,-0.0,-0.008744903180909157,-0.08437984889530528,0.0,0.08437984889530528,-0.08775967502261439,0.0,0.08775967502261439,-0.11975577410386568,0.0,0.11975577410386568,-0.08687556209572983,0,0.08687556209572983,-0.1362323387158604,0.13058877326526439,0.008744903180909157,0.4,0.0330052375793457,0.03329873085021973,STABILIZE
0.035,0.005,0.05,-0.006363932269326432,-0.00363088236927443,-3.181966134663216e-05,-0.07842635770291839,-0.08208905973353946,0.035,0.005,0.05,-0.006102849660468377,-0.0034743017448445063,-3.0514248302341883e-05,-0.07504808910262212,-0.07855290509576897,0.002,8e-05,0,-0.008989178159218444,-0.0003013756243643033,-7.191342527374756e-07,-0.0,-0.0003020947586170408,0.1,0.02,0,-0.006267904765570309,-0.010173953011741371,-0.00012535809531140618,-0.0,-0.010299311107052777,-0.09926576413841445,0.0,0.09926576413841445,-0.1037394962649837,0.0,0.1037394962649837,-0.15068781218215166,0.0,0.15068781218215166,-0.10173953011741371,0,0.10173953011741371,-0.08222841583459048,0.0784070166264166,0.010299311107052777,0.4,0.03342413902282715,0.06670522689819336,STABILIZE
0.035,0.005,0.05,-0.011274728306380127,-0.004525161483820618,-5.637364153190064e-05,-0.0634958472304427,-0.06807738235579522,0.035,0.005,0.05,-0.010616057216185191,-0.004158794795287608,-5.308028608092596e-05,-0.05861357288778573,-0.06282544796915426,0.002,8e-05,0,-0.017152853246655633,-0.0004298627850423153,-1.3722282597324507e-06,-0.0,-0.00043123501330204775,0.1,0.02,0,-0.011007793022005826,-0.012479070669018785,-0.00022015586044011652,-0.0,-0.012699226529458901,-0.11882270843678878,0.0,0.11882270843678878,-0.1292903281091605,0.0,0.1292903281091605,-0.21493139252115764,0.0,0.21493139252115764,-0.12479070669018784,0,0.12479070669018784,-0.06821405515032707,0.06267702594164937,0.012699226529458901,0.4,0.03798270225524902,0.10470390319824219,STABILIZE
0.035,0.005,0.05,-0.015951660807939128,-0.0048966692422647146,-7.975830403969565e-05,-0.0515908889013996,-0.05656731644770401,0.035,0.005,0.05,-0.014862691923610116,-0.004446154728136419,-7.431345961805059e-05,-0.04703018977236982,-0.05155065796012429,0.002,8e-05,0,-0.025384770450697196,-0.0004924958920582305,-2.030781636055776e-06,-0.0,-0.0004945266736942862,0.1,0.02,0,-0.01544019179329123,-0.0132589901763727,-0.0003088038358658246,-0.0,-0.013567794012238524,-0.1270329922324691,0.0,0.1270329922324691,-0.13990483549327754,0.0,0.13990483549327754,-0.24624794602911523,0.0,0.24624794602911523,-0.13258990176372698,0,0.13258990176372698,-0.056686459818339266,0.05141961590171808,0.013567794012238524,0.4,0.03342938423156738,0.13808155059814453,STABILIZE
0.035,0.005,0.05,-0.02080695716914609,-0.005080478232959738,-0.00010403478584573045,-0.042842782919135895,-0.04802729593794136,0.035,0.005,0.05,-0.019191416003166047,-0.004529484263491108,-9.595708001583024e-05,-0.03833594155629483,-0.04296138289980177,0.002,8e-05,0,-0.034424471495861086,-0.0005405114153496957,-2.753957719668887e-06,-0.0,-0.0005432653730693646,0.1,0.02,0,-0.020048851030573987,-0.013778292638011617,-0.00040097702061147976,-0.0,-0.014179269658623097,-0.1294138360997459,0.0,0.1294138360997459,-0.14515652094170678,0.0,0.14515652094170678,-0.27025570767484786,0.0,0.27025570767484786,-0.13778292638011616,0,0.13778292638011616,-0.04813046903076483,0.042845764395708544,0.014179269658623097,0.4,0.03344869613647461,0.17153501510620117,STABILIZE
0.035,0.005,0.05,-0.025957547405191496,-0.0052947763214303365,-0.00012978773702595749,-0.018051506394030206,-0.0234760704524865,0.035,0.005,0.05,-0.023692369209085254,-0.004626953293971357,-0.00011846184604542627,-0.01358828749485664,-0.018333702634873425,0.002,8e-05,0,-0.04468243380086073,-0.0006025785498583254,-3.574594704068859e-06,-0.0,-0.0006061531445623943,0.1,0.02,0,-0.02490006775158989,-0.014248634620998075,-0.0004980013550317978,-0.0,-0.014746635976029873,-0.13219866554203877,0.0,0.13219866554203877,-0.15127932346943818,0.0,0.15127932346943818,-0.3012892749291627,0.0,0.3012892749291627,-0.14248634620998074,0,0.14248634620998074,-0.023521591088420477,0.018275264399269655,0.014746635976029873,0.4,0.03404688835144043,0.20559263229370117,STABILIZE
0.035,0.005,0.05,-0.031707033097639656,-0.005386508518710043,-0.00015853516548819827,-0.01397214284479857,-0.01951718652899681,0.035,0.005,0.05,-0.028663503306660766,-0.004657295903773031,-0.00014331751653330382,-0.009366702682875356,-0.014167316103181692,0.002,8e-05,0,-0.05685615875161554,-0.0006517241134683831,-4.548492700129244e-06,-0.0,-0.0006562726061685124,0.1,0.02,0,-0.030315795748655377,-0.014496633289938774,-0.0006063159149731075,-0.0,-0.015102949204911882,-0.133065597250658,0.0,0.133065597250658,-0.15390024339171549,0.0,0.15390024339171549,-0.32586205673419155,0.0,0.32586205673419155,-0.14496633289938773,0,0.14496633289938773,-0.019552969310627,0.014117889598406859,0.015102949204911882,0.4,0.03735852241516113,0.2430117130279541,STABILIZE
0.035,0.005,0.05,-0.03716898445327722,-0.005649430029496877,-0.00018584492226638612,-0.009465146212614906,-0.015300421164378169,0.035,0.005,0.05,-0.03321133020892354,-0.004703928723949253,-0.00016605665104461772,-0.00461153718527898,-0.009481522560272852,0.002,8e-05,0,-0.06991433563344658,-0.0007717938339334664,-5.593146850675727e-06,-0.0,-0.0007773869807841422,0.1,0.02,0,-0.03541314551340177,-0.015063753360958554,-0.0007082629102680355,-0.0,-0.01577201627122659,-0.13439796354140723,0.0,0.13439796354140723,-0.1614122865570536,0.0,0.1614122865570536,-0.3858969169667332,0.0,0.3858969169667332,-0.15063753360958554,0,0.15063753360958554,-0.015325296324809137,0.009441263179527726,0.01577201627122659,0.4,0.033838510513305664,0.27678966522216797,STABILIZE
0.035,0.005,0.05,-0.04263407030375525,-0.005715737769249159,-0.00021317035151877627,-0.006856056839937022,-0.012784964960704958,0.035,0.005,0.05,-0.03772342194288034,-0.004719035317594868,-0.0001886171097144017,-0.0022845041680754825,-0.007192156595384752,0.002,8e-05,0,-0.08376711787873406,-0.0008278931054841838,-6.701369430298725e-06,-0.0,-0.0008345944749144825,0.1,0.02,0,-0.04047310814360094,-0.015120096820169765,-0.0008094621628720188,-0.0,-0.015929558983041783,-0.1348295805027105,0.0,0.1348295805027105,-0.16330679340711882,0.0,0.16330679340711882,-0.4139465527420919,0.0,0.4139465527420919,-0.15120096820169765,0,0.15120096820169765,-0.01280390019657587,0.007158392647453358,0.015929558983041783,0.4,0.03346514701843262,0.31028008460998535,STABILIZE
0.035,0.005,0.05,-0.048145220746504645,-0.005767613240836758,-0.00024072610373252322,-0.005729164714990479,-0.011737504059559761,0.035,0.005,0.05,-0.04222966800061843,-0.004715945372761884,-0.00021114834000309215,-0.001546316583083968,-0.006473410295848944,0.002,8e-05,0,-0.0985720074020009,-0.0008853622200565489,-7.885760592160072e-06,-0.0,-0.0008932479806487091,0.1,0.02,0,-0.045568111595064804,-0.015234573550497024,-0.0009113622319012961,-0.0,-0.01614593578239832,-0.13474129636462523,0.0,0.13474129636462523,-0.16478894973819308,0.0,0.16478894973819308,-0.4426811100282745,0.0,0.4426811100282745,-0.15234573550497024,0,0.15234573550497024,-0.011754674922786862,0.006442178192676034,0.01614593578239832,0.4,0.03344368934631348,0.3437075614929199,STABILIZE
0.035,0.005,0.05,-0.05363305641439671,-0.005741126167023338,-0.00026816528207198356,-0.0037046198136369626,-0.009713911262732284,0.035,0.005,0.05,-0.04667095113178723,-0.0046462701040220055,-0.00023335475565893616,-0.00013334751389027525,-0.0050129723735712175,0.002,8e-05,0,-0.11406327217799964,-0.0009260721446798929,-9.125061774239971e-06,-0.0,-0.0009351972064541328,0.1,0.02,0,-0.05062166303810815,-0.015105135993673573,-0.001012433260762163,-0.0,-0.016117569254435735,-0.1327505744006287,0.0,0.1327505744006287,-0.1640321762006668,0.0,0.1640321762006668,-0.4630360723399464,0.0,0.4630360723399464,-0.1510513599367357,0,0.1510513599367357,-0.00972709340759417,0.004987345774895042,0.016117569254435735,0.4,0.033455848693847656,0.37717723846435547,STABILIZE
0.035,0.005,0.05,-0.05913842983585538,-0.005761978153248698,-0.0002956921491792769,-0.0031812152799342835,-0.009238885582362258,0.035,0.005,0.05,-0.0510761169670166,-0.004610490035988152,-0.00025538058483508296,0.0004044058662714805,-0.004461464754551754,0.002,8e-05,0,-0.13042145113396444,-0.0009783218015830125,-1.0433716090717156e-05,-0.0,-0.0009887555176737296,0.1,0.02,0,-0.05566958060848472,-0.015094858128730116,-0.0011133916121696943,-0.0,-0.01620824974089981,-0.1317282867425186,0.0,0.1317282867425186,-0.16462794723567706,0.0,0.16462794723567706,-0.4891609007915062,0.0,0.4891609007915062,-0.15094858128730115,0,0.15094858128730115,-0.009250607456743342,0.004437108995881577,0.01620824974089981,0.4,0.03344130516052246,0.41065025329589844,STABILIZE
0.035,0.005,0.05,-0.06470387199047545,-0.005737715127718397,-0.00032351935995237723,-0.0007570502107044209,-0.006818284698375195,0.035,0.005,0.05,-0.0553810575997534,-0.004438195979070374,-0.000276905287998767,0.0022481668743378376,-0.0024669343927313037,0.002,8e-05,0,-0.14807064702312406,-0.001039743427200574,-1.1845651761849925e-05,-0.0,-0.001051589078962424,0.1,0.02,0,-0.06086493114275964,-0.01530333620845931,-0.0012172986228551929,-0.0,-0.016520634831314503,-0.12680559940201067,0.0,0.12680559940201067,-0.16393471793481132,0.0,0.16393471793481132,-0.519871713600287,0.0,0.519871713600287,-0.1530333620845931,0,0.1530333620845931,-0.006824849394039711,0.0024487144126691647,0.016520634831314503,0.4,0.03394913673400879,0.444563627243042,STABILIZE
0.035,0.005,0.05,-0.07005678043347474,-0.005596262456068004,-0.0003502839021673737,0.0010162745902657696,-0.004930271767969608,0.035,0.005,0.05,-0.059472963923539755,-0.004277932637443365,-0.0002973648196176988,0.003744890810453746,-0.0008304066466073181,0.002,8e-05,0,-0.1667407542744591,-0.0011153650273785032,-1.333926034195673e-05,-0.0,-0.00112870428772046,0.1,0.02,0,-0.06580340025125253,-0.014751376781748766,-0.0013160680050250506,0.0,-0.016067444786773816,-0.12222664678409614,0.0,0.12222664678409614,-0.15989321303051438,0.0,0.15989321303051438,-0.5576825136892516,0.0,0.5576825136892516,-0.14751376781748765,0,0.14751376781748765,-0.004932393391024221,0.0008177104260973852,0.016067444786773816,0.4,0.0334780216217041,0.4780619144439697,STABILIZE
0.035,0.005,0.05,-0.07534294166353943,-0.0055306952584754055,-0.00037671470831769714,0.0020194566236832892,-0.0038879533431098135,0.035,0.005,0.05,-0.0635298019954331,-0.004244504492411861,-0.00031764900997716545,0.00400399914388751,-0.0005581543585015166,0.002,8e-05,0,-0.18604852762340987,-0.0011543392628978336,-1.4883882209872791e-05,-0.0,-0.0011692231451077063,0.1,0.02,0,-0.0705971656636649,-0.014330061609538076,-0.001411943313273298,0.0,-0.015742004922811373,-0.12127155692605317,0.0,0.12127155692605317,-0.1580198645278687,0.0,0.1580198645278687,-0.5771696314489168,0.0,0.5771696314489168,-0.14330061609538075,0,0.14330061609538075,-0.0038893371631933456,0.0005484285888939004,0.015742004922811373,0.4,0.033452510833740234,0.5115385055541992,STABILIZE
0.035,0.005,0.05,-0.08066837578883121,-0.005450355126123657,-0.00040334187894415605,0.0024644780392009892,-0.003389218965866824,0.035,0.005,0.05,-0.06763230722687588,-0.004198739462750977,-0.0003381615361343794,0.0037913251516851505,-0.0007455758472002059,0.002,8e-05,0,-0.20657772118837292,-0.001200614611203586,-1.6526217695069833e-05,-0.0,-0.001217140828898656,0.1,0.02,0,-0.07545828073051193,-0.014214698101827117,-0.0015091656146102386,0.0,-0.015723863716437355,-0.11996398465002792,0.0,0.11996398465002792,-0.15572443217496162,0.0,0.15572443217496162,-0.600307305601793,0.0,0.600307305601793,-0.14214698101827117,0,0.14214698101827117,-0.003391058257210681,0.0007371651366708475,0.015723863716437355,0.4,0.03419780731201172,0.5457303524017334,STABILIZE
0.035,0.005,0.05,-0.08576301551514463,-0.005304380070301534,-0.00042881507757572317,0.0038833235271663437,-0.0018498716207109136,0.035,0.005,0.05,-0.07148026673080404,-0.004006375484912591,-0.00035740133365402024,0.005120595396196883,0.0007568185776302711,0.002,8e-05,0,-0.2272577893582978,-0.0012303681330731167,-1.8180623148663826e-05,-0.0,-0.0012485487562217804,0.1,0.02,0,-0.08010458788266399,-0.013821686199253884,-0.0016020917576532799,0.0,-0.015423777956907164,-0.11446787099750261,0.0,0.11446787099750261,-0.1515537162943295,0.0,0.1515537162943295,-0.6151840665365583,0.0,0.6151840665365583,-0.13821686199253883,0,0.13821686199253883,-0.0018480405367147688,-0.0007612788892494779,0.015423777956907164,0.4,0.033616065979003906,0.5793218612670898,STABILIZE
0.035,0.005,0.05,-0.09093850784535695,-0.005232905753772712,-0.0004546925392267848,0.0042690634454775845,-0.001418534847521912,0.035,0.005,0.05,-0.07516652966290016,-0.0037271558484743214,-0.0003758326483145008,0.005975206458786542,0.00187221796199772,0.002,8e-05,0,-0.2492061801618617,-0.0012681069404359975,-1.9936494412948936e-05,-0.0,-0.0012880434348489463,0.1,0.02,0,-0.08490320139070699,-0.01386241740563319,-0.0016980640278141399,0.0,-0.015560481433447331,-0.10649016709926631,0.0,0.10649016709926631,-0.14951159296493463,0.0,0.14951159296493463,-0.6340534702179987,0.0,0.6340534702179987,-0.1386241740563319,0,0.1386241740563319,-0.0014140009655925696,-0.0018756445505916603,0.015560481433447331,0.4,0.03461599349975586,0.6139247417449951,STABILIZE
0.035,0.005,0.05,-0.09569217277724926,-0.004973672406560948,-0.0004784608638862463,0.005275983444408942,-0.000176149826038253,0.035,0.005,0.05,-0.07823804615216623,-0.0032136713520694816,-0.00039119023076083115,0.008993167044570358,0.005388305461740045,0.002,8e-05,0,-0.27164536987166576,-0.0013415835725457746,-2.1731629589733262e-05,-0.0,-0.001363315202135508,0.1,0.02,0,-0.08942690563088625,-0.013523053582074188,-0.001788538112617725,0.0,-0.015311591694691913,-0.09181918148769946,0.0,0.09181918148769946,-0.14210492590174137,0.0,0.14210492590174137,-0.6707917862728873,0.0,0.6707917862728873,-0.13523053582074188,0,0.13523053582074188,-0.0001634317711378555,-0.005388706205242001,0.015311591694691913,0.4,0.03345179557800293,0.6473934650421143,STABILIZE
0.035,0.005,0.05,-0.10028959856986092,-0.004809105442591861,-0.0005014479928493046,0.00612123932149921,0.000810685886058044,0.035,0.005,0.05,-0.0810558202623771,-0.0029475131129221934,-0.00040527910131188556,0.010980419922637928,0.007627627708403849,0.002,8e-05,0,-0.29445882800145295,-0.0013636491451071895,-2.355670624011624e-05,-0.0,-0.0013872058513473057,0.1,0.02,0,-0.09383517508828607,-0.013174970762403796,-0.0018767035017657214,0.0,-0.015051674264169517,-0.08421466036920552,0.0,0.08421466036920552,-0.13740301264548171,0.0,0.13740301264548171,-0.6818245725535947,0.0,0.6818245725535947,-0.13174970762403795,0,0.13174970762403795,0.0008282231993325446,-0.007625743399561201,0.015051674264169517,0.4,0.03345942497253418,0.680856466293335,STABILIZE
0.035,0.005,0.05,-0.1047974996552262,-0.004714854010760546,-0.000523987498276131,0.0062547389868468336,0.001015897477810156,0.035,0.005,0.05,-0.08366643158058294,-0.002730461696273509,-0.0004183321579029147,0.012451256296200183,0.009302462442023759,0.002,8e-05,0,-0.31771501227462057,-0.001389934334898638,-2.5417200981969647e-05,-0.0,-0.0014153515358806075,0.1,0.02,0,-0.09820733925331959,-0.013065387295294693,-0.001964146785066392,0.0,-0.015029534080361085,-0.07801319132210024,0.0,0.07801319132210024,-0.13471011459315846,0.0,0.13471011459315846,-0.694967167449319,0.0,0.694967167449319,-0.13065387295294692,0,0.13065387295294692,0.001037107597774498,-0.009300121665941907,0.015029534080361085,0.4,0.03346371650695801,0.7143285274505615,STABILIZE
0.035,0.005,0.05,-0.10921733232220512,-0.004606562046186819,-0.0005460866616110256,0.00593541174483966,0.0007827630370418155,0.035,0.005,0.05,-0.08609702824753748,-0.0025332846737010483,-0.00043048514123768743,0.012493901137383972,0.009530131322445236,0.002,8e-05,0,-0.3415569225450413,-0.0014199534201614016,-2.7324553803603305e-05,-0.0,-0.0014472779739650049,0.1,0.02,0,-0.10249289984817166,-0.012761763539389681,-0.0020498579969634332,0.0,-0.014811621536353115,-0.07237956210574423,0.0,0.07237956210574423,-0.13161605846248053,0.0,0.13161605846248053,-0.7099767100807007,0.0,0.7099767100807007,-0.1276176353938968,0,0.1276176353938968,0.0008039879960068083,-0.009528364198407179,0.014811621536353115,0.4,0.03358125686645508,0.7479057312011719,STABILIZE
0.035,0.005,0.05,-0.113537584757126,-0.004494255280426473,-0.00056768792378563,0.0062991900138525195,0.0012372468096404163,0.035,0.005,0.05,-0.08842089796868652,-0.0024174660908416463,-0.0004421044898434326,0.011172808817584565,0.008313238236899487,0.002,8e-05,0,-0.36579052529910244,-0.0014405507056665012,-2.92632420239282e-05,-0.0,-0.0014698139476904293,0.1,0.02,0,-0.10680389987875014,-0.01281322921565471,-0.0021360779975750028,0.0,-0.014949307213229714,-0.06907045973833274,0.0,0.06907045973833274,-0.12840729372647064,0.0,0.12840729372647064,-0.7202753528332506,0.0,0.7202753528332506,-0.1281322921565471,0,0.1281322921565471,0.0012558348474966967,-0.008310450558617507,0.014949307213229714,0.4,0.033644914627075195,0.7815449237823486,STABILIZE
0.035,0.005,0.05,-0.11764230067750124,-0.0042944747076505245,-0.0005882115033875062,0.005791314298678411,0.0009086280876403801,0.035,0.005,0.05,-0.09044461951534534,-0.002117277094454619,-0.0004522230975767267,0.009350908103495693,0.006781407911464347,0.002,8e-05,0,-0.39033954962805284,-0.0014676521364798086,-3.122716397024423e-05,-0.0,-0.001498879300450053,0.1,0.02,0,-0.1110275196916958,-0.012625358464527604,-0.002220550393833916,0.0,-0.014845908858361519,-0.060493631270131965,0.0,0.060493631270131965,-0.12269927736144355,0.0,0.12269927736144355,-0.7338260682399043,0.0,0.7338260682399043,-0.12625358464527603,0,0.12625358464527603,0.0009235689782228078,-0.006779389250204234,0.014845908858361519,0.4,0.03345346450805664,0.8150079250335693,STABILIZE
0.035,0.005,0.05,-0.12145564230738667,-0.003993187709490933,-0.0006072782115369334,0.006961536838779931,0.002361070917752065,0.035,0.005,0.05,-0.09192518935437796,-0.0015503969636325619,-0.0004596259467718898,0.011923990017696316,0.009913967107291864,0.002,8e-05,0,-0.4155957809158921,-0.0015112785156540017,-3.324766247327137e-05,-0.0,-0.0015445261781272732,0.1,0.02,0,-0.11506687879071946,-0.012085327683677996,-0.0023013375758143893,0.0,-0.014386665259492386,-0.04429705610378748,0.0,0.04429705610378748,-0.11409107741402665,0.0,0.11409107741402665,-0.7556392578270008,0.0,0.7556392578270008,-0.12085327683677996,0,0.12085327683677996,0.00238197705774759,-0.009908964879314273,0.014386665259492386,0.4,0.033423662185668945,0.8484299182891846,STABILIZE
0.035,0.005,0.05,-0.125156701653256,-0.003870198957521071,-0.00062578350826628,0.0072066875601631665,0.002710705094375815,0.035,0.005,0.05,-0.09320273865875685,-0.0013359337216538412,-0.00046601369329378424,0.011901526884815272,0.010099579469867647,0.002,8e-05,0,-0.44116514230384,-0.001527879399464551,-3.52932113843072e-05,-0.0,-0.0015631726108488583,0.1,0.02,0,-0.11898876015052608,-0.011717464597330453,-0.002379775203010522,0.0,-0.014097239800340975,-0.03816953490439546,0.0,0.03816953490439546,-0.1105771130720306,0.0,0.1105771130720306,-0.7639396997322755,0.0,0.7639396997322755,-0.11717464597330453,0,0.11717464597330453,0.0027313538934389072,-0.010094014735755203,0.014097239800340975,0.4,0.03347039222717285,0.8819377422332764,STABILIZE
0.035,0.005,0.05,-0.12876616569699115,-0.0037788052636341628,-0.0006438308284849557,0.007066397110014434,0.002643761017895315,0.035,0.005,0.05,-0.09427023450029441,-0.0011175783595659186,-0.00047135117250147204,0.01209003568520767,0.01050110615314028,0.002,8e-05,0,-0.4671029874586459,-0.0015516995576183923,-3.736823899669168e-05,-0.0,-0.001589067796615084,0.1,0.02,0,-0.1227669535054199,-0.011301287601948762,-0.002455339070108398,0.0,-0.013756626672057161,-0.03193081027331196,0.0,0.03193081027331196,-0.10796586467526179,0.0,0.10796586467526179,-0.7758497788091961,0.0,0.7758497788091961,-0.1130128760194876,0,0.1130128760194876,0.002664468734685841,-0.010495871051091718,0.013756626672057161,0.4,0.0334315299987793,0.9153413772583008,STABILIZE
0.035,0.005,0.05,-0.13227603601460972,-0.003644699787390606,-0.0006613801800730486,0.00724947475685455,0.0029433947893908958,0.035,0.005,0.05,-0.09512419734445991,-0.0008867672919269714,-0.0004756209867222996,0.013063049795553193,0.011700661516903922,0.002,8e-05,0,-0.49362322796463315,-0.0015736570819158842,-3.9489858237170656e-05,-0.0,-0.001613146940153055,0.1,0.02,0,-0.12653753266154671,-0.011186924550370857,-0.002530750653230934,0.0,-0.013717675203601792,-0.02533620834077061,0.0,0.02533620834077061,-0.10413427963973158,0.0,0.10413427963973158,-0.7868285409579421,0.0,0.7868285409579421,-0.11186924550370857,0,0.11186924550370857,0.0029662345500588534,-0.011694892278828695,0.013717675203601792,0.4,0.03370523452758789,0.9490277767181396,STABILIZE
0.035,0.005,0.05,-0.13563240685788724,-0.003511809354543246,-0.0006781620342894363,0.006678278558790222,0.0024883071699575397,0.035,0.005,0.05,-0.09585557666201057,-0.000765250578385351,-0.0004792778833100529,0.011537153976217004,0.0102926255145216,0.002,8e-05,0,-0.520224404570044,-0.0015904638024957602,-4.1617952365603526e-05,-0.0,-0.0016320817548613638,0.1,0.02,0,-0.13020942121937124,-0.010976969035329007,-0.002604188424387425,0.0,-0.013581157459716432,-0.021864302239581454,0.0,0.021864302239581454,-0.10033741012980703,0.0,0.10033741012980703,-0.7952319012478801,0.0,0.7952319012478801,-0.10976969035329005,0,0.10976969035329005,0.002508021640846728,-0.010287839423478946,0.013581157459716432,0.4,0.03345084190368652,0.9825122356414795,STABILIZE
0.035,0.005,0.05,-0.13885692797058938,-0.0033738775144914954,-0.0006942846398529469,0.005280925918017632,0.0012127637636731902,0.035,0.005,0.05,-0.09649082717559135,-0.0006646746443670634,-0.0004824541358779567,0.007550370185383396,0.006403241405138376,0.002,8e-05,0,-0.5469062794485094,-0.0015953000603020206,-4.375250235588076e-05,-0.0,-0.0016390525626579014,0.1,0.02,0,-0.13379974810122228,-0.010733220055206197,-0.0026759949620244455,0.0,-0.013409215017230643,-0.018990704124773237,0.0,0.018990704124773237,-0.09639650041404271,0.0,0.09639650041404271,-0.7976500301510102,0.0,0.7976500301510102,-0.10733220055206197,0,0.10733220055206197,0.001224756822710759,-0.006400958300456321,0.013409215017230643,0.4,0.03345060348510742,1.0159473419189453,STABILIZE
0.035,0.005,0.05,-0.14184756180892222,-0.0031280420761579143,-0.0007092378090446111,0.0063300790844900675,0.002492799199287542,0.035,0.005,0.05,-0.09688137703354642,-0.0004084941368823604,-0.00048440688516773213,0.00790699667299137,0.007014095650941278,0.002,8e-05,0,-0.5741086481101535,-0.0016258407958135016,-4.592869184881228e-05,-0.0,-0.001671769487662314,0.1,0.02,0,-0.1372015394414048,-0.010165973427733793,-0.0027440307888280963,0.0,-0.01291000421656189,-0.011671261053781724,0.0,0.011671261053781724,-0.08937263074736897,0.0,0.08937263074736897,-0.8129203979067507,0.0,0.8129203979067507,-0.10165973427733792,0,0.10165973427733792,0.0025052403583618464,-0.007009661646282006,0.01291000421656189,0.4,0.0334625244140625,1.049415111541748,STABILIZE
0.035,0.005,0.05,-0.14473766253270393,-0.003021533567750026,-0.0007236883126635196,0.006458002966896923,0.002712781086483377,0.035,0.005,0.05,-0.09698531364253601,-0.00010866332456719438,-0.0004849265682126801,0.008599784364048044,0.00800619447126817,0.002,8e-05,0,-0.6016769821047492,-0.0016469746614944099,-4.813415856837994e-05,-0.0,-0.0016951088200627899,0.1,0.02,0,-0.14054538160175717,-0.009988313605052541,-0.0028109076320351435,0.0,-0.012799221237087686,-0.0031046664162055534,0.0,0.0031046664162055534,-0.08632953050714359,0.0,0.08632953050714359,-0.8234873307472049,0.0,0.8234873307472049,-0.0998831360505254,0,0.0998831360505254,0.002726734072752341,-0.008001453144988001,0.012799221237087686,0.4,0.0334775447845459,1.0828864574432373,STABILIZE
0.035,0.005,0.05,-0.1475198913948041,-0.0028961948149448112,-0.0007375994569740205,0.00638629552148724,0.002752501249568408,0.035,0.005,0.05,-0.09705609435659358,-7.368004115120858e-05,-0.00048528047178296793,0.006940508789691999,0.006381548276757822,0.002,8e-05,0,-0.629294259888258,-0.0016427736935058226,-5.034354079106065e-05,-0.0,-0.0016931172342968832,0.1,0.02,0,-0.143748405751988,-0.009526362183323214,-0.00287496811503976,0.0,-0.012401330298362975,-0.0021051440328916735,0.0,0.0021051440328916735,-0.08274842328413745,0.0,0.08274842328413745,-0.8213868467529113,0.0,0.8213868467529113,-0.09526362183323214,0,0.09526362183323214,0.002763107809783257,-0.006376962973781575,0.012401330298362975,0.4,0.03362274169921875,1.1165111064910889,STABILIZE
0.035,0.005,0.05,-0.15027316503979346,-0.0027825708800356,-0.0007513658251989674,0.00618864823083201,0.0026547115255974433,0.035,0.005,0.05,-0.09706498174025603,-8.981953182833023e-06,-0.00048532490870128016,0.006436363478237431,0.005942056616353318,0.002,8e-05,0,-0.6580342165877607,-0.001659758567272051,-5.2642737327020865e-05,-0.0,-0.001712401304599072,0.1,0.02,0,-0.14690969230276765,-0.009128358283763984,-0.002938193846055353,0.0,-0.012066552129819337,-0.0002566272337952292,0.0,0.0002566272337952292,-0.07950202514387428,0.0,0.07950202514387428,-0.8298792836360255,0.0,0.8298792836360255,-0.09128358283763983,0,0.09128358283763983,0.0026641750314843294,-0.0059378195928896,0.012066552129819337,0.4,0.03463149070739746,1.1511495113372803,STABILIZE
0.035,0.005,0.05,-0.15285478123989304,-0.002632520459628133,-0.0007642739061994653,0.00625957406766656,0.002862779701838962,0.035,0.005,0.05,-0.0970488193915059,1.6481037637866504e-05,-0.00048524409695752953,0.005789266048558706,0.005320502989239043,0.002,8e-05,0,-0.6867216247887648,-0.001671603769982412,-5.493772998310119e-05,-0.0,-0.0017265414999655133,0.1,0.02,0,-0.1498755471253162,-0.008640958548529956,-0.002997510942506324,0.0,-0.01163846949103628,0.0004708867896533286,0.0,-0.0004708867896533286,-0.07521487027508951,0.0,0.07521487027508951,-0.835801884991206,0.0,0.835801884991206,-0.08640958548529956,0,0.08640958548529956,0.002870800462757938,-0.0053161794912127995,0.01163846949103628,0.4,0.03432321548461914,1.1854870319366455,STABILIZE
0.035,0.005,0.05,-0.1553270525282634,-0.0025217902374018017,-0.000776635262641317,0.005082573896277511,0.0017841483962343927,0.035,0.005,0.05,-0.09686853654437255,0.00018389386553591269,-0.0004843426827218628,0.004995919410141196,0.004695470592955246,0.002,8e-05,0,-0.7154737191294873,-0.00167588521660487,-5.723789753035899e-05,-0.0,-0.0017331231141352289,0.1,0.02,0,-0.15276983275113004,-0.008435021176985134,-0.003055396655022601,0.0,-0.011490417832007735,0.0052541104438832194,0.0,-0.0052541104438832194,-0.07205114964005147,0.0,0.07205114964005147,-0.8379426083024349,0.0,0.8379426083024349,-0.08435021176985134,0,0.08435021176985134,0.0017910590800912407,-0.004692838902063011,0.011490417832007735,0.4,0.03431272506713867,1.21978759765625,STABILIZE
0.035,0.005,0.05,-0.1577723089850029,-0.002425997950971795,-0.0007888615449250146,0.004949395557108182,0.0017345360612113728,0.035,0.005,0.05,-0.09657658556237261,0.00028965161595380113,-0.00048288292781186305,0.0032935408494970154,0.0031003095376389536,0.002,8e-05,0,-0.7455176520399248,-0.001703274914263814,-5.964141216319399e-05,-0.0,-0.001762916326427008,0.1,0.02,0,-0.15567798356787002,-0.008243561766389403,-0.0031135596713574003,0.0,-0.011357121437746804,0.008275760455822888,0.0,-0.008275760455822888,-0.0693142271706227,0.0,0.0693142271706227,-0.851637457131907,0.0,0.851637457131907,-0.08243561766389403,0,0.08243561766389403,0.0017389949058660083,-0.0030978107260111617,0.011357121437746804,0.4,0.0352778434753418,1.2550804615020752,STABILIZE
0.035,0.005,0.05,-0.15990781990633815,-0.002233597688551833,-0.0007995390995316908,0.005527065452936323,0.0024939286648527994,0.035,0.005,0.05,-0.09627090049357323,0.00031972557774052993,-0.00048135450246786617,0.0032530430961687645,0.003091414171441428,0.002,8e-05,0,-0.7740418457225686,-0.0017048198079126734,-6.19233476578055e-05,-0.0,-0.001766743155570479,0.1,0.02,0,-0.1582980536964948,-0.007829752355309723,-0.003165961073929896,0.0,-0.01099571342923962,0.009135016506872283,0.0,-0.009135016506872283,-0.06381707681576665,0.0,0.06381707681576665,-0.8524099039563366,0.0,0.8524099039563366,-0.07829752355309723,0,0.07829752355309723,0.0024981509056293395,-0.0030880032087850346,0.01099571342923962,0.4,0.0334630012512207,1.2885551452636719,STABILIZE
0.035,0.005,0.05,-0.16195347253170353,-0.0021413055526573075,-0.0008097673626585177,0.005378287025756088,0.002427214110440263,0.035,0.005,0.05,-0.09599008157020303,0.0002939497705757572,-0.00047995040785101515,0.002499021925047454,0.002313021287772196,0.002,8e-05,0,-0.8027806650256851,-0.0017190069345113658,-6.422245320205482e-05,-0.0,-0.0017832293877134205,0.1,0.02,0,-0.16082406194805252,-0.00755463482208847,-0.0032164812389610504,0.0,-0.01077111606104952,0.008398564873593061,0.0,-0.008398564873593061,-0.061180158647351636,0.0,0.061180158647351636,-0.8595034672556828,0.0,0.8595034672556828,-0.0755463482208847,0,0.0755463482208847,0.0024302617934412658,-0.0023098189173498666,0.01077111606104952,0.4,0.03343653678894043,1.3219883441925049,STABILIZE
0.035,0.005,0.05,-0.16402350680585076,-0.002102497379625194,-0.0008201175340292539,0.0044510026711295225,0.0015283877574750744,0.035,0.005,0.05,-0.09563245002541555,0.0003632400657214873,-0.00047816225012707776,0.0028615677509759557,0.002746645566570365,0.002,8e-05,0,-0.8324420413962242,-0.0017215164536573799,-6.659536331169794e-05,-0.0,-0.0017881118169690779,0.1,0.02,0,-0.16330224389040385,-0.007191559379476062,-0.003266044877808077,0.0,-0.010457604257284139,0.010378287592042493,0.0,-0.010378287592042493,-0.060071353703576975,0.0,0.060071353703576975,-0.86075822682869,0.0,0.86075822682869,-0.07191559379476062,0,0.07191559379476062,0.0015318340429793544,-0.002744725026360538,0.010457604257284139,0.4,0.034459590911865234,1.3564379215240479,STABILIZE
0.035,0.005,0.05,-0.16592267453711065,-0.0019859178734386237,-0.0008296133726855533,0.004524116978325137,0.00170858573220096,0.035,0.005,0.05,-0.09528848263051333,0.00035967913005940423,-0.00047644241315256667,0.0014371624026010938,0.0013203991195079314,0.002,8e-05,0,-0.8613169450937342,-0.0017253629096230568,-6.890535560749875e-05,-0.0,-0.0017942682652305555,0.1,0.02,0,-0.1656196178363301,-0.006923505435574487,-0.003312392356726602,0.0,-0.01023589779230109,0.010276546573125834,0.0,-0.010276546573125834,-0.056740510669674955,0.0,0.056740510669674955,-0.8626814548115284,0.0,0.8626814548115284,-0.06923505435574487,0,0.06923505435574487,0.001710180027824483,-0.001318333535759544,0.01023589779230109,0.4,0.033471107482910156,1.3899312019348145,STABILIZE
0.035,0.005,0.05,-0.16767189872031985,-0.0018316302148319876,-0.0008383594936015993,0.005067123654415796,0.002397133945982209,0.035,0.005,0.05,-0.09485098432228102,0.00045810887362992614,-0.0004742549216114051,0.001421994700451819,0.00140584865247034,0.002,8e-05,0,-0.8902548145387793,-0.0017314933602218389,-7.122038516310235e-05,-0.0,-0.0018027137453849413,0.1,0.02,0,-0.16790796254802134,-0.0068461392462162846,-0.003358159250960427,0.0,-0.010204298497176712,0.013088824960855032,0.0,-0.013088824960855032,-0.0523322918523425,0.0,0.0523322918523425,-0.8657466801109194,0.0,0.8657466801109194,-0.06846139246216285,0,0.06846139246216285,0.0023988120501634144,-0.0014029833700453121,0.010204298497176712,0.4,0.033425331115722656,1.4233589172363281,STABILIZE
0.035,0.005,0.05,-0.16933900377242259,-0.001744497666200349,-0.000846695018862113,0.004168675326342027,0.0015774826412795653,0.035,0.005,0.05,-0.09428687493802426,0.0005902972359638647,-0.00047143437469012134,0.0022944003524509437,0.002413263213724687,0.002,8e-05,0,-0.9192656210651919,-0.0017347191756523547,-7.354124968521537e-05,-0.0,-0.00180826042533757,0.1,0.02,0,-0.17008604992350554,-0.006512004299257884,-0.003401720998470111,0.0,-0.009913725297727995,0.016865635313253274,0.0,-0.016865635313253274,-0.04984279046286711,0.0,0.04984279046286711,-0.8673595878261773,0.0,0.8673595878261773,-0.06512004299257884,0,0.06512004299257884,0.0015802244382286368,-0.0024114687530797795,0.009913725297727995,0.4,0.033447265625,1.4567937850952148,STABILIZE
0.035,0.005,0.05,-0.17092793428981323,-0.0016616161738470744,-0.0008546396714490662,0.004087575508773138,0.0015713196634769971,0.035,0.005,0.05,-0.09360911537952038,0.0007087636822778791,-0.0004680455768976019,0.0035259657197386053,0.0037666838251188828,0.002,8e-05,0,-0.9481841411321298,-0.0017280799035587627,-7.585473129057039e-05,-0.0,-0.0018039346348493331,0.1,0.02,0,-0.17215332573086362,-0.0061766953660484505,-0.0034430665146172722,0.0,-0.009619761880665722,0.020250390922225116,0.0,-0.020250390922225116,-0.04747474782420212,0.0,0.04747474782420212,-0.8640399517793813,0.0,0.8640399517793813,-0.0617669536604845,0,0.0617669536604845,0.0015753793730652434,-0.0037649876964157853,0.009619761880665722,0.4,0.03346896171569824,1.4903275966644287,STABILIZE
0.035,0.005,0.05,-0.1724171009716768,-0.0015589989086414822,-0.0008620855048583841,0.004642780152428821,0.002221695738928955,0.035,0.005,0.05,-0.09304612263160406,0.0005893934441752592,-0.0004652306131580203,0.0019313138115798927,0.0020554766425971314,0.002,8e-05,0,-0.9769577149571378,-0.00172130669693031,-7.815661719657103e-05,0.0,-0.001799463314126881,0.1,0.02,0,-0.17400611326192592,-0.005541917741262063,-0.003480122265238518,0.0,-0.009022040006500582,0.01683981269072169,0.0,-0.01683981269072169,-0.0445428259611852,0.0,0.0445428259611852,-0.860653348465155,0.0,0.860653348465155,-0.05541917741262063,0,0.05541917741262063,0.002223682853198114,-0.0020533267526212542,0.009022040006500582,0.4,0.0334322452545166,1.5237236022949219,STABILIZE
0.035,0.005,0.05,-0.17389502452828165,-0.001543848546812587,-0.0008694751226414083,0.00377683357322141,0.0013635099037674148,0.035,0.005,0.05,-0.09242450907316363,0.0006493415607244817,-0.0004621225453658182,0.0024729120477670215,0.002660131063125685,0.002,8e-05,0,-1.0058455934452664,-0.0017243694574085849,-8.046764747562131e-05,0.0,-0.0018048371048842062,0.1,0.02,0,-0.17566044608766482,-0.004937505186240837,-0.0035132089217532964,0.0,-0.008450714107994133,0.018552616020699474,0.0,-0.018552616020699474,-0.044109958480359625,0.0,0.044109958480359625,-0.8621847287042924,0.0,0.8621847287042924,-0.04937505186240836,0,0.04937505186240836,0.00136580178435378,-0.0026589550610219125,0.008450714107994133,0.4,0.03350543975830078,1.5571849346160889,STABILIZE
0.035,0.005,0.05,-0.17523635148547065,-0.0014038660480432713,-0.0008761817574273532,0.0036540008909059863,0.0013739530854353617,0.035,0.005,0.05,-0.09177062312642904,0.0006843732432225894,-0.00045885311563214525,0.0019308569792668977,0.0021563771068573417,0.002,8e-05,0,-1.0346148620006355,-0.0017206074130208544,-8.276918896005085e-05,0.0,-0.0018033766019809052,0.1,0.02,0,-0.17720605278947582,-0.004621915123828191,-0.0035441210557895166,0.0,-0.008166036179617708,0.019553521234931124,0.0,-0.019553521234931124,-0.040110458515522036,0.0,0.040110458515522036,-0.8603037065104272,0.0,0.8603037065104272,-0.04621915123828191,0,0.04621915123828191,0.0013756921366622566,-0.0021552680698886215,0.008166036179617708,0.4,0.03344082832336426,1.590695858001709,STABILIZE
0.035,0.005,0.05,-0.1765287510920108,-0.0013348325479888093,-0.000882643755460054,0.0034917357537835314,0.0012742594503346682,0.035,0.005,0.05,-0.09116267047207502,0.0006279133687145233,-0.0004558133523603751,0.0003256439718956064,0.0004977439882497546,0.002,8e-05,0,-1.0636924103770353,-0.001716128125083756,-8.509539283016283e-05,0.0,-0.0018012235179139188,0.1,0.02,0,-0.1787108973566142,-0.004440721845108661,-0.003574217947132284,0.0,-0.008014939792240945,0.017940381963272092,0.0,-0.017940381963272092,-0.03813807279968026,0.0,0.03813807279968026,-0.858064062541878,0.0,0.858064062541878,-0.044407218451086604,0,0.044407218451086604,0.0012746448451284986,-0.0004967562212930293,0.008014939792240945,0.4,0.033887386322021484,1.6245322227478027,STABILIZE
0.035,0.005,0.05,-0.17775517115908437,-0.001224481924161537,-0.0008887758557954219,0.003683599640635059,0.0015703418606781002,0.035,0.005,0.05,-0.09054711108850699,0.0006145865993742314,-0.00045273555544253496,-0.0007942858635295206,-0.0006324348195978241,0.002,8e-05,0,-1.0938814988989323,-0.001722364567733051,-8.75105199119146e-05,0.0,-0.0018098750876449656,0.1,0.02,0,-0.18020369125797348,-0.004258385145951455,-0.0036040738251594696,0.0,-0.007862458971110924,0.017559617124978038,0.0,-0.017559617124978038,-0.034985197833186765,0.0,0.034985197833186765,-0.8611822838665255,0.0,0.8611822838665255,-0.04258385145951455,0,0.04258385145951455,0.001569871383472732,0.0006336017675094512,0.007862458971110924,0.4,0.03505539894104004,1.6595778465270996,STABILIZE
0.035,0.005,0.05,-0.17889376402208176,-0.001144734790651843,-0.0008944688201104089,0.0034611340686556444,0.0014219304578933925,0.035,0.005,0.05,-0.08991672525112372,0.0006337863366604397,-0.00044958362625561863,0.00038343848081062146,0.0005676411912154425,0.002,8e-05,0,-1.1238326343844194,-0.0017207257897765367,-8.990661075075356e-05,0.0,-0.0018106324005272903,0.1,0.02,0,-0.18172805119349286,-0.004378808034208427,-0.003634561023869857,0.0,-0.008013369058078285,0.018108181047441132,0.0,-0.018108181047441132,-0.03270670830433837,0.0,0.03270670830433837,-0.8603628948882683,0.0,0.8603628948882683,-0.04378808034208427,0,0.04378808034208427,0.00142236386020536,-0.0005665543206358128,0.008013369058078285,0.4,0.034812211990356445,1.6944265365600586,STABILIZE
0.035,0.005,0.05,-0.17992886567009087,-0.001082151749724338,-0.0008996443283504544,0.0038660447613400855,0.0018842486832652931,0.035,0.005,0.05,-0.08912998210189332,0.0008225042218421928,-0.00044564991050946665,0.001482816307991181,0.0018596706193239072,0.002,8e-05,0,-1.1525761980219336,-0.0017171480001008498,-9.220609584175469e-05,0.0,-0.0018093540959426046,0.1,0.02,0,-0.18324372496755945,-0.004527337359357504,-0.003664874499351189,0.0,-0.008192211858708692,0.023500120624062648,0.0,-0.023500120624062648,-0.030918621420695364,0.0,0.030918621420695364,-0.858574000050425,0.0,0.858574000050425,-0.045273373593575035,0,0.045273373593575035,0.001885717549758639,-0.0018581811632065988,0.008192211858708692,0.4,0.0334782600402832,1.7279281616210938,STABILIZE
0.035,0.005,0.05,-0.18095649450917742,-0.0010759023439910731,-0.0009047824725458871,0.0027234637144302985,0.0007427788978933382,0.035,0.005,0.05,-0.08828860585053541,0.000880900424922924,-0.00044144302925267707,0.0016826071135389135,0.0021220645092091604,0.002,8e-05,0,-1.1813845404628045,-0.0017235218442254708,-9.451076323702436e-05,-0.0,-0.001818032607462495,0.1,0.02,0,-0.18466944750659778,-0.004264847838574314,-0.0036933889501319555,0.0,-0.00795823678870627,0.025168583569226397,0.0,-0.025168583569226397,-0.030740066971173517,0.0,0.030740066971173517,-0.8617609221127354,0.0,0.8617609221127354,-0.042648478385743135,0,0.042648478385743135,0.0007443582642054943,-0.0021215110291746635,0.00795823678870627,0.4,0.033429622650146484,1.761347770690918,STABILIZE
0.035,0.005,0.05,-0.1819206760393874,-0.00100849637129324,-0.0009096033801969371,0.0027169655132974887,0.0007988657618073114,0.035,0.005,0.05,-0.08731595301690971,0.001017357025109134,-0.00043657976508454854,0.003323765470306878,0.0039045427303314633,0.002,8e-05,0,-1.2103715307542513,-0.0017325293812237412,-9.682972246034012e-05,-0.0,-0.0018293591036840813,0.1,0.02,0,-0.1859122579288818,-0.0037140895799270346,-0.003718245158577636,0.0,-0.007432334738504671,0.029067343574546683,0.0,-0.029067343574546683,-0.02881418203694971,0.0,0.02881418203694971,-0.8662646906118706,0.0,0.8662646906118706,-0.037140895799270345,0,0.037140895799270345,0.0008013966391087567,-0.0039040240605300374,0.007432334738504671,0.4,0.0334620475769043,1.7948975563049316,STABILIZE
0.035,0.005,0.05,-0.18288779665420593,-0.0010130357782367815,-0.0009144389832710296,0.001778752007741368,-0.00014872275376644293,0.035,0.005,0.05,-0.08626735540943771,0.001098380984818507,-0.0004313367770471886,0.004125205258750724,0.0047922494665220425,0.002,8e-05,0,-1.2392173066167291,-0.0017265864140237617,-9.913738452933834e-05,-0.0,-0.0018257237985531,0.1,0.02,0,-0.18699589099311756,-0.003243085114812491,-0.0037399178198623513,0.0,-0.006983002934674842,0.03138231385195734,0.0,-0.03138231385195734,-0.028943879378193753,0.0,0.028943879378193753,-0.8632932070118808,0.0,0.8632932070118808,-0.032430851148124905,0,0.032430851148124905,-0.00014601019645134704,-0.00479233287965276,0.006983002934674842,0.4,0.03341364860534668,1.8282127380371094,STABILIZE
0.035,0.005,0.05,-0.18385848715187558,-0.0010132541654210535,-0.000919292435759378,0.0011223823929068383,-0.0008101642082735932,0.035,0.005,0.05,-0.08517435642875966,0.0011409257354756727,-0.0004258717821437983,0.004330160218718543,0.0050452141720504174,0.002,8e-05,0,-1.268228790310526,-0.0017304916606628216,-0.00010145830322484209,-0.0,-0.0018319499638876637,0.1,0.02,0,-0.18793223612186977,-0.0027925794039179025,-0.0037586447224373953,0.0,-0.006551224126355297,0.03259787815644779,0.0,-0.03259787815644779,-0.0289501190120301,0.0,0.0289501190120301,-0.8652458303314108,0.0,0.8652458303314108,-0.027925794039179025,0,0.027925794039179025,-0.0008077050896260527,-0.005045608444421557,0.006551224126355297,0.4,0.03352975845336914,1.8617596626281738,STABILIZE
0.035,0.005,0.05,-0.1847477560576284,-0.0009299816525610971,-0.0009237387802881419,0.0012991757894919877,-0.0005545446433572515,0.035,0.005,0.05,-0.08406734331970388,0.0011576946791982702,-0.0004203367165985194,0.0028627372654829353,0.003600095228082686,0.002,8e-05,0,-1.29717939020921,-0.0017300585145033904,-0.0001037743512167368,-0.0,-0.0018338328657201272,0.1,0.02,0,-0.18898649734779904,-0.0031500791292974994,-0.003779729946955981,0.0,-0.00692980907625348,0.03307699083423629,0.0,-0.03307699083423629,-0.026570904358888488,0.0,0.026570904358888488,-0.8650292572516952,0.0,0.8650292572516952,-0.03150079129297499,0,0.03150079129297499,-0.0005525652541995053,-0.003600399568463393,0.00692980907625348,0.4,0.033467769622802734,1.8952021598815918,STABILIZE
0.035,0.005,0.05,-0.18557693838035086,-0.0008678489637269687,-0.0009278846919017543,0.0017766215096930592,-1.9112145935663892e-05,0.035,0.005,0.05,-0.08277696477948276,0.0013505518005612787,-0.00041388482389741383,0.004011399164310792,0.0049480661409746565,0.002,8e-05,0,-1.326223594610955,-0.0017370629217033702,-0.00010609788756887641,-0.0,-0.0018431608092722466,0.1,0.02,0,-0.18996538265886945,-0.0029272369711705625,-0.003799307653177389,0.0,-0.006726544624347951,0.03858719430175082,0.0,-0.03858719430175082,-0.02479568467791339,0.0,0.02479568467791339,-0.8685314608516851,0.0,0.8685314608516851,-0.029272369711705624,0,0.029272369711705624,-1.6584180363335082e-05,-0.004948075259587689,0.006726544624347951,0.4,0.033440589904785156,1.9287171363830566,STABILIZE
0.035,0.005,0.05,-0.18645922198195813,-0.0009234593945132359,-0.0009322961099097907,0.0007259295045581836,-0.001129825999864843,0.035,0.005,0.05,-0.0814114350467553,0.0014292584129152015,-0.0004070571752337765,0.0035187585157124344,0.004540959753393859,0.002,8e-05,0,-1.35504122726089,-0.0017235736607486814,-0.00010840329818087121,0.0,-0.0018319769589295527,0.1,0.02,0,-0.19090688316564253,-0.002815542648433428,-0.0038181376633128505,0.0,-0.006633680311746278,0.040835954654720036,0.0,-0.040835954654720036,-0.026384554128949595,0.0,0.026384554128949595,-0.8617868303743407,0.0,0.8617868303743407,-0.02815542648433428,0,0.02815542648433428,-0.001127594413691817,-0.004541514407125053,0.006633680311746278,0.4,0.03343939781188965,1.9620842933654785,STABILIZE
0.035,0.005,0.05,-0.18731026271592072,-0.0008907139810624092,-0.0009365513135796036,0.0010445159349112224,-0.0007827493597307904,0.035,0.005,0.05,-0.08000456781929928,0.0014724516218617228,-0.00040002283909649643,0.0031949715415288127,0.004267400324294039,0.002,8e-05,0,-1.383907585300389,-0.001726401748021598,-0.00011071260682403113,0.0,-0.0018371143548456292,0.1,0.02,0,-0.19185213241237212,-0.0028266121234225474,-0.0038370426482474424,0.0,-0.00666365477166999,0.04207004633890636,0.0,-0.04207004633890636,-0.025448970887497403,0.0,0.025448970887497403,-0.863200874010799,0.0,0.863200874010799,-0.028266121234225474,0,0.028266121234225474,-0.000780643998591384,-0.004267785964104466,0.00666365477166999,0.4,0.03344106674194336,1.9955532550811768,STABILIZE
0.035,0.005,0.05,-0.18805440888576325,-0.0007787085859958933,-0.0009402720444288162,0.0020031733326998447,0.00028419270227513513,0.035,0.005,0.05,-0.07838832388596666,0.0016913115715104707,-0.0003919416194298333,0.004702030902154394,0.006001400854235031,0.002,8e-05,0,-1.412957801894362,-0.0017371128725233217,-0.00011303662415154897,-0.0,-0.0018501494966748707,0.1,0.02,0,-0.1927446266479715,-0.002668419390776961,-0.0038548925329594304,0.0,-0.006523311923736392,0.048323187757442015,0.0,-0.048323187757442015,-0.02224881674273981,0.0,0.02224881674273981,-0.8685564362616608,0.0,0.8685564362616608,-0.02668419390776961,0,0.02668419390776961,0.0002869876860204444,-0.006001267847156302,0.006523311923736392,0.4,0.033446550369262695,2.0289688110351562,STABILIZE
0.035,0.005,0.05,-0.18880535890416755,-0.0007849723245116168,-0.0009440267945208378,0.0012388268935357015,-0.0004901722254967531,0.035,0.005,0.05,-0.07678187375237228,0.0016792314597170268,-0.00038390936876186137,0.004455793567143571,0.005751115658098736,0.002,8e-05,0,-1.4419261099421283,-0.0017303278360269823,-0.00011535408879537027,-0.0,-0.0018456819248223524,0.1,0.02,0,-0.1936838370550588,-0.0028050342266963523,-0.003873676741101176,0.0,-0.006678710967797529,0.047978041706200764,0.0,-0.047978041706200764,-0.022427780700331905,0.0,0.022427780700331905,-0.8651639180134911,0.0,0.8651639180134911,-0.02805034226696352,0,0.02805034226696352,-0.0004873565884074247,-0.005751354942899349,0.006678710967797529,0.4,0.033483028411865234,2.0625452995300293,STABILIZE
0.035,0.005,0.05,-0.1894797842521045,-0.0007064192641515302,-0.0009473989212605224,0.0013796386942090501,-0.00027417949120300236,0.035,0.005,0.05,-0.07505589865176648,0.0018078532549874,-0.00037527949325883244,0.00390781783416286,0.005340391595891428,0.002,8e-05,0,-1.470794225425023,-0.0017278619248011723,-0.00011766353803400185,0.0,-0.001845525462835174,0.1,0.02,0,-0.1945934630582249,-0.0027222215762768673,-0.003891869261164498,0.0,-0.006614090837441366,0.051652950142497135,0.0,-0.051652950142497135,-0.020183407547186574,0.0,0.020183407547186574,-0.8639309624005861,0.0,0.8639309624005861,-0.027222215762768672,0,0.027222215762768672,-0.00027164214794437376,-0.00534052126054417,0.006614090837441366,0.4,0.03341484069824219,2.0958950519561768,STABILIZE
0.035,0.005,0.05,-0.19014858205426,-0.0006998506304007036,-0.0009507429102713,0.0019108988268264863,0.00026030528615448266,0.035,0.005,0.05,-0.07329600541906026,0.001841606513026458,-0.0003664800270953013,0.0035236597408969325,0.004998786226828089,0.002,8e-05,0,-1.4996071914397682,-0.0017229014606843017,-0.00011996857531518147,0.0,-0.001842870035999483,0.1,0.02,0,-0.19547722236001983,-0.0026422656230126497,-0.0039095444472003965,0.0,-0.006551810070213046,0.05261732894361308,0.0,-0.05261732894361308,-0.019995732297162956,0.0,0.019995732297162956,-0.8614507303421508,0.0,0.8614507303421508,-0.026422656230126497,0,0.026422656230126497,0.00026261051038832317,-0.004998665652287594,0.006551810070213046,0.4,0.0334470272064209,2.1293482780456543,STABILIZE
0.035,0.005,0.05,-0.19077107266269738,-0.0006511102382121424,-0.0009538553633134869,0.002047301793132734,0.00044233619160710474,0.035,0.005,0.05,-0.07147612191507094,0.001903554472533084,-0.0003573806095753547,0.003683572540963838,0.005229746403921568,0.002,8e-05,0,-1.5282408653614301,-0.0017114363306113677,-0.0001222592692289144,0.0,-0.001833695599840282,0.1,0.02,0,-0.19634268771373803,-0.002586445688546773,-0.003926853754274761,0.0,-0.006513299442821534,0.054387270643802395,0.0,-0.054387270643802395,-0.018603149663204067,0.0,0.018603149663204067,-0.8557181653056838,0.0,0.8557181653056838,-0.02586445688546773,0,0.02586445688546773,0.0004446969582227681,-0.005229546191696128,0.006513299442821534,0.4,0.033461570739746094,2.16283917427063,STABILIZE
0.035,0.005,0.05,-0.19135037603810234,-0.0006039150269397894,-0.0009567518801905118,0.0014921403852970817,-6.852652183321939e-05,0.035,0.005,0.05,-0.06966699869184774,0.001885983659816424,-0.0003483349934592387,0.0016644511688741052,0.0032020998352312903,0.002,8e-05,0,-1.5569991116991173,-0.0017131450190621413,-0.0001245599289359294,0.0,-0.0018377049479980708,0.1,0.02,0,-0.19725629738024814,-0.0027212122588604094,-0.003945125947604963,-0.0,-0.0066663382064653725,0.0538852474233264,0.0,-0.0538852474233264,-0.017254715055422552,0.0,0.017254715055422552,-0.8565725095310707,0.0,0.8565725095310707,-0.027212122588604094,0,0.027212122588604094,-6.700570522952453e-05,-0.003202132020146813,0.0066663382064653725,0.4,0.03357362747192383,2.1963605880737305,STABILIZE
0.035,0.005,0.05,-0.19202551994198636,-0.0007061138853982808,-0.0009601275997099319,0.0006730434893287686,-0.000993197995779444,0.035,0.005,0.05,-0.06803663635528898,0.001705149787255258,-0.0003401831817764449,0.000223621653924019,0.0015885882594028318,0.002,8e-05,0,-1.585316116681885,-0.0016923401955977033,-0.00012682528933455082,0.0,-0.001819165484932254,0.1,0.02,0,-0.19807528588414175,-0.002447305366007183,-0.003961505717682835,0.0,-0.006408811083690018,0.04871856535015022,0.0,-0.04871856535015022,-0.020174682439950877,0.0,0.020174682439950877,-0.8461700977988517,0.0,0.8461700977988517,-0.024473053660071832,0,0.024473053660071832,-0.0009925193629732245,-0.0015890123444630782,0.006408811083690018,0.4,0.033464908599853516,2.2298507690429688,STABILIZE
0.035,0.005,0.05,-0.1923068100602842,-0.00029421642447719567,-0.000961534050301421,0.0035183180098385934,0.0022625675350599764,0.035,0.005,0.05,-0.06611140879709226,0.0020136987815470814,-0.0003305570439854613,0.0017583521744123439,0.0034414939119739637,0.002,8e-05,0,-1.6136639002185422,-0.0016943124292514583,-0.0001290931120174834,0.0,-0.0018234055412689417,0.1,0.02,0,-0.19955965264063286,-0.004435939483308075,-0.0039911930528126575,-0.0,-0.008427132536120732,0.057534250901345174,0.0,-0.057534250901345174,-0.008406183556491304,0.0,0.008406183556491304,-0.8471562146257291,0.0,0.8471562146257291,-0.04435939483308075,0,0.04435939483308075,0.0022652313214801814,-0.003439741161344322,0.008427132536120732,0.4,0.0334622859954834,2.263301134109497,STABILIZE
0.035,0.005,0.05,-0.19254747622673876,-0.00025204531016584744,-0.0009627373811336938,0.003822737782934795,0.0026079550916352535,0.035,0.005,0.05,-0.0643101577646059,0.0018864175295503411,-0.0003215507888230295,0.00038186404732901775,0.0019467307880563292,0.002,8e-05,0,-1.641802575014561,-0.0016839499226190592,-0.0001313442060011649,0.0,-0.0018152941286202241,0.1,0.02,0,-0.20106072599886607,-0.0044915625624984785,-0.004021214519977321,-0.0,-0.0085127770824758,0.05389764370143831,0.0,-0.05389764370143831,-0.007201294576167069,0.0,0.007201294576167069,-0.8419749613095295,0.0,0.8419749613095295,-0.04491562562498479,0,0.04491562562498479,0.002609480382142656,-0.0019446857474577422,0.0085127770824758,0.4,0.03341984748840332,2.296712636947632,STABILIZE
0.035,0.005,0.05,-0.1934488277587336,-0.0009386388621741007,-0.000967244138793668,-0.002430143867962723,-0.0043360268689304916,0.035,0.005,0.05,-0.06293855704896867,0.0014283414288247976,-0.00031469278524484337,-0.004041172554440572,-0.0029275239108606174,0.002,8e-05,0,-1.6697158600909576,-0.001661029066661043,-0.00013357726880727663,0.0,-0.0017946063354683196,0.1,0.02,0,-0.20265276279263453,-0.004736847315544735,-0.0040530552558526904,-0.0,-0.008789902571397425,0.04080975510927993,0.0,-0.04080975510927993,-0.0268182532049743,0.0,0.0268182532049743,-0.8305145333305215,0.0,0.8305145333305215,-0.047368473155447344,0,0.047368473155447344,-0.004338445675710545,0.0029239381620780355,0.008789902571397425,0.4,0.033609628677368164,2.330345869064331,STABILIZE
0.035,0.005,0.05,-0.19317555839197434,0.0002860553621507029,-0.0009658777919598717,0.007633497963691458,0.0069536755338822885,0.035,0.005,0.05,-0.06184082298248849,0.001149095925591972,-0.00030920411491244245,-0.006277856708380674,-0.005437964897701144,0.002,8e-05,0,-1.6977339940736114,-0.0016759470822806787,-0.0001358187195258889,0.0,-0.0018117658018065677,0.1,0.02,0,-0.2051733026293849,-0.007538495225608773,-0.004103466052587698,-0.0,-0.011641961278196472,0.03283131215977062,0.0,-0.03283131215977062,0.008173010347162939,0.0,-0.008173010347162939,-0.8379735411403393,0.0,0.8379735411403393,-0.07538495225608773,0,0.07538495225608773,0.0069465147017921496,0.005447109247750449,0.011641961278196472,0.4,0.03343558311462402,2.3637616634368896,STABILIZE
0.035,0.005,0.05,-0.19142501489914265,0.0015281564728213235,-0.0009571250744957133,0.017357521750506772,0.017928553148832384,0.035,0.005,0.05,-0.0608480178676157,0.0008666803017209343,-0.0003042400893380785,-0.006746500337989781,-0.006184060125606925,0.002,8e-05,0,-1.7316327661692184,-0.0016909892176172393,-0.00013853062129353747,0.0,-0.0018295198389107767,0.1,0.02,0,-0.20933099913566836,-0.010370021578394121,-0.004186619982713367,-0.0,-0.014556641561107489,0.024762294334883833,0.0,-0.024762294334883833,0.043661613509180665,0.0,-0.043661613509180665,-0.8454946088086196,0.0,0.8454946088086196,-0.1037002157839412,0,0.1037002157839412,0.01791733119649705,0.006216499050322674,0.014556641561107489,0.4,0.040093421936035156,2.403862953186035,STABILIZE
0.035,0.005,0.05,-0.19020769539465074,0.0012618862440959798,-0.0009510384769732537,0.01158736518366329,0.011898212950786016,0.035,0.005,0.05,-0.05978066330702002,0.001106431000751077,-0.0002989033165351001,-0.007352213322454311,-0.006544685638238334,0.002,8e-05,0,-1.760792500907272,-0.0017272736421132906,-0.00014086340007258178,-0.0,-0.0018681370421858724,0.1,0.02,0,-0.2116973569514348,-0.007008547093619697,-0.004233947139028696,-0.0,-0.011242494232648392,0.03161231430717363,0.0,-0.03161231430717363,0.03605389268845656,0.0,-0.03605389268845656,-0.8636368210566453,0.0,0.8636368210566453,-0.07008547093619696,0,0.07008547093619696,0.011890198446365892,0.006559234896819393,0.011242494232648392,0.4,0.033763885498046875,2.4376564025878906,STABILIZE
0.035,0.005,0.05,-0.18904839582766067,0.001216769633908377,-0.0009452419791383034,0.010840277647738211,0.011111805302508285,0.035,0.005,0.05,-0.058223978299670597,0.0016338547002316454,-0.000291119891498353,-0.0017451188691315553,-0.000402384060398263,0.002,8e-05,0,-1.7891708032251632,-0.0017020058616419875,-0.00014313366425801306,-0.0,-0.0018451395259000006,0.1,0.02,0,-0.2160360841613465,-0.013010889553248091,-0.00432072168322693,-0.0,-0.01733161123647502,0.046681562863761294,0.0,-0.046681562863761294,0.034764846683096484,0.0,-0.034764846683096484,-0.8510029308209938,0.0,0.8510029308209938,-0.1301088955324809,0,0.1301088955324809,0.011110862908152714,0.00042761600665791653,0.01733161123647502,0.4,0.03334689140319824,2.470973253250122,STABILIZE
0.035,0.005,0.05,-0.1879047094879805,0.0011960042928380278,-0.0009395235474399025,0.01649971821642401,0.016756198961822136,0.035,0.005,0.05,-0.056096371712829475,0.0022249339902442144,-0.00028048185856414736,0.00719483319568252,0.009139285327362587,0.002,8e-05,0,-1.8171929672525091,-0.0016745164827866436,-0.00014537543738020074,-0.0,-0.0018198919201668443,0.1,0.02,0,-0.21825331803912026,-0.006624746523683713,-0.004365066360782406,-0.0,-0.010989812884466118,0.06356954257840612,0.0,-0.06356954257840612,0.03417155122394365,0.0,-0.03417155122394365,-0.8372582413933217,0.0,0.8372582413933217,-0.06624746523683712,0,0.06624746523683712,0.01676675493320292,-0.009119905095615296,0.010989812884466118,0.4,0.03346896171569824,2.504470109939575,STABILIZE
0.035,0.005,0.05,-0.1867732056852882,0.001184927325888193,-0.0009338660284264411,0.005939747753725629,0.006190809051187381,0.035,0.005,0.05,-0.053376010251200895,0.0028488022970025446,-0.0002668800512560045,0.014914303631400644,0.017496225877147185,0.002,8e-05,0,-1.8448263529780935,-0.0016536048891064646,-0.0001475861082382475,0.0,-0.001801190997344712,0.1,0.02,0,-0.2182755121883582,-6.640582166415055e-05,-0.004365510243767164,0.0,-0.004431916065431314,0.08139435134292984,0.0,-0.08139435134292984,0.03385506645394837,0.0,-0.03385506645394837,-0.8268024445532323,0.0,0.8268024445532323,-0.0006640582166415054,0,0.0006640582166415054,0.006191011832069827,-0.017496154124480894,0.004431916065431314,0.4,0.033421993255615234,2.5378921031951904,STABILIZE
0.035,0.005,0.05,-0.18515899793812232,0.0016886391390074102,-0.0009257949896906117,0.001389805119058534,0.0021526492683753323,0.035,0.005,0.05,-0.05118551465261742,0.0022914997205817533,-0.0002559275732630871,0.012167674875634304,0.014203247022952972,0.002,8e-05,0,-1.8722503976178972,-0.0016393469696986693,-0.0001497800318094318,0.0,-0.001789127001508101,0.1,0.02,0,-0.2180282667599479,0.0007389884482027556,-0.004360565335198958,0.0,-0.0036215768869962027,0.06547142058805008,0.0,-0.06547142058805008,0.04824683254306886,0.0,-0.04824683254306886,-0.8196734848493347,0.0,0.8196734848493347,0.007389884482027556,0,-0.007389884482027556,0.002150817346700667,-0.014203524548815016,0.0036215768869962027,0.4,0.033457279205322266,2.571352005004883,STABILIZE
0.035,0.005,0.05,-0.18465928508326396,0.0004948174196099502,-0.0009232964254163198,-0.006006994229174153,-0.006435473234980522,0.035,0.005,0.05,-0.04785974328898378,0.003293190456011626,-0.0002392987164449189,0.01823583463920517,0.021289726378771877,0.002,8e-05,0,-1.9004924339462022,-0.00159802076099579,-0.0001520393947156962,0.0,-0.0017500601557114861,0.1,0.02,0,-0.21780634219230666,0.0006278585268128938,-0.004356126843846133,0.0,-0.003728268317033239,0.09409115588604645,0.0,-0.09409115588604645,0.014137640560284291,0.0,-0.014137640560284291,-0.799010380497895,0.0,0.799010380497895,0.006278585268128937,0,-0.006278585268128937,-0.006437806166819587,-0.021289021039014113,0.003728268317033239,0.4,0.035346269607543945,2.60687255859375,STABILIZE
0.035,0.005,0.05,-0.18364880044576692,0.0010567168038776117,-0.0009182440022288347,-0.0008236403661591807,-0.0006851675645104037,0.035,0.005,0.05,-0.04503955730421264,0.0029492164547395786,-0.0002251977865210632,0.010780476392526444,0.01350449506074496,0.002,8e-05,0,-1.9271643366864535,-0.0015938404643326882,-0.0001541731469349163,0.0,-0.0017480136112676045,0.1,0.02,0,-0.21758088431892394,0.0006736375074161427,-0.004351617686378479,0.0,-0.0036779801789623362,0.08426332727827367,0.0,-0.08426332727827367,0.030191908682217477,0.0,-0.030191908682217477,-0.7969202321663441,0.0,0.7969202321663441,0.006736375074161426,0,-0.006736375074161426,-0.0006867553092474603,-0.013504414410938467,0.0036779801789623362,0.4,0.03346872329711914,2.64018177986145,STABILIZE
