Mode,Time,Freq,North-Vision,East-Vision,Down-Vision,Yaw-Vision,North-Desired,East-Desired,Down-Desired,Roll-UAV,Pitch-UAV,Yaw-UAV,Roll-Control,Pitch-Control,Yaw-Control,Thrust-Control,northVraw,eastVraw,downVraw,yawVraw,zGyro
GUIDED_NOGPS,0.015264511108398438,65.60775848584389,-5.712715747178664,-6.001652593514188,87.1696448802336,-6.768908056230256,1.0115506505447818,-0.43289444659266396,72.80924466237491,-0.913458934148633,0.19575770392420827,-14.899420759242712,-0.358388890050297,-0.480837779288136,10.0,0.47845939967321194,4.475934536189136,1.4518249692089265,69.40739661233576,3.494485207639597,4.469070802020421
GUIDED_NOGPS,0.03564047813415527,49.10557988151825,0.3251661795499974,1.4479403391434325,80.87239898537906,-5.459174716452028,1.0115775500058208,-0.4328332976862496,72.80926408906126,-0.9006302380617622,0.32258279086712066,-14.80318168628994,0.11992182515110202,-0.048629931816714565,-10.0,0.4879052976555233,3.6782377197936222,1.0482299052368553,68.88533738004375,3.3994122097434123,4.469070802020421
GUIDED_NOGPS,0.05310821533203125,57.27654344590258,2.724647029249709,2.3825729904909156,75.99494879424238,-5.322475757893574,1.0117636754865733,-0.43241018996720015,72.80939929541842,-0.9006302380617622,0.32258279086712066,-14.80318168628994,0.17819134721940355,0.12047476460787752,-0.13187337978938674,0.49522167575176407,6.226855496671993,3.3585520829980298,68.54612154007722,3.602346555092619,5.213915935690491
GUIDED_NOGPS,0.08491063117980957,31.454291842274984,4.146548176412335,2.840035023584226,73.60652540306053,-5.148803090615828,1.012262323108867,-0.4312766446985731,72.80976392196305,-0.9111319740757743,0.3743803842115586,-14.552167111650094,0.2063389451115969,0.21966222394630217,0.949376255627072,0.49880485777835376,7.488009454901775,3.3635941939216685,67.33028846362843,4.035552512013127,4.5263665815335035
GUIDED_NOGPS,0.17109465599060059,11.60963025703198,4.851621298766242,3.440817278444622,72.12365442231462,-4.90821942258813,1.013220400126218,-0.4290987065686301,72.8104692898839,-0.9819859019262536,0.4491728766139023,-14.244948617877506,0.24380470705583493,0.2686880629048017,2.124237567339722,0.501030222301354,6.603551971816668,3.681669863394839,66.47433954138666,3.845073514325182,5.328507494716656
GUIDED_NOGPS,0.20053696632385254,33.94905582490874,5.713678084142566,4.1016564528644786,70.88967564882998,-4.473271931578846,1.0147785130461535,-0.42555674336773097,72.81162441676602,-0.9488242662887838,0.4624443610580602,-14.185108476785377,0.2852144313626293,0.32892296997674886,-4.068741243418058,0.5028829231519041,6.718772407487066,2.9533249346550656,66.91013780035584,3.8541542232528254,5.958761069360562
GUIDED_NOGPS,0.23288273811340332,30.926427865685508,6.740317730926584,4.560670190446029,69.40338069108593,-4.289346316422589,1.017071055752533,-0.4203452456652273,72.81333603231506,-0.9165150169153905,0.5058564030924265,-14.005755393143659,0.3138039724750092,0.4006272672621836,0.22522249658231352,0.5051149330118437,9.379654469425658,5.192308089614913,65.96658153694995,4.443778504085557,6.245239966925974
GUIDED_NOGPS,0.30368590354919434,14.124756269637343,7.592160216704154,4.919007040374403,68.3267107622644,-4.06791104943799,1.0202262976278693,-0.4131726264863561,72.81570859408153,-0.6906109924288616,0.6929653799801062,-13.550051148135932,0.33592731901222794,0.46003537433534,1.441916365862414,0.5067334967477257,9.481859800847113,4.972997933126987,65.86577454122445,4.7121224595654505,6.187944187412891
GUIDED_NOGPS,0.330141544342041,37.81070775000225,8.532410852381641,5.992967611125977,66.97546582262791,-3.742444137967597,1.0243664716756504,-0.4037610209891338,72.81884430318502,-0.571665969436587,0.5977072929468771,-13.472250170847609,0.402993903823252,0.5255631066494194,-3.3791392035802645,0.5087650677208356,9.526014047875169,6.46725441615535,65.31497365534312,4.952169271630879,6.41712730546522
GUIDED_NOGPS,0.3661692142486572,27.7661825259172,9.207892005279517,6.51846173052409,66.12345087357997,-3.570802913213069,1.0296078626426617,-0.39184608614124966,72.82284312003848,-0.4598115365764318,0.7409910013554045,-13.269370500609782,0.43534939244991655,0.5724798899845799,0.21911747371041335,0.5100490883696878,10.942413869335896,7.511369947764354,64.87621825779138,5.254422555498916,6.932789321082962
GUIDED_NOGPS,0.3896150588989258,42.66710069885965,10.491011599129813,7.168744716680838,65.43414673348387,-3.3369496520445527,1.0360608951413064,-0.3771768003969597,72.8278027800725,-0.2626627152173624,0.6910104517736015,-13.104202012326887,0.47539305557590134,0.6618465492791955,-2.3054732062641716,0.511090484069883,13.605385668983764,7.880226626608513,65.01608946443012,5.778605468978527,6.64631042351755
GUIDED_NOGPS,0.4330739974975586,23.0271540412636,11.595821186243292,7.81797646010973,65.0092596925363,-3.1006485509370374,1.043830221771927,-0.35951526337398043,72.83381880945952,-0.1389211918804463,0.7666185114515272,-12.90428749796249,0.5151819785794739,0.7386393675129956,-0.3774571249473597,0.5117368386753848,13.866164062491377,8.555024539191761,64.90449118363843,5.738088391674737,6.760901982543714
GUIDED_NOGPS,0.46921229362487793,27.66946815668993,13.058535783205611,8.290369479404868,64.74601147724022,-2.795700431329985,1.0530148112451287,-0.3386364955303825,72.8409845408381,-0.07961287172865374,0.9552083587286301,-12.644474785898023,0.5436273764209208,0.8403864680372338,-2.0302544861247243,0.5121424595953968,14.909707123929653,7.342519593146096,66.1187036746216,5.978575501293957,5.901465289847479
GUIDED_NOGPS,0.5079600811004639,25.813325455731572,14.457679973267064,9.025341575363743,64.60107436060593,-2.5168742553112304,1.0637080365040985,-0.31432823784148445,72.8493911290372,0.020849299183809372,1.011134161096106,-12.414352052381954,0.5883991982319295,0.9375780355734077,-1.6307989080996714,0.512372475152647,15.992074812513518,9.302607570283135,65.81877359498888,6.119063192730313,5.328507494716656
GUIDED_NOGPS,0.5480890274047852,24.925443027443336,15.930304922354095,9.797821388167911,64.47674916680664,-2.227262058552939,1.075997762846928,-0.2863907514767464,72.85912756680044,0.2426406559957047,0.8990490492689043,-12.084559783402472,0.6353053647976136,1.0398015011655017,-1.8258877870102128,0.5125735675999907,17.12553467718453,9.944482179181103,65.81190572122897,6.4161336940793285,5.385803274229739
GUIDED_NOGPS,0.6121711730957031,15.606770629844204,17.340145683681918,10.465844191548749,64.47973560408731,-1.9524865743099646,1.0899664360489347,-0.2546366174766642,72.87028070051032,0.37085104404051317,0.7771999685797578,-11.75665179286027,0.6753902909686013,1.1375125473343088,-0.5534253748936542,0.5125858176446345,17.894206333826013,10.10499464490761,66.194703330687,6.550053981210421,4.010704565915763
GUIDED_NOGPS,0.6441125869750977,31.3180711736332,18.906010968946404,11.436159692721205,64.5274461985024,-1.669800710201547,1.105691170484984,-0.21889053642966244,72.8829352459125,0.4516714985505105,0.7206530458846337,-11.690230764502834,0.7342681644365048,1.2460223858922994,-2.9998833817404362,0.5125332335711151,18.672578343702764,11.375529583836272,66.56744641070433,6.766978477713095,3.552338329811104
GUIDED_NOGPS,0.6698675155639648,38.83686734939536,19.26648404170079,11.705821750283656,64.7990256511705,-1.5433946344152354,1.1232438372518099,-0.17898912814898865,72.89717380384008,0.4956940421027996,0.7596350699120122,-11.621598462401607,0.7487430853412568,1.2700268143114286,-1.13494641715357,0.5121472222290043,18.672578343702764,11.375529583836272,66.56744641070433,6.766978477713095,2.9220847551671985
GUIDED_NOGPS,0.7345907688140869,15.452276042971455,19.957745416034225,12.131745767738643,65.13847061561526,-1.390947796798547,1.1426911522903371,-0.134780731349607,72.91307687593779,0.7378732868035582,0.684118150570824,-11.470594078910027,0.77279116944256,1.3170537984620723,0.0449385518551535,0.5116619093904838,19.843969448509974,12.055124105179274,67.4237739261729,6.844847925315197,2.46371851906254
GUIDED_NOGPS,0.7507882118225098,61.778150913938106,21.47423132996099,12.976026555723282,65.3504067929071,-1.1788338147631416,1.1640947645080022,-0.0861252033250921,72.93072288038633,0.7791892078146712,0.7382655424331579,-11.429452434444455,0.8229155608200478,1.421709559581709,-5.647772626528096,0.5113704741312188,21.606721952455054,12.071696675998329,67.84128716255279,7.1143415888196095,1.7188733853924698
GUIDED_NOGPS,0.8045055866241455,18.617933887599154,21.875012005447697,12.98556011108568,65.85692767128454,-1.07828060429734,1.1875113439010754,-0.032893719624522144,72.95018816762655,0.995291750759673,0.6053923229801993,-11.372548420921786,0.8201625913347429,1.4481250463082638,0.08232916882754826,0.510639890744513,22.221239144614337,12.08598859067965,68.44324624687928,7.133861620423352,1.3178029288008934
GUIDED_NOGPS,0.8192844390869141,67.70029376634277,22.92737166613522,13.284490717803726,66.33301013622777,-0.9363474468126682,1.2129926696769822,0.025031426270626045,72.97154703608376,1.096173858244173,0.6064215471107556,-11.358824009558292,0.8353459353665854,1.5200065297520766,-3.8764968342481634,0.509957805349784,22.86744727501695,11.833725117039178,69.22530571208003,7.17318073427818,1.2032113697747289
GUIDED_NOGPS,0.8650877475738525,21.837371791534338,23.405133245089086,13.32940609328553,66.80740589411488,-0.8598395806271973,1.2405857183766247,0.08775702326958534,72.994871747892,1.201970820445026,0.6254641145167511,-11.370482288697858,0.8342238914110046,1.5515183268698725,0.024952142507524533,0.5092811987806657,23.81051713626045,12.357161136288905,69.33785865042563,7.1280099654309135,-0.9167324722093172
GUIDED_NOGPS,0.9043796062469482,25.45643465805637,24.752168872845072,13.700939092738004,67.35833806154166,-0.7597240887022273,1.270332751996703,0.155379142995402,73.02023254461824,1.3083690527362517,0.5702431022942558,-11.399733427592082,0.8533702768337841,1.643728528459386,-0.477782895186855,0.5084928417246148,24.499610226969097,11.877729710192144,70.27778817052875,7.050605880707326,-0.8021409131831525
GUIDED_NOGPS,0.9731893539428711,14.53514137294109,26.02598119821586,14.01961267235409,67.95529097313305,-0.7349686137048433,1.3022714061120366,0.2279833401080441,73.04769766298665,1.0805900346008483,1.2144725212253822,-11.652231860829115,0.868872647931501,1.7306596854472678,0.6037038099894223,0.5076386100347804,26.34691703187091,12.555552958033473,70.81671879921899,7.066037952707348,-4.239887683968092
GUIDED_NOGPS,0.9983766078948975,39.72254948385264,27.690403749190704,14.760121767950844,68.32756716017045,-0.7853121168873674,1.3364347779978871,0.3056448526275072,73.07733335060291,1.0134277172750552,1.4216259688929336,-11.79309255962958,0.9106320456653704,1.8447778279834974,1.8183361830708555,0.5071246492856487,27.307279842131706,14.375930090938777,69.63198540435998,7.120419135610293,-4.469070802020421
GUIDED_NOGPS,1.0488269329071045,19.824663232027223,28.478559210237737,14.75124930745977,68.97899896728723,-0.8108608773979082,1.3728515147522784,0.38842880225691967,73.10920388167838,0.9384146311068613,1.6891213631131974,-12.185398988761248,0.9048576918277798,1.8973995386839824,1.0962200147306143,0.5061953073715867,28.642978542609697,12.861497241157531,71.94817963868583,7.007971901416901,-5.7868737308213145
GUIDED_NOGPS,1.0904743671417236,24.017270108854365,29.801815904567114,14.47888507889246,70.19369695157602,-0.9581593455119649,1.4115459014183185,0.4763903947056507,73.14337157275448,0.9721247095903418,1.5775485154737465,-12.44665030941965,0.8821571651037693,1.987318900220416,2.7162046727011058,0.5044245119317677,28.58422331028134,9.728754373225538,75.12676051046924,6.707423548425332,-6.474423084978302
GUIDED_NOGPS,1.1474220752716064,17.56276327579998,30.664997690669168,14.613651695927064,70.89707817406783,-1.1054425955403142,1.4525379491065213,0.5695751200124141,73.1798967984268,0.8788990840828675,1.6847709594987224,-13.035278573412288,0.8847768242826232,2.0448721819093856,2.358457970335837,0.5034242279365384,28.649867892901288,12.87210127655003,73.0973598980313,6.486907441847216,-7.333859777674538
GUIDED_NOGPS,1.1855535507202148,26.2293179245696,31.66038915104029,14.868736195777588,71.58684337116047,-1.297114020778595,1.4958434831171283,0.6680189528683776,73.21883800706946,0.8290428652883,1.7426072938430979,-13.27493539723605,0.8946451863032805,2.1115181967546217,3.6926192349216134,0.5024479919538635,29.712576232846555,13.620002592775824,73.32384241314449,5.992583710189021,-6.589014644004467
GUIDED_NOGPS,1.217036247253418,31.77069793513006,32.0390179471019,15.02677521149731,72.1602141085928,-1.3882759022510642,1.5414742310624296,0.7717485529402662,73.26025173655935,0.7283132631213618,1.7160532258973809,-13.596244571266375,0.8980666794890939,2.134828060122763,2.715330989336679,0.5016500564419498,29.78389083363858,13.835938016566447,73.49860464703823,5.795381657984263,-7.62033867523995
GUIDED_NOGPS,1.2629570960998535,21.782594921917603,32.40283502143467,15.248118117894796,72.52798864149287,-1.5208244836579317,1.589437910989086,0.8807814651934708,73.30419263000039,0.700890320408025,1.5845178697480984,-13.840762782231893,0.9051422091201837,2.156937797731191,2.814209067317071,0.5011643059827613,29.659381514406128,14.781595690753539,73.0699703790259,5.327918698133393,-8.078704911344607
GUIDED_NOGPS,1.3006300926208496,26.55194155704392,32.86015385380339,15.459756256431316,73.04361004917796,-1.6934433841471277,1.63973831950045,0.9951263202151529,73.3507134514477,0.6169323011089061,1.6641604367913858,-14.077953053991633,0.9112716859816185,2.185429087401206,3.8052337177693705,0.5004606551034047,29.662325993264517,14.50297216967174,73.81782845382597,5.070697559119984,-7.276563998161455
GUIDED_NOGPS,1.3432495594024658,23.470152427423507,33.167359062785216,15.589292139632315,73.50739698740323,-1.8112506962507902,1.6923754198788876,1.1147830345373522,73.39986510163202,0.6503086074575551,1.5819424615441804,-14.39027626039516,0.9120411601550228,2.2036042342597457,2.96586533034267,0.4998387021713432,30.030339960903863,14.59052068180079,74.25641082189753,4.57910689382014,-5.729577951308232
GUIDED_NOGPS,1.398911476135254,17.968144625797883,33.51913334668658,15.790108885165676,74.01055569968348,-1.9818887965473058,1.7473454302080995,1.23974301096009,73.45169663368381,0.5387924290438743,1.8244654034984082,-14.785199505752589,0.9174414866418401,2.225889529084109,3.2379273519325134,0.4991617114010005,29.465868405186143,14.794806323127515,74.55894881120223,4.228970172023419,-5.443099053742821
GUIDED_NOGPS,1.438539743423462,25.241498011037088,34.08635356910992,16.034945480752626,74.58217611524836,-2.216292716450151,1.8046409114954438,1.36998933887448,73.5062552688576,0.48660418089542334,1.8423848316727598,-14.983370614331339,0.9253832893146342,2.263366805631593,4.852374372540767,0.4983861187304139,30.066578716887175,14.83759058995179,74.78459211470238,3.842088261606819,-5.042028597151244
GUIDED_NOGPS,1.4873151779174805,20.506233560511983,34.13890088656795,16.122899208280575,74.95404947541395,-2.3215288594998,1.864250855794256,1.5054969945858314,73.56358641225623,0.4062685097339383,2.0092809309288446,-15.190221185797883,0.9228170479802992,2.263937556572293,3.058051674608385,0.49791430540526344,29.925082057951695,14.9668869624494,74.930759210636,3.591553995017697,-4.18259190445501
GUIDED_NOGPS,1.527130126953125,25.121309040380446,34.33850166943361,16.158159086553187,75.41411463811072,-2.430066700376934,1.9261607743261715,1.6462330416367554,73.62373366855508,0.43138786442798244,2.0424521715198347,-15.320580468749453,0.9167066281327538,2.274957058680843,3.430589840335701,0.49731442854566654,30.350879293010223,14.520395298952923,75.4114900732639,3.441594809067398,-2.807493196141034
GUIDED_NOGPS,1.5733089447021484,21.692693598688397,34.263906007662705,16.14056534436213,75.74606280116006,-2.4683785997158996,1.990352785603445,1.7921568311302698,73.68673885772637,0.3399968917645971,2.4037055724768632,-15.40133038021193,0.9067420243371459,2.266127204137585,2.5193447253092196,0.49691101408484945,30.12685814552113,14.705142231219448,75.53009112865027,3.192307917453437,-2.0053522829578814
GUIDED_NOGPS,1.6110429763793945,26.50412319669386,34.19690186296982,16.108730516024284,76.12578845702252,-2.5081562312254166,2.056805703551278,1.9432202020529132,73.75264203076334,0.40911477762712956,2.324589783773313,-15.478170008374573,0.895603940231993,2.257815412365035,2.6692410174099743,0.4964402803606112,29.83215852169943,14.525688043372027,75.88416280044608,3.049023740913925,-1.604281826366305
GUIDED_NOGPS,1.6483440399169922,26.815228718473293,34.05944179583062,15.976174956514019,76.38112097408653,-2.497191315112245,2.125495125630132,2.0993676815978413,73.82148148540463,0.40085585162096765,2.402677629006776,-15.484974584335198,0.8775954627761624,2.2439589029613183,1.9957944236711143,0.49616054076697713,30.380638308305194,14.237548887506264,75.95551660772465,3.054292521938277,-0.6875493541569879
GUIDED_NOGPS,1.6880896091461182,25.166377660308527,33.817297465653866,15.651762340759669,76.80351581655198,-2.4589342777088996,2.196393520958056,2.2605366854879354,73.8932937818584,0.42516684275457023,2.3501735379700652,-15.466118139584086,0.8473300173596175,2.2231257805274693,1.6434555719937394,0.49563466694795966,29.702596939137077,12.999116335980245,77.22536673443419,2.9678680208778623,0.5156620156177409
GUIDED_NOGPS,1.7554445266723633,14.848302693670636,33.646170792569876,15.331455353967925,77.16818793885771,-2.405304413767425,2.2694703184330054,2.4266577182989155,73.96811375852673,0.3778621265018255,2.4881356752415065,-15.378367284222346,0.8169047523153382,2.206911848939964,1.7071434080360004,0.49519988872950355,30.07700965382938,12.836240917348528,77.15819327863636,2.9785932507803503,0.7448451336700702
GUIDED_NOGPS,1.791485071182251,27.755341887411742,33.4657212649638,14.952286988132965,77.7612906074699,-2.3413805522508464,2.3446919948551677,2.597654573782441,74.04597454772971,0.3563565822089528,2.5008385464372607,-15.337280281270134,0.7826795210229889,2.1906126171911064,1.1792428567327202,0.49442702591038973,29.727950169202586,12.301389096905577,77.5849075672183,2.9949390325530176,0.8021409131831525
GUIDED_NOGPS,1.8247182369232178,30.09409283003164,33.17236128961076,14.410398504479675,78.04930831517743,-2.261097499169497,2.422022163049275,2.773444535189213,74.12690759142986,0.3722377858854373,2.3687064025092486,-15.287257683336254,0.7374415333507429,2.1651883298660826,0.8117371621212313,0.49411639891437864,29.938329430470056,11.188818808075,78.13195924274079,3.1424744079713127,1.6615776058793874
GUIDED_NOGPS,1.8736686706542969,20.4335057924839,32.70939308913622,13.845441896323596,78.42372395497402,-2.1515195048141935,2.501421659986935,2.9539385755920877,74.21094265695628,0.38254139305266605,2.448566254945507,-15.08793056524048,0.6905007019875399,2.1279202556346664,0.8266963111807852,0.49368082805297336,28.361050377645547,10.598749218970662,78.75666901759867,3.114211233595793,3.0366763141933633
GUIDED_NOGPS,1.9129185676574707,25.484430348213362,32.33285925966356,13.305428517774072,78.85735547838539,-2.017656212931126,2.582848634908949,3.139041558209185,74.29810785272895,0.407462565539074,2.35946088769399,-14.976422604398143,0.6448625550974402,2.09674269858976,0.16032887838979426,0.49316112856151534,28.361050377645547,10.598749218970662,78.75666901759867,3.114211233595793,2.46371851906254
GUIDED_NOGPS,1.9716148376464844,17.039695469004545,31.81085159439111,12.529818718744309,79.30997990308819,-1.8889250757508569,2.666258637447632,3.328652436726981,74.38842964398299,0.4590550931258529,2.2565717718105645,-14.86428114351029,0.5839528139843787,2.0551823477830133,0.6823967373448279,0.4926176746113422,27.671609816469992,8.733311139531382,79.73131274963342,3.403565171979962,2.635605857601787
GUIDED_NOGPS,2.0106282234191895,25.6355179600643,31.43521329446409,11.746958499747718,79.7531380924118,-1.7299582530529949,2.751604705749134,3.522664455623431,74.4819328684929,0.5071700939297433,2.092419701053532,-14.78859752486467,0.5222272832731671,2.0237283058905833,-0.34232531646821096,0.4920931921641217,28.37176917953337,8.823282742385363,79.22299353836608,3.604374574442414,3.2658594322456924
GUIDED_NOGPS,2.0338857173919678,43.02070875429509,30.996041758053874,11.02835660291782,79.99792211536968,-1.6073364636600938,2.838837454595766,3.720965350491064,74.57864075229682,0.4527863668499564,2.176913409954821,-14.619289088171103,0.4641079253748332,1.987026441556454,-1.0647811217135539,0.4918710779553907,27.970003796814876,8.301992358901241,79.42746521086994,3.687840045020018,4.1252961249419275
GUIDED_NOGPS,2.0829241275787354,20.39574803302763,30.219225303161444,10.497590974764835,80.28480803594844,-1.5167524648824304,2.9279051635283166,3.9234375483600936,74.67857492542078,0.454192905571303,1.902907991681889,-14.446871207857885,0.41765458022340834,1.9264575675469855,0.6202339708935694,0.4915906503342085,25.365716950239488,8.244416979967385,80.72466585016733,3.4231371571675813,2.807493196141034
GUIDED_NOGPS,2.1243205070495605,24.161989964917534,29.764528074690514,9.03017880421302,80.84882950829557,-1.335518293822334,3.0187538649683767,4.129958368021525,74.78175543760298,0.40880213639004276,1.9329936943153259,-14.313568967147685,0.3115233725130538,1.889242396967432,-0.7812094372980747,0.4908993888939611,27.17453755511398,2.98182981011657,81.40201062279914,4.116464294223825,2.979380534680281
GUIDED_NOGPS,2.1668217182159424,23.536002873047227,29.814093435866194,6.826277182792585,81.59773358763591,-1.1674161377762753,3.1113274323406563,4.340400220350254,74.88820077401806,0.4087176127990639,1.7787710110641997,-14.221738781304156,0.1581864210371035,1.8880057441418643,-0.729858986646222,0.4899357007795732,30.30858419369341,-2.858903454093805,83.38181815620193,4.950217103537893,3.495042550298022
GUIDED_NOGPS,2.1923458576202393,39.19031245328151,28.773157390917202,5.708389364896218,82.4371940832299,-1.0440950909230817,3.205567668195314,4.554630808628191,74.9979278710013,0.4759264607885778,1.6252014646524562,-14.161698857178806,0.07349789360561124,1.8097027117575308,-1.1174999745718273,0.4888411006816571,22.812903172680386,1.837394244370126,85.06297333385842,3.8514990707933308,2.979380534680281
GUIDED_NOGPS,2.2317965030670166,25.353337282541677,31.194846172958222,2.902218324419166,82.49249516625721,-0.9157130339037677,3.301414392330272,4.772513328867346,75.1109521317729,0.35343198058371794,1.7209248583228924,-14.008892157519988,-0.11913322043964303,1.974159364186113,-0.49585861444254986,0.48892768544827353,46.82924682409427,-11.862049632087079,81.37517779172349,9.820093567002164,2.291831180523293
GUIDED_NOGPS,2.2722129821777344,24.748076469199905,33.89572030637398,1.240712323143128,81.38601054276612,-0.7526041293877216,3.39880552991354,4.993906670132944,75.22728744216228,0.4023430185910321,1.4911000918093646,-13.946722921920886,-0.23863560046695234,2.154505349972979,-1.004552631683302,0.49076191534909425,50.12517068792667,-3.9463931473612095,72.91648041407925,8.134084387215061,2.3491269600363753
GUIDED_NOGPS,2.3108372688293457,25.896839999506057,35.198679322076465,-0.9710565298222379,81.29679577729924,-0.6089076490169281,3.497677199605533,5.2186656148665325,75.34694618633227,0.3054222073817281,1.5509291338440914,-13.841590942668757,-0.39343273315573085,2.2388748489966863,-0.9437957659825985,0.49107522561354955,41.33754157054297,-8.705223159851041,79.16587903697838,7.029764724473362,2.177239621497128
GUIDED_NOGPS,2.349539279937744,25.84497834084061,35.51581997148207,-2.8446127678858755,81.50451352198323,-0.4749524777344087,3.597963801681402,5.446641039209093,75.46993926250346,0.2073110622867774,1.5541542637928067,-13.732024463097996,-0.5270772204998769,2.254474052578353,-0.9102775666525624,0.49094813861078035,35.17130408091259,-8.180309019245412,81.2503330637464,6.516122341799501,2.2345354010102105
GUIDED_NOGPS,2.39497971534729,22.016997107657097,26.517071007852927,-5.603458757667969,81.46742962485689,-0.442873849740126,3.6995981061533456,5.677680113324136,75.5962760986783,0.17474858898599116,1.2833560462220186,-13.698927073927408,-0.7169707955582368,1.611289416199927,0.4632027639788931,0.4911932697107321,-30.107326498807492,-15.520557453932296,79.91122815358338,-4.167693549289598,1.4896902673401404
GUIDED_NOGPS,2.42057204246521,39.08222139396198,18.184928055114632,-8.027085152149343,81.40904674933797,-0.41104699032300906,3.8025113408929365,5.911626501720809,75.72596466836556,0.06273200583411434,1.3988840002777299,-13.632035616290887,-0.8856246368036391,1.0153514977400344,0.17463054297727598,0.49147537687854137,-30.107326498807492,-15.520557453932296,79.91122815358338,-4.167693549289598,2.0626480624709638
GUIDED_NOGPS,2.4775218963623047,17.56467553351871,17.20873404937865,-7.862631393149764,82.71647544291984,-0.3520975956266985,3.906633279753444,6.1483205635770135,75.85901150630441,-0.10972315370495332,1.3549808249533573,-13.575950371694974,-0.8917694952621928,0.9407250148862021,0.23589510379307332,0.48971380409507687,14.362312560856147,-2.4964029170950623,89.66438769625762,4.483091495358974,1.1459155902616465
GUIDED_NOGPS,2.497863531112671,49.167172682194895,10.746886515479343,-9.38234074958746,82.1054896608723,-0.2946269355737436,4.011892330692151,6.387599553062497,75.99542172418877,-0.22876723445051297,1.406922706044012,-13.536477000934179,-1.0026118249912743,0.47577047649743637,-0.715912020727655,0.4908348980949747,-22.267503202453497,-10.335162589235757,76.71838318251012,-0.46398518118819915,1.3750987083139758
GUIDED_NOGPS,2.552626132965088,18.265249332630763,5.729041906008744,-9.476267702869947,80.94734358095927,-0.2710292405807888,4.118215623892679,6.629297819661978,76.13519902639156,-0.361302119415718,1.2950693937617674,-13.512573046386427,-1.021974596160409,0.1135717502849177,0.4295789677622814,0.4927817831681484,-23.72466869691808,-6.380906708895464,73.22174981752424,0.6948268880728617,1.1459155902616465
GUIDED_NOGPS,2.5806055068969727,35.74975282124714,1.038996003836365,-9.531743862154332,81.08703479358641,-0.20451424114195554,4.225529099887311,6.873247008498218,76.27834572568894,-0.5715744022130265,0.9931972305620064,-13.462702420161579,-1.0409691991255547,-0.22466623664423094,-0.19669577214905476,0.4927869663981538,-15.987864175603933,-1.7081176830064984,81.14047089810704,3.24885355422148,0.4583662361046586
GUIDED_NOGPS,2.6140010356903076,29.953537532047392,-3.907409568784858,-9.058213228551132,80.63472111203711,-0.1527329583610052,4.333757597679306,7.119276260655173,76.42486275898455,-0.6093496171914282,0.7518258158131604,-13.446524263338757,-1.0256177545798364,-0.5805245870281289,-0.16268677135117038,0.49368521247042113,-22.363221166971936,0.317523261364579,77.35994313581259,3.083664337476436,0.6302535746439055
GUIDED_NOGPS,2.6615161895751953,21.05067052115956,-7.972202619871624,-8.411894020529905,80.20440282889015,-0.12520293764892826,4.442824942865231,7.367212413501068,76.5747497030338,-0.7335550064225235,0.35595168005721795,-13.452334193001498,-0.9994959738866482,-0.8737834649696513,0.3084440297965899,0.49455552031121547,-22.363221166971936,0.317523261364579,77.35994313581259,3.083664337476436,-0.34377467707849396
GUIDED_NOGPS,2.694289207458496,30.518678056376153,-12.472824933996517,-7.976303166947144,79.797624772021,-0.0957631356753306,4.552654035757275,7.61688020101151,76.72800479016814,-0.85780804689525,0.3358265276677754,-13.425708408069497,-0.986893808596235,-1.1972710116796135,-0.10185884243749344,0.49539557002722073,-22.363221166971936,0.317523261364579,77.35994313581259,3.083664337476436,0.057295779513082325
GUIDED_NOGPS,2.7124388217926025,55.125106785653266,-14.89656755889699,-7.156979168350289,79.44336489186233,-0.0667201730370657,4.663166939505572,7.868102454092599,76.88462492401925,-0.8697933747021828,0.08030936426100993,-13.418264355647828,-0.9502132208778761,-1.374436483702433,0.06136030271759091,0.49616189004823535,-22.363221166971936,0.317523261364579,77.35994313581259,3.083664337476436,0.34377467707849396
GUIDED_NOGPS,2.760725975036621,20.721310179581554,-17.50770467435033,-6.539432677281807,79.12556293616811,-0.04289558001852139,4.774284968220519,8.120700300904026,77.04460569524335,-0.92721717629286,-0.5576502611771621,-13.42495794103444,-0.926471299508789,-1.564607901087296,0.2928558605403223,0.49687856413861287,-22.363221166971936,0.317523261364579,77.35994313581259,3.083664337476436,-0.11459155902616465
GUIDED_NOGPS,2.7946879863739014,29.441770028288445,-20.474862235839506,-6.047004653998662,78.79748919689513,-0.027930065945931788,4.8859287750951115,8.374493367182202,77.20794139724548,-0.8947404272022428,-0.7496128345220763,-13.444634862259601,-0.9107206612466568,-1.7794881506680482,0.3110007273500662,0.4976156783005255,-22.363221166971936,0.317523261364579,77.35994313581259,3.083664337476436,-0.6875493541569879
GUIDED_NOGPS,2.821474552154541,37.34311508395805,-21.69461063248094,-5.395350470612041,78.56637003150003,-0.013402877706790595,4.998018440527241,8.629299976563322,77.37462504190368,-0.9035596421637573,-0.9671431538078754,-13.456266674416133,-0.8851324329242174,-1.8718241698410487,0.24824226158302926,0.49821238251560546,-22.363221166971936,0.317523261364579,77.35994313581259,3.083664337476436,-0.6302535746439055
GUIDED_NOGPS,2.84041428565979,52.824322111812194,-22.447316619727694,-4.815759075414347,78.34444261866014,0.002461055963715292,5.110473560242049,8.884937350906522,77.54464837529332,-0.8972399029124972,-1.0502916356077892,-13.469907415962295,-0.8641793811116785,-1.9313595716021965,0.08971397249046509,0.4988003086349498,-22.363221166971936,0.317523261364579,77.35994313581259,3.083664337476436,-0.6875493541569879
GUIDED_NOGPS,2.8727686405181885,30.925287737692347,-23.479384253760983,-4.354873409290065,78.17222362518129,0.017711306043530495,5.223213333414211,9.141221810616942,77.71800189341131,-0.9396912361514189,-1.2594407791734537,-13.465274840157734,-0.8508333046198474,-2.01055075217841,0.26191726276682925,0.49931866740234504,-22.363221166971936,0.317523261364579,77.35994313581259,3.083664337476436,-0.5729577951308232
GUIDED_NOGPS,2.9087538719177246,27.793597466022568,-25.25025238508108,-4.000205954345878,77.9790972453543,0.027445818881516995,5.33615665079029,9.397968974968856,77.8946748579004,-0.9025091804137505,-1.7029896353360852,-13.502353375840794,-0.8441919100558014,-2.1413197611668133,0.3553844495298003,0.49987336641881913,-22.363221166971936,0.317523261364579,77.35994313581259,3.083664337476436,-0.4583662361046586
GUIDED_NOGPS,2.9451475143432617,27.481827533563532,-27.10726710314952,-3.6611227620027025,77.79075345947983,0.019642220776532777,5.449222182811043,9.654993962428781,78.07465531177336,-0.9239231041222098,-2.025640301208083,-13.576232116998238,-0.8389153536391837,-2.27895425001724,0.6028702427452585,0.5004258527784403,-22.363221166971936,0.317523261364579,77.35994313581259,3.083664337476436,-1.6615776058793874
GUIDED_NOGPS,3.0048868656158447,16.749612638371964,-28.814822995469846,-3.3154516305643256,77.6187863156877,-0.0005822738809153818,5.562328467733735,9.912111590978544,78.25793009513735,-0.9394975362554256,-2.194071912366951,-13.683910049263488,-0.833336482957201,-2.406400602424251,0.679538137345777,0.5009587156691745,-22.363221166971936,0.317523261364579,77.35994313581259,3.083664337476436,-1.7188733853924698
GUIDED_NOGPS,3.0446014404296875,25.16758573100117,-29.981990644039815,-2.4681169131022718,77.39665212160708,-0.031500143470547116,5.6753939997544816,10.16913657843846,78.44448486091808,-0.9254662999878096,-2.3479116781377334,-13.761610281261554,-0.7961469699670662,-2.496016925065601,0.9214648827082339,0.5015717491089665,-17.35222584399052,4.203421705310457,77.39231220197375,4.356202207412087,-2.0626480624709638
GUIDED_NOGPS,3.0714433193206787,37.264152954973525,-28.72309314001765,-2.8316630962104674,77.85900514544379,-0.04024936266714614,5.788337317130564,10.425883742790381,78.63430409058412,-0.9635707514285471,-2.435769041761842,-13.824500955591738,-0.8352254508570537,-2.4158001320003755,0.700411491593227,0.5011629484177105,-7.5466402691759455,-5.126327589017068,81.30908138411625,4.1190170265415755,-1.8334649444186344
GUIDED_NOGPS,3.1323204040527344,16.42892283587936,-27.312014532250647,-3.0811001833764124,78.36773160767908,-0.04460591728766622,5.901077090302726,10.682168202500792,78.82737110987114,-1.0132346577092965,-2.566855312973196,-13.933066812449091,-0.867085908310264,-2.324916413578736,0.5771739372585525,0.5006894592532881,-5.725801633912512,-4.491856249068197,81.75493363478436,4.221210006129935,-1.3750987083139758
GUIDED_NOGPS,3.1546952724456787,44.714441056693886,-26.735037568080287,-3.3809983549742633,78.81499076311434,-0.08238646847979252,6.013532210017534,10.937805576843997,79.02366810450613,-0.955884760899873,-2.712380177203134,-13.979386594079179,-0.9020846477045507,-2.2923998844668474,1.4159993664724677,0.5003130160120877,-6.7603603496789315,-4.665526705225066,81.61230567521892,4.183462684560967,-1.8907607239317168
GUIDED_NOGPS,3.1971073150634766,23.583777066804615,-25.03029373400576,-3.5840217536307413,79.23982238513364,-0.08866560808542481,6.125621875449667,11.192612186225125,79.22317613593177,-1.018188892735083,-2.701407264858097,-14.075407954752157,-0.9309511828985924,-2.1809685487210912,0.649883406637773,0.4999750306261972,-6.347809212242546,-4.625181100887504,81.80282514947443,4.204731350377732,-2.3491269600363753
GUIDED_NOGPS,3.231779098510742,28.849832168601772,-24.033075337281964,-3.7875357014892392,79.66166053132207,-0.12048334975621064,6.2372656823242565,11.446405252503288,79.42587515703053,-1.0034745308287598,-2.8389595907793375,-14.175743433659644,-0.9600777184759229,-2.119673288259596,1.0323809031861286,0.4996463219385627,-6.304131271750532,-4.381998391584441,81.91645279307424,4.130407133215729,-1.8334649444186344
GUIDED_NOGPS,3.268580436706543,27.177678854913854,-22.81524699117225,-3.9598776771144952,80.06798718631858,-0.13061413064524469,6.3483837110392045,11.699003099314725,79.63174402784908,-1.019669869846212,-2.7464510817738614,-14.204432789494636,-0.9871550259379976,-2.0427900047636487,0.7411384782488412,0.49934563526229575,-5.8884593738235615,-4.349064911349156,82.06599133343047,4.165386442787103,-0.7448451336700702
GUIDED_NOGPS,3.3173351287841797,20.514758893241968,-21.67977681320492,-4.113074143610117,80.44292292731409,-0.12870825185877768,6.458896614787502,11.950225352395814,79.84076053132242,-1.1212023394057442,-2.484974151429437,-14.237806801326611,-1.0129019398075623,-1.9714862653156697,0.5832523995279009,0.4990967564060125,-6.692797948622229,-4.345437571329352,82.07782890123018,4.019912733018969,-0.34377467707849396
GUIDED_NOGPS,3.3608734607696533,22.972543392175442,-20.596152543595316,-4.325473014576827,80.90413265454482,-0.13905451823429885,6.5687257076795404,12.199893139906242,80.05290138899824,-1.06842333325494,-2.475750194398746,-14.275745940845093,-1.0424273905710648,-1.9039694549269268,0.7295792057286025,0.49872315310168014,-5.799343693317392,-4.604483355177343,82.5781173527517,3.9719588380510276,-0.8021409131831525
GUIDED_NOGPS,3.4035837650299072,23.420090457311964,-19.23572968412388,-4.527131509030071,81.35260049878939,-0.14083325677813208,6.677793052865468,12.447829292752141,80.26814227676108,-1.138007806415149,-2.4369265453827476,-14.310619179199886,-1.0711621465963344,-1.8168973155326082,0.6340663851919789,0.49837331266695756,-5.448996480289325,-4.82228555108363,82.84865955060383,3.9728339533711003,-0.6875493541569879
GUIDED_NOGPS,3.456392288208008,18.94155369094177,-17.67125477830656,-4.688343247278242,81.78459609954518,-0.12535223427266193,6.786021550657468,12.693858544909103,80.4864578405567,-1.1976857305144892,-2.1498400341887716,-14.321641396972995,-1.097211058268547,-1.7153429802693767,0.4553577263028304,0.49805279261151725,-4.449121698635428,-4.778215336603691,83.10009345832756,3.966179118420271,0.0
GUIDED_NOGPS,3.505819082260132,20.23447909882529,-16.120604117582264,-4.92893768399836,82.28354144578323,-0.09616614442728413,6.893335026652098,12.937807733745347,80.7078217121162,-1.2408335296053408,-2.0198000625808987,-14.276898535267533,-1.128265418242647,-1.6147834094925988,0.2904668156478294,0.49763642039949946,-3.8943547049318656,-5.1999994790054975,83.45167126008947,3.945053889770172,0.7448451336700702
GUIDED_NOGPS,3.5299148559570312,41.59777843895666,-14.46974028841642,-5.204035827662355,82.75842550191109,-0.041901398074609734,6.999658319852626,13.179506000344825,80.93220652468044,-1.2162175278366147,-1.8895933916685954,-14.243899330066263,-1.1613357244087017,-1.5069747240114888,-0.5883121724692094,0.49726067153415404,-3.4222265901844886,-5.8719848923039,83.72906812432983,3.95400683989794,1.3750987083139758
GUIDED_NOGPS,3.5715456008911133,24.014794881337494,-13.01928375645327,-5.576577250371375,83.118384912641,-0.005793270439108881,7.104917370791332,13.418784989830305,81.15958392872412,-1.25438654590935,-1.6503713520741878,-14.210400667281935,-1.2002239898189497,-1.4128331059288242,0.08788751523175642,0.4970617985241247,-3.6271740374664723,-7.220751886203581,84.2813870262062,3.8649918017879172,0.5729577951308232
GUIDED_NOGPS,3.6219801902770996,19.831787190180336,-11.88201855869782,-5.857639487758212,83.47578967942142,0.05947465664931499,7.209039309651837,13.65547905168651,81.38992460768019,-1.2437908947942504,-1.4351206084238806,-14.157425720079315,-1.233172781697023,-1.340555294717445,-0.1769176252541504,0.49687120239238813,-5.085593207934483,-6.352504792390758,83.9200183342976,3.8974365924392447,1.604281826366305
GUIDED_NOGPS,3.66280198097229,24.50144287500146,-11.041376676577771,-6.294071919041136,83.79858692445988,0.14613080790756194,7.311952544391433,13.889425440083192,81.62319829366402,-1.1520674306565029,-1.4810678245790851,-14.114143665082592,-1.2757095404645404,-1.288925235958922,-0.6497352479388316,0.4967369170538062,-6.997605200247254,-7.344019005369188,83.73604440280974,3.7730176127367314,1.948056503444799
GUIDED_NOGPS,3.704533100128174,23.968821075490027,-9.940376777207666,-6.509019586567102,84.05960803451768,0.23977698313933526,7.413586848863373,14.12046451419823,81.85937378319768,-1.1878673335825958,-1.1076198679109392,-13.997980930320892,-1.3039468247624921,-1.2187866462674284,-0.7803721502876539,0.49669964862302,-4.533235326156189,-6.564176481744182,84.02219970305073,4.180751272045431,2.46371851906254
GUIDED_NOGPS,3.753530979156494,20.412721742304416,-8.99402675774342,-6.713593442152334,84.24908953407669,0.3301277564946811,7.513873450939245,14.34843993854079,82.0984189529342,-1.1387518701478574,-1.0831223272356307,-13.955305054613007,-1.3311887163151168,-1.1592808354179878,-0.6471142034371242,0.49677399412828627,-5.028633438960372,-6.65702039365217,83.82177321914905,3.8409499226583863,1.776169164905552
GUIDED_NOGPS,3.7760279178619385,44.46274368460666,-7.4191595234846766,-6.7047336108697575,84.56977855316826,0.41645782102324086,7.61274512063124,14.573198883274378,82.34030077538182,-1.1710709379181825,-0.8345698223481626,-13.885769459994044,-1.3449927021692831,-1.05575222131111,-1.685481887164037,0.49665578333332033,-0.025448335776606816,-5.590764871850772,84.63082193911235,4.387465845786744,1.8334649444186344
GUIDED_NOGPS,3.8684918880462646,10.816390001366779,-10.670799925413016,-7.266172332981151,83.66863772409246,0.4625832819735819,7.7101362582145025,14.794592224539981,82.58498533462827,-1.2175766287597414,-0.6534457987207066,-13.818147172116333,-1.3920873030452043,-1.288756980122604,-0.06759816838461996,0.49837452141580374,-32.0514415360017,-9.959422978669073,78.12756983774388,3.2904599503479735,1.6615776058793874
GUIDED_NOGPS,3.87861704826355,99.39109004739336,-13.748469747031251,-8.093698554168542,82.83483803314049,0.5388595655112307,7.805982982349464,15.012474744779132,82.83243784206498,-1.2175766287597414,-0.6534457987207066,-13.818147172116333,-1.455694158731028,-1.5088171232111833,-3.9778890701372753,0.4999963997133867,-32.998025903795956,-11.380610136872338,77.74395803207265,2.972912371834924,1.3750987083139758
GUIDED_NOGPS,3.9164280891418457,26.434633540685837,-15.900312586606555,-8.22859624793777,81.70521876111277,0.5624767139553457,7.9002232182041165,15.226705333057067,83.08262265211138,-1.1851264000130108,-0.5989058844245085,-13.743502595998203,-1.477683999602675,-1.6660375063367472,-0.1957346481732462,0.5020661058364979,-30.54253909147621,-8.83080640185754,75.99084087230764,3.773346760139126,1.776169164905552
GUIDED_NOGPS,3.956712245941162,24.828503945397824,-15.096107456336037,-8.214517800746666,82.02116786304566,0.6526740213179638,7.992796785576397,15.437147185385788,83.33550327793917,-1.1656581197226532,-0.4615235661805778,-13.57434783856096,-1.4900548941263447,-1.6162232969338706,-1.0760653202220907,0.5019715031223403,-7.676382828073215,-6.3955980956118585,83.79291762967587,4.531802739947049,2.7501974166279517
GUIDED_NOGPS,4.016045093536377,16.855967078189302,-14.571970143843645,-8.005269938908302,82.18938493811588,0.7358840522453184,8.083645487016456,15.64366800504723,83.59104240719651,-1.2036416554707403,-0.6213064503029174,-13.469277331011362,-1.4898830904691989,-1.5858930941602072,-0.7191869543212908,0.502102486203621,-9.669863959785253,-5.104016084888598,83.06261950168202,4.487603444263128,1.3178029288008934
GUIDED_NOGPS,4.0410401821136475,40.020075378083106,-15.984289304084475,-6.896392621599251,81.28080293835538,0.8200140733644526,8.172713195949006,15.846140202916251,83.84920191773232,-1.154079241532189,-0.8561781930045557,-13.485611728411447,-1.4327795679444768,-1.690990175002344,-1.7653471743469453,0.5038525984690654,-23.859635312836037,1.196260798844596,76.99814457613324,4.701005627169322,1.7188733853924698
GUIDED_NOGPS,4.071515798568726,32.82030736486275,-14.105204865140946,-6.85976172527254,81.83702607899824,0.8526419202727337,8.259945944795644,16.044441097783903,84.10994289332055,-1.252928940851787,-0.8455766721956381,-13.412827525068499,-1.4429647778525563,-1.5655605566955615,-0.6400455486974863,0.5034093752214834,-0.38369253307437806,-6.412091876578196,84.85202439843722,4.633417554711341,1.432394487827058
GUIDED_NOGPS,4.136233329772949,15.453813248639507,-11.854199913604313,-6.719242876350391,82.35320517708378,0.9336904486982859,8.345292013097145,16.23845311668034,84.37322563938444,-1.311542849544486,-1.1141710865420391,-13.296701502573589,-1.4463348475609366,-1.4139644348691023,-0.7944599917343427,0.503030030693451,4.658768883092631,-5.273460178650353,85.11637884465453,5.096349621433109,2.6929016371148693
GUIDED_NOGPS,4.175848960876465,25.25243986874981,-9.411699736404328,-6.5311678849963455,82.8587396936728,1.0409082326567365,8.42870201563583,16.428063995198137,84.63900969872074,-1.3634943355886608,-1.2088943911075976,-13.197541669976989,-1.4464316084522528,-1.2488281226428113,-1.6264925851879923,0.5026704050075719,5.759595290690309,-4.736953415432216,84.92725514296713,5.141790046276872,1.604281826366305
GUIDED_NOGPS,4.205178260803223,34.101973283032365,-7.402158618119071,-6.4717340642925985,83.28497758179871,1.0939030048934093,8.51012899055784,16.61316697781522,84.90725386722396,-1.2908973221176532,-1.3502819749695059,-13.13688190618446,-1.4543487656527927,-1.1138601326073838,-1.1692407536602647,0.5024334144281378,5.145996918266176,-5.87649796710757,85.17039653074984,5.138779322729256,1.3750987083139758
GUIDED_NOGPS,4.24355149269104,26.06631077192699,-4.384537217446293,-6.699782721309347,83.68228292897325,1.1567044320922224,8.589528487495505,16.793661018218124,85.17791620961069,-1.2423757649755884,-1.3340403187317444,-13.091827417098116,-1.480086955590231,-0.9081845993459259,-1.1548993295068974,0.5022434499209562,14.224387122323094,-7.9600700497669195,85.31994561076182,5.528689369254969,1.3750987083139758
GUIDED_NOGPS,4.280724287033081,26.912096091163413,-1.8810401662408702,-6.756665686906113,84.08164066815596,1.2303559574957634,8.666858655689607,16.969450979624874,85.45095407514381,-1.243386739694456,-1.2771963895294307,-13.027313719066408,-1.4947453499914525,-0.7383529175351335,-1.3833631361213508,0.5020539701104818,10.680713624235105,-6.732430629425874,85.45987500766282,5.421284045020818,1.432394487827058
GUIDED_NOGPS,4.322065830230713,24.241449064280843,-4.821696596189564,-7.298586603003307,83.02020020725485,1.2934198260135465,8.742080332111767,17.14044783510841,85.72632411335677,-1.2752661140369617,-1.0747087081169384,-12.952127850456554,-1.5396591696010387,-0.9494643849810932,-1.2087601506888268,0.5040591858591529,-29.250750931542655,-10.341364951551427,76.71895215297454,3.7442880068484383,1.7188733853924698
GUIDED_NOGPS,4.363416910171509,24.18762795042876,-7.273036381049005,-7.667729110768958,82.26251889566801,1.3598960090618903,8.815157129586721,17.306568867919395,86.0039822897778,-1.2128382917447509,-1.109245559655108,-12.901927667604252,-1.5733807726573668,-1.126173545744501,-1.2931101892550068,0.5056121950911647,-26.431134030496015,-9.297656545548811,78.09561997499586,4.156210236019027,1.4896902673401404
GUIDED_NOGPS,4.423120737075806,16.751218109494065,-9.657687103874574,-8.017094734404814,81.55665824759706,1.4264488291158057,8.886055524914651,17.467737871809483,86.2838839016542,-1.3690619002575732,-0.7205458972920292,-12.853022659373314,-1.6055444541915012,-1.2980619840152459,-1.1052351903625839,0.5070908384810857,-26.431134030496015,-9.297656545548811,78.09561997499586,4.156210236019027,1.260507149287811
GUIDED_NOGPS,4.446697235107422,42.43743613092528,-11.968459732822982,-8.335780467015814,80.90423351312734,1.4899531298154314,8.954744946993506,17.623885351354424,86.56598359367669,-1.374691363515839,-0.7992313840778686,-12.853219027311953,-1.6354589465573255,-1.4646243275871542,-1.9751420251666547,0.508492625120824,-26.431134030496015,-9.297656545548811,78.09561997499586,4.156210236019027,1.3178029288008934
GUIDED_NOGPS,4.470855236053467,41.40600412647956,-13.931656881435643,-8.540670133212357,80.40564081468557,1.5177919128971193,9.021197864941326,17.77494872227704,86.85023537370346,-1.4025504244798517,-0.807034981926314,-12.846019154153113,-1.6578839878958325,-1.6066998322463881,-1.1856560998943162,0.5096668918385269,-26.431134030496015,-9.297656545548811,78.09561997499586,4.156210236019027,1.2032113697747289
GUIDED_NOGPS,4.509634256362915,25.793641227476783,-15.66441766279353,-8.726725122054587,79.97679449318458,1.5589928210145247,9.085389876218604,17.920872511770575,87.13659262848458,-1.591819341970842,-0.5630211377423193,-12.779636545609758,-1.6787986509309858,-1.7324865277308497,-1.1857723790657257,0.51073969720295,-26.431134030496015,-9.297656545548811,78.09561997499586,4.156210236019027,1.432394487827058
GUIDED_NOGPS,4.5477495193481445,26.2416256866499,-17.43280111307212,-8.955950615478882,79.52600438859899,1.6173080049033883,9.147299794750525,18.061608558821483,87.42500813938626,-1.7018357602531762,-0.35400891812517243,-12.745593175239122,-1.7021062279809234,-1.8606070635475855,-1.4667364201406472,0.5118485056261809,-26.431134030496015,-9.297656545548811,78.09561997499586,4.156210236019027,1.2032113697747289
GUIDED_NOGPS,4.58848762512207,24.55365233986255,-19.046957542108473,-9.151024279645748,79.12823886359261,1.6559345165546502,9.206909739049335,18.197116214532848,87.71543409811504,-1.7188774023974753,-0.3794061227802186,-12.740166589943549,-1.7229328511332518,-1.9777707096810468,-1.2102591904319329,0.5128807928517837,-26.431134030496015,-9.297656545548811,78.09561997499586,4.156210236019027,0.2864788975654116
GUIDED_NOGPS,4.618561744689941,33.28891957745026,-20.579670910071798,-9.332073854477333,78.76216619991418,1.697478090249428,9.264205220336676,18.327362542447226,88.00782212244204,-1.624997412751002,-0.6199627173054232,-12.747556854625502,-1.7425444930062475,-2.0890713291285934,-1.4712874164615255,0.5138684838837918,-26.431134030496015,-9.297656545548811,78.09561997499586,4.156210236019027,0.8021409131831525
GUIDED_NOGPS,4.6544108390808105,27.895635055235207,-21.787769767442178,-9.443478166154895,78.50458043311174,1.744129296937969,9.31917523066589,18.452322518869984,88.30212327192731,-1.4667766142361855,-0.7373961874178623,-12.68069101019837,-1.757435443156568,-2.177486149867565,-1.4622258082085902,0.5146963142582234,-26.431134030496015,-9.297656545548811,78.09561997499586,4.156210236019027,1.6615776058793874
GUIDED_NOGPS,4.697282552719116,23.33189072521653,-22.97547360872703,-9.561716236003232,78.24828048221865,1.7944803405477527,9.371812331044323,18.571979233192174,88.59828806364402,-1.3278403212343712,-0.8651844377554522,-12.633747120032872,-1.772422814559311,-2.264310015783995,-1.4306581510220329,0.515525011372138,-26.431134030496015,-9.297656545548811,78.09561997499586,4.156210236019027,1.3178029288008934
GUIDED_NOGPS,4.735838413238525,25.939441915693646,-24.011917362158442,-9.68744414980633,77.9872648843459,1.8441416126917713,9.422112739555699,18.68632408821386,88.89626648790268,-1.2191552562316608,-0.9115161722165874,-12.567852870015173,-1.7875473989952724,-2.34038210711999,-1.535460044761583,0.5163635024053351,-26.431134030496015,-9.297656545548811,78.09561997499586,4.156210236019027,1.3750987083139758
GUIDED_NOGPS,4.749671220779419,72.35051404126129,-24.62299514602209,-9.70325760537412,77.89690838384603,1.877911106268741,9.470076419482352,18.795357000467057,89.19600802397548,-1.1987144210365166,-0.8341986442554546,-12.531949126869355,-1.7954127201679946,-2.3865150095853114,-2.1401858570552452,0.5169486494601941,-26.431134030496015,-9.297656545548811,78.09561997499586,4.156210236019027,1.5469860468532228
GUIDED_NOGPS,4.801099538803101,19.447605623353983,-17.711536167584025,-10.26344204171983,79.5736780097312,1.9257100219355525,9.515707167427655,18.899086600538944,89.4974616558205,-0.9084278594946839,-1.3420749690732068,-12.46325962193383,-1.8372393044623032,-1.9059070334508177,-1.428070741959975,0.514885675469134,37.84803134127487,-13.89251808837388,91.32499032137453,8.362747282030258,1.3750987083139758
GUIDED_NOGPS,4.845937490463257,22.30692400559494,-10.56194328869261,-10.949317055344913,80.96853757752551,2.034513850135224,9.559012701438254,18.997530433394907,89.80057588780599,-0.8984631471041642,-1.2863794721468071,-12.346494122977877,-1.8866513917906091,-1.4084669193091608,-2.26305060032305,0.5132480574654207,42.25241505272782,-13.619613308082084,90.27666158275011,8.78420926832608,2.119943841984046
GUIDED_NOGPS,4.880920171737671,28.594147964331487,-12.326788119557872,-12.142973408502204,82.16089881663423,2.1240109542980186,9.60000474912646,19.090715158701663,90.10529876043461,-0.9010179580188663,-1.3971385667796743,-12.237234148146122,-1.9677223797338441,-1.5348755008079034,-2.395092081728836,0.5119165999157006,-26.670626045160223,-17.828931774123415,88.8884855894958,0.8816468279827457,3.552338329811104
GUIDED_NOGPS,4.9262917041778564,22.045001340264164,-14.073567034760169,-13.164471305901891,83.24030417269675,2.2139323710364405,9.638699135792505,19.178676751150427,90.41157786606767,-1.0045998044945195,-1.4973846128977168,-12.09361661424191,-2.0376183275942963,-1.6598586319386874,-2.553413997650118,0.5107569105400563,-26.670626045160223,-17.828931774123415,88.8884855894958,0.8816468279827457,3.9534087864026803
GUIDED_NOGPS,4.94187331199646,64.19394533043558,-15.69534839147675,-14.074530507852277,84.20818847651638,2.2979326303088827,9.675115872546895,19.261460700779857,90.71936036464945,-0.9759535642286629,-1.7231741249939423,-12.051480323478454,-2.1001674461438253,-1.7759324984816554,-2.7484938817354365,0.5097667578321996,-26.670626045160223,-17.828931774123415,88.8884855894958,0.8816468279827457,3.4377467707849396
GUIDED_NOGPS,4.991903066635132,19.994108029002227,-17.162193632499953,-14.842878607986577,85.03917172665867,2.375647458022333,9.709279244432748,19.339122213299312,91.02859299943134,-1.0331100813072105,-1.648222617249984,-11.902820402419481,-2.1534660517410114,-1.8810031013852893,-2.206788526929067,0.508984131909159,-26.670626045160223,-17.828931774123415,88.8884855894958,0.8816468279827457,3.7815214478634336
GUIDED_NOGPS,5.013273477554321,46.87996959840839,-18.63676422534776,-15.701600353038152,85.91416429289501,2.5139693281996216,9.741217898548085,19.411726410411937,91.33922211269629,-1.115506708689894,-1.3997901742815202,-11.763096930115822,-2.212139586097356,-1.9864587486727094,-3.9278319450446535,0.5081375867297019,-26.670626045160223,-17.828931774123415,88.8884855894958,0.8816468279827457,4.5263665815335035
GUIDED_NOGPS,5.065670490264893,19.087923690246477,-19.872816408553494,-16.291979498436007,86.5641332342314,2.620159265453276,9.770964932168154,19.479348530137763,91.65119366148284,-1.0624154348279733,-1.394956428061561,-11.648149969026385,-2.253593665800148,-2.0750646938505155,-2.5258671444893865,0.5076305906408771,-26.670626045160223,-17.828931774123415,88.8884855894958,0.8816468279827457,5.443099053742821
GUIDED_NOGPS,5.084902286529541,52.10639170134791,-21.114702933420443,-16.94940583556634,87.38665880242074,2.7792574062990294,9.798557980867804,19.542074127136694,91.96445323330957,-0.9996053353856534,-1.5219817249245196,-11.533595743814224,-2.2989632376502915,-2.163928264000177,-5.77280686866378,0.5068666916463332,-26.670626045160223,-17.828931774123415,88.8884855894958,0.8816468279827457,5.729577951308232
GUIDED_NOGPS,5.124975919723511,24.96460924944944,-21.98238555999892,-17.273130673224575,87.77594064786938,2.854973534523042,9.82403930664371,19.599999273031862,92.2789460618992,-0.9871091841339978,-1.2965822806629252,-11.32716181388705,-2.323007186614156,-2.226449740664984,-2.6379304801027046,0.5067545081210447,-26.670626045160223,-17.828931774123415,88.8884855894958,0.8816468279827457,6.245239966925974
GUIDED_NOGPS,5.142157316207886,58.17100536732175,-23.021611927032566,-17.800326147639364,88.32827877167396,2.9833293414771007,9.847455886036782,19.653230756732448,92.59461704290297,-0.9252267097583302,-1.516775519951383,-11.244145987167423,-2.3595740849754243,-2.300834746914855,-5.469624035627199,0.5063995074068435,-26.670626045160223,-17.828931774123415,88.8884855894958,0.8816468279827457,6.016056848873644
GUIDED_NOGPS,5.176901578903198,28.787854245454607,-23.660536565990633,-18.00099424148353,88.57552261860059,3.0504129346754687,9.86885949825445,19.70188628475693,92.91141074962485,-0.9043805455246282,-1.407987148337476,-10.928940440934152,-2.3752814731531497,-2.347057724497156,-2.810615199733912,0.5065038321965364,-26.670626045160223,-17.828931774123415,88.8884855894958,0.8816468279827457,6.0733526283867265
GUIDED_NOGPS,5.2120606899261475,28.44811004022057,-24.48678380427053,-18.389637199499525,88.97238403900576,3.218059687957402,9.888306813292969,19.746094681556308,93.22927144874575,-0.8579412889449182,-1.5129566971534054,-10.69671827802195,-2.402551108506518,-2.4062563432294453,-4.359565586973666,0.50638533111461,-26.670626045160223,-17.828931774123415,88.8884855894958,0.8816468279827457,6.703606203030632
GUIDED_NOGPS,5.246324777603149,29.192998085957893,-25.239967088529806,-18.722995216930066,89.31673305044298,3.3804653139236627,9.905859480059801,19.78599608983702,93.5481431160479,-0.7223425572088599,-1.8174740645526655,-10.43637024988128,-2.426066452326327,-2.4602078598012724,-4.468169248353668,0.5063471150984074,-26.670626045160223,-17.828931774123415,88.8884855894958,0.8816468279827457,5.901465289847479
GUIDED_NOGPS,5.277924299240112,31.6522579087177,-25.897728263519163,-18.993417701106388,89.59917264782408,3.5121198345748876,9.921584214495857,19.821742170883986,93.86796945213895,-0.720443978063008,-1.8693023937483684,-10.319564623563954,-2.4453550719353943,-2.507351873461052,-4.291048064701908,0.5064031952064723,-26.670626045160223,-17.828931774123415,88.8884855894958,0.8816468279827457,4.354479242994256
GUIDED_NOGPS,5.317698240280151,25.14887365915373,-26.444791050983266,-19.193290779910395,89.81212005867076,3.5769472965683775,9.93555288769785,19.853496304884082,94.18869389817637,-0.6637235792351361,-1.9331480139018857,-10.181437707978786,-2.4599475863420524,-2.5466240757076783,-3.07799514392894,0.5065648607592584,-26.670626045160223,-17.828931774123415,88.8884855894958,0.8816468279827457,1.432394487827058
GUIDED_NOGPS,5.359416723251343,23.97800174934114,-27.045959958055818,-19.435110462574883,90.05926050114523,3.624711609199685,9.947842614040686,19.881433791248803,94.5102596515916,-0.6339253848770746,-1.9511152534004275,-10.150503781227798,-2.4769422879908927,-2.5895661800467558,-3.0454080082749933,0.5066764987256696,-26.670626045160223,-17.828931774123415,88.8884855894958,0.8816468279827457,-0.2864788975654116
GUIDED_NOGPS,5.390738487243652,31.935919594928997,-27.452754429569097,-19.549330067635804,90.19022149107826,3.6220788157254584,9.958535839299655,19.905742048937718,94.83260968181438,-0.6128974202175739,-1.9688918879324435,-10.153445885212781,-2.485669543344132,-2.618790318820813,-2.2865413503924885,0.5069635822861042,-26.670626045160223,-17.828931774123415,88.8884855894958,0.8816468279827457,-0.5156620156177409
GUIDED_NOGPS,5.410789966583252,49.89120841213765,-27.764919021916963,-19.612516284482364,90.34925734148072,3.586596984306299,9.967720428772877,19.92662081678133,95.15568674599695,-0.5938023990931868,-2.131269817052565,-10.221705088230596,-2.490965637379613,-2.641284761548289,-1.4267857147101344,0.5072096441067744,-26.670626045160223,-17.828931774123415,88.8884855894958,0.8816468279827457,-1.8334649444186344
GUIDED_NOGPS,5.4394800662994385,34.86681906978677,-27.882272676256804,-19.561182658051305,90.3057269147671,3.5162224488756593,9.975489755403478,19.944282353804304,95.47943340473839,-0.6567094552052091,-2.042535841337167,-10.309450820950458,-2.4888442957469037,-2.65004337021622,-1.035235292817746,0.5077605597349569,-26.670626045160223,-17.828931774123415,88.8884855894958,0.8816468279827457,-4.010704565915763
GUIDED_NOGPS,5.468501567840576,34.46598846286588,-28.130531360601708,-19.603646287621242,90.34694882862578,3.405630698567862,9.981942787902119,19.95895163954858,95.80379203780873,-0.6735322644918034,-2.0492285729501334,-10.435557457370049,-2.492443669411699,-2.667873190395268,-0.29212505669550226,0.5081852648137745,-26.670626045160223,-17.828931774123415,88.8884855894958,0.8816468279827457,-6.0733526283867265
GUIDED_NOGPS,5.520489692687988,19.237985157461175,-28.330571870882814,-19.622054239198558,90.37429444883153,3.218261617937762,9.987184178869134,19.97086657439649,96.12870485987342,-1.009768443427221,-2.1132564737771253,-11.08788748065681,-2.494354011256488,-2.6822429234826366,-0.2782878305024288,0.5086316156165628,-26.670626045160223,-17.828931774123415,88.8884855894958,0.8816468279827457,-10.657014989433312
GUIDED_NOGPS,5.557363033294678,27.12530153207396,-28.616478597138812,-19.768568357696875,90.53584503272278,2.9499093654333293,9.991324352916925,19.980278179893695,96.45411393621737,-1.1807216750502931,-1.8952827258038045,-11.29183009908422,-2.504177331868206,-2.702546206503902,1.7414269691381916,0.5088774033552419,-26.670626045160223,-17.828931774123415,88.8884855894958,0.8816468279827457,-11.802930579694959
GUIDED_NOGPS,5.568063735961914,93.53725385250105,-28.559571392345305,-19.70257178062464,90.54003368086681,2.8092524234644918,9.994479594792258,19.987450799072597,96.77996119846934,-1.2485387300410555,-1.9178161602059112,-11.460526380073428,-2.500471422520927,-2.69878356909963,4.7522374395210685,0.5093598912764038,-26.670626045160223,-17.828931774123415,88.8884855894958,0.8816468279827457,-13.006141949469688
GUIDED_NOGPS,5.604224920272827,27.660344509219446,-28.461880892259007,-19.554170712980024,90.3889701533947,2.692028900567382,9.99677213749863,19.992662296775073,97.10618846032615,-1.5125377077365074,-1.6019818096821747,-12.107541662412274,-2.4914504796145716,-2.6921057120830345,-0.11530475316201749,0.5100758274603971,-26.670626045160223,-17.828931774123415,88.8884855894958,0.8816468279827457,-15.126085791453734
GUIDED_NOGPS,5.642030477523804,26.458312568995428,-28.70239868606254,-19.591150088333777,90.39761004225647,2.285430813452231,9.998330250418567,19.996204259975904,97.432737433277,-1.9507159007773933,-1.614628545260688,-13.126292551650002,-2.4940033239435104,-2.7090510255536775,3.92335178508876,0.5105526910865308,-26.670626045160223,-17.828931774123415,88.8884855894958,0.8816468279827457,-17.360621192463945
