Mode,Time,Freq,North-Vision,East-Vision,Down-Vision,Yaw-Vision,North-Desired,East-Desired,Down-Desired,Roll-UAV,Pitch-UAV,Yaw-UAV,Roll-Control,Pitch-Control,Yaw-Control,Thrust-Control,xGyro,yGyro,zGyro
STABILIZE,0.496967077255249,2.0125069633739723,0.0,0.0,0.0,0.0,300,0,50,1.6252954864752496,-1.3856255358816774,84.50268376985838,-0.0,6.654747756525622,0.0,0.5058436805145686,10,-1,0
STABILIZE,0.5296614170074463,30.562041402225315,0.0,0.0,0.0,0.0,300,0,50,1.624924628547659,-1.3863413183623536,84.50186414715799,-0.0,6.040442848205567,0.0,0.505050553560257,9,-2,0
STABILIZE,0.5615448951721191,31.37124436233629,0.0,0.0,0.0,0.0,300,0,50,1.6264088073099618,-1.38808344348753,84.50187780753632,-0.0,6.038222980499268,0.0,0.5050477787256241,9,-2,0
STABILIZE,0.5937795639038086,31.02800751601592,0.0,0.0,0.0,0.0,300,0,50,1.626164521325428,-1.3877837689376957,84.50225346794068,-0.0,6.038641834259034,0.0,0.5050483022928238,9,-1,0
STABILIZE,0.6296017169952393,27.927954562100904,0.0,0.0,0.0,0.0,300,0,50,1.6256335808391653,-1.3873107783376724,84.50240373210241,-0.0,6.043016338348389,0.0,0.5050537704229355,9,-1,0
STABILIZE,0.6657533645629883,27.66910309523181,0.0,0.0,0.0,0.0,300,0,50,1.624870413921122,-1.3870600890507916,84.50301161893854,-0.0,6.043390274047852,0.0,0.5050542378425598,9,-1,0
STABILIZE,0.7021899223327637,27.451609736303006,0.0,0.0,0.0,0.0,300,0,50,1.6251628313949633,-1.3865709834731952,84.50258131702084,-0.0,6.043718147277832,0.0,0.5050546476840972,9,-1,0
STABILIZE,0.7355630397796631,29.97344462389412,0.0,0.0,0.0,0.0,300,0,50,1.6257125549014435,-1.3879008426489379,84.50237641134574,-0.0,6.03997163772583,0.0,0.5050499645471573,10,-2,0
STABILIZE,0.7675168514251709,31.305915896639746,0.0,0.0,0.0,0.0,300,0,50,1.6258923809756853,-1.387723577895635,84.50161143015869,-0.0,6.038354015350341,0.0,0.5050479425191879,9,-1,0
STABILIZE,0.8035798072814941,27.734052753036703,0.0,0.0,0.0,0.0,300,0,50,1.6263165997561666,-1.3887979453077368,84.50268376985838,-0.0,6.043282699584961,0.0,0.5050541033744812,9,-2,0
STABILIZE,0.8421108722686768,25.963366698236428,0.0,0.0,0.0,0.0,300,0,50,1.6265926888090232,-1.3883797029427793,84.50258131702084,-0.0,6.0462902069091795,0.0,0.5050578627586365,9,-1,0
STABILIZE,0.8783373832702637,27.613543744609693,0.0,0.0,0.0,0.0,300,0,50,1.6273825361535117,-1.3891081853064433,84.50284769439847,-0.0,6.043334197998047,0.0,0.5050541677474976,9,-1,0
STABILIZE,0.9102151393890381,31.379458941824275,0.0,0.0,0.0,0.0,300,0,50,1.6265374069654284,-1.388291017205275,84.50259497739917,-0.0,6.038331127166748,0.0,0.5050479139089584,9,0,0
STABILIZE,0.9479944705963135,26.478188957488985,0.0,0.0,0.0,0.0,300,0,50,1.6287711989891398,-1.387801698184267,84.50161143015869,-0.0,6.0452934265136715,0.0,0.5050566167831421,10,-1,0
STABILIZE,0.9868113994598389,25.77066142361218,0.0,0.0,0.0,0.0,300,0,50,1.6296772662712244,-1.3878492960650455,84.50201441131972,-0.0,6.0465165138244625,0.0,0.5050581456422806,10,-1,0
STABILIZE,1.0193185806274414,30.763110413518945,0.0,0.0,0.0,0.0,300,0,50,1.6300535670058098,-1.3890745679691223,84.50193927923885,-0.0,6.039100170135498,0.0,0.5050488752126694,9,-2,0
STABILIZE,1.0508019924163818,31.788757266395336,0.0,0.0,0.0,0.0,300,0,50,1.6306166307255128,-1.3889368969686642,84.50187097734715,-0.0,6.037657642364502,0.0,0.5050470720529556,10,-1,0
STABILIZE,1.0844230651855469,29.747469804322076,0.0,0.0,0.0,0.0,300,0,50,1.631086312952657,-1.3887205720710452,84.5026564491017,-0.0,6.0403876304626465,0.0,0.5050504845380783,9,-1,0
STABILIZE,1.1182878017425537,29.531528994282816,0.0,0.0,0.0,0.0,300,0,50,1.6311563223916494,-1.3877571952329562,84.50277939250677,-0.0,6.0407146453857425,0.0,0.5050508933067321,9,-1,0
STABILIZE,1.1491971015930176,32.36720299417371,0.0,0.0,0.0,0.0,300,0,50,1.6311101118930462,-1.388207880996471,84.5023149396432,-0.0,6.037075710296631,0.0,0.5050463446378708,9,-1,0
STABILIZE,1.1841764450073242,28.592003817444358,0.0,0.0,0.0,0.0,300,0,50,1.6321986732920168,-1.3882029717980051,84.50206222264391,-0.0,6.041948032379151,0.0,0.5050524350404739,10,-1,0
STABILIZE,1.22062349319458,27.446939109380622,0.0,0.0,0.0,0.0,300,0,50,1.6316299533219076,-1.387309497677203,84.50200075094138,-0.0,6.04324779510498,0.0,0.5050540597438812,9,-1,0
STABILIZE,1.2580091953277588,26.756042638156174,0.0,0.0,0.0,0.0,300,0,50,1.6317168247904137,-1.387373423978966,84.50247886418329,-0.0,6.045342063903808,0.0,0.5050566775798797,9,-1,0
STABILIZE,1.2917499542236328,29.642562333917567,0.0,0.0,0.0,0.0,300,0,50,1.6311284680264406,-1.3882209010445765,84.5029979585602,-0.0,6.040562438964844,0.0,0.505050703048706,9,-2,0
STABILIZE,1.3269693851470947,28.40130010834236,0.0,0.0,0.0,0.0,300,0,50,1.630755689108146,-1.3871464269107687,84.50327799631617,-0.0,6.041897106170654,0.0,0.5050523713827133,9,0,0
STABILIZE,1.3580846786499023,32.15381195139714,0.0,0.0,0.0,0.0,300,0,50,1.631608822424163,-1.3863198672994914,84.50314139253277,-0.0,6.037652206420899,0.0,0.5050470652580261,9,-1,0
STABILIZE,1.3912603855133057,30.150771685919878,0.0,0.0,0.0,0.0,300,0,50,1.6316074350419878,-1.3867301055365153,84.50268376985838,-0.0,6.039657211303711,0.0,0.5050495715141297,9,-1,0
STABILIZE,1.426769733428955,28.165758990027868,0.0,0.0,0.0,0.0,300,0,50,1.6319254657252165,-1.3868575312532185,84.50146799618612,-0.0,6.042689037322998,0.0,0.5050533612966538,10,-1,0
STABILIZE,1.4576115608215332,32.43804426845679,0.0,0.0,0.0,0.0,300,0,50,1.6326013342879304,-1.3869347977682043,84.50145433580778,-0.0,6.037090015411377,0.0,0.5050463625192643,9,-1,0
STABILIZE,1.490959882736206,29.99659576902722,0.0,0.0,0.0,0.0,300,0,50,1.633101005314399,-1.3882527041128994,84.50222614718399,-0.0,6.040020561218261,0.0,0.5050500257015228,10,-2,0
STABILIZE,1.5254902839660645,28.965787765362357,0.0,0.0,0.0,0.0,300,0,50,1.6328091214490867,-1.3879353137599053,84.50213735472478,-0.0,6.0413166046142575,0.0,0.5050516457557678,10,-1,0
STABILIZE,1.55726957321167,31.47718932224632,0.0,0.0,0.0,0.0,300,0,50,1.631786940951112,-1.387687826124198,84.50213052453562,-0.0,6.0382006645202635,0.0,0.5050477508306503,8,-1,0
STABILIZE,1.5882928371429443,32.24428232074355,0.0,0.0,0.0,0.0,300,0,50,1.632919364971159,-1.3881812005700258,84.5017685245096,-0.0,6.037091159820557,0.0,0.5050463639497756,10,-1,0
STABILIZE,1.6229515075683594,28.861942018813263,0.0,0.0,0.0,0.0,300,0,50,1.6320817063024804,-1.3891520479275197,84.50045029799979,-0.0,6.04174690246582,0.0,0.5050521836280822,9,-1,0
STABILIZE,1.6552517414093018,30.9679858239811,0.0,0.0,0.0,0.0,300,0,50,1.6315924940031783,-1.3891673091314463,84.50002682627125,-0.0,6.03872537612915,0.0,0.5050484067201615,9,-1,0
STABILIZE,1.6911375522613525,27.872092714175594,0.0,0.0,0.0,0.0,300,0,50,1.6305625228206815,-1.3891784081888476,84.50111965653845,-0.0,6.043214893341064,0.0,0.5050540186166763,9,-1,0
STABILIZE,1.7221558094024658,32.25172050534798,0.0,0.0,0.0,0.0,300,0,50,1.6299571973054892,-1.3886766027282633,84.50101037351173,-0.0,6.037106609344482,0.0,0.5050463832616806,9,-1,0
STABILIZE,1.7545337677001953,30.89567388790265,0.0,0.0,0.0,0.0,300,0,50,1.6301783246798682,-1.3885602760689615,84.50066886405322,-0.0,6.038848400115967,0.0,0.5050485605001449,10,-1,0
STABILIZE,1.7896101474761963,28.515221972941735,0.0,0.0,0.0,0.0,300,0,50,1.6306529161054784,-1.3896864035083674,84.50034101497307,-0.0,6.042107963562012,0.0,0.5050526349544525,9,-2,0
STABILIZE,1.8254609107971191,27.907142619514953,0.0,0.0,0.0,0.0,300,0,50,1.631693239293436,-1.389592808572397,84.50023856213552,-0.0,6.0429079055786135,0.0,0.5050536348819733,10,-1,0
STABILIZE,1.8621447086334229,27.264066562662506,0.0,0.0,0.0,0.0,300,0,50,1.6309633695475967,-1.3911185020782486,84.5000609772171,-0.0,6.044068336486816,0.0,0.5050550854206085,9,-2,0
STABILIZE,1.8972487449645996,28.493913043478262,0.0,0.0,0.0,0.0,300,0,50,1.6302202663102403,-1.3914607585886898,84.49955554321852,-0.0,6.042134571075439,0.0,0.5050526682138443,9,-1,0
STABILIZE,1.9304945468902588,30.090422555420044,0.0,0.0,0.0,0.0,300,0,50,1.6312514114315009,-1.3918402609744485,84.49948724132682,-0.0,6.039886951446533,0.0,0.5050498586893082,10,-1,0
STABILIZE,1.9646804332733154,29.25734694019908,0.0,0.0,0.0,0.0,300,0,50,1.630318557001265,-1.3911507320333947,84.49892033562571,-0.0,6.041079711914063,0.0,0.5050513496398926,8,-1,0
STABILIZE,1.999147653579712,29.025320923151448,0.0,0.0,0.0,0.0,300,0,50,1.6294951990411612,-1.391033765043858,84.49902961865243,-0.0,6.041120910644532,0.0,0.5050514011383057,9,-1,0
STABILIZE,2.0339062213897705,28.77699105329601,0.0,0.0,0.0,0.0,300,0,50,1.6308229237827883,-1.3905047455482995,84.49982875078531,-0.0,6.041766929626465,0.0,0.505052208662033,10,-1,0
STABILIZE,2.066025733947754,31.14990828004664,0.0,0.0,0.0,0.0,300,0,50,1.6317017770298985,-1.3894340066741941,84.49930282621922,-0.0,6.038588333129883,0.0,0.5050482354164123,10,0,0
STABILIZE,2.100595474243164,28.931821317219878,0.0,0.0,0.0,0.0,300,0,50,1.6316594085127032,-1.3894269630416125,84.49863346768056,-0.0,6.041314601898193,0.0,0.5050516432523727,9,-1,0
STABILIZE,2.135984420776367,28.265027764299962,0.0,0.0,0.0,0.0,300,0,50,1.6314715783105278,-1.3898922696788196,84.49873592051811,-0.0,6.042684173583984,0.0,0.50505335521698,9,-1,0
STABILIZE,2.172494411468506,27.39638268548698,0.0,0.0,0.0,0.0,300,0,50,1.6317139433043575,-1.389656307987337,84.49867444881559,-0.0,6.043638038635254,0.0,0.505054547548294,9,-1,0
STABILIZE,2.2107553482055664,26.145441398311952,0.0,0.0,0.0,0.0,300,0,50,1.6316671991972254,-1.3895093521984758,84.49952822246183,-0.0,6.045934009552002,0.0,0.50505741751194,9,-1,0
STABILIZE,2.241804361343384,32.20961610824841,0.0,0.0,0.0,0.0,300,0,50,1.6301708541604636,-1.3903308958895815,84.49913890167915,-0.0,6.037282562255859,0.0,0.5050466032028198,8,-1,0
STABILIZE,2.274235963821411,30.851132376630158,0.0,0.0,0.0,0.0,300,0,50,1.631260589498198,-1.3906307838828273,84.49930282621922,-0.0,6.038908195495606,0.0,0.5050486352443695,10,-1,0
STABILIZE,2.3116579055786133,26.726036562442253,0.0,0.0,0.0,0.0,300,0,50,1.6316758436553935,-1.3908346223408699,84.49922086394919,-0.0,6.044760704040527,0.0,0.5050559508800506,10,-1,0
STABILIZE,2.348111629486084,27.44173143859098,0.0,0.0,0.0,0.0,300,0,50,1.6320519309465675,-1.3908230963966455,84.49926867527338,-0.0,6.043852043151856,0.0,0.5050548150539398,9,-1,0
STABILIZE,2.3847672939300537,27.28552748846922,0.0,0.0,0.0,0.0,300,0,50,1.633181153315441,-1.3917326854950207,84.4985583355997,-0.0,6.044077777862549,0.0,0.5050550972223282,10,-2,0
STABILIZE,2.4212656021118164,27.405691136593813,0.0,0.0,0.0,0.0,300,0,50,1.6329093331308155,-1.3908960940434,84.4925887502651,-0.0,6.043159675598145,0.0,0.5050539495944977,9,-1,-2
STABILIZE,2.4536290168762207,30.90796813629765,0.0,0.0,0.0,0.0,300,0,50,1.6321222605506773,-1.3858936208066004,84.48141456078297,-0.0,6.039583396911621,0.0,0.5050494792461395,8,2,-7
STABILIZE,2.4863038063049316,30.607314866166554,0.0,0.0,0.0,0.0,300,0,50,1.6292933882955285,-1.3646000791822626,84.4534381059426,-0.0,6.0394103050231935,0.0,0.5050492628812789,10,9,-9
STABILIZE,2.520009756088257,29.683049899860585,0.0,0.0,0.0,0.0,300,0,50,1.627528851612138,-1.3332458823539075,84.47560206979928,-0.0,6.0400440216064455,0.0,0.5050500550270081,10,22,16
STABILIZE,2.555476665496826,28.201362227436846,0.0,0.0,0.0,0.0,300,0,50,1.6242173838034455,-1.3377196562602658,84.4326401799199,-0.0,6.0425951957702635,0.0,0.5050532439947129,6,-17,-36
STABILIZE,2.5909764766693115,28.178058448102117,0.0,0.0,0.0,0.0,300,0,50,1.6266382589773918,-1.3651836334694756,84.40936972541768,-0.0,6.042691326141357,0.0,0.5050533641576767,12,-28,-21
STABILIZE,2.6279587745666504,27.045020182350438,0.0,0.0,0.0,0.0,300,0,50,1.6328619486934486,-1.3888884453142394,84.50400882655737,-0.0,6.0444437026977536,0.0,0.5050555546283721,13,1,30
STABILIZE,2.661930561065674,29.444456924632146,0.0,0.0,0.0,0.0,300,0,50,1.634122545482139,-1.3926700222368993,84.47713886236254,-0.0,6.0407054901123045,0.0,0.5050508818626404,10,-4,-20
STABILIZE,2.699542760848999,26.594029775038678,0.0,0.0,0.0,0.0,300,0,50,1.6350300001463989,-1.4207495702450563,84.46577342758364,-0.0,6.045048522949219,0.0,0.5050563106536865,11,-7,14
STABILIZE,2.7341296672821045,28.92144748455428,0.0,0.0,0.0,0.0,300,0,50,1.635489437089788,-1.4165530593303182,84.50111282634929,-0.0,6.041549491882324,0.0,0.505051936864853,10,1,26
STABILIZE,2.770299196243286,27.646852547623755,0.0,0.0,0.0,0.0,300,0,50,1.6312133117825367,-1.3915927733387414,84.4895151651386,-0.0,6.043654346466065,0.0,0.5050545679330826,7,9,-12
STABILIZE,2.805800676345825,28.178247754435702,0.0,0.0,0.0,0.0,300,0,50,1.6291781288532845,-1.3760473695094981,84.48648256114711,-0.0,6.04218635559082,0.0,0.5050527329444885,8,8,-1
STABILIZE,2.839486598968506,29.69860297814188,0.0,0.0,0.0,0.0,300,0,50,1.6253155501559367,-1.3581420286003096,84.47611433398704,-0.0,6.0405449867248535,0.0,0.505050681233406,8,8,2
STABILIZE,2.8741419315338135,28.862537847508946,0.0,0.0,0.0,0.0,300,0,50,1.625685020701352,-1.3662465816590588,84.45963308751979,-0.0,6.0416004180908205,0.0,0.5050520005226136,10,-7,-11
STABILIZE,2.9103922843933105,27.67878047975715,0.0,0.0,0.0,0.0,300,0,50,1.6277825291067805,-1.3788963054453338,84.48773248576522,-0.0,6.0430303573608395,0.0,0.5050537879467011,12,-11,21
STABILIZE,2.9500088691711426,25.19933912103097,0.0,0.0,0.0,0.0,300,0,50,1.6307833300299432,-1.3982125073049532,84.55985928340056,-0.0,6.046873569488525,0.0,0.5050585919618606,11,-4,18
STABILIZE,2.986679792404175,27.280380883003357,0.0,0.0,0.0,0.0,300,0,50,1.6298955121595475,-1.3936124816206552,84.54488750873989,-0.0,6.045175838470459,0.0,0.505056469798088,9,-3,-4
STABILIZE,3.019606113433838,30.38183885898894,0.0,0.0,0.0,0.0,300,0,50,1.628453808636146,-1.3799912701466515,84.52102965796904,-0.0,6.039179706573487,0.0,0.5050489746332169,8,8,-18
STABILIZE,3.0530776977539062,29.883538171066224,0.0,0.0,0.0,0.0,300,0,50,1.6269979111258754,-1.3688010724086435,84.50105818483593,-0.0,6.040474319458008,0.0,0.5050505928993225,8,5,-13
STABILIZE,3.0942251682281494,24.309168888373712,0.0,0.0,0.0,0.0,300,0,50,1.6273591640999456,-1.3742717337687063,84.56664849143556,-0.0,6.0493474960327145,0.0,0.5050616843700408,11,-5,35
STABILIZE,3.127410411834717,30.139072324219452,0.0,0.0,0.0,0.0,300,0,50,1.6290959531398328,-1.3936865464844677,84.58855973829296,-0.0,6.039677524566651,0.0,0.5050495969057083,11,-7,28
STABILIZE,3.159238338470459,31.434489994753804,0.0,0.0,0.0,0.0,300,0,50,1.6301196277416885,-1.400843517517583,84.54312531993403,-0.0,6.038271045684814,0.0,0.505047838807106,9,-7,-33
STABILIZE,3.19368839263916,29.034764429799665,0.0,0.0,0.0,0.0,300,0,50,1.6308242044432577,-1.4024699563136924,84.54372637658099,-0.0,6.0413812637329105,0.0,0.5050517265796661,10,-3,0
STABILIZE,3.2288951873779297,28.40437750568859,0.0,0.0,0.0,0.0,300,0,50,1.6297881501235314,-1.4068486411801995,84.56643675557129,-0.0,6.042434406280518,0.0,0.5050530430078507,8,-3,-5
STABILIZE,3.2598679065704346,32.29965500246427,0.0,0.0,0.0,0.0,300,0,50,1.6294115292238287,-1.4117870813935303,84.53490177217333,-0.0,6.036972713470459,0.0,0.5050462158918381,9,-6,-25
STABILIZE,3.2922792434692383,30.863845412334342,0.0,0.0,0.0,0.0,300,0,50,1.627409216579957,-1.4161911660260134,84.55138301864058,-0.0,6.038895606994629,0.0,0.5050486195087432,8,-3,12
STABILIZE,3.3242580890655518,31.280000596618663,0.0,0.0,0.0,0.0,300,0,50,1.6309111826334695,-1.4103538088848855,84.61540921192028,-0.0,6.038329124450684,0.0,0.5050479114055634,12,4,0
STABILIZE,3.3585660457611084,29.156267378489602,0.0,0.0,0.0,0.0,300,0,50,1.629909919589828,-1.410317310061508,84.51808584643676,-0.0,6.041189575195313,0.0,0.5050514869689942,7,-3,-72
STABILIZE,3.390258312225342,31.562699416049604,0.0,0.0,0.0,0.0,300,0,50,1.6316851284437965,-1.4316273935502422,84.4973289015491,-0.0,6.038031005859375,0.0,0.5050475387573242,9,-18,-17
STABILIZE,3.423257350921631,30.310920968954154,0.0,0.0,0.0,0.0,300,0,50,1.6334553213775935,-1.4474102531748492,84.5947683802485,-0.0,6.039568519592285,0.0,0.5050494606494904,11,-1,26
STABILIZE,3.4560351371765137,30.520232559831765,0.0,0.0,0.0,0.0,300,0,50,1.6306561177566519,-1.447843009691793,84.53177354553347,-0.0,6.039401721954346,0.0,0.5050492521524429,7,-2,-48
STABILIZE,3.492436647415161,27.476966616005452,0.0,0.0,0.0,0.0,300,0,50,1.63174297160833,-1.4508571508281785,84.5018163358338,-0.0,6.04365348815918,0.0,0.505054566860199,11,-1,13
STABILIZE,3.525052547454834,30.676262360306595,0.0,0.0,0.0,0.0,300,0,50,1.6324493625788976,-1.4578701542801948,84.53353573433934,-0.0,6.038755416870117,0.0,0.5050484442710876,11,-6,23
STABILIZE,3.5577120780944824,30.62742978984417,0.0,0.0,0.0,0.0,300,0,50,1.6333378207795282,-1.4694057034581116,84.53016845107851,-0.0,6.039549064636231,0.0,0.5050494363307952,9,-11,-1
STABILIZE,3.591188907623291,29.879280498664293,0.0,0.0,0.0,0.0,300,0,50,1.6387530935742904,-1.4760056939087538,84.5472780749494,-0.0,6.040167331695557,0.0,0.5050502091646194,12,1,3
STABILIZE,3.6264753341674805,28.351002419867246,0.0,0.0,0.0,0.0,300,0,50,1.636901685422394,-1.4755107186373395,84.52105697872572,-0.0,6.042213249206543,0.0,0.5050527665615082,6,0,-19
STABILIZE,3.659806728363037,30.006467305766204,0.0,0.0,0.0,0.0,300,0,50,1.640031726331258,-1.4672053153283098,84.54309116898818,-0.0,6.040087795257568,0.0,0.5050501097440719,12,4,17
STABILIZE,3.691659450531006,31.403188008655093,0.0,0.0,0.0,0.0,300,0,50,1.6428364794809003,-1.4537089682500703,84.53250437577466,-0.0,6.0382006645202635,0.0,0.5050477508306503,11,8,-7
STABILIZE,3.725001096725464,30.00217453505007,0.0,0.0,0.0,0.0,300,0,50,1.631792917366636,-1.4614158762330776,84.4299081042519,-0.0,6.040047740936279,0.0,0.5050500596761703,0,-10,-76
STABILIZE,3.757962942123413,30.348424441952172,0.0,0.0,0.0,0.0,300,0,50,1.6282426063804043,-1.4751943955014033,84.50252667550747,-0.0,6.039448642730713,0.0,0.5050493108034134,10,4,64
STABILIZE,3.7950944900512695,26.93681161654111,0.0,0.0,0.0,0.0,300,0,50,1.6339236162225625,-1.43721961093319,84.54231935761197,-0.0,6.044626235961914,0.0,0.5050557827949524,14,27,35
STABILIZE,3.828518867492676,29.932161539175176,0.0,0.0,0.0,0.0,300,0,50,1.6263892772378037,-1.4439972930239584,84.41969014125355,-0.0,6.040052032470703,0.0,0.5050500650405884,3,-20,-50
STABILIZE,3.8599789142608643,31.79598674884204,0.0,0.0,0.0,0.0,300,0,50,1.6365015857474192,-1.4705857253589372,84.44041293519538,-0.0,6.037691116333008,0.0,0.5050471138954162,16,-22,16
STABILIZE,3.8929190635681152,30.366001809954753,0.0,0.0,0.0,0.0,300,0,50,1.6431658226649417,-1.4748055016055357,84.46791127679386,-0.0,6.039663505554199,0.0,0.5050495793819427,17,-3,21
STABILIZE,3.924889087677002,31.293303091798972,0.0,0.0,0.0,0.0,300,0,50,1.6485341379091603,-1.4755465771304819,84.46824595606319,-0.0,6.03832368850708,0.0,0.5050479046106339,10,0,8
STABILIZE,3.9590675830841064,29.265512597771405,0.0,0.0,0.0,0.0,300,0,50,1.6513160526137654,-1.4842378861276173,84.46196218202677,-0.0,6.0410130500793455,0.0,0.5050512663125992,11,-7,-3
STABILIZE,3.996386766433716,26.801692077651538,0.0,0.0,0.0,0.0,300,0,50,1.644488531486397,-1.5216414961264881,84.36517157129852,-0.0,6.044696617126465,0.0,0.5050558707714081,7,-16,-11
STABILIZE,4.030074834823608,29.692295712131617,0.0,0.0,0.0,0.0,300,0,50,1.6422324346261772,-1.5092889922908144,84.43290655729753,-0.0,6.040524673461914,0.0,0.5050506558418274,6,15,55
STABILIZE,4.06618857383728,27.702912095533115,0.0,0.0,0.0,0.0,300,0,50,1.6495913231266313,-1.4540388450426407,84.44135550130083,-0.0,6.043258380889893,0.0,0.5050540729761124,13,23,32
STABILIZE,4.0998241901397705,29.72659749390486,0.0,0.0,0.0,0.0,300,0,50,1.6388808394561107,-1.4842386331795578,84.36752798656217,-0.0,6.040707778930664,0.0,0.5050508847236633,0,-26,-59
STABILIZE,4.133005857467651,30.156191133543274,0.0,0.0,0.0,0.0,300,0,50,1.6312225965709397,-1.5059405987719214,84.40831104609632,-0.0,6.039593124389649,0.0,0.505049491405487,6,-16,32
STABILIZE,4.167768478393555,28.778373186044117,0.0,0.0,0.0,0.0,300,0,50,1.6403886037153912,-1.4023455188047513,84.5772284544599,-0.0,6.041440200805664,0.0,0.505051800251007,19,50,36
STABILIZE,4.201657056808472,29.5138657265697,0.0,0.0,0.0,0.0,300,0,50,1.637513414239933,-1.4038949045292863,84.54533830122512,-0.0,6.0408988952636715,0.0,0.5050511236190796,12,-5,-24
STABILIZE,4.2359559535980225,29.1635655680712,0.0,0.0,0.0,0.0,300,0,50,1.6356585909934516,-1.4771680000064196,84.41463580126775,-0.0,6.041150093078613,0.0,0.5050514376163483,15,-7,-38
STABILIZE,4.273801803588867,26.43430033591943,0.0,0.0,0.0,0.0,300,0,50,1.6461334331376065,-1.43884476906883,84.37394836438199,-0.0,6.045255947113037,0.0,0.5050565699338913,13,27,-31
STABILIZE,4.310378074645996,27.345299022707863,0.0,0.0,0.0,0.0,300,0,50,1.6441285591727963,-1.4755722970615752,84.4082222536371,-0.0,6.0438860893249515,0.0,0.5050548576116561,9,-32,26
STABILIZE,4.346515655517578,27.680059130985693,0.0,0.0,0.0,0.0,300,0,50,1.6370011500521822,-1.4825984272834027,84.48030807013743,-0.0,6.0433573722839355,0.0,0.5050541967153549,1,-8,54
STABILIZE,4.379114389419556,30.68725993020142,0.0,0.0,0.0,0.0,300,0,50,1.64256807439086,-1.3617419651797296,84.49631120336277,-0.0,6.039099311828613,0.0,0.5050488741397857,9,41,-27
STABILIZE,4.413959980010986,28.745435605022205,0.0,0.0,0.0,0.0,300,0,50,1.6408939309922663,-1.3957921657395356,84.44798761498492,-0.0,6.041378116607666,0.0,0.5050517226457596,9,-40,-34
STABILIZE,4.451594352722168,26.5581622121333,0.0,0.0,0.0,0.0,300,0,50,1.6446802036699806,-1.4587048247411114,84.50346241142377,-0.0,6.04555492401123,0.0,0.5050569436550141,12,6,33
STABILIZE,4.485995769500732,29.071995453064677,0.0,0.0,0.0,0.0,300,0,50,1.6426562265198354,-1.381484840419063,84.51042920437717,-0.0,6.041520595550537,0.0,0.5050519007444382,10,54,2
STABILIZE,4.51974630355835,29.6454955400687,0.0,0.0,0.0,0.0,300,0,50,1.6386528818925616,-1.415809956092962,84.45781625720058,-0.0,6.04024486541748,0.0,0.5050503060817718,6,21,-23
STABILIZE,4.5512073040008545,31.792130615709965,0.0,0.0,0.0,0.0,300,0,50,1.6388784915785837,-1.4588860381975284,84.48327237223721,-0.0,6.037847900390625,0.0,0.5050473098754883,10,-27,21
STABILIZE,4.588033676147461,27.162190691439413,0.0,0.0,0.0,0.0,300,0,50,1.6384628105345649,-1.4227322460950642,84.51416531785317,-0.0,6.044177627563476,0.0,0.5050552220344543,8,31,25
STABILIZE,4.622191667556763,29.281653169505724,0.0,0.0,0.0,0.0,300,0,50,1.6382524620524697,-1.375158164256927,84.46574610682696,-0.0,6.041087436676025,0.0,0.505051359295845,8,-5,-28
STABILIZE,4.6571831703186035,28.587131952017447,0.0,0.0,0.0,0.0,300,0,50,1.6371168363812492,-1.4313908982502306,84.46483769166734,-0.0,6.041996097564697,0.0,0.5050524951219558,8,-40,2
STABILIZE,4.690887212753296,29.675909351408336,0.0,0.0,0.0,0.0,300,0,50,1.6404542375644466,-1.4012910016299247,84.51044286475552,-0.0,6.040445995330811,0.0,0.5050505574941635,11,33,4
STABILIZE,4.723097562789917,31.05856566329742,0.0,0.0,0.0,0.0,300,0,50,1.64087258665111,-1.3708089345812156,84.4768519944174,-0.0,6.038583469390869,0.0,0.5050482293367385,10,20,-25
STABILIZE,4.754967212677002,31.38861739943873,0.0,0.0,0.0,0.0,300,0,50,1.6400358884777835,-1.3973812519386213,84.46410686142615,-0.0,6.038195514678955,0.0,0.5050477443933487,8,-22,-11
STABILIZE,4.792009353637695,27.001319711337285,0.0,0.0,0.0,0.0,300,0,50,1.640224999340428,-1.4281968243178975,84.5077586004117,-0.0,6.044524097442627,0.0,0.5050556551218033,11,8,12
STABILIZE,4.827258825302124,28.38861288968906,0.0,0.0,0.0,0.0,300,0,50,1.6424020154166639,-1.3902850055560954,84.49103829732351,-0.0,6.042257308959961,0.0,0.5050528216361999,11,28,-13
STABILIZE,4.862918853759766,28.049353654377295,0.0,0.0,0.0,0.0,300,0,50,1.641579724673618,-1.416446230902831,84.47655829628309,-0.0,6.042820072174072,0.0,0.5050535250902176,9,-28,5
STABILIZE,4.898609161376953,28.024427725735972,0.0,0.0,0.0,0.0,300,0,50,1.6418576279954729,-1.4385839412199002,84.49688493925305,-0.0,6.042863845825195,0.0,0.5050535798072815,10,-17,15
STABILIZE,4.934957504272461,27.519512899246777,0.0,0.0,0.0,0.0,300,0,50,1.6437057277744902,-1.3875539971051483,84.48296501372455,-0.0,6.043510150909424,0.0,0.5050543876886368,10,18,-14
STABILIZE,4.967793703079224,30.46437002011926,0.0,0.0,0.0,0.0,300,0,50,1.6439135149356465,-1.399294665401577,84.47247384315942,-0.0,6.0393321990966795,0.0,0.5050491652488709,9,-11,-7
STABILIZE,5.004345893859863,27.363317284482196,0.0,0.0,0.0,0.0,300,0,50,1.6425955018692457,-1.4298606157110303,84.50302527931689,-0.0,6.044017696380616,0.0,0.5050550221204758,10,-3,13
STABILIZE,5.04052734375,27.647763752018722,0.0,0.0,0.0,0.0,300,0,50,1.644035391123649,-1.4015484143842696,84.49252044837341,-0.0,6.043404006958008,0.0,0.5050542550086975,10,18,-8
STABILIZE,5.073705673217773,30.140371804913805,0.0,0.0,0.0,0.0,300,0,50,1.6432028550968478,-1.4101704609943528,84.48075886262264,-0.0,6.039843463897705,0.0,0.5050498043298721,8,-17,5
STABILIZE,5.106177806854248,30.811924246653835,0.0,0.0,0.0,0.0,300,0,50,1.6422155725966638,-1.4285877459261749,84.49958969416437,-0.0,6.038739109039307,0.0,0.5050484238862991,9,-17,16
STABILIZE,5.13964056968689,29.892270193993472,0.0,0.0,0.0,0.0,300,0,50,1.642415675795004,-1.4190985854566174,84.50059373197236,-0.0,6.040308094024658,0.0,0.5050503851175309,9,6,0
STABILIZE,5.176897764205933,26.848700550505697,0.0,0.0,0.0,0.0,300,0,50,1.6436674146821146,-1.3967717642769035,84.4791059568435,-0.0,6.044594478607178,0.0,0.505055743098259,8,-1,-3
STABILIZE,5.212037563323975,28.470123470198136,0.0,0.0,0.0,0.0,300,0,50,1.6424846180169388,-1.4197011362074594,84.49301222199365,-0.0,6.042190361022949,0.0,0.5050527379512787,9,-18,11
STABILIZE,5.247973680496216,27.833990311234984,0.0,0.0,0.0,0.0,300,0,50,1.6449426323444971,-1.4099166767780047,84.49068312748668,-0.0,6.042995452880859,0.0,0.5050537443161011,10,11,-6
STABILIZE,5.2859954833984375,26.303338162160806,0.0,0.0,0.0,0.0,300,0,50,1.6447806287951208,-1.3955692240961581,84.48158531551222,-0.0,6.045986080169678,0.0,0.5050574826002121,9,8,-6
STABILIZE,5.315349102020264,34.072885018440594,0.0,0.0,0.0,0.0,300,0,50,1.6448348434216578,-1.4227358746330607,84.49545059952735,-0.0,6.034895610809326,0.0,0.5050436195135116,10,-14,7
STABILIZE,5.348240613937378,30.418194476676724,0.0,0.0,0.0,0.0,300,0,50,1.6449369760940906,-1.4208141368770542,84.49629754298442,-0.0,6.039540195465088,0.0,0.5050494252443314,10,0,1
STABILIZE,5.386931419372559,25.85342160089747,0.0,0.0,0.0,0.0,300,0,50,1.6465156035660098,-1.398955717264015,84.48335433450725,-0.0,6.046471023559571,0.0,0.5050580887794495,10,1,-2
STABILIZE,5.423710107803345,27.198122077905236,0.0,0.0,0.0,0.0,300,0,50,1.6462340717061585,-1.4121540973397126,84.49109293883687,-0.0,6.043994522094726,0.0,0.5050549931526184,9,-11,6
STABILIZE,5.459969758987427,27.58484982012614,0.0,0.0,0.0,0.0,300,0,50,1.646065771576141,-1.4122499334315044,84.49252727856258,-0.0,6.0437267303466795,0.0,0.5050546584129334,10,5,-4
STABILIZE,5.4939491748809814,29.4353647924094,0.0,0.0,0.0,0.0,300,0,50,1.646308990343617,-1.3984021517761267,84.48319040996716,-0.0,6.0407867431640625,0.0,0.505050983428955,9,8,-7
STABILIZE,5.527972936630249,29.39472559202181,0.0,0.0,0.0,0.0,300,0,50,1.6444085969287667,-1.4139277053680945,84.4958672410667,-0.0,6.04026231765747,0.0,0.5050503278970718,8,-4,3
STABILIZE,5.558962345123291,32.28150759260827,0.0,0.0,0.0,0.0,300,0,50,1.6443636670906328,-1.4155808245906492,84.49432361831428,-0.0,6.037677383422851,0.0,0.5050470967292786,9,-2,-1
STABILIZE,5.590803146362305,31.419890330506696,0.0,0.0,0.0,0.0,300,0,50,1.6448437013232378,-1.4051880514382402,84.48691286306483,-0.0,6.03828535079956,0.0,0.5050478566884995,10,6,-6
STABILIZE,5.628103733062744,26.810600733818283,0.0,0.0,0.0,0.0,300,0,50,1.6446180916372157,-1.4070673139553458,84.4928619578319,-0.0,6.044708633422852,0.0,0.5050558857917785,9,-8,5
STABILIZE,5.6618077754974365,29.68094938186862,0.0,0.0,0.0,0.0,300,0,50,1.6451362255187847,-1.4161401530506499,84.4947061089078,-0.0,6.0405172348022464,0.0,0.5050506465435028,10,-9,1
STABILIZE,5.698346138000488,27.37438976634904,0.0,0.0,0.0,0.0,300,0,50,1.6453486017132897,-1.4053895420187554,84.48733633479337,-0.0,6.043756198883057,0.0,0.5050546952486038,9,4,-2
STABILIZE,5.733379125595093,28.55404724623868,0.0,0.0,0.0,0.0,300,0,50,1.645765456696072,-1.4051308486039413,84.48915999530176,-0.0,6.042050743103028,0.0,0.5050525634288788,10,-1,1
STABILIZE,5.770275592803955,27.10619377520422,0.0,0.0,0.0,0.0,300,0,50,1.6463289473025982,-1.4161897786438382,84.49342203334385,-0.0,6.04429521560669,0.0,0.5050553690195083,9,-4,0
STABILIZE,5.801120042800903,32.43077065823353,0.0,0.0,0.0,0.0,300,0,50,1.6460019519960838,-1.4085544809254102,84.48881165565409,-0.0,6.037017059326172,0.0,0.5050462713241577,9,3,-3
STABILIZE,5.841398000717163,24.835560713630148,0.0,0.0,0.0,0.0,300,0,50,1.646125322287967,-1.4081539543636123,84.49139346716035,-0.0,6.048305225372315,0.0,0.5050603815317154,9,-5,3
STABILIZE,5.876858472824097,28.211036078452473,0.0,0.0,0.0,0.0,300,0,50,1.646242075834092,-1.416109310477679,84.49381818431571,-0.0,6.042553424835205,0.0,0.505053191781044,9,-7,2
STABILIZE,5.913632392883301,27.194595190393756,0.0,0.0,0.0,0.0,300,0,50,1.6468741884974356,-1.4077993181353006,84.4874865989551,-0.0,6.044156742095947,0.0,0.5050551959276199,9,3,-2
STABILIZE,5.946324586868286,30.5999460125922,0.0,0.0,0.0,0.0,300,0,50,1.647060097708907,-1.4065563304280642,84.49063531616248,-0.0,6.03901891708374,0.0,0.5050487736463547,10,0,2
STABILIZE,5.980621576309204,29.164173915462012,0.0,0.0,0.0,0.0,300,0,50,1.6478775859751928,-1.4131678468229307,84.49426897680092,-0.0,6.0413483619689945,0.0,0.5050516854524613,10,-6,2
STABILIZE,6.015653610229492,28.55599128540305,0.0,0.0,0.0,0.0,300,0,50,1.6479488760746548,-1.4132404175828621,84.49062165578414,-0.0,6.041867351531982,0.0,0.505052334189415,10,0,-1
STABILIZE,6.0492658615112305,29.759922802934625,0.0,0.0,0.0,0.0,300,0,50,1.6474791938475106,-1.4091162639846437,84.49153007094375,-0.0,6.040421390533448,0.0,0.5050505267381669,9,1,0
STABILIZE,6.084855318069458,28.102539363484087,0.0,0.0,0.0,0.0,300,0,50,1.6476732139086212,-1.4166139974243195,84.4928414672644,-0.0,6.0428389549255375,0.0,0.5050535486936569,9,-5,0
STABILIZE,6.118071794509888,30.116782031766093,0.0,0.0,0.0,0.0,300,0,50,1.6460107031759579,-1.4165764313838844,84.49098365581015,-0.0,6.039793682098389,0.0,0.505049742102623,8,-1,-1
STABILIZE,6.152244329452515,29.27163983278549,0.0,0.0,0.0,0.0,300,0,50,1.6460753765296614,-1.4100441024947077,84.49107244826936,-0.0,6.040813350677491,0.0,0.5050510166883468,9,1,0
STABILIZE,6.186571359634399,29.142694357399442,0.0,0.0,0.0,0.0,300,0,50,1.6461687580222202,-1.413521202390773,84.49221992004992,-0.0,6.0412373542785645,0.0,0.5050515466928482,9,-4,1
STABILIZE,6.224527597427368,26.353414260222674,0.0,0.0,0.0,0.0,300,0,50,1.6462007745339546,-1.4149083711225203,84.4920901464557,-0.0,6.045691680908203,0.0,0.5050571146011352,8,-4,0
STABILIZE,6.257868528366089,29.999814034661078,0.0,0.0,0.0,0.0,300,0,50,1.6474524066993594,-1.4112992564764033,84.49258192007593,-0.0,6.039957046508789,0.0,0.5050499463081359,10,1,0
STABILIZE,6.292308568954468,29.042605197377075,0.0,0.0,0.0,0.0,300,0,50,1.647300755155444,-1.4116277458867985,84.49537546744646,-0.0,6.041327476501465,0.0,0.5050516593456268,9,-2,2
STABILIZE,6.328927040100098,27.31858297564693,0.0,0.0,0.0,0.0,300,0,50,1.647851118992159,-1.416952091788235,84.49438509001682,-0.0,6.043666648864746,0.0,0.5050545833110809,9,-3,0
STABILIZE,6.361701726913452,30.52134301640203,0.0,0.0,0.0,0.0,300,0,50,1.6480945512030465,-1.413808390501031,84.49471293909698,-0.0,6.039462947845459,0.0,0.5050493286848068,9,0,0
STABILIZE,6.3953330516815186,29.741352658375053,0.0,0.0,0.0,0.0,300,0,50,1.6473069450143794,-1.4140571587972075,84.49697373171226,-0.0,6.040390205383301,0.0,0.5050504877567291,9,-3,0
STABILIZE,6.430206298828125,28.681943447191166,0.0,0.0,0.0,0.0,300,0,50,1.646832460310475,-1.4170664974568328,84.49566916558078,-0.0,6.04195203781128,0.0,0.5050524400472641,9,-4,0
STABILIZE,6.467827558517456,26.590994966208935,0.0,0.0,0.0,0.0,300,0,50,1.647985481619738,-1.4132192866851174,84.49614727882268,-0.0,6.04502420425415,0.0,0.5050562802553177,10,0,0
STABILIZE,6.502638816833496,28.734407541378932,0.0,0.0,0.0,0.0,300,0,50,1.6474010735588787,-1.4131302807824957,84.49514324101469,-0.0,6.041879081726075,0.0,0.5050523488521576,9,-1,0
STABILIZE,6.540118455886841,26.687264976298795,0.0,0.0,0.0,0.0,300,0,50,1.6464260640548594,-1.4182105541428098,84.49443290134101,-0.0,6.044966697692871,0.0,0.5050562083721161,9,-3,0
STABILIZE,6.5758726596832275,28.011887826998723,0.0,0.0,0.0,0.0,300,0,50,1.6470054561955467,-1.416586890111051,84.49476075042116,-0.0,6.042367744445801,0.0,0.5050529596805573,10,0,0
STABILIZE,6.6142418384552,26.049959629836657,0.0,0.0,0.0,0.0,300,0,50,1.648363810066733,-1.4163142161527793,84.4951637315822,-0.0,6.046398067474366,0.0,0.505057997584343,10,-2,0
STABILIZE,6.650644540786743,27.47822668876645,0.0,0.0,0.0,0.0,300,0,50,1.647780789388049,-1.4183958230240465,84.49466512777279,-0.0,6.043625736236573,0.0,0.5050545321702957,9,-3,0
STABILIZE,6.686085224151611,28.220336816325432,0.0,0.0,0.0,0.0,300,0,50,1.647132241582015,-1.4163318252342334,84.49484271269121,-0.0,6.041518878936768,0.0,0.505051898598671,9,0,0
STABILIZE,6.7170445919036865,32.31259437305476,0.0,0.0,0.0,0.0,300,0,50,1.6481865453134301,-1.4165671465954814,84.49603799579596,-0.0,6.038285636901856,0.0,0.5050478570461273,10,-1,1
STABILIZE,6.748834133148193,31.466562635977613,0.0,0.0,0.0,0.0,300,0,50,1.6484581520546437,-1.417691459765889,84.49517739196054,-0.0,6.038238430023194,0.0,0.505047798037529,10,-2,0
STABILIZE,6.784819602966309,27.79470255727189,0.0,0.0,0.0,0.0,300,0,50,1.6488416031435167,-1.4185700995695876,84.4950954296905,-0.0,6.043098735809326,0.0,0.5050538734197617,9,-1,0
STABILIZE,6.8210694789886475,27.59483144293271,0.0,0.0,0.0,0.0,300,0,50,1.6484625276445808,-1.415517965505944,84.49581942974253,-0.0,6.043514442443848,0.0,0.5050543930530548,9,0,0
STABILIZE,6.855316877365112,29.213331011666376,0.0,0.0,0.0,0.0,300,0,50,1.6490925058738088,-1.4178876142611152,84.4950954296905,-0.0,6.04090633392334,0.0,0.5050511329174042,9,-3,0
STABILIZE,6.887902736663818,30.694895532218524,0.0,0.0,0.0,0.0,300,0,50,1.6495771291397623,-1.4180449220554372,84.49549841085152,-0.0,6.0391439437866214,0.0,0.5050489299297333,10,-1,0
STABILIZE,6.9253089427948,26.743077207546687,0.0,0.0,0.0,0.0,300,0,50,1.6485950760031614,-1.4170895493452815,84.49655709017289,-0.0,6.04489917755127,0.0,0.5050561239719391,9,-1,0
STABILIZE,6.960723876953125,28.241999016921078,0.0,0.0,0.0,0.0,300,0,50,1.6489467240237112,-1.4181124768951967,84.49740403362996,-0.0,6.042656707763672,0.0,0.5050533208847046,10,-2,0
STABILIZE,6.996607303619385,27.8756122686339,0.0,0.0,0.0,0.0,300,0,50,1.649006488178949,-1.4188737228225359,84.49660490149708,-0.0,6.043022346496582,0.0,0.5050537779331207,9,-1,0
STABILIZE,7.028540849685669,31.324152352501866,0.0,0.0,0.0,0.0,300,0,50,1.6487465141036652,-1.4178415104842177,84.49659124111874,-0.0,6.038338279724121,0.0,0.5050479228496552,9,0,0
STABILIZE,7.062311410903931,29.6197450654991,0.0,0.0,0.0,0.0,300,0,50,1.648581095459704,-1.4178722463354827,84.49622924109272,-0.0,6.0405315399169925,0.0,0.5050506644248962,9,-1,0
STABILIZE,7.095957517623901,29.72933663162819,0.0,0.0,0.0,0.0,300,0,50,1.6499336863587781,-1.4205453049001906,84.49771139214262,-0.0,6.040373611450195,0.0,0.5050504670143128,9,-1,0
STABILIZE,7.129681348800659,29.665834423736605,0.0,0.0,0.0,0.0,300,0,50,1.6504775401714404,-1.419885444593344,84.49818267519535,-0.0,6.040315818786621,0.0,0.5050503947734832,10,-1,0
STABILIZE,7.164397478103638,28.809011607940107,0.0,0.0,0.0,0.0,300,0,50,1.6505970684819156,-1.4208930042176267,84.49676199584799,-0.0,6.041804695129395,0.0,0.5050522558689118,9,-2,0
STABILIZE,7.195951700210571,31.702259208030053,0.0,0.0,0.0,0.0,300,0,50,1.650952878648991,-1.4221365255333922,84.49575112785082,-0.0,6.037873649597168,0.0,0.5050473420619964,10,-2,0
STABILIZE,7.2325427532196045,27.335853385124743,0.0,0.0,0.0,0.0,300,0,50,1.6500692229251206,-1.421203350938039,84.49756795817004,-0.0,6.043867492675782,0.0,0.5050548343658448,9,-1,0
STABILIZE,7.2657928466796875,30.086753175952428,0.0,0.0,0.0,0.0,300,0,50,1.6505740165934668,-1.4211013249873121,84.49705569398229,-0.0,6.039736747741699,0.0,0.5050496709346771,10,-1,0
STABILIZE,7.298680543899536,30.412900980335287,0.0,0.0,0.0,0.0,300,0,50,1.6507714517491625,-1.4220072855476908,84.4971444864415,-0.0,6.03966007232666,0.0,0.5050495750904084,10,-2,0
STABILIZE,7.331365585327148,30.603295051585505,0.0,0.0,0.0,0.0,300,0,50,1.650443069060473,-1.4219453869583376,84.49802558084444,-0.0,6.039168834686279,0.0,0.5050489610433578,9,-1,0
STABILIZE,7.365102052688599,29.65115407726839,0.0,0.0,0.0,0.0,300,0,50,1.6515726115944638,-1.4218067554625273,84.49733573173826,-0.0,6.040444278717041,0.0,0.5050505553483963,10,-1,0
STABILIZE,7.403500318527222,26.047209474187557,0.0,0.0,0.0,0.0,300,0,50,1.652356269080017,-1.422737688902059,84.497807014791,-0.0,6.046074771881104,0.0,0.5050575934648514,10,-2,0
STABILIZE,7.441288709640503,26.473843667945868,0.0,0.0,0.0,0.0,300,0,50,1.6525222213325073,-1.4227497484548124,84.49777969403432,-0.0,6.045350646972656,0.0,0.5050566883087159,9,-1,0
STABILIZE,7.4744813442230225,30.126732843947078,0.0,0.0,0.0,0.0,300,0,50,1.6521710001987804,-1.421761505459276,84.4961677693902,-0.0,6.039625740051269,0.0,0.5050495321750641,9,-1,0
STABILIZE,7.510566473007202,27.725069737311774,0.0,0.0,0.0,0.0,300,0,50,1.6514492413025805,-1.4222236104453099,84.49637950525447,-0.0,6.043513584136963,0.0,0.5050543919801712,9,-2,0
STABILIZE,7.548550367355347,26.331410204094446,0.0,0.0,0.0,0.0,300,0,50,1.650761953517348,-1.4224640544484353,84.49764992044008,-0.0,6.045656204223633,0.0,0.5050570702552796,9,-1,0
STABILIZE,7.578782320022583,33.09402788407672,0.0,0.0,0.0,0.0,300,0,50,1.651406019011739,-1.4209195779223662,84.49751331665668,-0.0,6.036055183410644,0.0,0.5050450689792633,10,0,0
STABILIZE,7.612812042236328,29.392459705676245,0.0,0.0,0.0,0.0,300,0,50,1.650977211197909,-1.420878596787346,84.49758844873756,-0.0,6.04090576171875,0.0,0.5050511322021485,9,-1,0
STABILIZE,7.644838809967041,31.234344863536506,0.0,0.0,0.0,0.0,300,0,50,1.651676024927366,-1.4214468898706323,84.49872909032895,-0.0,6.038389492034912,0.0,0.5050479868650436,10,-1,0
STABILIZE,7.684248208999634,25.376806771498238,0.0,0.0,0.0,0.0,300,0,50,1.6518350402689805,-1.4218163604160479,84.49896814694989,-0.0,6.047479820251465,0.0,0.5050593497753143,9,-2,0
STABILIZE,7.714928150177002,32.60142708349527,0.0,0.0,0.0,0.0,300,0,50,1.6508799877239422,-1.4221572295443137,84.49915256205749,-0.0,6.036562156677246,0.0,0.5050457026958466,9,-2,0
STABILIZE,7.748985767364502,29.376402526999957,0.0,0.0,0.0,0.0,300,0,50,1.6514045249078582,-1.4227925438588307,84.49984924135283,-0.0,6.041000175476074,0.0,0.505051250219345,10,-2,0
STABILIZE,7.780601263046265,31.63912587597215,0.0,0.0,0.0,0.0,300,0,50,1.6512949217160204,-1.4227649029370333,84.49967165643442,-0.0,6.037963771820069,0.0,0.5050474547147751,9,-1,0
STABILIZE,7.8211586475372314,24.666137388778132,0.0,0.0,0.0,0.0,300,0,50,1.6517908574827869,-1.4215239429422066,84.50070301499908,-0.0,6.048623657226562,0.0,0.5050607795715332,10,-1,0
STABILIZE,7.854250907897949,30.22333672006168,0.0,0.0,0.0,0.0,300,0,50,1.6520815674093356,-1.4219623557095569,84.50106501502509,-0.0,6.039742469787598,0.0,0.5050496780872344,10,-2,0
STABILIZE,7.8887858390808105,28.9669880383436,0.0,0.0,0.0,0.0,300,0,50,1.6543097031826406,-1.4215576670012335,84.501905128293,-0.0,6.041332054138183,0.0,0.5050516650676727,10,-1,0
STABILIZE,7.9214301109313965,30.64219754529515,0.0,0.0,0.0,0.0,300,0,50,1.6534712974620216,-1.4213461445803748,84.50300478874938,-0.0,6.039188861846924,0.0,0.5050489860773086,9,-1,0
STABILIZE,7.953657150268555,31.030073463590025,0.0,0.0,0.0,0.0,300,0,50,1.6534829301279519,-1.422472485463192,84.50291599629017,-0.0,6.03887529373169,0.0,0.5050485941171646,9,-2,0
STABILIZE,7.98608136177063,30.857941628716258,0.0,0.0,0.0,0.0,300,0,50,1.6533042779924736,-1.4221641664551894,84.5036604869097,-0.0,6.03874454498291,0.0,0.5050484306812286,9,-1,0
STABILIZE,8.027742147445679,24.006685211259544,0.0,0.0,0.0,0.0,300,0,50,1.6551897303685146,-1.4218326888370323,84.50307992083025,-0.0,6.049954605102539,0.0,0.5050624432563782,10,-1,0
STABILIZE,8.062841176986694,28.497978651845713,0.0,0.0,0.0,0.0,300,0,50,1.6559915305440505,-1.4219348215094652,84.50404980769238,-0.0,6.042176914215088,0.0,0.5050527211427689,10,-1,0
STABILIZE,8.097588300704956,28.787854245454607,0.0,0.0,0.0,0.0,300,0,50,1.6560971850327741,-1.4223220078580403,84.50472599642022,-0.0,6.041750907897949,0.0,0.5050521886348724,9,-1,0
STABILIZE,8.132959842681885,28.27512656819852,0.0,0.0,0.0,0.0,300,0,50,1.6566907711603307,-1.4215548922368832,84.50495139266283,-0.0,6.042194652557373,0.0,0.5050527433156967,10,-1,0
STABILIZE,8.166303634643555,29.99852664554382,0.0,0.0,0.0,0.0,300,0,50,1.6568478655112409,-1.4218799665526936,84.50479429831192,-0.0,6.0397765159606935,0.0,0.5050497206449509,9,-1,0
STABILIZE,8.198294162750244,31.272304319947512,0.0,0.0,0.0,0.0,300,0,50,1.6559562056594368,-1.4230784513086192,84.50380392088226,-0.0,6.038801479339599,0.0,0.5050485018491745,9,-1,0
STABILIZE,8.230745553970337,30.823698869732645,0.0,0.0,0.0,0.0,300,0,50,1.6567418908573999,-1.4229948882129924,84.50410444920574,-0.0,6.039009475708008,0.0,0.505048761844635,10,-1,0
STABILIZE,8.272646188735962,23.871827707298195,0.0,0.0,0.0,0.0,300,0,50,1.656869316574103,-1.423411529752363,84.50422056242164,-0.0,6.050061893463135,0.0,0.5050625773668289,9,-2,0
STABILIZE,8.309072017669678,27.460236609685676,0.0,0.0,0.0,0.0,300,0,50,1.6568935424013154,-1.423918457854825,84.50428203412417,-0.0,6.043499851226807,0.0,0.5050543748140335,10,-2,0
STABILIZE,8.339807510375977,32.550319736760414,0.0,0.0,0.0,0.0,300,0,50,1.6569671803783046,-1.4236484519391979,84.50424105298914,-0.0,6.037021923065185,0.0,0.5050462774038315,10,-2,0
STABILIZE,8.372089862823486,30.98789092225514,0.0,0.0,0.0,0.0,300,0,50,1.6580333302190613,-1.4237574148008008,84.5051631285271,-0.0,6.038798904418945,0.0,0.5050484986305237,10,-1,0
STABILIZE,8.404844760894775,30.536008619936517,0.0,0.0,0.0,0.0,300,0,50,1.6593098285419132,-1.4239460987766224,84.5051631285271,-0.0,6.039461517333985,0.0,0.5050493268966675,10,-2,0
STABILIZE,8.440661191940308,27.929256339228637,0.0,0.0,0.0,0.0,300,0,50,1.6583632070116316,-1.4228635137931753,84.50574369460655,-0.0,6.042722225189209,0.0,0.5050534027814865,9,-1,0
STABILIZE,8.477807521820068,26.92505312080731,0.0,0.0,0.0,0.0,300,0,50,1.6588162406526739,-1.4237526123240405,84.50527924174298,-0.0,6.044362163543701,0.0,0.5050554527044296,10,-2,0
STABILIZE,8.508902549743652,32.179467703945804,0.0,0.0,0.0,0.0,300,0,50,1.659991566798445,-1.4242374490334058,84.50668626071202,-0.0,6.037752914428711,0.0,0.5050471911430359,10,-1,0
STABILIZE,8.540998220443726,31.166342195604038,0.0,0.0,0.0,0.0,300,0,50,1.6607214365442844,-1.4242283776884144,84.50649501541525,-0.0,6.038534832000733,0.0,0.5050481685400009,10,-1,0
STABILIZE,8.572925806045532,31.33070395601769,0.0,0.0,0.0,0.0,300,0,50,1.6608105491686118,-1.4236116329507034,84.507007279603,-0.0,6.038265895843506,0.0,0.5050478323698043,9,-1,0
STABILIZE,8.60871171951294,27.950846328135412,0.0,0.0,0.0,0.0,300,0,50,1.660867645281205,-1.4242209071690095,84.50779958154672,-0.0,6.0429253578186035,0.0,0.5050536566972732,10,-2,0
STABILIZE,8.651601076126099,23.31891897902339,0.0,0.0,0.0,0.0,300,0,50,1.6622151135384016,-1.4231735403484704,84.50874214765219,-0.0,6.051485252380371,0.0,0.5050643565654754,10,-1,0
STABILIZE,8.687237739562988,28.068875519477476,0.0,0.0,0.0,0.0,300,0,50,1.66263485000724,-1.4217905337632486,84.50863969481463,-0.0,6.042717933654785,0.0,0.5050533974170685,10,0,0
STABILIZE,8.72085952758789,29.748735734905065,0.0,0.0,0.0,0.0,300,0,50,1.6636805092804867,-1.42273918300594,84.50740343057487,-0.0,6.040460300445557,0.0,0.505050575375557,9,-1,0
STABILIZE,8.754266262054443,29.944128334915863,0.0,0.0,0.0,0.0,300,0,50,1.6623391241605197,-1.4226304335877487,84.50743075133154,-0.0,6.04000997543335,0.0,0.5050500124692917,8,-1,0
STABILIZE,8.786516189575195,31.021581882460836,0.0,0.0,0.0,0.0,300,0,50,1.66280282997214,-1.4227657567106795,84.5078269023034,-0.0,6.0385740280151365,0.0,0.5050482175350189,9,-1,0
STABILIZE,8.823650121688843,26.936119656033856,0.0,0.0,0.0,0.0,300,0,50,1.6614788404902154,-1.4228727985815783,84.50805229854602,-0.0,6.04456844329834,0.0,0.5050557105541229,9,-2,0
STABILIZE,8.859328985214233,28.03341843895788,0.0,0.0,0.0,0.0,300,0,50,1.6612554719600148,-1.4217799683143764,84.5076219966283,-0.0,6.042850399017334,0.0,0.5050535629987717,9,0,0
STABILIZE,8.89476490020752,28.228123780167714,0.0,0.0,0.0,0.0,300,0,50,1.6603505786166939,-1.4219253232776505,84.50647452484775,-0.0,6.042486190795898,0.0,0.5050531077384949,9,-1,0
STABILIZE,8.924743890762329,33.370493837965135,0.0,0.0,0.0,0.0,300,0,50,1.6596183609933273,-1.4213410219384972,84.50704826073802,-0.0,6.035983657836914,0.0,0.5050449795722961,9,-1,0
STABILIZE,8.957295417785645,30.7261512314477,0.0,0.0,0.0,0.0,300,0,50,1.6586859334499149,-1.4214039877449083,84.50740343057487,-0.0,6.0391490936279295,0.0,0.505048936367035,9,-1,0
STABILIZE,8.989869356155396,30.708154569282357,0.0,0.0,0.0,0.0,300,0,50,1.6585181669284264,-1.4222461287252297,84.50660429844197,-0.0,6.039136791229248,0.0,0.5050489209890365,10,-1,0
STABILIZE,9.02537751197815,28.17010987830105,0.0,0.0,0.0,0.0,300,0,50,1.6583593650302235,-1.423093712512546,84.50682969468458,-0.0,6.0425488471984865,0.0,0.5050531860589981,9,-2,0
STABILIZE,9.065439701080322,24.968175919421856,0.0,0.0,0.0,0.0,300,0,50,1.659416870412812,-1.4234077944926606,84.50760833624996,-0.0,6.04804630279541,0.0,0.5050600578784943,10,-2,0
STABILIZE,9.099132776260376,29.691875322983698,0.0,0.0,0.0,0.0,300,0,50,1.6607661529390068,-1.4235261488643725,84.50734195887233,-0.0,6.0402580261230465,0.0,0.5050503225326538,10,-1,0
STABILIZE,9.134231090545654,28.495461709875535,0.0,0.0,0.0,0.0,300,0,50,1.6604212283859212,-1.423658163614424,84.50848260046372,-0.0,6.042294502258301,0.0,0.5050528681278229,10,-1,0
STABILIZE,9.169396162033081,28.445408983323272,0.0,0.0,0.0,0.0,300,0,50,1.6607610302971294,-1.4234059802236625,84.5087831287872,-0.0,6.04183874130249,0.0,0.5050522984266281,9,-1,0
STABILIZE,9.205231428146362,27.9123426966666,0.0,0.0,0.0,0.0,300,0,50,1.6600543191614445,-1.424490806362931,84.51023795908041,-0.0,6.043171119689942,0.0,0.5050539638996124,9,-2,0
STABILIZE,9.242830991744995,26.60381331743394,0.0,0.0,0.0,0.0,300,0,50,1.6594140956484615,-1.42539954168766,84.51073656288983,-0.0,6.044417381286621,0.0,0.5050555217266083,9,-2,0
STABILIZE,9.277738809585571,28.657643192424107,0.0,0.0,0.0,0.0,300,0,50,1.6609235674550344,-1.4254505546630234,84.5121777328047,-0.0,6.042434978485107,0.0,0.5050530437231063,10,-1,0
STABILIZE,9.311157703399658,29.934084129091193,0.0,0.0,0.0,0.0,300,0,50,1.660910654128635,-1.4260497970409862,84.51159033653609,-0.0,6.039998245239258,0.0,0.505049997806549,10,-2,0
STABILIZE,9.34891152381897,26.490731442358097,0.0,0.0,0.0,0.0,300,0,50,1.6619509773165924,-1.4263680411676265,84.51133078934762,-0.0,6.045451927185058,0.0,0.5050568149089814,10,-2,0
STABILIZE,9.384673833847046,27.967060737599436,0.0,0.0,0.0,0.0,300,0,50,1.6619518310902388,-1.4260164998687825,84.51146739313101,-0.0,6.042958545684814,0.0,0.505053698182106,9,-1,0
STABILIZE,9.413779497146606,34.37193408016259,0.0,0.0,0.0,0.0,300,0,50,1.6618694419333755,-1.426847328348291,84.51056580816058,-0.0,6.034927654266357,0.0,0.5050436595678329,10,-2,0
STABILIZE,9.448631048202515,28.70215969123806,0.0,0.0,0.0,0.0,300,0,50,1.6614227048729744,-1.427987116166037,84.50998524208113,-0.0,6.041712856292724,0.0,0.5050521410703659,9,-2,0
STABILIZE,9.483829498291016,28.42247069187504,0.0,0.0,0.0,0.0,300,0,50,1.6624012361932845,-1.428504716439077,84.51034041191797,-0.0,6.042142868041992,0.0,0.5050526785850525,10,-2,0
STABILIZE,9.515578031539917,31.510296073143063,0.0,0.0,0.0,0.0,300,0,50,1.6621679425444462,-1.4275888307600606,84.509698374136,-0.0,6.0381019592285154,0.0,0.5050476274490356,9,-1,0
STABILIZE,9.551282167434692,28.013945846301812,0.0,0.0,0.0,0.0,300,0,50,1.6620965457232784,-1.42695031479437,84.51029943078295,-0.0,6.0428564071655275,0.0,0.5050535705089569,9,-1,0
STABILIZE,9.58542275428772,29.296379079123827,0.0,0.0,0.0,0.0,300,0,50,1.6619787249600957,-1.4268328141963047,84.51095512894327,-0.0,6.041128635406494,0.0,0.5050514107942581,9,-1,0
STABILIZE,9.618118047714233,30.594365909521933,0.0,0.0,0.0,0.0,300,0,50,1.6619788316818014,-1.4264786048548161,84.5108321855382,-0.0,6.039126777648926,0.0,0.5050489084720612,10,-2,0
STABILIZE,9.650399446487427,30.988577761359437,0.0,0.0,0.0,0.0,300,0,50,1.6621495864110518,-1.4265185187727785,84.51113271386168,-0.0,6.038845252990723,0.0,0.5050485565662384,9,-1,0
STABILIZE,9.686057806015015,28.045227508274547,0.0,0.0,0.0,0.0,300,0,50,1.6619035928792254,-1.4268217151389035,84.51106441196998,-0.0,6.043000316619873,0.0,0.5050537503957748,9,-1,0
STABILIZE,9.71808385848999,31.24411701168776,0.0,0.0,0.0,0.0,300,0,50,1.6627943989573832,-1.4265029374037344,84.5106750911873,-0.0,6.038098526000977,0.0,0.5050476231575012,10,-1,0
STABILIZE,9.75094747543335,30.432319479916416,0.0,0.0,0.0,0.0,300,0,50,1.662874120071602,-1.426612967482395,84.51042237418801,-0.0,6.039589977264404,0.0,0.5050494874715805,9,-1,0
STABILIZE,9.784118890762329,30.178974104373978,0.0,0.0,0.0,0.0,300,0,50,1.6629140339895643,-1.4261395499955485,84.5094661477042,-0.0,6.039869213104248,0.0,0.5050498365163804,9,-1,0
STABILIZE,9.820783615112305,27.28890045543266,0.0,0.0,0.0,0.0,300,0,50,1.6623361359527578,-1.4254406295443858,84.50956860054175,-0.0,6.043777942657471,0.0,0.5050547224283218,9,-1,0
STABILIZE,9.854108333587646,30.013767835930903,0.0,0.0,0.0,0.0,300,0,50,1.6621806424274341,-1.4263536337373461,84.50973935527101,-0.0,6.0400337219238285,0.0,0.5050500421524048,9,-2,0
STABILIZE,9.884313821792603,33.117283853138574,0.0,0.0,0.0,0.0,300,0,50,1.6621698635351503,-1.4258916354730182,84.51018331756705,-0.0,6.036179924011231,0.0,0.505045224905014,9,-1,0
STABILIZE,9.919410467147827,28.504563525773897,0.0,0.0,0.0,0.0,300,0,50,1.6624888547137309,-1.4253366826029545,84.51056580816058,-0.0,6.04213171005249,0.0,0.5050526646375656,9,-1,0
STABILIZE,9.953405380249023,29.424833208224886,0.0,0.0,0.0,0.0,300,0,50,1.6636264013756554,-1.4257712533888967,84.5106067892956,-0.0,6.0407918930053714,0.0,0.5050509898662567,10,-2,0
STABILIZE,9.989622116088867,27.614270947863243,0.0,0.0,0.0,0.0,300,0,50,1.6632617333070003,-1.4257196000832986,84.51079120440319,-0.0,6.043562507629394,0.0,0.5050544531345368,9,-1,0
STABILIZE,10.021682262420654,31.201583027092973,0.0,0.0,0.0,0.0,300,0,50,1.6616598405032206,-1.4255038087942085,84.5109482987541,-0.0,6.038466739654541,0.0,0.5050480834245682,9,-1,0
STABILIZE,10.05476450920105,30.237063310120103,0.0,0.0,0.0,0.0,300,0,50,1.662009887698184,-1.425111819968873,84.51152203464439,-0.0,6.039718723297119,0.0,0.5050496484041214,10,-1,0
STABILIZE,10.088632583618164,29.532776612074187,0.0,0.0,0.0,0.0,300,0,50,1.6613912219697688,-1.4247597450615002,84.51281977058669,-0.0,6.040268039703369,0.0,0.5050503350496293,10,-1,0
STABILIZE,10.120960235595703,30.94445305179906,0.0,0.0,0.0,0.0,300,0,50,1.6607642319483027,-1.4236604047702455,84.5132022611802,-0.0,6.038444137573242,0.0,0.5050480551719666,9,-1,0
STABILIZE,10.15299916267395,31.219465719878823,0.0,0.0,0.0,0.0,300,0,50,1.6602896405226926,-1.4238478080855976,84.51327739326108,-0.0,6.0393064498901365,0.0,0.5050491330623627,9,-1,0
STABILIZE,10.19024133682251,26.85884439776897,0.0,0.0,0.0,0.0,300,0,50,1.6594947772580324,-1.4237027732874405,84.51492346885105,-0.0,6.0445198059082035,0.0,0.5050556497573853,9,-2,0
STABILIZE,10.226575374603271,27.529085908938757,0.0,0.0,0.0,0.0,300,0,50,1.6598173969746097,-1.4235886877839603,84.51449316693333,-0.0,6.043565368652343,0.0,0.5050544567108154,10,-1,0
STABILIZE,10.262304782867432,27.995995140770802,0.0,0.0,0.0,0.0,300,0,50,1.6610276211181714,-1.4238005303699364,84.51500543112108,-0.0,6.042878437042236,0.0,0.5050535980463028,10,-1,0
STABILIZE,10.294920921325684,30.667739057953,0.0,0.0,0.0,0.0,300,0,50,1.6609196187519206,-1.4242908098862965,84.51620071422585,-0.0,6.039156532287597,0.0,0.5050489456653595,9,-2,0
STABILIZE,10.3271164894104,31.07697551216982,0.0,0.0,0.0,0.0,300,0,50,1.6610926146369922,-1.4245347757057127,84.51676761992695,-0.0,6.038460731506348,0.0,0.5050480759143829,10,-1,0
STABILIZE,10.358693838119507,31.67305267132339,0.0,0.0,0.0,0.0,300,0,50,1.6621780811064955,-1.4239527155223808,84.5160982613883,-0.0,6.038006401062011,0.0,0.5050475080013275,10,-1,0
STABILIZE,10.393371105194092,28.845070422535212,0.0,0.0,0.0,0.0,300,0,50,1.662345740906278,-1.4241653051602974,84.51561331795722,-0.0,6.041670227050782,0.0,0.5050520877838135,10,-1,0
STABILIZE,10.427301168441772,29.47943125830235,0.0,0.0,0.0,0.0,300,0,50,1.6620509755549098,-1.423694235550978,84.51568161984892,-0.0,6.040653133392334,0.0,0.5050508164167404,10,-1,0
STABILIZE,10.460935592651367,29.740509111536554,0.0,0.0,0.0,0.0,300,0,50,1.6616769159761458,-1.4239989260209842,84.51549037455216,-0.0,6.040385627746582,0.0,0.5050504820346833,9,-1,0
STABILIZE,10.499605655670166,25.86234877726942,0.0,0.0,0.0,0.0,300,0,50,1.6616256895573707,-1.4231004359800101,84.51494395941856,-0.0,6.046444702148437,0.0,0.5050580558776856,10,-1,0
STABILIZE,10.529122352600098,33.89281789385222,0.0,0.0,0.0,0.0,300,0,50,1.660691341023254,-1.4230715143977435,84.51531278963374,-0.0,6.035353374481201,0.0,0.5050441917181016,9,-1,0
STABILIZE,10.562083005905151,30.349083226002517,0.0,0.0,0.0,0.0,300,0,50,1.6611398923526535,-1.4234149448469482,84.51540158209295,-0.0,6.0395276069641115,0.0,0.5050494095087051,10,-1,0
STABILIZE,10.596356391906738,29.185482075261636,0.0,0.0,0.0,0.0,300,0,50,1.660605856936923,-1.4226612761607196,84.51480052544599,-0.0,6.041133785247803,0.0,0.5050514172315598,9,-1,0
STABILIZE,10.630841732025146,29.00504819993638,0.0,0.0,0.0,0.0,300,0,50,1.660083881073946,-1.422376329206283,84.51540841228211,-0.0,6.041406726837158,0.0,0.5050517584085464,9,-1,0
STABILIZE,10.663843154907227,30.31333068333755,0.0,0.0,0.0,0.0,300,0,50,1.66019914051619,-1.4217983244477708,84.5152513179312,-0.0,6.039494132995605,0.0,0.5050493676662445,9,-1,0
STABILIZE,10.697984457015991,29.296583709933156,0.0,0.0,0.0,0.0,300,0,50,1.6601886817890235,-1.4211949199232823,84.51510105376947,-0.0,6.041021633148193,0.0,0.5050512770414353,10,-1,0
STABILIZE,10.731703758239746,29.66604424828835,0.0,0.0,0.0,0.0,300,0,50,1.66006050902038,-1.4213231994136317,84.51431558201492,-0.0,6.040443706512451,0.0,0.5050505546331405,9,-1,0
STABILIZE,10.76434850692749,30.642421408689426,0.0,0.0,0.0,0.0,300,0,50,1.6590112212091366,-1.421020323212624,84.51475954431096,-0.0,6.039143085479736,0.0,0.5050489288568497,9,-1,0
STABILIZE,10.799502849578857,28.4538997469591,0.0,0.0,0.0,0.0,300,0,50,1.6583553096054038,-1.420753732391582,84.51513520471532,-0.0,6.0421734809875485,0.0,0.5050527168512344,9,-1,0
STABILIZE,10.8340322971344,28.96958897108086,0.0,0.0,0.0,0.0,300,0,50,1.6573936403146072,-1.4213480655710788,84.51492346885105,-0.0,6.041484260559082,0.0,0.5050518553256989,9,-1,0
STABILIZE,10.867379665374756,30.00238914441448,0.0,0.0,0.0,0.0,300,0,50,1.6580850902463653,-1.4219419718637525,84.51480052544599,-0.0,6.039813423156739,0.0,0.505049766778946,10,-2,0
STABILIZE,10.901143074035645,29.62120933911496,0.0,0.0,0.0,0.0,300,0,50,1.657968977030475,-1.4212688780653888,84.51512154433698,-0.0,6.040492916107178,0.0,0.505050616145134,10,-1,0
STABILIZE,10.937148571014404,27.781447259480046,0.0,0.0,0.0,0.0,300,0,50,1.658237595563927,-1.4205503208203625,84.51573626136228,-0.0,6.043239498138428,0.0,0.5050540493726731,9,-1,0
STABILIZE,10.969886541366577,30.556029898153948,0.0,0.0,0.0,0.0,300,0,50,1.6585273449951237,-1.4212443320730592,84.51576358211896,-0.0,6.039472675323486,0.0,0.5050493408441543,9,-2,0
STABILIZE,11.007610321044922,26.518031460219515,0.0,0.0,0.0,0.0,300,0,50,1.6578314127517226,-1.4215233026119718,84.51708863881794,-0.0,6.045104598999023,0.0,0.5050563807487488,9,-1,0
STABILIZE,11.039602994918823,31.262514534450375,0.0,0.0,0.0,0.0,300,0,50,1.6572975907794039,-1.4210526598894757,84.51815414832846,-0.0,6.038533401489258,0.0,0.5050481667518616,9,-1,0
STABILIZE,11.073240518569946,29.7377679147494,0.0,0.0,0.0,0.0,300,0,50,1.6584571221127193,-1.4205221462900361,84.51823611059851,-0.0,6.039668941497803,0.0,0.5050495861768722,10,-1,0
STABILIZE,11.111490249633789,26.151146913403206,0.0,0.0,0.0,0.0,300,0,50,1.6580316226717688,-1.4204503225820453,84.51873471440791,-0.0,6.046412372589112,0.0,0.5050580154657364,10,-1,0
STABILIZE,11.149486780166626,26.33091429575873,0.0,0.0,0.0,0.0,300,0,50,1.6578387765494216,-1.4199233307988963,84.51893962008302,-0.0,6.044862842559814,0.0,0.5050560785531998,10,-1,0
STABILIZE,11.181578159332275,31.165879031059593,0.0,0.0,0.0,0.0,300,0,50,1.6592603096704306,-1.420382127412051,84.51934260124405,-0.0,6.037467098236084,0.0,0.5050468338727951,10,-2,0
STABILIZE,11.214334487915039,30.532674290789178,0.0,0.0,0.0,0.0,300,0,50,1.658654557268415,-1.4204796710511352,84.51928112954151,-0.0,6.041423320770264,0.0,0.5050517791509628,9,-1,0
STABILIZE,11.246493339538574,31.11155286874606,0.0,0.0,0.0,0.0,300,0,50,1.6571883077526837,-1.4211142383137116,84.52010758243108,-0.0,6.03834285736084,0.0,0.505047928571701,9,-1,0
STABILIZE,11.281364917755127,28.686062894114105,0.0,0.0,0.0,0.0,300,0,50,1.6576527606162446,-1.4213355791315023,84.52096818626651,-0.0,6.040455150604248,0.0,0.5050505689382553,10,-1,0
STABILIZE,11.31592845916748,28.936412117365418,0.0,0.0,0.0,0.0,300,0,50,1.6586031174062283,-1.4215338680608443,84.52227958258715,-0.0,6.042961120605469,0.0,0.5050537014007568,10,-2,0
STABILIZE,11.350751399993896,28.729093462104867,0.0,0.0,0.0,0.0,300,0,50,1.6587994853448662,-1.4218078226795852,84.52367294117784,-0.0,6.041600131988526,0.0,0.5050520001649856,10,-1,1
STABILIZE,11.382341146469116,31.663488468652098,0.0,0.0,0.0,0.0,300,0,50,1.6586078131612827,-1.422154561501669,84.52411690347388,-0.0,6.037876796722412,0.0,0.5050473459959031,9,-1,0
STABILIZE,11.415133237838745,30.50979821639001,0.0,0.0,0.0,0.0,300,0,50,1.657301966369341,-1.4225636257999295,84.52547611111872,-0.0,6.039347076416016,0.0,0.50504918384552,9,-1,0
STABILIZE,11.452359437942505,26.866070113182893,0.0,0.0,0.0,0.0,300,0,50,1.6569765718884133,-1.422472592184898,84.525728828118,-0.0,6.0447338104248045,0.0,0.505055917263031,9,-1,0
STABILIZE,11.485547065734863,30.139938632231733,0.0,0.0,0.0,0.0,300,0,50,1.6575667429213847,-1.4227409972749383,84.52576297906386,-0.0,6.038772010803223,0.0,0.505048465013504,10,-1,0
STABILIZE,11.518381834030151,30.454637206566805,0.0,0.0,0.0,0.0,300,0,50,1.6585365230618208,-1.423791032138122,84.52623426211659,-0.0,6.04083023071289,0.0,0.5050510377883911,10,-2,0
STABILIZE,11.550583362579346,31.073982426765845,0.0,0.0,0.0,0.0,300,0,50,1.6585423927556389,-1.423232344008356,84.52544196017287,-0.0,6.038256740570068,0.0,0.5050478209257125,10,-1,0
STABILIZE,11.584052801132202,29.88077054599339,0.0,0.0,0.0,0.0,300,0,50,1.6573734699122145,-1.423748983786044,84.52628890362995,-0.0,6.040293502807617,0.0,0.5050503668785096,9,-2,0
STABILIZE,11.622542142868042,25.98733565471691,0.0,0.0,0.0,0.0,300,0,50,1.6579659888227132,-1.423108866994767,84.52617279041405,-0.0,6.046171188354492,0.0,0.5050577139854431,10,-1,0
STABILIZE,11.65656852722168,29.39864021868648,0.0,0.0,0.0,0.0,300,0,50,1.6579477394110245,-1.4231055586218877,84.52668505460181,-0.0,6.040658569335937,0.0,0.5050508232116699,9,-1,0
STABILIZE,11.69323468208313,27.280026016260162,0.0,0.0,0.0,0.0,300,0,50,1.658313261253326,-1.4227096210934385,84.52859750756942,-0.0,6.044147300720215,0.0,0.5050551841259002,10,-1,1
STABILIZE,11.725892305374146,30.630784847843074,0.0,0.0,0.0,0.0,300,0,50,1.6581896775180311,-1.4230600951752248,84.52931467743227,-0.0,6.039172267913818,0.0,0.5050489653348923,9,-1,0
STABILIZE,11.76192021369934,27.765631102667136,0.0,0.0,0.0,0.0,300,0,50,1.657347856702827,-1.4231194324436394,84.52962203594491,-0.0,6.043092441558838,0.0,0.5050538655519485,9,-1,0
