Mode,Time,Freq,North-Vision,East-Vision,Down-Vision,Yaw-Vision,North-Desired,East-Desired,Down-Desired,Roll-UAV,Pitch-UAV,Yaw-UAV,Roll-Control,Pitch-Control,Yaw-Control,Thrust-Control,northVraw,eastVraw,downVraw,yawVraw,zGyro
GUIDED_NOGPS,0.0036821365356445312,273.33359400456175,222.79502054828475,-18.885997618674605,-4.78520849924727,-7.914704827289353,225.50934801017738,-20.97217161468196,-5.182617090789431,-0.8568678820281683,1.734635502586341,100.57910492499249,0.5604252271661697,0.7291710026804407,0.3957352413644677,0.49980129570422893,222.79502054828475,-18.885997618674605,-4.78520849924727,-8.594839473554273,-3.9534087864026803
GUIDED_NOGPS,0.025767803192138672,45.294859611231104,222.43879156274897,-18.524704337238106,-4.56401892894252,-9.16107808536349,225.5094213026123,-20.972108851897044,-5.182596550458345,-0.8538710298081195,1.613348631843251,100.54466028100812,0.13048290407481725,0.1615497130380164,0.45805390426817455,0.4996907111892421,222.08256257721322,-18.163411055801603,-4.342829358637771,-8.664582344257823,-3.9534087864026803
GUIDED_NOGPS,0.04670882225036621,47.774925107924325,222.20544941865288,-18.12442004865236,-4.288881338912439,-9.23046420755936,225.50992843506623,-20.97167457726608,-5.182453593327581,-0.8393678701575379,1.8581013103963706,100.3786661936093,0.15188672115623564,0.17086902229400466,0.461523210377968,0.49955321387279245,221.7387651304607,-17.32385147148087,-3.738606158852277,-8.950233319611328,-4.18259190445501
GUIDED_NOGPS,0.08159399032592773,28.669004313025884,221.90746778479502,-16.96286092189899,-3.4958347638687037,-9.312203833990178,225.51128709048146,-20.970511114792917,-5.182068064379713,-0.7831891373473598,1.9351142546092033,100.24988980699788,0.21725918283343792,0.18474859893005013,0.46561019169950896,0.4991568833497445,221.01352288322138,-15.401320238414499,-2.4060687741160627,-9.19053334292036,-4.297183463481175
GUIDED_NOGPS,0.12965011596679688,20.812925507631846,221.6006994439246,-15.70560906927138,-2.5867955123744246,-9.454594825508115,225.51389754417588,-20.96827569521755,-5.181322260881905,-0.6758721912519146,2.3029925121743213,99.88149672392407,0.2767167110760797,0.19934101921011405,0.4727297412754058,0.49870273662574627,220.37362608044313,-14.391655497918773,-1.6157116041549329,-9.149959654202902,-4.755549699585833
GUIDED_NOGPS,0.17400336265563965,22.547839456396694,221.09676228444823,-14.403920825823974,-1.7232671530887862,-9.656073479647258,225.5181429039481,-20.964640250405935,-5.180100915760248,-0.5939947649678579,2.1715788187696297,99.59082436341585,0.34344731717271426,0.22744311951632862,0.4828036739823629,0.49827158311866426,220.27533475090289,-13.418786741138655,-1.1480210809953617,-9.631647544575003,-4.297183463481175
GUIDED_NOGPS,0.2227797508239746,20.50432886677063,220.49862983122483,-13.030538450456454,-1.0918575034457347,-9.826667211320993,225.5243893501827,-20.95929120773985,-5.178291180974104,-0.5019726401364809,1.9788129511452985,99.39233906613526,0.41165312126794346,0.2583844116306052,0.4913333605660497,0.4979567831612358,219.0919003110961,-11.281173112311942,-0.5118398251869082,-9.592118628141193,-3.495042550298022
GUIDED_NOGPS,0.26494455337524414,23.723170552369318,219.9264626522594,-11.616784630329306,-0.7880980256205313,-9.998199890483312,225.53298637595526,-20.95192928450674,-5.17578261089045,-0.4380940429758772,1.7638740483192845,99.25035992385821,0.4850788757238232,0.28837441273186604,0.4999099945241656,0.497806157707365,218.87792923563353,-10.150394037537334,-0.7044331706793225,-10.034247011847484,-3.0939720937064457
GUIDED_NOGPS,0.30986928939819336,22.264296368645393,219.42718600261873,-10.18962890002996,-0.7709036381981699,-10.130737259224476,225.5442670271376,-20.942269282289562,-5.1724671456582145,-0.3367837680077821,1.487841344523328,99.0938393088382,0.555492312376308,0.312953627898128,0.5065368629612238,0.49779921824627,218.51713963501805,-9.13731955024062,-1.0964379187282771,-10.227938965822801,-3.151267873219528
GUIDED_NOGPS,0.34821629524230957,26.084466750001553,218.92978479195457,-8.813294089506371,-1.3321907570030513,-10.275912870722745,225.558548142503,-20.930039881356635,-5.168239094582625,-0.2466808729723259,1.3763788471276552,98.97549262108939,0.6262066665127722,0.33979426349092573,0.5137956435361373,0.4980819758312102,217.88662002712232,-7.152168680741167,-2.1957011816015526,-10.534298746976404,-3.20856365273261
GUIDED_NOGPS,0.39069080352783203,23.546308875540337,218.24981046460016,-7.541475823862558,-2.0282412084822847,-10.399892752927729,225.5761305938313,-20.91498343505148,-5.162995119499545,-0.12504530239580838,1.192463197120368,98.8232477044898,0.6864682453000281,0.376448080229609,0.5199946376463864,0.4984326230444914,216.87546311413075,-6.334939240605895,-2.792584525117023,-10.368441398045235,-3.6096341093241864
GUIDED_NOGPS,0.4349229335784912,22.612144116362696,217.70286022621212,-6.265540130545442,-2.73457856265871,-10.54518038357324,225.59729952601393,-20.896855764182668,-5.156634218149819,-0.06207757499404927,1.0353285054052894,98.70668369611437,0.7495433949443133,0.4034756209686857,0.527259019178662,0.49878897217225443,216.35714911915613,-5.3095124702892695,-3.215449981257553,-10.222931590409672,-3.896113006889598
GUIDED_NOGPS,0.47964906692504883,22.36067706250833,217.08567111267365,-5.342779462767825,-3.2612960011970222,-10.704775681564126,225.6223245971594,-20.87542595141368,-5.149057707553613,0.013967083182228165,0.9880259235866604,98.43517001622803,0.7911549913958238,0.4367233115790493,0.5352387840782064,0.4990561191468217,215.79198366794108,-4.383886677408316,-3.77585349721649,-10.349803111081627,-4.5263665815335035
GUIDED_NOGPS,0.5239677429199219,22.56882886276198,216.31134115603717,-4.00397848983766,-3.885282321848722,-10.89835086380939,225.6514602186982,-20.850476135652723,-5.140169207384756,-0.062402702670712455,1.0484179226193844,98.17795192227452,0.8623374151920565,0.4791932163539395,0.5449175431904696,0.499372556557232,214.64548985183563,-2.318536321815401,-4.664543487072124,-10.602658759517183,-5.213915935690491
GUIDED_NOGPS,0.5712039470672607,21.174263573718353,215.43252176909564,-2.6767671212919546,-4.396660155145501,-11.111645976307104,225.68494579548798,-20.82180130644262,-5.129874623345081,-0.34507113534853473,1.2605416135685894,97.90346027991004,0.9270661634612951,0.5259010562628905,0.5555822988153553,0.4996333927659002,213.49252309241467,-1.3278783646521546,-4.749583481147891,-10.656827361243103,-5.614986392282068
GUIDED_NOGPS,0.6152138710021973,22.72584132075574,214.52518194080736,-0.8654349022789048,-4.6263396991675245,-11.351807416634093,225.7230059659189,-20.789209098350614,-5.118082130538773,-0.6017453221285298,1.502699780732456,97.65268988453302,1.023295997874076,0.5747183712247309,0.5675903708317047,0.49975412878431436,212.33876397268924,1.0501099796308342,-4.46489212928256,-11.030155131521,-5.557690612768986
GUIDED_NOGPS,0.6552207469940186,25.002706343812964,213.49284345582055,0.6306130801074268,-4.408144397857323,-11.574647715397164,225.76585084201858,-20.752519585358243,-5.104702156846699,-0.7790736282073099,1.6643409031958623,97.44902730386158,1.0951808908359084,0.6316834930267203,0.5787323857698582,0.4996517211205053,211.1954566942219,2.169607625343594,-4.009957583141517,-11.088569699698255,-5.328507494716656
GUIDED_NOGPS,0.701286792755127,21.709760402486555,212.50844520509068,2.254683571729237,-3.9605072516435933,-11.758600721399747,225.81367624955737,-20.711565075251166,-5.089647366300761,-0.9390597638183101,1.9752416159830282,97.19429539876596,1.1742938886979837,0.6816435948952154,0.5879300360699874,0.4994354299426714,210.86999241429177,3.5443331102132745,-3.4066720425067025,-11.472274095294566,-4.640958140559668
GUIDED_NOGPS,0.7472801208496094,21.745327478315872,211.5760007749023,3.494256950790127,-3.3346506981340682,-11.94606967558179,225.86666396815357,-20.666189904009034,-5.0728326424582315,-1.0350546575082544,2.194741270905612,97.00991444212147,1.2309583914978222,0.731111344815041,0.5973034837790895,0.4991309090278379,209.98326770089386,4.768830116813505,-2.587322468753983,-11.588808171511474,-3.2658594322456924
GUIDED_NOGPS,0.789147138595581,23.88773464552579,210.7217752382865,4.748572838355391,-2.5913591301628274,-12.094849068800587,225.92498197137843,-20.61625023019531,-5.054175071776099,-1.0097321580472551,2.4724934748251197,96.89468915082335,1.2936224338008793,0.7775463768028844,0.6047424534400294,0.4987685920291934,209.22139540933574,5.932555288039389,-1.7800828792277945,-11.914078216215259,-2.521014298575622
GUIDED_NOGPS,0.8341193199157715,22.240802604647218,209.76388131594337,6.304276007485242,-1.4294892325253932,-12.19209932204907,225.98878466686145,-20.56161382934713,-5.033593926985405,-0.8670478520992492,2.551622497020187,96.8268926931218,1.372270347529707,0.8298784179393107,0.6096049661024536,0.49819794765277,207.54929436097353,8.21144261760283,0.07893765040560034,-12.260985805269712,-1.432394487827058
GUIDED_NOGPS,0.8768372535705566,23.415383584739235,208.80934668661286,7.78785876670662,-0.27892474230742187,-12.248114417888615,226.0582131363955,-20.502159888365163,-5.0110106504655905,-0.5832743028178468,2.622329895968628,96.80208544605631,1.444623940665432,0.8824126173168569,0.6124057208944308,0.4976339570459209,206.42278354756942,9.219578394477635,0.8643710018999309,-12.262520931872473,-0.11459155902616465
GUIDED_NOGPS,0.917325496673584,24.702164374687122,207.5603373027106,9.47480465360159,0.9974778061356714,-12.253093994856345,226.133395376042,-20.43777879990342,-4.986348837618836,-0.2446580697609443,2.593210238215925,96.82273310791726,1.5302228234399462,0.9536552557209351,0.6126546997428173,0.49700808667812274,204.6249454947806,10.993392948724297,2.0491247661014853,-12.408119927307297,1.0313240312354819
GUIDED_NOGPS,0.9618985652923584,22.43951293629224,206.34186509229258,10.683174848791554,1.8003298089614514,-12.220274297645034,226.21444653623607,-20.368371956759134,-4.959534220244404,0.07786036791759011,2.621837268574741,96.89810424540835,1.5813899732919263,1.0178265499808399,0.6110137148822518,0.4966200679853971,203.89090664880374,11.836553203172718,2.487493658882941,-12.266492457899673,1.7188733853924698
GUIDED_NOGPS,1.0090367794036865,21.219576853416438,205.08715879502898,11.78888809884405,2.4349577579645767,-12.144155310457231,226.30146916189165,-20.293851546262594,-4.930494649912976,0.3845283644513315,2.594528037838914,97.00597342297037,1.6331044352438941,1.086244363429462,0.6072077655228616,0.4963172737960612,202.94786392301782,12.536718144635127,2.7682548489093057,-12.128602814478086,2.864788975654116
GUIDED_NOGPS,1.0445513725280762,28.166893874782584,203.79055078152246,12.67847503823547,2.743312314914967,-12.040204387581776,226.3945534325068,-20.214140344666994,-4.8991600813410034,0.5664109926439084,2.3561488862767686,97.11710060076648,1.6741182166506892,1.1601278160752126,0.6020102193790888,0.49617876380187204,201.06625429344092,13.662153766898562,2.9741884369526566,-11.90064539420763,2.979380534680281
GUIDED_NOGPS,1.0917689800262451,21.181962800422195,202.71924493069673,13.28700855947742,2.905543907604873,-11.919987197325284,226.4937774022687,-20.129171511538278,-4.865462555765042,0.8373145978991556,2.2106850668625375,97.29151631141193,1.6965853015679404,1.213544653997471,0.5959993598662642,0.49611449676831504,201.06625429344092,13.662153766898562,2.9741884369526566,-11.90064539420763,4.354479242994256
GUIDED_NOGPS,1.141221523284912,20.224722135159244,201.65620990402408,13.915006136039684,2.8552766927972395,-11.729520397989777,226.59920724015893,-20.038888384144983,-4.8293361843160945,1.0437944181598144,2.0530046003440927,97.54030595192964,1.7250895056865485,1.2727248023141058,0.5864760198994888,0.49615769356144335,199.3097703614173,14.420710874321928,2.6174532044864054,-11.464372512695519,5.328507494716656
GUIDED_NOGPS,1.1846668720245361,23.02134012470361,200.56454276865423,14.25951228974582,2.6156891354106198,-11.466352009274795,226.7108974700586,-19.94324427184809,-4.790717131393956,1.285917153717362,1.8313265419630975,97.81025551849605,1.7364452192269633,1.3360510409921016,0.5733176004637398,0.4962967968665977,198.43257097195436,14.695672228016967,2.255425764792799,-11.221363098967885,6.875493541569879
GUIDED_NOGPS,1.2297236919403076,22.21853529333863,199.32265038353444,14.673899125658743,2.0506578448727204,-11.190831472967304,226.82889121085344,-19.842202250490875,-4.749543598041553,1.5413904545030512,1.7736209417083044,98.11181520054129,1.7543049044035244,1.4066913770125904,0.5595415736483652,0.49659989927854287,196.73840199741898,14.905314274637334,1.279094565338958,-10.920873426261068,7.104676659622208
GUIDED_NOGPS,1.263319969177246,29.73291934271901,198.27285231715453,14.832650867434301,1.4790841761217302,-10.892570591104317,226.9532204165391,-19.735734956788747,-4.705755805319284,1.6669856805085381,1.8328782755651598,98.30599747864474,1.7553503062696665,1.4683219466103936,0.5446285295552159,0.4969075800092795,195.81726396154136,14.896966099648601,0.902732198233435,-10.658950649597145,7.333859777674538
GUIDED_NOGPS,1.303086280822754,25.154755907400745,196.96815351448348,14.810642422644577,0.965826772832508,-10.637517018965118,227.08390611632626,-19.623824382719096,-4.659295977679365,1.8278457068073297,1.8683017710349616,98.66152248532225,1.747559156921602,1.5422201865116414,0.531875850948256,0.49718743862474407,194.54276028008573,14.629646893647797,0.7156535549251323,-10.201409788840905,7.964113352318443
GUIDED_NOGPS,1.3423857688903809,25.44902070237604,195.8780297163898,14.63594884250864,0.7538257185852624,-10.333085721630324,227.22095865474574,-19.506461669911143,-4.6101083263401685,1.9158765999250391,1.7832668763636548,99.03425273851902,1.7322846701408687,1.6022589382539585,0.5166542860815162,0.4973180329775373,193.85915137094904,14.381233534229523,0.6430914025972213,-10.153539794798135,8.307888029396937
GUIDED_NOGPS,1.3909571170806885,20.593121394378297,194.60056347330305,14.228897127934964,0.6842437409390438,-10.022117988200995,227.36437793175372,-19.38364690403579,-4.558139032660566,2.113103434851035,1.6268141363485198,99.40930525603358,1.705667136227426,1.6739593671743507,0.5011058994100498,0.4973788086132002,192.04523975652077,13.67581095592757,0.6939862652947794,-9.512560650915702,8.078704911344607
GUIDED_NOGPS,1.4365196228027344,21.951317035897276,193.58606392574043,13.77645024001099,0.6558739266758421,-9.632076385994084,227.51415364283687,-19.25538890919545,-4.50333623151427,2.2044856029736932,1.4949270254569815,99.74582867644011,1.6772358391778177,1.7318344222759159,0.48160381929970425,0.49742039492090495,191.6659042596059,13.272306229875873,0.6305441121355269,-9.452680064163602,8.651662706475431
GUIDED_NOGPS,1.484144687652588,21.00260385370348,192.55218276897327,13.257168303613355,0.6299767815291754,-9.261560595415457,227.6702655191176,-19.121705042313916,-4.4456499946641745,2.3994811004752106,1.3384896533674788,100.20345135083096,1.6456321798557725,1.7927474397060443,0.46307802977077284,0.49746218661190333,190.64785817770553,12.823387725036618,0.5653999671572213,-9.115598774772593,8.307888029396937
GUIDED_NOGPS,1.5236592292785645,25.31431778814526,191.58766783768232,12.800373427274076,0.512215923486917,-8.875007078744563,227.8326835674591,-18.98262098752619,-4.3850323141367005,2.4814926759434344,1.2693189402605847,100.48904888078587,1.6164241419064735,1.8522689404114732,0.44375035393722817,0.4975513758811882,189.72018562363118,12.30542632690973,0.3407036911680041,-8.818605917652619,8.307888029396937
GUIDED_NOGPS,1.5719141960144043,20.726942083415693,190.37078475729584,12.096266907476169,0.22892569236656932,-8.55701748530374,228.0013683105706,-18.838170550568343,-4.3214370855961315,2.4813846735771836,1.1403656090609786,100.88239947508691,1.5742210485896,1.9234841169267771,0.42785087426518703,0.49772481861101864,187.77473596901646,11.159986670482146,-0.2193265812255164,-8.09032155162788,8.078704911344607
GUIDED_NOGPS,1.6133825778961182,24.13001881245649,189.446733616976,11.375266221279738,-0.0792994110942512,-8.187153079909853,228.17627102711245,-18.688395453167345,-4.254820091718962,2.54444076655133,0.9875757714316743,101.19102840292311,1.5301567900561803,1.9789919970729761,0.4093576539954927,0.49791223965968767,187.42498405492165,10.660385666447327,-0.35927534322524024,-8.011905835910383,7.505747116213785
GUIDED_NOGPS,1.6505682468414307,26.89087353742587,188.39013864724816,10.617539284364831,-0.38999220482962976,-7.873471429826111,228.35733399180137,-18.533345127430927,-4.185138985568235,2.6358032978801242,0.7974890455092807,101.4071150976948,1.483981926146494,2.0,0.39367357149130555,0.4981024266096307,186.3829294109667,10.032245516165009,-0.5913746900381316,-7.628838247538823,7.677634454753031
GUIDED_NOGPS,1.694031000137329,23.010352262191475,187.28572517573852,9.835030799333149,-0.7276224880747479,-7.606171964966821,228.5444907155156,-18.37307651023742,-4.112353273967885,2.6522971375086475,0.6642413395907348,101.74004583859791,1.4394441142294814,2.0,0.38030859824834107,0.4983076346070534,185.12579082015728,8.812461215387103,-1.232217430960871,-7.285681684206196,6.875493541569879
GUIDED_NOGPS,1.7389709949493408,22.254255273992953,186.06122527945791,8.962073093320507,-1.1382069329083586,-7.311955396976472,228.73766618539997,-18.207653837625607,-4.03642430087708,2.7244881816108624,0.5281295432541323,102.0356222749302,1.3880187892090368,2.0,0.36559776984882364,0.49855089131601565,183.59768614222824,8.041512548409397,-1.591028677726072,-6.84604519733584,6.245239966925974
GUIDED_NOGPS,1.78279709815979,22.823660009794853,184.95896110189284,7.899190559743953,-1.6923742692377572,-7.0341019061279475,228.93677710497124,-18.037148439184563,-3.9573152307645616,2.6711533688163485,0.49110234071155273,102.25248761126728,1.3249007233314676,2.0,0.3517050953063974,0.4988675295192366,182.263415081191,6.843597915435347,-2.253876699026327,-6.550317858403346,5.557690612768986
GUIDED_NOGPS,1.826085090637207,23.10300306255095,183.71533170983054,7.01978369906908,-2.103484122766909,-6.7880471756905285,229.14173213422308,-17.8616385324435,-3.874991031982991,2.5416619467761925,0.5436674765639709,102.5094529882215,1.2752155359690023,2.0,0.33940235878452646,0.49911424654539194,181.20683709461,6.174240633362485,-2.465546991548327,-6.289042168673916,5.213915935690491
GUIDED_NOGPS,1.8698902130126953,22.834594571052143,182.4901606589608,6.183905377696657,-2.4179100924414976,-6.57650699998091,229.3524321297313,-17.681209017261626,-3.7894184601432865,2.441628276852655,0.5028858044119999,102.67124650928076,1.2259581171490022,2.0,0.3288253499990455,0.4993142458161491,180.25707415661796,5.533877584292129,-2.534306586749838,-6.090787595619844,4.068000345428845
GUIDED_NOGPS,1.9071519374847412,26.84388920178178,181.29650311077236,5.549895110115622,-2.5410974019117165,-6.394223728952666,229.56877038475915,-17.49595127021798,-3.7005660414889663,2.1966296047677094,0.6581679140364184,102.8146190101485,1.1864813284637485,2.0,0.31971118644763336,0.49942026568021136,179.1575030792151,4.941567112692241,-2.623438627436982,-5.969266382525447,3.495042550298022
GUIDED_NOGPS,1.9525847434997559,22.0146858909423,180.27212510939543,4.948266928857313,-2.5896466423611573,-6.2793251336404285,229.79063286936224,-17.305962939001272,-3.6084040562704907,1.9434524214819078,0.7068631073937897,102.93261735824964,1.1502194941134565,2.0,0.31396625668202144,0.49949062129304533,178.4757961353435,4.36935608958756,-2.6111947128966495,-5.940306201249356,2.2345354010102105
GUIDED_NOGPS,1.9941699504852295,24.052942458337633,179.09798462338776,4.193668550129405,-2.5009155802905245,-6.158171566986793,230.01789847049386,-17.111347736799758,-3.5129045221196056,1.7028781111535436,0.8117622198839033,103.00545449555865,1.100844954303145,2.0,0.30790857834933966,0.49949400552908546,176.39271265115255,3.2700824481084023,-2.268113400537939,-5.742886487983711,1.948056503444799
GUIDED_NOGPS,2.0359761714935303,23.923432313115295,177.88994666027153,3.463597879843126,-2.2826042922882337,-6.082563214586758,230.25043923211015,-16.91221523669105,-3.414041177423681,1.5816910252053593,0.8172573205145901,103.03825989414223,1.055640163696704,2.0,0.3041281607293379,0.4994342815574323,175.166647279029,2.7513551018334033,-1.9685047634301098,-5.590134182267988,0.9740282517223995
GUIDED_NOGPS,2.077500820159912,24.08761421261493,176.66406231043814,2.7895382540271743,-1.9749026620587002,-6.031974540950461,230.48812059527518,-16.708680666032,-3.3117894647000545,1.4416548583037614,0.7536191673571119,103.0397010640571,1.013123869256911,2.0,0.3015987270475231,0.49933155659867934,174.12765240745085,2.3471772121397048,-1.6880898222080498,-5.476279435323647,0.5156620156177409
GUIDED_NOGPS,2.1186957359313965,24.277650436433515,175.39652171797303,2.3253231220373913,-1.724329382022593,-6.015198246995653,230.73080163826623,-16.500864700848503,-3.206126513970375,1.2456273619073377,0.8016637851960394,103.02283732699634,0.9827071513416542,2.0,0.30075991234978267,0.49925910143402613,172.8198001168895,1.8774370521390538,-1.5163935604296164,-5.398524979093338,-0.6875493541569879
GUIDED_NOGPS,2.1592724323272705,24.65106055352137,173.81430308699788,1.8178677806384067,-1.5256299442545656,-6.028548594464034,230.9783353166788,-16.288893260225386,-3.0970311261349392,1.1770580256125218,0.8910568741663432,102.96144075654709,0.9467064824934914,2.0,0.30142742972320175,0.4992142994090598,170.56470298046764,1.2289890776364492,-1.3724064501260276,-5.371049408198829,-1.2032113697747289
GUIDED_NOGPS,2.2003793716430664,24.332437998549672,172.42226374074002,1.3578091948816737,-1.391496216749964,-6.068000070980164,231.23056870353193,-16.072897300696233,-2.98448375634704,1.0368936859422802,0.9985139992223324,102.91785048926407,0.9141861157908242,2.0,0.3034000035490082,0.4992035062302015,169.4325159198633,0.9670014548695058,-1.2856886396942457,-5.385230394110749,-1.8334649444186344
GUIDED_NOGPS,2.2411372661590576,24.541584262694112,171.04402813881464,0.9893771071724998,-1.2796653273149934,-6.131171339210011,231.48734322937327,-15.853012610633227,-2.8684664973873026,0.9507702298720028,1.0575679215079683,102.79961308454199,0.8866022472883126,2.0,0.3065585669605006,0.49920559941496384,168.27546926940198,0.7721407890115315,-1.1809008921247042,-5.3942347568581255,-2.46371851906254
GUIDED_NOGPS,2.27030873298645,34.28960104643558,169.59704344148204,0.7677166839979185,-1.1664147985111117,-6.199151569456835,231.74849492238425,-15.629379604637009,-2.7489630630380293,0.7753580052988228,1.212202443821705,102.71928322971347,0.864409672447847,2.0,0.3099575784728418,0.4992087258677365,166.89272892078785,0.5640078081127052,-1.0326548637143824,-5.35285427721854,-2.177239621497128
GUIDED_NOGPS,2.309325933456421,25.635988020292157,168.11142347134145,0.5900407986994248,-1.0065683066151303,-6.270147858231979,232.01385464848534,-15.402143117926519,-2.6259587714575403,0.5590522642260131,1.3726292867167298,102.60828582551159,0.8471944955529815,2.0,0.313507392911599,0.4991903047675788,165.39170026618658,0.4339737989740249,-0.8061491640063018,-5.228996020716792,-3.380450991271857
GUIDED_NOGPS,2.3498144149780273,24.701146040682676,166.7777917436627,0.42575299972054204,-0.7959935536891357,-6.37787145902167,232.28324835144102,-15.17145220072885,-2.4994405285545165,0.27598299816148886,1.6200219401057652,102.4488418895268,0.8283897798122772,2.0,0.31889357295108356,0.4991482765125673,163.89654434207392,0.2792773920748832,-0.5491766333467206,-5.245000232019123,-3.724225668350351
GUIDED_NOGPS,2.39254093170166,23.41028660731728,165.66682916410113,0.3630999559422666,-0.5316799421365243,-6.5080290580950315,232.55649729296513,-14.93745991266907,-2.3693968113623405,0.012334547908676113,1.8988570491738368,102.2779710470606,0.8156000549294908,2.0,0.3254014529047516,0.4990811415653871,163.87770302205553,0.37604867677787907,-0.23971402905654818,-5.73414196044574,-3.8388172273765155
GUIDED_NOGPS,2.4377524852752686,22.126407858156476,164.28654595790823,0.3273463242480597,-0.05917424012349359,-6.650660784146826,232.83341829282602,-14.700323117160107,-2.235817651413438,-0.37424500772777486,2.180504595354367,102.10766028010633,0.8030970188303957,2.0,0.33253303920734134,0.498911678294355,161.37405323843748,0.32671290389140434,0.6113679420327903,-6.117918410580202,-3.6096341093241864
GUIDED_NOGPS,2.478700637817383,24.424539234240793,162.92025627480638,0.33625559939720545,0.5040439449949695,-6.796413196157454,233.11382396895158,-14.460202275792563,-2.098694618113618,-0.6027921019796871,2.5479875557212703,101.93757490939467,0.7923392301334977,2.0,0.33982065980787274,0.4986986307184457,160.0612805052786,0.30600521752232035,1.1404779220086685,-6.4059665751049835,-3.151267873219528
GUIDED_NOGPS,2.513546943664551,28.706284947745207,161.27620215760948,0.32276951786279834,1.4592539355770444,-6.926608178273661,233.3975229775345,-14.217261242724568,-1.958020802116422,-0.7486490841580169,2.8236625283594474,101.85236829949876,0.7791542628598529,2.0,0.34633040891368305,0.49829136263115326,157.17142968020204,0.3355904321746577,2.6259159426896757,-6.560389226309482,-3.380450991271857
GUIDED_NOGPS,2.5536177158355713,24.96089505162615,159.74394555812236,0.34964891408564963,2.3967445841775885,-7.020305658837389,233.68432025313746,-13.971667059071647,-1.8137907986974557,-0.8678605378887749,3.020678908081642,101.72812032830706,0.7697550583981008,2.0,0.35101528294186946,0.49789473230856246,156.2352613446384,0.40735109255995805,3.423839887834422,-6.901196324859626,-2.4064227395494577
GUIDED_NOGPS,2.5968246459960938,23.148650587780782,157.9821817105556,0.3928153606405038,3.3793064722456965,-7.116499774577449,233.9740172487982,-13.723589747296533,-1.6660006911287368,-0.8363004748899674,3.3048689921807095,101.61542220700186,0.7604824193522866,2.0,0.35582498872887247,0.49747734641831276,155.06888378422175,0.43550455718688275,4.088163586212994,-7.0066979751218526,-2.0626480624709638
GUIDED_NOGPS,2.6406023502349854,22.847406293748197,156.50802987813412,0.4445350845342128,4.07488625729932,-7.203506169551264,234.2664121761348,-13.473202105599038,-1.5146480340530353,-0.7911973207057882,3.402862996863352,101.52930035175716,0.7512522020984099,2.0,0.3601753084775632,0.49720523285432383,154.0032940763301,0.4907496038557846,4.712655297850547,-7.353241978704034,-1.4896902673401404
GUIDED_NOGPS,2.675045967102051,29.039991137698017,154.68687959762718,0.4546120667462339,4.841791631732615,-7.272114686178044,234.56130024545075,-13.220679502305897,-1.359731836858216,-0.8981196099332537,3.5567808829227663,101.499042613734,0.7383583468272049,2.0,0.36360573430890225,0.4968992382657046,150.95552910274398,0.4375820391960213,5.724556011134308,-7.141345264854763,-1.260507149287811
GUIDED_NOGPS,2.7201530933380127,22.173079159662088,153.44369948213557,0.45530456074928005,5.387255773373053,-7.303660822717867,234.85847390584016,-12.966199670260604,-1.2012525470515802,-0.9500418542300444,3.5311412065521846,101.4421471379478,0.7269707117432228,2.0,0.3651830411358934,0.49670574583978766,150.95552910274398,0.4375820391960213,5.724556011134308,-7.141345264854763,-0.5156620156177409
GUIDED_NOGPS,2.7563538551330566,27.627549138430734,151.884169179293,0.41701620950919,5.946775300027636,-7.346728201537674,235.1577230852929,-12.709942501213266,-1.039212033634204,-1.1823581456867458,3.5857007576422464,101.4228108724075,0.7114787684763801,2.0,0.3673364100768837,0.4965070063331691,148.4376098304256,0.37588455013551436,6.391213877814296,-7.33075865100588,-0.9740282517223995
GUIDED_NOGPS,2.8035340309143066,21.200913888271092,150.26864271460258,0.3852916722244158,6.247076287114193,-7.363862103642097,235.45883543079978,-12.452089840210444,-0.8736135704752863,-1.2554341261733006,3.521114488850606,101.3947934364321,0.6985850363853595,2.0,0.36819310518210485,0.49643965507120524,146.99125146076966,0.34240842734169885,6.625458972393974,-7.177764798779123,-0.11459155902616465
GUIDED_NOGPS,2.836869716644287,30.0041061298653,148.66371327854137,0.3293297784301252,6.564044555682649,-7.377029871850248,235.76159654845773,-12.192825279985021,-0.7044618196864869,-1.3127831692090781,3.3727175300746777,101.40097475763096,0.6815944662093165,2.0,0.36885149359251246,0.49636574681231543,145.978646896024,0.2696963578131494,6.675460816839677,-7.328431376493654,0.057295779513082325
GUIDED_NOGPS,2.877196788787842,24.80017028925522,147.44188234040524,0.3025458625641273,6.62653765657889,-7.360841076621714,236.06579024357492,-11.932333955345998,-0.5317628149962674,-1.2274375009305358,3.322302196263521,101.42456623102419,0.6688933526785893,2.0,0.36804205383108574,0.4964208497642124,144.84637441206334,0.2955328025375209,6.57869318050302,-7.178599681016692,0.9740282517223995
GUIDED_NOGPS,2.917738914489746,24.6967827029064,146.01854849300614,0.2769589454126153,6.548163037744453,-7.3290383621706345,236.371198760776,-11.670802337568407,-0.3555239451242338,-1.0153402769643645,3.115819601238512,101.4607525732469,0.6550277063637445,2.0,0.3664519181085317,0.49654815650856565,143.83885986574847,0.2656476758871629,6.3903351158906645,-7.1517801640130045,1.260507149287811
GUIDED_NOGPS,2.9565675258636475,25.759898785798075,144.6562859709603,0.28985257268336123,6.2693201068238755,-7.287092502437984,236.67760302410713,-11.408418028783103,-0.1757539371554815,-0.9325626530920412,3.139472973221089,101.50368031218045,0.643339642086549,2.0,0.3643546251218992,0.49677746297801034,141.62629722019642,0.3083772396253871,5.8389320240779465,-7.104306640054787,1.260507149287811
GUIDED_NOGPS,3.000035524368286,23.013887440946824,143.34958878557774,0.3043259674170277,5.927243171139811,-7.228536369503353,236.98478287714133,-11.145369556366642,0.007537160085068884,-0.6914875511592975,2.945196353129716,101.58674224267696,0.6317643236101659,2.0,0.36142681847516767,0.49704014699447263,140.45776553385676,0.3389529867385205,5.552462373450824,-6.887119390133719,1.948056503444799
GUIDED_NOGPS,3.036098003387451,27.733869367999258,142.07171973231496,0.3343696880476094,5.568493891629248,-7.1578787235734245,237.29251732308347,-10.881846167331116,0.19433799265832352,-0.5855343483811806,2.8801323979829974,101.65874609690724,0.6201282976994463,2.0,0.35789393617867127,0.4973129220505145,139.58930162971012,0.3557788377789079,5.314087277358975,-7.0403438575856825,1.8334649444186344
GUIDED_NOGPS,3.0750839710235596,25.65653080823837,140.8614470232027,0.38273167217609255,5.336510978390652,-7.0947370912376435,237.60058476487555,-10.618037622713992,0.3846359181366781,-0.43242909475043917,2.633768755281107,101.73586576282585,0.6102391177408522,2.0,0.3547368545618822,0.497524062469873,138.795010866502,0.4534631920108367,5.142983284362161,-7.027077855782068,1.8907607239317168
GUIDED_NOGPS,3.113720178604126,25.91027811067594,139.52484436726505,0.45955865558522396,5.044270907419166,-7.027299541160134,237.9087632453018,-10.354133991967984,0.5784170222296767,-0.4527326324710954,2.492089287553886,101.82672776935453,0.6016582717461453,2.0,0.35136497705800673,0.49776707305740525,137.15584658606022,0.5694339369659147,4.675742160536364,-7.031696838223027,1.8334649444186344
GUIDED_NOGPS,3.1545522212982178,24.47727816521257,138.44195982273226,0.5626980837049892,4.727581258648313,-6.949676136880729,238.21683068709387,-10.090325447350864,0.7756661354096623,-0.39064786710211913,2.3147254965079336,101.9075015864791,0.594478342970924,2.0,0.34748380684403646,0.49802404243838067,136.21187449753253,0.6651971221382037,4.364018331046419,-6.93367161424851,2.3491269600363753
GUIDED_NOGPS,3.1992952823638916,22.356267189732,137.45682041596956,0.6943630188832827,4.373421028667717,-6.865162717584485,238.52456513303605,-9.82680205831533,0.9763668495374427,-0.24357452428214527,2.12189644963378,101.98863740362968,0.5888970637288516,2.0,0.34325813587922427,0.49830147291043486,135.53206850004327,0.8484579975457175,4.080502594420368,-6.804816699479218,2.291831180523293
GUIDED_NOGPS,3.2379708290100098,25.85979752641898,136.45328964428126,0.8239625494238965,4.010482320461077,-6.749309526629393,238.83174498607022,-9.563753585898873,1.1805015344879495,-0.21986532350723106,1.9330272049309412,102.15302639657355,0.5823597864039045,2.0,0.33746547633146967,0.49858500960701346,134.57164777126854,0.9582325285877562,3.5869260359164445,-6.805562292114857,3.323155211758775
GUIDED_NOGPS,3.279660224914551,23.989521788616955,135.44829346503337,0.945794770289479,3.632818551508766,-6.644431375856487,239.13814924940138,-9.301369277113572,1.388051354775893,-0.07397152234040667,1.829380364936467,102.2552606680703,0.5758039402970332,2.0,0.3322215687928244,0.4988776164016336,133.77002997026278,1.0306937847349513,3.231027024189489,-6.765805167844178,2.807493196141034
GUIDED_NOGPS,3.314471483230591,28.73184866523726,134.42253805605245,1.0950340182099174,3.1495742835754412,-6.514310992778643,239.44355776660245,-9.039837659335976,1.5989962861814142,-0.05752765515061585,1.7019299955193812,102.36209165687848,0.5705968407049213,2.0,0.3257155496389322,0.499224711001303,132.0270695411555,1.2961757413070323,2.630769790620393,-6.438058288515023,3.666929888837269
GUIDED_NOGPS,3.352900266647339,26.026036560394147,133.36065837841397,1.238403338950443,2.7481514870629193,-6.402376407045489,239.74775146171964,-8.77934633469696,1.8133151323757604,-0.0608885617895117,1.6442569453848512,102.49976094978925,0.5652386778148861,2.0,0.32011882035227446,0.4995325818226564,130.9024761093402,1.3883404908093333,2.3826576463788793,-6.181261936825933,3.380450991271857
GUIDED_NOGPS,3.3966805934906006,22.8477796661873,132.25104323215268,1.4033330182009118,2.4000936529954395,-6.281802174543601,240.0505125793776,-8.520081774471528,2.0309855415469222,0.006129694573689764,1.561120950024514,102.6304224686116,0.561355042055654,2.0,0.3140901087271801,0.49981544594427574,129.98399276873684,1.5254828224863577,2.18685352198705,-5.974730923131403,2.979380534680281
GUIDED_NOGPS,3.440048933029175,23.061845693674673,131.2184805529194,1.5269512941862262,2.2007969005252725,-6.166417734235457,240.35162492488448,-8.262229113468713,2.2519840230253108,0.13951703250403735,1.4372535484356286,102.7289752681457,0.5546659004733485,2.0,0.3083208867117729,0.50002559356125,129.4088343751022,1.6670305692629757,2.0328795332098917,-6.047600989585078,2.7501974166279517
GUIDED_NOGPS,3.4835264682769775,23.020076618258855,129.73514761525598,1.6983806192521824,1.90759713897509,-6.051349379431941,240.6508741043372,-8.005971944421375,2.4762859639093993,0.2009150837169497,1.3810603014734644,102.83426263420145,0.5513857527412501,2.0,0.3025674689715971,0.5002843444124672,126.35336528194554,1.9026284660072015,1.5030583617283328,-4.810570308249666,1.7188733853924698
GUIDED_NOGPS,3.5222678184509277,25.80776638096,128.60040676341401,1.8240958337591306,1.679665418888851,-5.9608718706094335,240.9480477647266,-7.751492112376084,2.7038656456913985,0.29409260441554297,1.2906637083036976,102.88884267585902,0.5446295501739371,2.0,0.29804359353047166,0.5005121001134013,126.35336528194554,1.9026284660072015,1.5030583617283328,-4.810570308249666,1.5469860468532228
GUIDED_NOGPS,3.5622568130493164,25.01433717407381,127.80626600789947,2.126736120774931,1.497954829132967,-5.913469159099865,241.24293583404256,-7.49896950908294,2.9346962608828955,0.4645301834367057,1.358967627716235,102.91533014946033,0.5498112642546009,2.0,0.2956734579549933,0.500718370715875,126.93177233176759,2.574951430310377,1.48774776394224,-5.731407874500334,0.5729577951308232
GUIDED_NOGPS,3.6032345294952393,24.40563721211698,127.00314965779187,2.468425843535161,1.4775063402971822,-5.887255410393479,241.53533076137916,-7.248581867385447,3.168749929640531,0.6399720766440928,1.3669128452682522,102.90832237537191,0.5552589627742099,2.0,0.29436277051967397,0.5008456217946716,125.96841101819885,2.927697634287893,1.441712895220978,-5.466657211579474,-0.057295779513082325
GUIDED_NOGPS,3.6480982303619385,22.298622519232097,126.15251523649943,2.9311226861632274,1.465516086435044,-5.890303748769641,241.82502775703992,-7.000504555610327,3.405997716391643,0.7321654898132489,1.3204046998274603,102.88123384512363,0.5677380475716312,2.0,0.2945151874384821,0.5009702408149783,125.15566226863997,3.2907189938913985,1.4670876001419184,-5.575371264048087,-0.9167324722093172
GUIDED_NOGPS,3.686755895614624,25.892523566415004,125.657225649448,3.450095274991773,1.4577518715313966,-5.936403520456581,242.11182503264286,-6.754910371957408,3.6464096464599356,0.6411567942999727,1.4205586451134133,102.81517908566045,0.5829409843356423,2.0,0.29682017602282906,0.5010943288874643,123.8769173466884,4.131869196796017,1.464455119231298,-6.897733064808222,-1.8334649444186344
GUIDED_NOGPS,3.729217290878296,23.549085110802935,125.16193606239656,3.8514857958278146,1.4653326128681698,-6.010077783253787,242.39552404122577,-6.511969338889415,3.889954722691127,0.5677402114894163,1.4234753493324204,102.70961851203789,0.5895929811015395,2.0,0.3005038891626894,0.5012123110549115,123.8769173466884,4.131869196796017,1.464455119231298,-6.897733064808222,-2.521014298575622
GUIDED_NOGPS,3.7641992568969727,28.589080498943495,124.35545477819464,4.4989679806244816,1.5187668950541016,-6.127806259039117,242.67592971735135,-6.271848497521859,4.136600942078618,0.5517440685358052,1.251199835774716,102.58064404994055,0.6142968248678274,2.0,0.30639031295195585,0.5013089170235122,122.89936591075798,5.233165548281399,1.627390446699714,-7.613031034922074,-3.495042550298022
GUIDED_NOGPS,3.811738967895508,21.038633240035715,123.43067241618537,5.053253416885674,1.6350580735545879,-6.243066425901589,242.95285071721221,-6.034711702012906,4.386315312389143,0.4038885623341591,1.3038931443957775,102.43724422831613,0.628222166994919,2.0,0.3121533212950795,0.5013756286194173,121.34449920815246,5.794725505579597,1.8133286547327558,-7.0099147282338805,-3.666929888837269
GUIDED_NOGPS,3.8444981575012207,30.534007935063517,122.54885409583025,5.829670315765952,1.7463258675001991,-6.400966559173727,243.22609965873636,-5.800719413953132,4.639063868788431,0.34041577445978927,1.1332898532459628,102.28984191583808,0.6606586983515178,2.0,0.3200483279586864,0.5014463690006441,120.74657066686439,6.461119893436852,1.798258501068132,-7.244464420282441,-3.4377467707849396
GUIDED_NOGPS,3.880514144897461,27.771881848940918,121.55964498343067,6.707236242352486,1.8132053789349822,-6.521478530447305,243.49549336169204,-5.570028496755455,4.89481169046686,0.19850071856705595,1.1980153938636482,102.16682337869698,0.694169923334711,2.0,0.3260739265223653,0.501540803155766,118.93087178469047,7.865863328040999,1.828028981004063,-8.010009685100158,-3.8388172273765155
STABILIZE,3.9287703037261963,20.726634809723123,120.33492169089621,7.652409617926469,1.803731052623882,-6.65022661029162,243.7608530877931,-5.342792010044967,5.153522917265122,0.11937543163169122,1.1845815857049966,101.97473113847954,0.7291251515443085,2.0,0.33251133051458104,0.5016748959323206,117.75330088401607,8.63024563230155,1.7849056757994546,-7.381375852513614,-3.552338329811104
STABILIZE,3.969780445098877,24.38903328972234,119.052831107264,8.615212242744924,1.789624008655944,-6.806959224603493,244.02200478080408,-5.119159004048754,5.415160766299885,0.21011150654754873,1.1943852550414922,101.85804418669905,0.696304222892902,2.0,0.3403479612301747,0.5018127683788219,116.48891299259697,9.349527767892221,1.755937369164318,-7.615921014921966,-2.5783100780887045
STABILIZE,4.005860090255737,27.72287070207675,118.01764936702791,9.396563345744132,1.7611010886542064,-6.9083643689036185,244.27877930664545,-4.899274313985735,5.679687548589436,0.15609391495987152,1.2264487243264708,101.78755663446451,0.7230727960764991,2.0,0.34541821844518095,0.5019592932299676,116.16859050697204,10.20991663703862,1.7424602209988498,-8.592553694804764,-1.4896902673401404
STABILIZE,4.044308662414551,26.014091495484767,116.78692981181818,10.13714755444988,1.8057820464493533,-6.965817830934062,244.53101269349855,-4.683278354456597,5.947064685679337,0.189603956946078,0.9139465456223483,101.75105610353997,0.7484199371249913,2.0,0.3482908915467031,0.502070641319615,114.59297289081574,10.851998258418792,1.918948549184895,-8.57155527143098,-0.5729577951308232
STABILIZE,4.082913637161255,25.90883764601234,115.69150045911124,10.860538620903684,1.9053127019740324,-6.987534600032702,244.77854637191115,-4.47130691383348,6.217252726268112,0.2575111250771596,1.0336884062308402,101.76540633098617,0.7738052715201417,2.0,0.3493767300016351,0.5021559700121471,113.4537250211557,11.51970096725363,2.0545293357383563,-8.567173185409516,0.8594366926962349
STABILIZE,4.1232099533081055,24.822038763130642,114.6159812434712,11.53044007215622,2.0347923834737425,-6.945468948327588,245.02122741490217,-4.263490948649981,6.490211362832871,0.49005150543557574,1.633023845521119,101.87329599911568,0.7960670353523007,2.0,0.34727344741637944,0.5022277094896795,112.37570480581586,12.219620990796225,2.13089926549798,-8.119596474446126,3.0366763141933633
STABILIZE,4.161508798599243,26.115324985834988,113.30156794564171,12.336724887233203,1.9458576938231495,-6.849183762435703,245.25890877806722,-4.059956377990922,6.765899448255005,0.9739527456886723,3.6259233147776286,102.04720627576255,0.8283366708756112,2.0,0.34245918812178516,0.502410020877216,109.91684650344945,13.270852703649739,1.6521444802331164,-8.408331541375063,4.297183463481175
STABILIZE,4.195605039596558,29.33674661294948,111.74635250418726,13.05440420656233,1.8305238210921388,-6.719868587601405,245.49144953968352,-3.8608238778822326,7.0442750124458025,1.3216059593477363,5.3591512647864175,102.17504692645768,0.8539442801221836,2.0,0.33599342938007026,0.5026068755956768,108.39251329969974,13.672738925241006,1.7085277175453246,-8.230289748312828,4.640958140559668
STABILIZE,4.231123208999634,28.161220365384487,110.447975490096,13.748194776566239,2.0340940603854416,-6.614050078404638,245.7187151408151,-3.6662086756807213,7.3252952789721375,1.6776039566252634,8.23604359178189,102.36105346812464,0.8784118309260981,2.0,0.3307025039202319,0.5026456006092933,108.10108782035947,14.300992700807951,2.7416099833778884,-9.240726915604426,3.7815214478634336
STABILIZE,4.262609243392944,31.770938591242036,109.22592593436643,14.15150571548329,3.2473955817719857,-6.531668769983949,245.9405776254182,-3.4762203444640036,7.608916681682117,1.8568577890806053,11.100477226844436,102.50432351615483,0.8853274476060754,2.0,0.32658343849919746,0.5021807605499551,107.34347724250792,14.480785520400895,5.29204904439275,-9.28280119006817,2.291831180523293
STABILIZE,4.296767950057983,29.281244327780957,108.21948042170484,14.420854580536586,4.441902690721127,-6.507203714331012,246.15691588044604,-3.2909625974203465,7.895094881330738,1.460244178625303,15.472220913607492,102.68315835919327,0.8874216797510857,2.0,0.3253601857165506,0.5017265960953048,107.34347724250792,14.480785520400895,5.29204904439275,-9.28280119006817,0.2291831180523293
STABILIZE,4.328870534896851,31.1675001671955,107.70480656951653,14.4807855204009,5.292049044392748,-6.522152543709504,246.3676158759543,-3.110533082238483,8.183784782205553,1.155453817102654,17.137564467229172,102.63739609175418,0.8782484887128079,2.0,0.32610762718547526,0.5014458678689064,107.34347724250792,14.480785520400895,5.29204904439275,-9.28280119006817,-1.4896902673401404
STABILIZE,4.364592552185059,27.9995460583849,107.49499935807816,14.4807855204009,5.292049044392748,-6.573749557641657,246.57257090520613,-2.9350231754974274,8.474940548752325,0.5784141963365595,18.248243726279746,102.55440929333852,0.8689619465340046,2.0,0.32868747788208286,0.5015914457521798,107.34347724250792,14.480785520400895,5.29204904439275,-9.28280119006817,-2.177239621497128
STABILIZE,4.407208442687988,23.4693644594156,107.34347724250786,14.4807855204009,5.292049044392748,-6.669218677459201,246.77168182477737,-2.7645177770563762,8.768515622200677,-0.03268836489296866,18.475311657689527,102.464517173672,0.8609987867118549,2.0,0.33346093387296005,0.501738233288904,107.34347724250792,14.480785520400895,5.29204904439275,-9.28280119006817,-3.724225668350351
STABILIZE,4.448393821716309,24.286084861960347,104.59598813610864,14.62570750317803,14.699493226839238,-6.7900760489145755,246.96485729466178,-2.5990951044445367,9.064462737189764,-0.2692329303120915,17.78304807964664,102.34337010836347,0.861700230097443,2.0,0.3395038024457288,0.49718248475517524,93.60603171051189,14.91555146873228,33.51438159173222,-8.190796061401286,-3.380450991271857
STABILIZE,4.492266416549683,22.797360611364155,101.97275971997676,14.991044061316884,24.747215809463906,-6.906936118369247,247.152014018376,-2.438826487251042,9.362733938393927,-0.1692848645368041,16.20970546659774,102.19087247476459,0.8745956134908004,2.0,0.34534680591846234,0.492307759064465,94.22733516184852,15.576795194817455,35.43521679226676,-7.167964334459725,-2.9220847551671985
STABILIZE,4.523339748382568,32.193546406312365,99.3268033209547,15.496958374927887,34.839239663902404,-7.02443155052053,247.33307698306493,-2.2837761615146306,9.663280597148336,0.12302942275508937,14.946880328690547,102.08055808947972,0.8953153328781395,2.0,0.35122157752602656,0.48741202046662296,94.11369524739754,15.998528461233906,35.56812060770825,-6.278158232598628,-2.979380534680281
STABILIZE,4.5633018016815186,25.027920159918846,96.82691132790896,16.03453472278478,35.22121121353473,-7.089391965411426,247.50797969960678,-2.13400106411364,9.966053428074677,0.44665947372104337,12.824139496920623,101.97279136475525,0.9139525836454954,2.0,0.35446959827057134,0.48737242110726997,94.84401727727924,16.528280512302967,34.66029624062918,-5.461129718009474,-2.46371851906254
STABILIZE,4.595470428466797,31.096098812295192,94.32701933486324,16.35169649527995,34.96290436298887,-7.166344088398495,247.67666444271825,-1.9895506271557721,10.271002505706782,0.674219498916183,11.380106879012052,101.89920290663754,0.9203412735217922,2.0,0.35831720441992476,0.48765404907135895,94.84401727727924,16.528280512302967,34.66029624062918,-5.461129718009474,-1.6615776058793874
STABILIZE,4.630432844161987,28.60955629071314,94.5746164482167,16.52828051230297,34.66029624062917,-7.223748309805497,247.83908249105974,-1.850466572368056,10.578077281116318,0.90264909257003,9.910307372459606,101.79644954076387,0.920115968577666,2.0,0.3611874154902749,0.48795889052024355,94.84401727727924,16.528280512302967,34.66029624062918,-5.461129718009474,-2.291831180523293
STABILIZE,4.664809942245483,29.09498539806741,94.69795287130285,16.52828051230297,34.66029624062918,-7.294256466972416,247.99519436734045,-1.71678270548653,10.887226598538405,1.018801155161151,8.509143583102972,101.68889455190367,0.9109454611063054,2.0,0.3647128233486208,0.4881134651789546,94.84401727727924,16.528280512302967,34.66029624062918,-5.461129718009474,-2.635605857601787
STABILIZE,4.697147846221924,30.933726676008554,94.84401727727918,16.52828051230297,34.66029624062918,-7.368334073418545,248.14497007842363,-1.5885247106461904,11.198398711997303,1.132316551289236,7.542980027832465,101.57830012886284,0.9044413813193903,2.0,0.36841670367092727,0.48826905123568404,94.84401727727924,16.528280512302967,34.66029624062918,-5.461129718009474,-2.807493196141034
STABILIZE,4.732893705368042,27.979000593693506,94.84401727727918,16.52828051230297,34.66029624062918,-7.449888071194495,248.2883893554316,-1.465709944770829,11.511541301932073,1.174246655717121,6.404139898833927,101.42809060863591,0.8986271116340734,2.0,0.3724944035597248,0.48842562253065147,94.84401727727924,16.528280512302967,34.66029624062918,-5.461129718009474,-3.380450991271857
STABILIZE,4.771950721740723,25.608127579554058,96.67553191920733,17.8779740074074,28.44003648899806,-7.55160098398961,248.4254418938511,-1.348347231962883,11.82660149182222,1.2296897558093476,5.346913700227871,101.21823304638727,0.9778240727123525,2.0,0.3775800491994805,0.4916932825014121,104.00159048691998,20.577360997616253,15.999516985735825,-3.8955788634186916,-4.239887683968092
STABILIZE,4.806910514831543,28.611312723403096,98.50704656113548,19.227667502511824,22.219776737366942,-7.6771210068610625,248.55612759363825,-1.2364366578932149,12.143525864813355,1.2375440464680392,4.789577094144001,101.07011356404637,1.0416552675446542,2.0,0.38385605034305315,0.4949618745637232,104.00159048691998,20.577360997616253,15.999516985735825,-3.8955788634186916,-4.354479242994256
STABILIZE,4.841190576553345,29.178375896540448,101.94696755860109,21.405669523027086,13.995499383420736,-7.810466209705169,248.68045679932393,-1.1299693641910906,12.462260480342849,1.1445860256378118,3.8785318848150263,100.88273415435624,1.1577879766762125,2.0,0.39052331048525846,0.49923338054846106,112.04362226460732,23.06228657384875,9.987464178790555,-6.2363158915227785,-4.640958140559668
STABILIZE,4.879012823104858,26.444633591203417,105.18605929491821,22.124491906157047,11.442097643880308,-7.944188486298598,248.79845054011878,-1.0289273428338888,12.782750890765513,0.9755855877871284,2.829083137239499,100.6677744407976,1.1667208842293881,2.0,0.39720942431492995,0.5006703266234426,111.03947595886478,22.733828147006133,8.339311767114538,-5.540066815533052,-4.755549699585833
STABILIZE,4.918700695037842,25.199036329882784,109.51908884382829,23.401282898000577,7.53249724330901,-8.098371522189055,248.91014077001844,-0.9332832305369934,13.104942157979224,0.853888318724456,1.6938238416350455,100.47839378568065,1.2325241685437918,2.0,0.40491857610945275,0.5027862224573351,116.50916502182963,24.40773397314684,4.270715784021929,-7.256874461331421,-4.1252961249419275
STABILIZE,4.962551593780518,22.80975843203794,112.02060375081021,23.849765364433278,5.626914445052802,-8.254024631804072,249.01557060790864,-0.8430001031436731,13.428778870050603,0.6782965348812988,0.44484563160958185,100.29012645139842,1.239817123811354,2.0,0.4127012315902036,0.5039009322124989,116.50916502182963,24.40773397314684,4.270715784021929,-7.256874461331421,-3.9534087864026803
STABILIZE,5.00151515007019,25.67129173424733,115.31921024531141,24.89321397263639,2.8566040616182846,-8.3953737771487,249.1147945776706,-0.7580312700149889,13.754205157840705,0.5722057678244296,-0.6141035355754629,100.14636462974799,1.2958610067551326,2.0,0.419768688857435,0.5054488005481113,120.49462295942597,25.86417397161547,0.028380616810985516,-6.919880638068648,-2.7501974166279517
STABILIZE,5.038933038711548,26.73012433641572,117.00941038427516,25.378693972125934,1.4424923392146365,-8.50276578262485,249.20787884828573,-0.678320068419346,14.081164711630567,0.4725066170876641,-1.2892221115020017,100.02993722515596,1.309232614168516,2.0,0.4251382891312425,0.506319336186208,120.49462295942597,25.86417397161547,0.028380616810985516,-6.919880638068648,-2.807493196141034
STABILIZE,5.0776753425598145,25.820158455581343,119.47172903090632,26.360704125169445,-1.7160615396593801,-8.55261043686572,249.29490147394128,-0.603799657922842,14.409600797747022,0.5077233926133672,-1.9278200394624527,99.90860574473986,1.361023658000501,2.0,0.42763052184328604,0.5080628311687032,123.35106919202052,27.35376443227735,-5.204945852600121,0.6739073029998366,-2.6929016371148693
STABILIZE,5.114069938659668,27.482547815774126,121.83526604712793,27.295199862719894,-5.311202809870177,-8.644394330093503,249.37595263413533,-0.5343928147785775,14.739456275188214,0.4524906943640889,-2.209576014896057,99.82751773891346,1.4043677997097528,2.0,0.43221971650467517,0.5100253295425292,128.32685010293773,28.66766118426682,-10.757043193821406,-7.43894058728111,-2.4064227395494577
STABILIZE,5.151732683181763,26.557825885988184,124.7969148476116,28.522515832150745,-9.691388113850875,-8.740311967832024,249.45113487378185,-0.4700117263168053,15.070673612249376,0.4101568617232325,-2.435733396712111,99.71777708951886,1.4661596558393974,2.0,0.43701559839160126,0.5123810308630501,131.31740902424806,29.546121879908036,-13.112175295131106,-9.136365019239818,-2.6929016371148693
STABILIZE,5.197658538818359,21.77784470001817,127.32398946381372,29.47321625527154,-12.901460342061831,-8.848946210162614,249.52056334331593,-0.4105577853348379,15.403194903148371,0.2767407489529636,-2.2107038498827554,99.55918692718035,1.5052481033627527,2.0,0.44244731050813074,0.5141523276226051,133.12999604043662,30.205865701639734,-14.835162537232991,-9.018767127869381,-3.2658594322456924
STABILIZE,5.237735271453857,24.98542920116757,130.264041509965,30.219088547023656,-14.699430335543846,-8.999065619541543,249.58436603879895,-0.3559213844866562,15.736961884651446,0.2454009061940361,-2.1352454140363353,99.41208514302578,1.5387148669426332,2.0,0.4499532809770772,0.5152181961100977,135.19488319018237,30.90527805952316,-16.150953174267446,-9.851824330742517,-3.666929888837269
STABILIZE,5.275698184967041,26.344475849506942,132.95222158853386,30.886429980520756,-15.968771372842857,-9.158252706398796,249.64268404202377,-0.30598171067294544,16.07191595269887,0.16399712418045062,-1.7935190970295498,99.23499199822568,1.5688445013474686,2.0,0.45791263531993986,0.5160203436627708,136.79196958486475,31.548146180399346,-16.92019840702813,-9.736984258130448,-4.984732817638163
STABILIZE,5.306891441345215,32.06556374422801,134.8555147780763,31.52471125681294,-16.78788126606244,-9.34329249226845,249.69567176061997,-0.26060653943081746,16.407998179030525,0.025234560775435233,-1.3538292977479756,99.05717485337358,1.599739204389458,2.0,0.4671646246134225,0.5165979397225465,137.84331605065006,32.120709530516294,-17.292492216891723,-9.92154085816614,-5.614986392282068
STABILIZE,5.343465328216553,27.34922177085439,136.40992994245113,32.186705943263526,-17.157138293157576,-9.50691176423881,249.74349716815885,-0.2196520293236901,16.745149327811664,-0.15363831521090648,-1.1100110744506784,98.82250321387028,1.6300208872661848,2.0,0.4753455882119405,0.5169511438104846,139.08948484612205,32.891262118874906,-17.25872425555286,-9.68176198738108,-5.7868737308213145
STABILIZE,5.379312992095947,27.90231571104503,137.8226315178454,32.89131353026895,-17.231405282839926,-9.72825337587064,249.7863420442585,-0.18296251633133664,17.083309872258496,-0.2811475016280912,-0.624777093535783,98.5592199119338,1.6642027605733483,2.0,0.486412668793532,0.5171573575775492,140.19350391740795,33.66196894141562,-17.142999376075178,-9.766479367428545,-7.333859777674538
STABILIZE,5.417834997177124,25.962563137565613,139.2922384051343,33.81777019854419,-17.200192722466365,-9.983424873816762,249.8244022146894,-0.1503703082393244,17.42242001126389,-0.5111439300053684,-0.20954374707279141,98.27361555178972,1.7112908652018852,2.0,0.49917124369083815,0.5173113063668652,142.5429176266269,34.90007953534203,-17.19885453577104,-10.840594860174889,-8.193296470370772
STABILIZE,5.459719181060791,23.882022024073883,140.72055758225835,34.84144868815053,-17.01586652171328,-10.290237379981383,249.8578877914792,-0.12169547902924904,17.762419686022973,-0.6578439069376659,0.17972090000069435,97.8968896379285,1.761537922146635,2.0,0.5145118689990692,0.5173891431038681,143.93356547048506,35.96229758769393,-16.705745653293604,-11.989295688218562,-8.651662706475431
STABILIZE,5.500999927520752,24.229545887803496,142.31790523203168,36.341036695486125,-16.437567694950662,-10.646120879143652,249.8870234130179,-0.09674566326832945,18.103248596658883,-0.7353418479424222,0.37098588691576806,97.5077874212912,1.8412400403335882,2.0,0.5323060439571826,0.5172704081458048,145.83005429951663,38.16073296342239,-15.408102895787318,-12.446994830504153,-9.396507840145501
STABILIZE,5.536533832550049,28.150069128444677,143.78956872379982,37.8526344475408,-15.657100393995195,-11.01897733798909,249.91204848416345,-0.0753158504992868,18.444846218848323,-0.8781660126858548,0.6170093008196273,97.14873803700198,1.918723771881291,2.0,0.5509488668994545,0.5170509733064218,146.4478023049627,39.43487279150607,-14.857452632904636,-12.420006473473151,-9.625690958197831
STABILIZE,5.571174383163452,28.875453512787857,145.17418143300875,39.444199817882236,-14.899908047372607,-11.3391607946039,249.93321741634608,-0.05718817963050782,18.787151820447303,-0.8714426519433293,0.8259724284521148,96.81254929586477,1.9991999213787381,2.0,0.5669580397301951,0.5168435299339099,147.1165674634527,40.73699369871824,-14.43416861342584,-12.711013296113322,-9.11002894258009
STABILIZE,5.609503984451294,26.09647654660503,145.96405350169215,40.681295831374634,-14.397274292612856,-11.640810682601755,249.95079986767433,-0.04213173332532705,19.130104478116724,-0.7958860321275905,1.086266882296481,96.47618979999832,2.0,2.0,0.5820405341300877,0.5167636893853648,146.49227797004386,41.87202100389958,-13.900201631508061,-11.518568409298922,-9.281916281119337
STABILIZE,5.644352436065674,28.698821066172194,146.84400823012874,42.56178641924825,-14.096301734087925,-11.95410830130779,249.96508098303977,-0.029902332392417463,19.473643093948137,-0.4684868373177001,2.102441509556645,96.13061637894153,2.0,2.0,0.5977054150653894,0.516784972414018,148.333339112668,45.07634455512691,-13.954534957329848,-13.037979302347424,-8.307888029396937
STABILIZE,5.681424140930176,26.98273333161782,147.4172590603519,44.54455823193032,-13.964071948154858,-12.239299105778905,249.97636163422212,-0.020242330175214818,19.81770641208926,0.2027081684566367,3.285951929500713,95.84738892462862,2.0,2.0,0.6119649552889452,0.516890889180122,148.69630845063242,46.68530913676443,-14.03747925562664,-13.840425983903202,-7.505747116213785
STABILIZE,5.719829559326172,26.04381302468829,148.15967408531554,46.724664723901604,-13.769425891523456,-12.517590370999164,249.9849586599947,-0.012880406942109346,20.162233035369805,0.8820951323667575,4.623005428873491,95.67277513849724,2.0,2.0,0.6258795185499583,0.5169658294634466,150.1598774297809,48.41234047981345,-13.316263461613854,-12.785115137868686,-7.505747116213785
STABILIZE,5.750592947006226,32.510708223202315,149.0828849117975,48.56333478974659,-12.997555016632292,-12.753345440203612,249.99120510622924,-0.00753136427604062,20.507161441926964,2.4555025254910667,7.562204449025113,95.40992896866764,2.0,2.0,0.6376672720101806,0.5167523582292797,151.7326215958625,50.5923547526619,-11.638922332656355,-11.948305915417947,-6.64631042351755
STABILIZE,5.79166316986084,24.35476172503295,150.1309536369612,49.86568332837908,-12.198036042308866,-12.95689398160068,249.99545046600144,-0.0038959194644618833,20.85243000183122,3.7187447318244553,10.334270874620637,95.24282156043411,2.0,2.0,0.6478446990800341,0.5165252330220701,151.7326215958625,50.5923547526619,-11.638922332656355,-11.948305915417947,-6.932789321082962
STABILIZE,5.823845624923706,31.08227238369077,150.8108101336001,50.59235475266189,-11.638922332656369,-13.24348974663493,249.9980609196959,-0.0016604998890485945,21.197976993711865,4.1971482567650735,12.123884597548821,95.12545841992578,2.0,2.0,0.6621744873317466,0.5164184496631841,151.7326215958625,50.5923547526619,-11.638922332656355,-11.948305915417947,-7.849521793292278
STABILIZE,5.862324476242065,25.994905516544677,151.41807276264612,50.59235475266189,-11.638922332656369,-13.477192340786575,249.99941957511112,-0.0004970374158901336,21.5437406213828,4.397717188629321,13.592310382304447,94.91991070704341,2.0,2.0,0.6738596170393287,0.5165913314770196,151.7326215958625,50.5923547526619,-11.638922332656355,-11.948305915417947,-8.13600069085769
STABILIZE,5.897602796554565,28.353685576767077,151.73262159586244,50.59235475266189,-11.638922332656369,-13.762847305771455,249.99992670756507,-6.276278491412768e-05,21.889659030468078,4.101865837182927,14.523657902054461,94.66207106587542,2.0,2.0,0.6881423652885728,0.5167642906815623,151.7326215958625,50.5923547526619,-11.638922332656355,-11.948305915417947,-8.193296470370772
STABILIZE,5.937720537185669,24.96475784035379,151.73262159586244,50.59235475266189,-11.638922332656369,-14.027379733341967,250.0,-2.1316282072803006e-14,22.235670325027638,3.237760035707807,14.319087759997055,94.34256847688057,2.0,2.0,0.7013689866670983,0.516937296328842,151.7326215958625,50.5923547526619,-11.638922332656355,-11.948305915417947,-8.021409131831525
