E-kp,E-ki,E-kd,E-I-Tot,E-P,E-I,E-D,E-PID,N-kp,N-ki,N-kd,N-I-Tot,N-P,N-I,N-D,N-PID,D-kp,D-ki,D-kd,D-I-Tot,D-P,D-I,D-D,D-PID,Y-kp,Y-ki,Y-kd,Y-I-Tot,Y-P,Y-I,Y-D,Y-PID,errorN,desiredN,actualN,errorE,desiredE,actualE,errorD,desiredD,actualD,errorY,desiredY,actualY,roll,pitch,yaw-rate,thrust,dt,Time,Mode
0.035,0.005,0.05,-0.0005386362262629451,-0.00046523698226407916,-2.693181131314726e-06,-0.016401622688718975,-0.016869552852114368,0.04,0.006,0.04,-0.0006382847487514815,-0.0006300646088990613,-3.82970849250889e-06,-0.015548758299632084,-0.016182652617023653,0.002,8e-05,0,-0.03017266999332982,-0.0014892045874489235,-2.4138135994663856e-06,-0.0,-0.00149161840104839,0.1,0.02,0,-0.0008497949061211706,-0.002097127090287566,-1.6995898122423412e-05,-0.0,-0.0021141229884099892,-0.015751615222476534,0.0,0.015751615222476534,-0.013292485207545118,0.0,0.013292485207545118,-0.7446022937244617,0.0,0.7446022937244617,-0.02097127090287566,0,0.02097127090287566,-0.016875474859688554,0.01617647697780831,0.0021141229884099892,0.4,0.040521860122680664,0.04129958152770996,STABILIZE
0.035,0.005,0.05,-0.0007664009868113863,-0.0002389430128558519,-3.832004934056932e-06,-0.003355912606775862,-0.0035986876245657708,0.04,0.006,0.04,-0.0013223326975255675,-0.0008201367933896778,-7.933996185153406e-06,-0.01062295855459451,-0.01145102934416934,0.002,8e-05,0,-0.055009490066116926,-0.001488900742191924,-4.4007592052893545e-06,-0.0,-0.0014933015013972135,0.1,0.02,0,-0.0016615559555956353,-0.0024331448742290563,-3.32311191119127e-05,-0.0,-0.0024663759933409688,-0.020503419834741944,0.0,0.020503419834741944,-0.0068269432244529105,0.0,0.0068269432244529105,-0.744450371095962,0.0,0.744450371095962,-0.02433144874229056,0,0.02433144874229056,-0.00360355013861951,0.011449500078985347,0.0024663759933409688,0.4,0.033362627029418945,0.07412242889404297,STABILIZE
0.035,0.005,0.05,-0.0012687436229105362,-0.0005256555740155557,-6.343718114552682e-06,-0.006319158659677098,-0.006851157951807206,0.04,0.006,0.04,-0.0018359349911887687,-0.0006142145996780208,-1.1015609947132612e-05,-0.005029794070555158,-0.005655024280180311,0.002,8e-05,0,-0.07998008627363572,-0.0014931110065661258,-6.3984069018908575e-06,-0.0,-0.0014995094134680166,0.1,0.02,0,-0.0022067299350435024,-0.0016299275805075966,-4.413459870087005e-05,-0.0,-0.0016740621792084667,-0.01535536499195052,0.0,0.01535536499195052,-0.015018730686158731,0.0,0.015018730686158731,-0.7465555032830629,0.0,0.7465555032830629,-0.016299275805075966,0,0.016299275805075966,-0.006852766393413249,0.005653075061180943,0.0016740621792084667,0.4,0.0334477424621582,0.10758614540100098,STABILIZE
0.035,0.005,0.05,-0.0019647108085438045,-0.0007281413705686004,-9.823554042719024e-06,-0.006901069045118397,-0.007639033969729717,0.04,0.006,0.04,-0.0021554299865696232,-0.0003820172291021283,-1.293257991941774e-05,-0.002037118918019017,-0.0024320687270405626,0.002,8e-05,0,-0.10489040111252551,-0.0014892517235630778,-8.391232089002042e-06,-0.0,-0.0014976429556520798,0.1,0.02,0,-0.002711318673824599,-0.0015083302916490933,-5.422637347649198e-05,-0.0,-0.0015625566651255854,-0.009550430727553207,0.0,0.009550430727553207,-0.020804039159102866,0.0,0.020804039159102866,-0.7446258617815389,0.0,0.7446258617815389,-0.015083302916490932,0,0.015083302916490932,-0.007639673955134294,0.0024300576419039894,0.0015625566651255854,0.4,0.03345346450805664,0.14104199409484863,STABILIZE
0.035,0.005,0.05,-0.0025119106843432782,-0.0005723457045214014,-1.2559553421716392e-05,-0.004190609972873161,-0.0047755152308162786,0.04,0.006,0.04,-0.0026123480137594684,-0.0005461886581825498,-1.567408808255681e-05,-0.0026109277322274534,-0.00317279047849256,0.002,8e-05,0,-0.12969790126282482,-0.0014827140114484552,-1.0375832101025986e-05,-0.0,-0.0014930898435494813,0.1,0.02,0,-0.0034090920110903212,-0.0020852530438593016,-6.818184022180643e-05,-0.0,-0.002153434884081108,-0.013654716454563745,0.0,0.013654716454563745,-0.016352734414897183,0.0,0.016352734414897183,-0.7413570057242276,0.0,0.7413570057242276,-0.020852530438593014,0,0.020852530438593014,-0.004776669636742958,0.003171052242015133,0.002153434884081108,0.4,0.0334622859954834,0.17449498176574707,STABILIZE
0.035,0.005,0.05,-0.00291283364391143,-0.0004196967001960921,-1.456416821955715e-05,0.0003941798146626397,-4.0081053753009555e-05,0.04,0.006,0.04,-0.0032075710656332026,-0.0007121087403528991,-1.9245426393799215e-05,-0.0004936875378905867,-0.0012250417046372852,0.002,8e-05,0,-0.15450051618647181,-0.0014836588414323527,-1.2360041294917747e-05,0.0,-0.0014960188827272704,0.1,0.02,0,-0.0043044753468208935,-0.0026780309387082176,-8.608950693641787e-05,-0.0,-0.0027641204456446355,-0.01780271850882248,0.0,0.01780271850882248,-0.011991334291316916,0.0,0.011991334291316916,-0.7418294207161763,0.0,0.7418294207161763,-0.026780309387082174,0,0.026780309387082174,-4.0653639449451145e-05,0.00122502283675452,0.0027641204456446355,0.4,0.033434391021728516,0.20795083045959473,STABILIZE
0.035,0.005,0.05,-0.0032022771056374557,-0.00030300351152880655,-1.601138552818728e-05,-0.0005465542696455475,-0.0008655691667025414,0.04,0.006,0.04,-0.0035978491665106184,-0.0004669281398899098,-2.1587094999063712e-05,0.0021124127541522516,0.0016238975192632782,0.002,8e-05,0,-0.1794743797010588,-0.0014939346597355268,-1.4357950376084706e-05,-0.0,-0.0015082926101116115,0.1,0.02,0,-0.005165962554837988,-0.0025767050384971433,-0.00010331925109675975,-0.0,-0.002680024289593903,-0.011673203497247745,0.0,0.011673203497247745,-0.00865724318653733,0.0,0.00865724318653733,-0.7469673298677634,0.0,0.7469673298677634,-0.02576705038497143,0,0.02576705038497143,-0.0008648387802197664,-0.0016242866186863536,0.002680024289593903,0.4,0.03343367576599121,0.24138617515563965,STABILIZE
0.035,0.005,0.05,-0.0034671515306279937,-0.0002767584724815686,-1.733575765313997e-05,0.0021264335809832806,0.001832339350848572,0.04,0.006,0.04,-0.004074494193851103,-0.0005691777460740953,-2.444696516310662e-05,0.00027060742633155943,-0.00032301728490564247,0.002,8e-05,0,-0.2052928912930179,-0.0015415373487576293,-1.6423431303441433e-05,-0.0,-0.0015579607800610708,0.1,0.02,0,-0.006516105445370311,-0.004030626793690462,-0.00013032210890740622,-0.0,-0.004160948902597868,-0.014229443651852382,0.0,0.014229443651852382,-0.007907384928044816,0.0,0.007907384928044816,-0.7707686743788146,0.0,0.7707686743788146,-0.04030626793690462,0,0.04030626793690462,0.0018321116622153862,0.00032430621361662765,0.004160948902597868,0.4,0.03349709510803223,0.27489471435546875,STABILIZE
0.035,0.005,0.05,-0.003959586291944794,-0.0005159793444744077,-1.979793145972397e-05,0.001809600622531937,0.0012738233465978052,0.04,0.006,0.04,-0.0050030004280178135,-0.0011118863148250188,-3.0018002568106883e-05,-0.0043670417275075415,-0.005508946044900667,0.002,8e-05,0,-0.23089759416461694,-0.0015330817215051804,-1.847180753316936e-05,-0.0,-0.0015515535290383498,0.1,0.02,0,-0.007249187219378131,-0.00219466375715414,-0.00014498374438756263,-0.0,-0.0023396475015417025,-0.02779715787062547,0.0,0.02779715787062547,-0.014742266984983076,0.0,0.014742266984983076,-0.7665408607525902,0.0,0.7665408607525902,-0.0219466375715414,0,0.0219466375715414,0.0012717131005291673,0.0055094335674284,0.0023396475015417025,0.4,0.03340291976928711,0.30829358100891113,STABILIZE
0.035,0.005,0.05,-0.004263531323520031,-0.0003180869238780179,-2.1317656617600156e-05,0.0021699669404752434,0.0018305623599796253,0.04,0.006,0.04,-0.005751908835342242,-0.0008957182452840809,-3.451145301205345e-05,-0.002093089739433623,-0.0030233194377297574,0.002,8e-05,0,-0.2562772130160468,-0.0015177415182717753,-2.0502177041283744e-05,-0.0,-0.001538243695313059,0.1,0.02,0,-0.008007270101010789,-0.002266728019991862,-0.00016014540202021577,-0.0,-0.0024268734220120776,-0.022392956132102022,0.0,0.022392956132102022,-0.009088197825086224,0.0,0.009088197825086224,-0.7588707591358876,0.0,0.7588707591358876,-0.022667280199918618,0,0.022667280199918618,0.0018293661351355191,0.003024043405764554,0.0024268734220120776,0.4,0.03344392776489258,0.34172964096069336,STABILIZE
0.035,0.005,0.05,-0.004380173504325177,-0.00012215288271477068,-2.1900867521625886e-05,0.002540529018360849,0.0023964752681244522,0.04,0.006,0.04,-0.006326407898365025,-0.0006875896982501429,-3.7958447390190146e-05,0.00014491587978721722,-0.0005806322658531158,0.002,8e-05,0,-0.2815171273351259,-0.0015104206592785004,-2.2521370186810073e-05,-0.0,-0.0015329420294653104,0.1,0.02,0,-0.008792684186298024,-0.002350058810638326,-0.0001758536837259605,0.0,-0.0025259124943642864,-0.01718974245625357,0.0,0.01718974245625357,-0.003490082363279162,0.0,0.003490082363279162,-0.7552103296392502,0.0,0.7552103296392502,-0.023500588106383256,0,0.023500588106383256,0.0023962369128853285,0.0005816151616040294,0.0025259124943642864,0.4,0.03342103958129883,0.37514805793762207,STABILIZE
0.035,0.005,0.05,-0.00461825706300845,-0.0002491717197663189,-2.309128531504225e-05,0.0004581245904874796,0.0001858615854061185,0.04,0.006,0.04,-0.006781463254259881,-0.000544283942011355,-4.068877952555929e-05,-0.00046472480847670547,-0.0010496975300136198,0.002,8e-05,0,-0.3066071174131225,-0.001500485438504885,-2.4528569393049802e-05,-0.0,-0.0015250140078979348,0.1,0.02,0,-0.009343373213403767,-0.0016466743584750089,-0.00018686746426807536,0.0,-0.0018335418227430843,-0.013607098550283874,0.0,0.013607098550283874,-0.007119191993323395,0.0,0.007119191993323395,-0.7502427192524425,0.0,0.7502427192524425,-0.016466743584750088,0,0.016466743584750088,0.00018555989582663435,0.0010497509030751907,0.0018335418227430843,0.4,0.03344249725341797,0.4086039066314697,STABILIZE
0.035,0.005,0.05,-0.004774951189238222,-0.00016398242047656968,-2.387475594619111e-05,0.0009620358601909777,0.0007741786837682169,0.04,0.006,0.04,-0.007327385160455768,-0.0006529306324232323,-4.396431096273461e-05,-0.0005039416618791891,-0.001200836605265156,0.002,8e-05,0,-0.3315168438582539,-0.0014896199673175797,-2.6521347508660315e-05,0.0,-0.00151614131482624,0.1,0.02,0,-0.009921520092014496,-0.0017286804339619742,-0.00019843040184028992,0.0,-0.001927110835802264,-0.016323265810580807,0.0,0.016323265810580807,-0.004685212013616276,0.0,0.004685212013616276,-0.7448099836587898,0.0,0.7448099836587898,-0.01728680433961974,0,0.01728680433961974,0.0007738163421399949,0.0012010701293358815,0.001927110835802264,0.4,0.03344440460205078,0.44205212593078613,STABILIZE
0.035,0.005,0.05,-0.0048529632216801665,-8.167028910806412e-05,-2.4264816108400833e-05,0.003711674040088507,0.003605738934872042,0.04,0.006,0.04,-0.007961345243305195,-0.0007585013546331062,-4.776807145983117e-05,0.0021139758863807537,0.0013077064602878164,0.002,8e-05,0,-0.356127171662872,-0.0014722509731106544,-2.8490173733029763e-05,0.0,-0.0015007411468436842,0.1,0.02,0,-0.010526618839687621,-0.0018099255466289027,-0.00021053237679375243,0.0,-0.002020457923422655,-0.018962533865827653,0.0,0.018962533865827653,-0.0023334368316589747,0.0,0.0023334368316589747,-0.7361254865553272,0.0,0.7361254865553272,-0.018099255466289026,0,0.018099255466289026,0.0036061518484474626,-0.001306567372418893,0.002020457923422655,0.4,0.0334322452545166,0.4754805564880371,STABILIZE
0.035,0.005,0.05,-0.004809183408511053,4.580797422902353e-05,-2.4045917042555267e-05,0.0031099103946939824,0.0031316724518804504,0.04,0.006,0.04,-0.008196605976165254,-0.00028132516029903546,-4.917963585699152e-05,0.0036742967746633036,0.0033437919785072765,0.002,8e-05,0,-0.3811557433520566,-0.001496460301070325,-3.049245946816453e-05,0.0,-0.0015269527605384894,0.1,0.02,0,-0.011237662240595381,-0.002125667087619489,-0.00022475324481190762,0.0,-0.0023504203324313964,-0.007033129007475886,0.0,0.007033129007475886,0.0013087992636863863,0.0,-0.0013087992636863863,-0.7482301505351625,0.0,0.7482301505351625,-0.02125667087619489,0,0.02125667087619489,0.0031329127794584902,-0.003342629901395336,0.0023504203324313964,0.4,0.03345036506652832,0.5089306831359863,STABILIZE
0.035,0.005,0.05,-0.004652863810958608,0.0001633750077618799,-2.326431905479304e-05,0.0024379309471396667,0.0025780416358467534,0.04,0.006,0.04,-0.008669239965704147,-0.0005645326839076858,-5.2015439794224885e-05,0.0007374314231879775,0.00012088329948606682,0.002,8e-05,0,-0.405925118786842,-0.0014792759622047726,-3.247400950294737e-05,0.0,-0.00151174997170772,0.1,0.02,0,-0.011741884684229882,-0.0015056579493424973,-0.00023483769368459764,0.0,-0.001740495643027095,-0.014113317097692143,0.0,0.014113317097692143,0.004667857364625139,0.0,-0.004667857364625139,-0.7396379811023863,0.0,0.7396379811023863,-0.015056579493424972,0,0.015056579493424972,0.0025780733133764166,-0.00012020581978584517,0.001740495643027095,0.4,0.03348851203918457,0.542442798614502,STABILIZE
0.035,0.005,0.05,-0.004381263757245907,0.0002843890591877178,-2.1906318786229537e-05,0.004557496229426402,0.00481997896982789,0.04,0.006,0.04,-0.009376697313362707,-0.0008465941078363431,-5.626018388017624e-05,-0.0018072708794526866,-0.002710125171169206,0.002,8e-05,0,-0.43049151222558946,-0.0014698952526867133,-3.443932097804716e-05,0.0,-0.0015043345736647604,0.1,0.02,0,-0.0120419279467855,-0.0008976331188596745,-0.00024083855893571,0.0,-0.0011384716777953845,-0.02116485269590858,0.0,0.02116485269590858,0.00812540169107765,0.0,-0.00812540169107765,-0.7349476263433566,0.0,0.7349476263433566,-0.008976331188596745,0,0.008976331188596745,0.0048195543247606274,0.0027108802673060247,0.0011384716777953845,0.4,0.03342604637145996,0.5758538246154785,STABILIZE
0.035,0.005,0.05,-0.004160278409526712,0.00023121621093902887,-2.080139204763356e-05,0.0033755675181611784,0.0035859823370525735,0.04,0.006,0.04,-0.010004677246574582,-0.0007509179988711156,-6.002806347944749e-05,-0.0005855237664875925,-0.0013964698288381557,0.002,8e-05,0,-0.4549270346146059,-0.0014609601838614606,-3.6394162769168475e-05,0.0,-0.0014973543466306292,0.1,0.02,0,-0.01241077812295301,-0.001102647638573176,-0.0002482155624590602,0.0,-0.001350863201032236,-0.01877294997177789,0.0,0.01877294997177789,0.006606177455400824,0.0,-0.006606177455400824,-0.7304800919307303,0.0,0.7304800919307303,-0.011026476385731758,0,0.011026476385731758,0.0035857135223789226,0.0013971599192423335,0.001350863201032236,0.4,0.03345131874084473,0.6093175411224365,STABILIZE
0.035,0.005,0.05,-0.0037990885901092856,0.000377871270324705,-1.8995442950546427e-05,0.003924598111155549,0.004283473938529707,0.04,0.006,0.04,-0.010660344545383255,-0.0007839418398125452,-6.396206727229953e-05,-0.00015139654202472153,-0.0009993004491095662,0.002,8e-05,0,-0.4792545165170655,-0.0014543451347407937,-3.8340361321365245e-05,0.0,-0.001492685496062159,0.1,0.02,0,-0.01280436007784009,-0.0011764555072054546,-0.0002560872015568018,0.0,-0.0014325427087622563,-0.01959854599531363,0.0,0.01959854599531363,0.010796322009277284,0.0,-0.010796322009277284,-0.7271725673703968,0.0,0.7271725673703968,-0.011764555072054546,0,0.011764555072054546,0.004283268661652348,0.0010001799546884983,0.0014325427087622563,0.4,0.03345489501953125,0.6427962779998779,STABILIZE
0.035,0.005,0.05,-0.003473047175419834,0.0003411749199361095,-1.736523587709917e-05,0.0025222836899357094,0.00284609337399472,0.04,0.006,0.04,-0.011213504464055134,-0.0006615260952819211,-6.72810267843308e-05,-0.0022724494987578685,-0.0030012566208241203,0.002,8e-05,0,-0.5033625771111675,-0.0014415461651602652,-4.02690061688934e-05,0.0,-0.0014818151713291586,0.1,0.02,0,-0.01326183963524967,-0.0013677539490346618,-0.0002652367927049934,0.0,-0.0016329907417396553,-0.016538152382048026,0.0,0.016538152382048026,0.009747854855317414,0.0,-0.009747854855317414,-0.7207730825801326,0.0,0.7207730825801326,-0.013677539490346618,0,0.013677539490346618,0.00284537683863615,0.0030019359492984214,0.0016329907417396553,0.4,0.0334475040435791,0.6762146949768066,STABILIZE
0.035,0.005,0.05,-0.0032358303933306487,0.00024837081642583106,-1.6179151966653242e-05,0.0007260293439706956,0.0009582210084298733,0.04,0.006,0.04,-0.011191892336711312,2.5860958623389436e-05,-6.715135402026788e-05,0.003531540479388661,0.0034902500839917826,0.002,8e-05,0,-0.5273726380967567,-0.0014365156743138907,-4.218981104774054e-05,0.0,-0.0014787054853616312,0.1,0.02,0,-0.01393654239224427,-0.0020183644816797043,-0.00027873084784488543,-0.0,-0.0022970953295245898,0.0006465239655847358,0.0,-0.0006465239655847358,0.00709630904073803,0.0,-0.00709630904073803,-0.7182578371569454,0.0,0.7182578371569454,-0.020183644816797044,0,0.020183644816797044,0.0009594504630359283,-0.003489912313910072,0.0022970953295245898,0.4,0.033428192138671875,0.7096400260925293,STABILIZE
0.035,0.005,0.05,-0.0028819224358405497,0.0003601832647729133,-1.4409612179202749e-05,0.0006205822387456649,0.0009663558913393755,0.04,0.006,0.04,-0.0113161563117071,-0.000144534122939965,-6.78969378702426e-05,0.00422826387538707,0.004015832814576862,0.002,8e-05,0,-0.5522348062265331,-0.0014458863339696685,-4.417878449812265e-05,0.0,-0.0014900651184677912,0.1,0.02,0,-0.014702559636851895,-0.0022274281546603575,-0.0002940511927370379,-0.0,-0.0025214793473973952,-0.0036133530734991245,0.0,0.0036133530734991245,0.010290950422083237,0.0,-0.010290950422083237,-0.7229431669848342,0.0,0.7229431669848342,-0.022274281546603575,0,0.022274281546603575,0.0009679170116393531,-0.004015456831039003,0.0025214793473973952,0.4,0.03439021110534668,0.7440309524536133,STABILIZE
0.035,0.005,0.05,-0.0027988806231627767,8.681396966185645e-05,-1.3994403115813884e-05,-0.0012582134311339783,-0.0011853938645879358,0.04,0.006,0.04,-0.011508903337227582,-0.00023028859299216927,-6.90534200233655e-05,0.003143947113108781,0.0028446051000932462,0.002,8e-05,0,-0.5762847428259591,-0.001436708568154832,-4.6102779426076733e-05,0.0,-0.0014828113475809088,0.1,0.02,0,-0.015295734513999206,-0.0017717706341730478,-0.0003059146902799841,-0.0,-0.002077685324453032,-0.005757214824804232,0.0,0.005757214824804232,0.002480399133195898,0.0,-0.002480399133195898,-0.718354284077416,0.0,0.718354284077416,-0.017717706341730477,0,0.017717706341730477,-0.0011845141641149445,-0.002844971526165122,0.002077685324453032,0.4,0.03347921371459961,0.7775251865386963,STABILIZE
0.035,0.005,0.05,-0.0027258731919633955,7.633247599693134e-05,-1.3629365959816978e-05,-0.0026001493032565956,-0.0025374461932194813,0.04,0.006,0.04,-0.011639346634193422,-0.00015586765301682498,-6.983607980516053e-05,0.0037860008234912763,0.0035602970906692907,0.002,8e-05,0,-0.6002363540069171,-0.0014309978004178898,-4.8018908320553375e-05,0.0,-0.0014790167087384432,0.1,0.02,0,-0.015673791428511163,-0.0011293574553545903,-0.0003134758285702233,0.0,-0.0014428332839248135,-0.0038966913254206243,0.0,0.0038966913254206243,0.0021809278856266094,0.0,-0.0021809278856266094,-0.7154989002089449,0.0,0.7154989002089449,-0.011293574553545902,0,0.011293574553545902,-0.0025367443735569667,-0.0035607971776751516,0.0014428332839248135,0.4,0.033475399017333984,0.8109946250915527,STABILIZE
0.035,0.005,0.05,-0.0021848397804440957,0.0005665376845498786,-1.0924198902220478e-05,0.0019036310110938021,0.0024592444967414602,0.04,0.006,0.04,-0.011316180250067202,0.00038674333987849253,-6.78970815004032e-05,0.006300811404477503,0.006619657662855592,0.002,8e-05,0,-0.624029568913686,-0.0014237042977676352,-4.992236551309488e-05,0.0,-0.00147362666328073,0.1,0.02,0,-0.016621832804985495,-0.0028363770668167884,-0.0003324366560997099,-0.0,-0.0031688137229164983,0.009668583496962313,0.0,-0.009668583496962313,0.016186790987139387,0.0,-0.016186790987139387,-0.7118521488838176,0.0,0.7118521488838176,-0.028363770668167882,0,0.028363770668167882,0.002462521198452536,-0.006618439424466148,0.0031688137229164983,0.4,0.03342437744140625,0.844423770904541,STABILIZE
0.035,0.005,0.05,-0.0022973534150562223,-0.0001177687955064979,-1.1486767075281112e-05,-0.0031502506952598044,-0.0032795062578415833,0.04,0.006,0.04,-0.010987601847725665,0.0003930574566145346,-6.5925611086354e-05,0.002225958506645525,0.0025530903521737056,0.002,8e-05,0,-0.6477431209815695,-0.0014183507492696163,-5.181944967852556e-05,0.0,-0.0014701701989481418,0.1,0.02,0,-0.01702256467095693,-0.0011984251467889164,-0.0003404512934191386,0.0,-0.0015388764402080551,0.009826436415363364,0.0,-0.009826436415363364,-0.0033648227287570824,0.0,0.0033648227287570824,-0.7091753746348081,0.0,0.7091753746348081,-0.011984251467889163,0,0.011984251467889163,-0.003278972169865526,-0.0025537762530871665,0.0015388764402080551,0.4,0.03343820571899414,0.8778560161590576,STABILIZE
0.035,0.005,0.05,-0.0027058872402388324,-0.0004260083321976664,-1.3529436201194162e-05,-0.006703059936652509,-0.007142597705051369,0.04,0.006,0.04,-0.01085327567214134,0.00016008206211382055,-6.511965403284805e-05,0.0018286774784860443,0.0019236398865670168,0.002,8e-05,0,-0.6716326481371622,-0.0014235069052459695,-5.373061185097298e-05,0.0,-0.0014772375170969425,0.1,0.02,0,-0.017735721602545995,-0.002124746567877131,-0.0003547144320509199,0.0,-0.002479460999928051,0.004002051552845514,0.0,-0.004002051552845514,-0.01217166663421904,0.0,0.01217166663421904,-0.7117534526229847,0.0,0.7117534526229847,-0.02124746567877131,0,0.02124746567877131,-0.007141883854721151,-0.0019262885025535506,0.002479460999928051,0.4,0.03356432914733887,0.9114298820495605,STABILIZE
0.035,0.005,0.05,-0.002996312293320102,-0.0003034317168016364,-1.4981561466600509e-05,-0.0033246661577459643,-0.0036430794360142013,0.04,0.006,0.04,-0.011048634032836631,-0.00023326567987522404,-6.629180419701979e-05,-7.402187258017445e-06,-0.0003069596713302613,0.002,8e-05,0,-0.69530758481219,-0.0014134409655794137,-5.5624606784975206e-05,0.0,-0.0014690655723643888,0.1,0.02,0,-0.017902924605720325,-0.00049911764812402,-0.00035805849211440654,0.0,-0.0008571761402384266,-0.005831641996880601,0.0,0.005831641996880601,-0.008669477622903895,0.0,0.008669477622903895,-0.7067204827897068,0.0,0.7067204827897068,-0.0049911764812402,0,0.0049911764812402,-0.003643106162204321,0.00030664231254286164,0.0008571761402384266,0.4,0.033499717712402344,0.9449076652526855,STABILIZE
0.035,0.005,0.05,-0.0032025420443509405,-0.00021582055104092475,-1.6012710221754704e-05,-0.002486752514301001,-0.0027185857755636805,0.04,0.006,0.04,-0.011181883326414158,-0.00015936697963298192,-6.709129995848494e-05,-1.0116310657470872e-05,-0.00023657459024893773,0.002,8e-05,0,-0.7184799434482152,-0.0013857142156806182,-5.747839547585722e-05,0.0,-0.0014431926111564755,0.1,0.02,0,-0.01868093128134385,-0.0023262519954051256,-0.000373618625626877,-0.0,-0.0026998706210320028,-0.003984174490824548,0.0,0.003984174490824548,-0.0061663014583121355,0.0,0.0061663014583121355,-0.6928571078403091,0.0,0.6928571078403091,-0.023262519954051257,0,0.023262519954051257,-0.0027186816025657396,0.00023547080438816704,0.0026998706210320028,0.4,0.03344464302062988,0.9783666133880615,STABILIZE
0.035,0.005,0.05,-0.00347553394212921,-0.000285579600289778,-1.737766971064605e-05,-0.007272785941497064,-0.007575743211497488,0.04,0.006,0.04,-0.011836245349805243,-0.0007823254477751934,-7.101747209883145e-05,-0.00698081814670177,-0.007834161066575794,0.002,8e-05,0,-0.7417880107562285,-0.0013933032130302773,-5.9343040860498285e-05,0.0,-0.0014526462538907755,0.1,0.02,0,-0.01754516104205906,0.003394687990959264,-0.00035090322084118124,0.0,0.0030437847701180825,-0.019558136194379835,0.0,0.019558136194379835,-0.008159417151136513,0.0,0.008159417151136513,-0.6966516065151386,0.0,0.6966516065151386,0.03394687990959264,0,-0.03394687990959264,-0.007571100260531072,0.007838648204160498,-0.0030437847701180825,0.4,0.033457279205322266,1.0118632316589355,STABILIZE
0.035,0.005,0.05,-0.0042790083391609475,-0.0008407144485871015,-2.139504169580474e-05,-0.0061674501509727045,-0.007029559641255611,0.04,0.006,0.04,-0.013805325011823962,-0.002354678955572786,-8.283195007094377e-05,-0.016419899239894425,-0.018857410145538156,0.002,8e-05,0,-0.7653500714469416,-0.001408807615266089,-6.122800571575533e-05,0.0,-0.0014700356209818442,0.1,0.02,0,-0.016193959190213002,0.00403950970933679,-0.00032387918380426007,0.0,0.00371563052553253,-0.05886697388931965,0.0,0.05886697388931965,-0.024020412816774327,0.0,0.024020412816774327,-0.7044038076330444,0.0,0.7044038076330444,0.0403950970933679,0,-0.0403950970933679,-0.007016262903575641,0.018862361490940723,-0.00371563052553253,0.4,0.033449649810791016,1.045288324356079,STABILIZE
0.035,0.005,0.05,-0.004410290917512,-0.0001372499716758867,-2.205145458756e-05,0.00246001301760882,0.0023007115913453733,0.04,0.006,0.04,-0.015518134853089319,-0.0020464741467500335,-9.310880911853591e-05,-0.013190443568124875,-0.015330026523993444,0.002,8e-05,0,-0.7893069029409074,-0.0014311873714547602,-6.31445522352726e-05,-0.0,-0.0014943319236900327,0.1,0.02,0,-0.014649136072329472,0.004614406830058369,-0.00029298272144658943,0.0,0.004321424108611779,-0.05116185366875083,0.0,0.05116185366875083,-0.003921427762168191,0.0,0.003921427762168191,-0.71559368572738,0.0,0.71559368572738,0.046144068300583686,0,-0.046144068300583686,0.00231305712482104,0.015328168637844773,-0.004321424108611779,0.4,0.0334782600402832,1.0787794589996338,STABILIZE
0.035,0.005,0.05,-0.0041698161112907455,0.0002514180189383753,-2.084908055645373e-05,0.0047317582019365595,0.004962327140318481,0.04,0.006,0.04,-0.017557756801642524,-0.002437072450820665,-0.00010534654080985514,-0.013175639853788652,-0.015718058845419172,0.002,8e-05,0,-0.8140295945202294,-0.0014770136838554845,-6.512236756161835e-05,-0.0,-0.001542136051417103,0.1,0.02,0,-0.012414255865789066,0.006675949170516022,-0.00024828511731578133,0.0,0.006427664053200241,-0.06092681127051662,0.0,0.06092681127051662,0.007183371969667864,0.0,-0.007183371969667864,-0.7385068419277422,0.0,0.7385068419277422,0.06675949170516021,0,-0.06675949170516021,0.004980638024470003,0.015712266207800987,-0.006427664053200241,0.4,0.03347659111022949,1.112274169921875,STABILIZE
0.035,0.005,0.05,-0.004637612144402831,-0.00047503359792420925,-2.3188060722014157e-05,-0.0020386627221249394,-0.0025368843807711625,0.04,0.006,0.04,-0.02056225872761349,-0.003486841660747552,-0.00012337355236568094,-0.01970904691331522,-0.02331926212642845,0.002,8e-05,0,-0.8393025311825791,-0.0014665114320942996,-6.714420249460633e-05,-0.0,-0.0015336556345889058,0.1,0.02,0,-0.008486412689242325,0.011396037980937647,-0.0001697282537848465,0.0,0.0112263097271528,-0.08717104151868879,0.0,0.08717104151868879,-0.013572388512120262,0.0,0.013572388512120262,-0.7332557160471498,0.0,0.7332557160471498,0.11396037980937646,0,-0.11396037980937646,-0.002490497757689885,0.02332426181900346,-0.0112263097271528,0.4,0.03446674346923828,1.1468150615692139,STABILIZE
0.035,0.005,0.05,-0.003966049489331833,0.0007019032968888385,-1.9830247446659166e-05,0.00859877054279847,0.00928084359224065,0.04,0.006,0.04,-0.023640747652620926,-0.0036772257056322333,-0.00014184448591572556,-0.017122202623364658,-0.020941272814912617,0.002,8e-05,0,-0.8637329742249132,-0.00145909657860858,-6.909863793799306e-05,-0.0,-0.0015281952165465732,0.1,0.02,0,-0.005875525093115985,0.007796700927687226,-0.0001175105018623197,0.0,0.007679190425824906,-0.09193064264080583,0.0,0.09193064264080583,0.02005437991110967,0.0,-0.02005437991110967,-0.72954828930429,0.0,0.72954828930429,0.07796700927687225,0,-0.07796700927687225,0.009309331477239679,0.020928624234266023,-0.007679190425824906,0.4,0.03348708152770996,1.180203914642334,STABILIZE
0.035,0.005,0.05,-0.00417559006985909,-0.00019298888473861657,-2.0877950349295448e-05,0.006612324689636745,0.006398457854548833,0.04,0.006,0.04,-0.02535848835366276,-0.0018080636154720333,-0.00015215093012197658,0.002116348104302965,0.0001561335587089551,0.002,8e-05,0,-0.8910011983898072,-0.001435102630483668,-7.128009587118458e-05,-0.0,-0.0015063827263548527,0.1,0.02,0,-0.0036220808257832276,0.0059298393913400724,-7.244161651566455e-05,0.0,0.005857397774824408,-0.045201590386800834,0.0,0.045201590386800834,-0.005513968135389045,0.0,0.005513968135389045,-0.717551315241834,0.0,0.717551315241834,0.05929839391340072,0,-0.05929839391340072,0.006398292837028013,-0.00016275557203613842,-0.005857397774824408,0.4,0.03800177574157715,1.2182371616363525,STABILIZE
0.035,0.005,0.05,-0.005883026469366861,-0.00178630660286231,-2.9415132346834306e-05,-0.012998750284954853,-0.014814472020163998,0.04,0.006,0.04,-0.027097285230934326,-0.002078989359253596,-0.00016258371138560597,-0.0013445348661272215,-0.003586107936766423,0.002,8e-05,0,-0.9137581166806475,-0.001360463421417553,-7.310064933445181e-05,0.0,-0.001433564070752005,0.1,0.02,0,0.0007500083508512746,0.013068701403170492,1.5000167017025493e-05,0.0,0.013083701570187518,-0.0519747339813399,0.0,0.0519747339813399,-0.05103733151035171,0.0,0.05103733151035171,-0.6802317107087765,0.0,0.6802317107087765,0.1306870140317049,0,-0.1306870140317049,-0.014806253869863475,0.003619889184977073,-0.013083701570187518,0.4,0.03345465660095215,1.2516577243804932,STABILIZE
0.035,0.005,0.05,-0.005488242574793381,0.00035111188891966133,-2.7441212873966908e-05,-0.000797796828248088,-0.00047412615220239354,0.04,0.006,0.04,-0.030128363820931918,-0.0030808833283269737,-0.00018077018292559152,-0.004102756302946586,-0.007364409814199151,0.002,8e-05,0,-0.9413298588112721,-0.001401239165218064,-7.530638870490178e-05,0.0,-0.0014765455539229658,0.1,0.02,0,0.0004925740915196195,-0.0006541606347096802,9.85148183039239e-06,-0.0,-0.0006443091528792878,-0.07702208320817434,0.0,0.07702208320817434,0.010031768254847466,0.0,-0.010031768254847466,-0.7006195826090319,0.0,0.7006195826090319,-0.006541606347096801,0,0.006541606347096801,-0.0004749669626989459,0.007364355633999458,0.0006443091528792878,0.4,0.039353370666503906,1.2910184860229492,STABILIZE
0.035,0.005,0.05,-0.003845677319622831,0.001717667725924977,-1.9228386598114154e-05,0.016889790304956964,0.018588229644283825,0.04,0.006,0.04,-0.0369096193679156,-0.008104357329496902,-0.00022145771620749358,-0.028029326615438662,-0.03635514166114306,0.002,8e-05,0,-0.9611722054210962,-0.0011856909540392882,-7.68937764336877e-05,0.0,-0.001262584730472976,0.1,0.02,0,-0.003353224163138001,-0.011490395494225383,-6.706448326276002e-05,-0.0,-0.011557459977488143,-0.20260893323742252,0.0,0.20260893323742252,0.049076220740713626,0.0,-0.049076220740713626,-0.5928454770196441,0.0,0.5928454770196441,-0.11490395494225383,0,0.11490395494225383,0.018515283809915795,0.03639234633750181,0.011557459977488143,0.4,0.03346967697143555,1.324488878250122,STABILIZE
0.035,0.005,0.05,-0.0031865407802875315,0.0006900457537657842,-1.593270390143766e-05,-0.0019340519780585966,-0.0012599389281942501,0.04,0.006,0.04,-0.04340034925861595,-0.00776583186834988,-0.0002604020955516957,-0.02486712353011578,-0.03289335749401735,0.002,8e-05,0,-0.9800738924514897,-0.001130745894360173,-7.840591139611918e-05,0.0,-0.001209151805756292,0.1,0.02,0,0.0036083993628758635,0.02082308104949478,7.216798725751728e-05,0.0,0.020895249036752297,-0.194145796708747,0.0,0.194145796708747,0.01971559296473669,0.0,-0.01971559296473669,-0.5653729471800865,0.0,0.5653729471800865,0.2082308104949478,0,-0.2082308104949478,-0.0011403861056959383,0.03289771926535246,-0.020895249036752297,0.4,0.0334322452545166,1.3579225540161133,STABILIZE
0.035,0.005,0.05,-0.0017381653410103305,0.0015150415163507048,-8.690826705051653e-06,0.01183878961421466,0.013345140303860314,0.04,0.006,0.04,-0.046609538315784585,-0.0038364596231289837,-0.00027965722989470754,-0.011217307186779544,-0.015333424039803235,0.002,8e-05,0,-0.9992882177895718,-0.0011484986087147591,-7.994305742316575e-05,0.0,-0.0012284416661379248,0.1,0.02,0,0.0028844375604028575,-0.0021636698355859936,5.768875120805715e-05,-0.0,-0.0021059810843779363,-0.0959114905782246,0.0,0.0959114905782246,0.04328690046716299,0.0,-0.04328690046716299,-0.5742493043573795,0.0,0.5742493043573795,-0.021636698355859935,0,0.021636698355859935,0.013339348966606067,0.015338462493393476,0.0021059810843779363,0.4,0.03345990180969238,1.3913729190826416,STABILIZE
0.035,0.005,0.05,-0.0005158810488178234,0.0012786075815968123,-2.579405244089117e-06,0.023427260126242463,0.024703288302595185,0.04,0.006,0.04,-0.05086225562323256,-0.005084210302135837,-0.00030517353373939535,-0.017056204757804103,-0.022445588593679334,0.002,8e-05,0,-1.018506511434345,-0.001148793106552188,-8.14805209147476e-05,0.0,-0.0012302736274669357,0.1,0.02,0,0.00709103646966984,0.012572687040584705,0.0001418207293933968,0.0,0.012714507769978102,-0.1271052575533959,0.0,0.1271052575533959,0.03653164518848035,0.0,-0.03653164518848035,-0.574396553276094,0.0,0.574396553276094,0.12572687040584704,0,-0.12572687040584704,0.02475248221691938,0.02239132699013021,-0.012714507769978102,0.4,0.03345823287963867,1.4248697757720947,STABILIZE
0.035,0.005,0.05,0.0006139383625549581,0.001182429565149446,3.0696918127747907e-06,0.007087436953737376,0.008272936210699596,0.04,0.006,0.04,-0.055193743012295966,-0.005180781179561614,-0.0003311624580737758,-0.012541952289870966,-0.018053895927506357,0.002,8e-05,0,-1.0370032621431247,-0.00110617450020799,-8.296026097144998e-05,0.0,-0.00118913476117944,0.1,0.02,0,0.01148835332274317,0.013148795290558062,0.00022976706645486342,0.0,0.013378562357012925,-0.12951952948904033,0.0,0.12951952948904033,0.03378370186141274,0.0,-0.03378370186141274,-0.553087250103995,0.0,0.553087250103995,0.1314879529055806,0,-0.1314879529055806,0.008314346233731942,0.018034862860946924,-0.013378562357012925,0.4,0.03344273567199707,1.458284616470337,STABILIZE
0.035,0.005,0.05,0.0022344419130026715,0.0016964946217008139,1.1172209565013357e-05,-0.00018494718882116959,0.0015227196424446577,0.04,0.006,0.04,-0.058977535421802056,-0.004527117315275035,-0.00035386521253081237,0.021386488259049652,0.016505505731243805,0.002,8e-05,0,-1.0555773760348623,-0.0011111496550910507,-8.4446190082789e-05,0.0,-0.0011955958451738398,0.1,0.02,0,0.014314200159688425,0.008452459041958871,0.0002862840031937685,0.0,0.008738743045152639,-0.11317793288187587,0.0,0.11317793288187587,0.048471274905737535,0.0,-0.048471274905737535,-0.5555748275455253,0.0,0.5555748275455253,0.08452459041958871,0,-0.08452459041958871,0.0014983685374599445,-0.016507734135233675,-0.008738743045152639,0.4,0.0334322452545166,1.4917163848876953,STABILIZE
0.035,0.005,0.05,0.003769625325956151,0.0016060282026649215,1.8848126629780754e-05,0.007824600097026494,0.009449476426321195,0.04,0.006,0.04,-0.061930643343448694,-0.0035307272027633543,-0.0003715838600606922,0.02531775035341115,0.021415439290587104,0.002,8e-05,0,-1.0746292595531284,-0.0011389188134430445,-8.597034076425028e-05,-0.0,-0.0012248891542072948,0.1,0.02,0,0.016724613710911718,0.007204708497808701,0.00033449227421823436,-0.0,0.007539200772026936,-0.08826818006908385,0.0,0.08826818006908385,0.04588652007614061,0.0,-0.04588652007614061,-0.5694594067215223,0.0,0.5694594067215223,0.07204708497808701,0,-0.07204708497808701,0.00942253992900152,-0.021427304684135937,-0.007539200772026936,0.4,0.03345608711242676,1.525193214416504,STABILIZE
0.035,0.005,0.05,0.005440175661535207,0.0017481527359871417,2.7200878307676037e-05,0.001994052021018127,0.0037694056353129446,0.04,0.006,0.04,-0.06477206314947762,-0.0033981860962351523,-0.0003886323788968657,0.002623258861062567,-0.0011635596140694509,0.002,8e-05,0,-1.0937114622211541,-0.0011410646827765317,-8.749691697769234e-05,0.0,-0.0012285615997542241,0.1,0.02,0,0.01886549926903987,0.006400961520914107,0.00037730998538079745,0.0,0.006778271506294904,-0.08495465240587881,0.0,0.08495465240587881,0.04994722102820404,0.0,-0.04994722102820404,-0.5705323413882658,0.0,0.5705323413882658,0.06400961520914107,0,-0.06400961520914107,0.0037707031865969443,0.0011593477897551194,-0.006778271506294904,0.4,0.033446311950683594,1.558650016784668,STABILIZE
0.035,0.005,0.05,0.007277997755559432,0.001923235930802435,3.638998877779716e-05,0.005508739207064921,0.007468365126645154,0.04,0.006,0.04,-0.06746332019490965,-0.003218668298824159,-0.0004047799211694579,0.011155307195645559,0.007531858975651942,0.002,8e-05,0,-1.1127441444177248,-0.0011381278301096415,-8.901953155341799e-05,0.0,-0.0012271473616630594,0.1,0.02,0,0.02042080774154387,0.004650263790147929,0.00040841615483087744,-0.0,0.005058679944978806,-0.08046670747060397,0.0,0.08046670747060397,0.05494959802292671,0.0,-0.05494959802292671,-0.5690639150548207,0.0,0.5690639150548207,0.046502637901479286,0,-0.046502637901479286,0.007462249628903744,-0.00753791799968162,-0.005058679944978806,0.4,0.03344559669494629,1.5920674800872803,STABILIZE
0.035,0.005,0.05,0.008684755911061444,0.0014707750642963492,4.342377955530722e-05,0.00246878567247626,0.003982984516327916,0.04,0.006,0.04,-0.06982548336705195,-0.002822465602144889,-0.0004189529002023117,0.014099880226392058,0.010858461724044857,0.002,8e-05,0,-1.1318959570432987,-0.0011441913283531183,-9.05516765634639e-05,-0.0,-0.001234743004916582,0.1,0.02,0,0.022663620604103898,0.006699645298934536,0.00045327241208207794,-0.0,0.007152917711016614,-0.07056164005362223,0.0,0.07056164005362223,0.042022144694181404,0.0,-0.042022144694181404,-0.5720956641765591,0.0,0.5720956641765591,0.06699645298934535,0,-0.06699645298934535,0.0039702849026147175,-0.010863111638104652,-0.007152917711016614,0.4,0.03347659111022949,1.6255755424499512,STABILIZE
0.035,0.005,0.05,0.010325263208280573,0.0017165427957379182,5.162631604140286e-05,0.00017480527646977773,0.0019429743882490988,0.04,0.006,0.04,-0.07227193912408424,-0.0029255382592890886,-0.0004336316347445054,0.009573215117309542,0.006214045223275948,0.002,8e-05,0,-1.1509661101369457,-0.0011402303582559406,-9.207728881095567e-05,-0.0,-0.0012323076470668964,0.1,0.02,0,0.024727317789330017,0.006169562900955571,0.0004945463557866004,-0.0,0.0066641092567421715,-0.07313845648222721,0.0,0.07313845648222721,0.04904407987822623,0.0,-0.04904407987822623,-0.5701151791279703,0.0,0.5701151791279703,0.06169562900955571,0,-0.06169562900955571,0.00193628202980561,-0.006216133799345253,-0.0066641092567421715,0.4,0.033449649810791016,1.6590120792388916,STABILIZE
0.035,0.005,0.05,0.01207208619253097,0.0018284507479993746,6.036043096265485e-05,0.0019036097027966305,0.00379242088175866,0.04,0.006,0.04,-0.0744489996089966,-0.002604334780810973,-0.0004466939976539796,0.005538027196406664,0.002486998417941712,0.002,8e-05,0,-1.1700669500750356,-0.0011424804716776895,-9.360535600600286e-05,-0.0,-0.0012360858276836925,0.1,0.02,0,0.027496272384218007,0.008280988066166894,0.0005499254476843601,0.0,0.008830913513851254,-0.06510836952027432,0.0,0.06510836952027432,0.05224144994283927,0.0,-0.05224144994283927,-0.5712402358388448,0.0,0.5712402358388448,0.08280988066166894,0,-0.08280988066166894,0.003788822450579636,-0.0024924770236107356,-0.008830913513851254,0.4,0.033437490463256836,1.6924397945404053,STABILIZE
0.035,0.005,0.05,0.01407992194745237,0.0019235892047075951,7.039960973726185e-05,0.0014335679161577223,0.0034275567306025793,0.04,0.006,0.04,-0.07653424158882931,-0.0022831400579469393,-0.00045920544953297586,0.0065038539731416805,0.0037615084656617654,0.002,8e-05,0,-1.1908932368109097,-0.0011401393690716403,-9.527145894487279e-05,0.0,-0.0012354108280165131,0.1,0.02,0,0.031262461122956935,0.010309039020849469,0.0006252492224591387,0.0,0.010934288243308608,-0.057078501448673484,0.0,0.057078501448673484,0.05495969156307414,0.0,-0.05495969156307414,-0.5700696845358202,0.0,0.5700696845358202,0.10309039020849468,0,-0.10309039020849468,0.0034207832290763245,-0.003767669462468055,-0.010934288243308608,0.4,0.03653287887573242,1.7290031909942627,STABILIZE
0.035,0.005,0.05,0.01570945366416516,0.0016739064643495945,7.85472683208258e-05,-0.0021558385034456664,-0.00040338477077524605,0.04,0.006,0.04,-0.07815229802679562,-0.001899564223383511,-0.00046891378816077373,0.007681912408695781,0.005313434397151496,0.002,8e-05,0,-1.2101553117978814,-0.0011306635434598954,-9.681242494383052e-05,0.0,-0.001227475968403726,0.1,0.02,0,0.0347691864327007,0.01029205437975181,0.000695383728654014,0.0,0.010987438108405825,-0.04748910558458777,0.0,0.04748910558458777,0.04782589898141698,0.0,-0.04782589898141698,-0.5653317717299478,0.0,0.5653317717299478,0.1029205437975181,0,-0.1029205437975181,-0.0004129286495737539,-0.005312701224093754,-0.010987438108405825,0.4,0.034072160720825195,1.7630677223205566,STABILIZE
0.035,0.005,0.05,0.017244299391560483,0.0016051144448608664,8.622149695780241e-05,0.0011185238578768502,0.002809859799695519,0.04,0.006,0.04,-0.07976029639872208,-0.0019218470666546852,-0.0004785617783923325,0.005181709135791518,0.0027813002907445005,0.002,8e-05,0,-1.2290081266259265,-0.0011266251106975445,-9.832065013007413e-05,0.0,-0.0012249457608276186,0.1,0.02,0,0.038509100679538354,0.011174674288093352,0.0007701820135907671,0.0,0.011944856301684119,-0.04804617666636713,0.0,0.04804617666636713,0.045860412710310466,0.0,-0.045860412710310466,-0.5633125553487722,0.0,0.5633125553487722,0.11174674288093352,0,-0.11174674288093352,0.00280442995387508,-0.002786775203536985,-0.011944856301684119,0.4,0.033467769622802734,1.796593189239502,STABILIZE
0.035,0.005,0.05,0.018547306072338707,0.0013623798256626933,9.273653036169354e-05,-0.0030525283267825594,-0.0015974119707581726,0.04,0.006,0.04,-0.08122492537376398,-0.0017501333072752379,-0.0004873495522425839,0.006823926632305774,0.0045864437727879525,0.002,8e-05,0,-1.2475666439511293,-0.0011088091201921263,-9.980533151609035e-05,0.0,-0.0012086144517082166,0.1,0.02,0,0.042199744563165886,0.011025179236679054,0.0008439948912633177,0.0,0.011869174127942372,-0.043753332681880946,0.0,0.043753332681880946,0.038925137876076946,0.0,-0.038925137876076946,-0.5544045600960631,0.0,0.5544045600960631,0.11025179236679053,0,-0.11025179236679053,-0.0016062345034324817,-0.004583361452607672,-0.011869174127942372,0.4,0.03347468376159668,1.830152988433838,STABILIZE
0.035,0.005,0.05,0.02003904222775785,0.0015618448076589562,0.00010019521113878926,-0.002303939650420531,-0.0006418996316227854,0.04,0.006,0.04,-0.08262641419911465,-0.0016769783215649665,-0.0004957584851946879,0.0053403840197584675,0.003167647212998813,0.002,8e-05,0,-1.2662567327781298,-0.0011181992044482093,-0.0001013005386222504,0.0,-0.0012194997430704597,0.1,0.02,0,0.0460031076788405,0.01137746762345785,0.00092006215357681,0.0,0.01229752977703466,-0.04192445803912416,0.0,0.04192445803912416,0.044624137361684454,0.0,-0.044624137361684454,-0.5590996022241046,0.0,0.5590996022241046,0.1137746762345785,0,-0.1137746762345785,-0.0006481884942757477,-0.0031663663210350686,-0.01229752977703466,0.4,0.03342890739440918,1.8634250164031982,STABILIZE
0.035,0.005,0.05,0.021482780181080515,0.0013702563184269858,0.00010741390090540258,-0.004532378852460927,-0.003054708633128538,0.04,0.006,0.04,-0.08400126575507678,-0.0014912868776265306,-0.0005040075945304607,0.004589084558237024,0.0025937900860800323,0.002,8e-05,0,-1.2869823575536774,-0.001124043251227799,-0.0001029585886042942,0.0,-0.001227001839832093,0.1,0.02,0,0.05036839874603517,0.011837462119632321,0.0010073679749207035,0.0,0.012844830094553025,-0.037282171940663265,0.0,0.037282171940663265,0.039150180526485306,0.0,-0.039150180526485306,-0.5620216256138995,0.0,0.5620216256138995,0.11837462119632321,0,-0.11837462119632321,-0.0030600609499234614,-0.002587473444638728,-0.012844830094553025,0.4,0.03687691688537598,1.9002950191497803,STABILIZE
0.035,0.005,0.05,0.022746737940725317,0.0013217398691353175,0.00011373368970362658,-0.002852806525387637,-0.0014173329665486927,0.04,0.006,0.04,-0.08514881603642023,-0.0013714409110048699,-0.0005108928962185214,0.003053676188336566,0.0011713423811131746,0.002,8e-05,0,-1.3059016304870823,-0.0011305240968161614,-0.00010447213043896659,0.0,-0.001234996227255128,0.1,0.02,0,0.05443767822466588,0.01215802140881638,0.0010887535644933176,0.0,0.013246774973309698,-0.034286022775121744,0.0,0.034286022775121744,0.03776399626100907,0.0,-0.03776399626100907,-0.5652620484080807,0.0,0.5652620484080807,0.12158021408816379,0,-0.12158021408816379,-0.0014198153330139927,-0.0011683322010438487,-0.013246774973309698,0.4,0.03346991539001465,1.933776617050171,STABILIZE
0.035,0.005,0.05,0.0241243332644521,0.0014312335910664556,0.0001206216663222605,-0.0013369007232684961,0.00021495453412022011,0.04,0.006,0.04,-0.08619334683939271,-0.0012402295062330813,-0.0005171600810363562,0.003965809188012363,0.0022084196007429256,0.002,8e-05,0,-1.3250937082489789,-0.0011393910576158897,-0.00010600749665991831,-0.0,-0.001245398554275808,0.1,0.02,0,0.058471703186242015,0.011974555398437794,0.0011694340637248403,0.0,0.013143989462162635,-0.031005737655827034,0.0,0.031005737655827034,0.04089238831618444,0.0,-0.04089238831618444,-0.5696955288079448,0.0,0.5696955288079448,0.11974555398437794,0,-0.11974555398437794,0.00021033857225011951,-0.002208864022457735,-0.013143989462162635,0.4,0.03368830680847168,1.9674651622772217,STABILIZE
0.035,0.005,0.05,0.025235901714833305,0.0011617220187506272,0.00012617950857416653,-0.001564465693007933,-0.0002765641656831393,0.04,0.006,0.04,-0.08717910905705663,-0.0011774165189684532,-0.0005230746543423398,0.00331500331926727,0.0016145121459564772,0.002,8e-05,0,-1.3445397129335348,-0.0011613372237877868,-0.0001075631770346828,-0.0,-0.0012689004008224697,0.1,0.02,0,0.062491237697537894,0.012002555604583654,0.0012498247539507578,0.0,0.013252380358534412,-0.02943541297421133,0.0,0.02943541297421133,0.03319205767858934,0.0,-0.03319205767858934,-0.5806686118938934,0.0,0.5806686118938934,0.12002555604583653,0,-0.12002555604583653,-0.00027994570284183614,-0.0016139292458597402,-0.013252380358534412,0.4,0.03348898887634277,2.0009548664093018,STABILIZE
0.035,0.005,0.05,0.02633805158833927,0.0011521081411798675,0.00013169025794169636,-0.0033513154698274375,-0.002067517070705874,0.04,0.006,0.04,-0.088149268825687,-0.0011590116418856945,-0.000528895612954122,0.0029872662229307434,0.0012993589680909269,0.002,8e-05,0,-1.3640072058536652,-0.0011628523291896547,-0.00010912057646829322,-0.0,-0.001271972905657948,0.1,0.02,0,0.0664925315541193,0.011950470201755136,0.001329850631082386,0.0,0.013280320832837523,-0.02897529104714236,0.0,0.02897529104714236,0.03291737546228193,0.0,-0.03291737546228193,-0.5814261645948273,0.0,0.5814261645948273,0.11950470201755135,0,-0.11950470201755135,-0.002070222710171362,-0.001295043820072996,-0.013280320832837523,0.4,0.03348231315612793,2.034468650817871,STABILIZE
0.035,0.005,0.05,0.02743101760719911,0.0011433628665778977,0.00013715508803599554,-0.001941611564138173,-0.0006610936095242798,0.04,0.006,0.04,-0.0891069047947415,-0.001144905971794813,-0.000534641428768449,0.0020644990250471462,0.00038495162448388444,0.002,8e-05,0,-1.3834809528167347,-0.0011640962699663714,-0.00011067847622533879,-0.0,-0.0012747747461917102,0.1,0.02,0,0.07046830081080455,0.011883121853054918,0.001409366016216091,0.0,0.01329248786927101,-0.028622649294870323,0.0,0.028622649294870323,0.03266751047365422,0.0,-0.03266751047365422,-0.5820481349831856,0.0,0.5820481349831856,0.11883121853054918,0,-0.11883121853054918,-0.0006618905752548455,-0.0003835796920268748,-0.01329248786927101,0.4,0.033457279205322266,2.0679078102111816,STABILIZE
0.035,0.005,0.05,0.02836328577556993,0.0009758115063705129,0.00014181642887784964,-0.002959103580789415,-0.0018414756455410524,0.04,0.006,0.04,-0.08977609625553087,-0.0008005112073453774,-0.0005386565775331852,0.0034082454136107714,0.0020690776287322086,0.002,8e-05,0,-1.4030715672879461,-0.0011717503406639626,-0.0001122457253830357,-0.0,-0.0012839960660469983,0.1,0.02,0,0.07444634999342248,0.011896718430553389,0.0014889269998684495,-0.0,0.013385645430421839,-0.020012780183634435,0.0,0.020012780183634435,0.027880328753443224,0.0,-0.027880328753443224,-0.5858751703319813,0.0,0.5858751703319813,0.11896718430553388,0,-0.11896718430553388,-0.0018457678416581582,-0.0020652495881954606,-0.013385645430421839,0.4,0.03343820571899414,2.1013312339782715,STABILIZE
0.035,0.005,0.05,0.029360085377184195,0.0010429257025167439,0.00014680042688592097,-0.0033145087642754848,-0.0021247826348728197,0.04,0.006,0.04,-0.09022638757654235,-0.0005384322173742595,-0.0005413583254592541,0.004196166625827426,0.0031163760829939122,0.002,8e-05,0,-1.4226386422889599,-0.0011698586102724345,-0.0001138110913831168,-0.0,-0.0012836697016555512,0.1,0.02,0,0.07825881531409232,0.011396811688818008,0.0015651763062818464,-0.0,0.012961987995099854,-0.013460805434356486,0.0,0.013460805434356486,0.02979787721476411,0.0,-0.02979787721476411,-0.5849293051362172,0.0,0.5849293051362172,0.11396811688818007,0,-0.11396811688818007,-0.0021309772698455405,-0.0031121434754064936,-0.012961987995099854,0.4,0.03345203399658203,2.1348443031311035,STABILIZE
0.035,0.005,0.05,0.030266545424680328,0.0009484463165661414,0.00015133272712340164,-0.001822131079102165,-0.0007223520354126219,0.04,0.006,0.04,-0.09056150294459152,-0.0004007286364186122,-0.0005433690176675491,0.004644365358959045,0.0037002677048728837,0.002,8e-05,0,-1.4425372769130023,-0.0011897324742079218,-0.00011540298215304019,-0.0,-0.001305135456360962,0.1,0.02,0,0.08226931181908868,0.01198930986934776,0.0016453862363817737,-0.0,0.013634696105729534,-0.010018215910465304,0.0,0.010018215910465304,0.027098466187604038,0.0,-0.027098466187604038,-0.5948662371039609,0.0,0.5948662371039609,0.1198930986934776,0,-0.1198930986934776,-0.0007300933669627318,-0.003698748062021394,-0.013634696105729534,0.4,0.03345060348510742,2.168247699737549,STABILIZE
0.035,0.005,0.05,0.031224165760201428,0.0010021477218916165,0.00015612082880100714,-0.001281330537261285,-0.00012306198656866145,0.04,0.006,0.04,-0.09063845106297382,-9.202976966405395e-05,-0.0005438307063778429,0.006380443066529823,0.005744582590487926,0.002,8e-05,0,-1.4622557248899068,-0.0011791608837212267,-0.00011698045799119256,-0.0,-0.0012961413417124192,0.1,0.02,0,0.08598263491545244,0.01110281435176643,0.0017196526983090487,-0.0,0.012822467050075477,-0.0023007442416013487,0.0,0.0023007442416013487,0.028632792054046185,0.0,-0.028632792054046185,-0.5895804418606133,0.0,0.5895804418606133,0.11102814351766428,0,-0.11102814351766428,-0.0001341936389887471,-0.005744333334576794,-0.012822467050075477,0.4,0.033444881439208984,2.2016942501068115,STABILIZE
0.035,0.005,0.05,0.032236064091196906,0.001059410218483263,0.00016118032045598453,-0.0007172515492927313,0.0005033389896465162,0.04,0.006,0.04,-0.0904490817343191,0.000226583804432779,-0.0005426944904059147,0.00820225691346415,0.007886146227491014,0.002,8e-05,0,-1.4818922172165296,-0.0011747707954316926,-0.00011855137737732238,-0.0,-0.001293322172809015,0.1,0.02,0,0.08941739935124843,0.010274393413150248,0.0017883479870249685,-0.0,0.012062741400175216,0.005664595110819475,0.0,-0.005664595110819475,0.030268863385236083,0.0,-0.030268863385236083,-0.5873853977158463,0.0,0.5873853977158463,0.10274393413150247,0,-0.10274393413150247,0.0004891965933062424,-0.007887036145027275,-0.012062741400175216,0.4,0.03343033790588379,2.2351503372192383,STABILIZE
0.035,0.005,0.05,0.033135621693323195,0.0009411839076104308,0.00016567810846661597,-0.0002953738094332264,0.0008114882066438203,0.04,0.006,0.04,-0.0904037684810874,5.418295728902855e-05,-0.0005424226108865244,0.005111634470898737,0.004623394817301241,0.002,8e-05,0,-1.5015950353205123,-0.0011779742963310324,-0.00012012760282564099,-0.0,-0.0012981018991566735,0.1,0.02,0,0.09284217460432073,0.010237868505760328,0.0018568434920864148,-0.0,0.012094711997846744,0.0013545739322257137,0.0,-0.0013545739322257137,0.026890968788869447,0.0,-0.026890968788869447,-0.5889871481655162,0.0,0.5889871481655162,0.10237868505760328,0,-0.10237868505760328,0.00080322562502332,-0.004624837439464858,-0.012094711997846744,0.4,0.03345203399658203,2.268605947494507,STABILIZE
0.035,0.005,0.05,0.03394418339478361,0.0008456999818592865,0.00016972091697391807,-0.0016838593368741475,-0.0006684384380409431,0.04,0.006,0.04,-0.09049343778209261,-0.00010718620285374717,-0.0005429606266925557,0.00258027710953969,0.0019301302799933872,0.002,8e-05,0,-1.5213094907740417,-0.0011782837591598398,-0.00012170475926192334,-0.0,-0.0012999885184217632,0.1,0.02,0,0.09632645177008727,0.010412327153827616,0.0019265290354017453,-0.0,0.012338856189229362,-0.002679655071343679,0.0,0.002679655071343679,0.02416285662455104,0.0,-0.02416285662455104,-0.5891418795799199,0.0,0.5891418795799199,0.10412327153827616,0,-0.10412327153827616,-0.0006719449463479648,-0.0019289123443732216,-0.012338856189229362,0.4,0.0334630012512207,2.3020334243774414,STABILIZE
0.035,0.005,0.05,0.03486903917451356,0.0009673424890957498,0.0001743451958725678,0.00016174214708064544,0.0013034298320489632,0.04,0.006,0.04,-0.09038484613040809,0.00012980596040754205,-0.0005423090767824486,0.0031734052223104103,0.002760902105935504,0.002,8e-05,0,-1.5410161268366163,-0.0011778248055089836,-0.0001232812901469293,0.0,-0.0013011060956559129,0.1,0.02,0,0.09964820533227946,0.009926716388617945,0.0019929641066455893,-0.0,0.011919680495263535,0.0032451490101885515,0.0,-0.0032451490101885515,0.027638356831307137,0.0,-0.027638356831307137,-0.5889124027544917,0.0,0.5889124027544917,0.09926716388617945,0,-0.09926716388617945,0.0012986445080391488,-0.00276315620394035,-0.011919680495263535,0.4,0.0334627628326416,2.335541009902954,STABILIZE
0.035,0.005,0.05,0.0356918727512575,0.0008609586292195291,0.0001784593637562875,-0.001205698221297109,-0.00016628022832129241,0.04,0.006,0.04,-0.0904405096267152,-6.656297226369062e-05,-0.0005426430577602912,0.00015328982228139898,-0.00045591620774258285,0.002,8e-05,0,-1.5609919770335676,-0.001194366192223439,-0.00012487935816268543,-0.0,-0.0013192455503861244,0.1,0.02,0,0.10284274790651304,0.009550165856933867,0.0020568549581302608,-0.0,0.011607020815064128,-0.0016640743065922657,0.0,0.0016640743065922657,0.02459881797770083,0.0,-0.02459881797770083,-0.5971830961117195,0.0,0.5971830961117195,0.09550165856933866,0,-0.09550165856933866,-0.00016552006817017835,0.0004561927332234684,-0.011607020815064128,0.4,0.03345012664794922,2.368981122970581,STABILIZE
0.035,0.005,0.05,0.03653204519938384,0.0008792512838640531,0.00018266022599691922,-0.0015388219497776499,-0.0004769104399166776,0.04,0.006,0.04,-0.090526773805363,-0.00010317322694095611,-0.000543160642832178,-0.001971776526275039,-0.002618110396048173,0.002,8e-05,0,-1.581057468268662,-0.0011999311378898916,-0.00012648459746149296,-0.0,-0.0013264157353513844,0.1,0.02,0,0.10592003096369414,0.0092011895376735,0.002118400619273883,-0.0,0.011319590156947383,-0.002579330673523903,0.0,0.002579330673523903,0.025121465253258656,0.0,-0.025121465253258656,-0.5999655689449458,0.0,0.5999655689449458,0.09201189537673499,0,-0.09201189537673499,-0.000472705375718752,0.002618872895228715,-0.011319590156947383,0.4,0.03344440460205078,2.402414560317993,STABILIZE
0.035,0.005,0.05,0.03732691451381185,0.0008318113220920386,0.00018663457256905925,-0.0009343127479976385,8.413314666345928e-05,0.04,0.006,0.04,-0.09055299865882178,-3.1364192659477625e-05,-0.0005433179919529307,-0.0005116339077762379,-0.0010863160923886461,0.002,8e-05,0,-1.6011985151370522,-0.001204406490462376,-0.0001280958812109642,-0.0,-0.0013325023716733403,0.1,0.02,0,0.10884345130174186,0.008740822789654266,0.002176869026034837,-0.0,0.010917691815689103,-0.0007841048164869407,0.0,0.0007841048164869407,0.023766037774058245,0.0,-0.023766037774058245,-0.6022032452311881,0.0,0.6022032452311881,0.08740822789654265,0,-0.08740822789654265,8.579028998383488e-05,0.001086186478048094,-0.010917691815689103,0.4,0.03344559669494629,2.435878038406372,STABILIZE
0.035,0.005,0.05,0.03803625529416995,0.0007425936555347309,0.00019018127647084975,-0.0008814999884164563,5.1274943589124395e-05,0.04,0.006,0.04,-0.09058056271152448,-3.2978532381670014e-05,-0.0005434833762691469,0.0004431720114844766,-0.00013328989716634033,0.002,8e-05,0,-1.621337179056474,-0.0012047277433288263,-0.00012970697432451792,-0.0,-0.001334434717653344,0.1,0.02,0,0.11161403336185409,0.008287037030712317,0.0022322806672370817,-0.0,0.010519317697949398,-0.0008244633095417504,0.0,0.0008244633095417504,0.021216961586706596,0.0,-0.021216961586706596,-0.6023638716644131,0.0,0.6023638716644131,0.08287037030712316,0,-0.08287037030712316,5.1467675173552857e-05,0.00013321559570452372,-0.010519317697949398,0.4,0.033432722091674805,2.469287395477295,STABILIZE
0.035,0.005,0.05,0.03866524682383093,0.0006550908047336021,0.00019332623411915463,-0.0026640656294509724,-0.0018156485905982157,0.04,0.006,0.04,-0.09060685855018341,-3.1299376034536164e-05,-0.0005436411513011004,-0.0009632877238192013,-0.0015382282511548378,0.002,8e-05,0,-1.6416924485923836,-0.0012114221640777644,-0.0001313353958873907,-0.0,-0.001342757559965155,0.1,0.02,0,0.1142558378974391,0.007861209014999652,0.002285116757948782,-0.0,0.010146325772948434,-0.0007824844008634042,0.0,0.0007824844008634042,0.018716880135245775,0.0,-0.018716880135245775,-0.6057110820388821,0.0,0.6057110820388821,0.07861209014999651,0,-0.07861209014999651,-0.0018135363718978198,0.0015407179446595188,-0.010146325772948434,0.4,0.03360557556152344,2.502890110015869,STABILIZE
0.035,0.005,0.05,0.03926183159192507,0.0006240800508110782,0.00019630915795962534,-0.0020202038922493195,-0.001199814683478616,0.04,0.006,0.04,-0.09071884631883985,-0.00013388461617061225,-0.0005443130779130391,-0.0004024060449558635,-0.0010806037390395148,0.002,8e-05,0,-1.6619323412794407,-0.0012098688527558605,-0.00013295458730235525,-0.0,-0.0013428234400582157,0.1,0.02,0,0.11680555731065251,0.007620658244118401,0.00233611114621305,-0.0,0.00995676939033145,-0.003347115404265306,0.0,0.003347115404265306,0.01783085859460223,0.0,-0.01783085859460223,-0.6049344263779303,0.0,0.6049344263779303,0.076206582441184,0,-0.076206582441184,-0.001198376359393524,0.0010821986031980424,-0.00995676939033145,0.4,0.03345799446105957,2.5363874435424805,STABILIZE
0.035,0.005,0.05,0.03965044648322516,0.0004066528006927404,0.0001982522324161258,-0.004033778013973201,-0.003428872980864335,0.04,0.006,0.04,-0.09064089325398174,9.322437304324804e-05,-0.0005438453595238904,0.0011745285830058265,0.0007239075965251842,0.002,8e-05,0,-1.6826264853253272,-0.001237410362155812,-0.00013461011882602618,-0.0,-0.0013720204809818382,0.1,0.02,0,0.11921987700745955,0.007218235757327069,0.002384397540149191,-0.0,0.00960263329747626,0.002330609326081201,0.0,-0.002330609326081201,0.01161865144836401,0.0,-0.01161865144836401,-0.6187051810779061,0.0,0.6187051810779061,0.07218235757327068,0,-0.07218235757327068,-0.003429782252687111,-0.0007195872611163038,-0.00960263329747626,0.4,0.0334475040435791,2.569816827774048,STABILIZE
0.035,0.005,0.05,0.040035458426028916,0.00040293144470196783,0.0002001772921301446,-0.0036603069672986963,-0.003057198230466584,0.04,0.006,0.04,-0.09071747205919858,-9.159198957347224e-05,-0.0005443048323551915,-0.0003601263807098223,-0.000996023202638486,0.002,8e-05,0,-1.7034201956085457,-0.0012435146317974373,-0.00013627361564868366,-0.0,-0.001379788247446121,0.1,0.02,0,0.12139890273737061,0.006515552879454829,0.0024279780547474122,-0.0,0.008943530934202241,-0.0022897997393368057,0.0,0.0022897997393368057,0.011512326991484793,0.0,-0.011512326991484793,-0.6217573158987186,0.0,0.6217573158987186,0.06515552879454829,0,-0.06515552879454829,-0.003056063597789964,0.0009994991379812686,-0.008943530934202241,0.4,0.033443450927734375,2.6032521724700928,STABILIZE
0.035,0.005,0.05,0.04042417457370397,0.0003790580589808309,0.00020212087286851986,-0.003087900128743214,-0.0025067211968938636,0.04,0.006,0.04,-0.09095891119353738,-0.00026907463798267597,-0.0005457534671612244,-0.0013394570966504702,-0.002154285201794371,0.002,8e-05,0,-1.7256961705181295,-0.0012412859044003597,-0.00013805569364145037,-0.0,-0.0013793415980418102,0.1,0.02,0,0.12377743097995778,0.006626945830037189,0.0024755486195991556,-0.0,0.009102494449636345,-0.006726865949566899,0.0,0.006726865949566899,0.010830230256595167,0.0,-0.010830230256595167,-0.6206429522001798,0.0,0.6206429522001798,0.06626945830037188,0,-0.06626945830037188,-0.002504227830871947,0.0021571830846531317,-0.009102494449636345,0.4,0.03589177131652832,2.639177083969116,STABILIZE
