Mode,Time,Freq,North-Vision,East-Vision,Down-Vision,Yaw-Vision,North-Desired,East-Desired,Down-Desired,Roll-UAV,Pitch-UAV,Yaw-UAV,Roll-Control,Pitch-Control,Yaw-Control,Thrust-Control,northVraw,eastVraw,downVraw,N-Velocity,E-Velocity,D-Velocity,yawVraw,yawRate,Q-Size
GUIDED_NOGPS,0.04028630256652832,24.833502075229283,-15.2995061029495,39.332322344178586,83.95065784076091,-4.793106427003406,-14.566521919794946,43.73139477942779,77.40101582482461,-0.9812025646058177,-0.15712826173230532,8.493199360259224,3.8712402881992656,-1.702982793226146,-10.0,0.48362589496015923,-13.917726837953726,43.02406324771087,73.17515041305677,1.6310829669237137,-12.016507238149643,-16.21563732624054,-5.432027933110813,-10.941362847487111,1
GUIDED_NOGPS,0.04663562774658203,157.568052894549,-11.371259949189843,45.24158650847307,76.50644718075029,-5.686516974988181,-14.566318760193226,43.73141247269271,77.40081411583915,-0.9988588170537123,-0.31368831042260376,8.51170661158902,-3.583973309174088,4.376658008015674,-10.0,0.5022359173377222,-13.377935189463262,42.21714441663731,73.36855851056302,-0.6783894263207912,-15.703444182872772,-9.860901534557343,-5.550086904315768,-9.848233759508885,0
GUIDED_NOGPS,0.061998844146728516,65.11175621342193,-11.8013150424324,44.5507146666065,75.88287171094548,-5.861047953516795,-14.564924127085963,43.731533931943616,77.3994184305562,-0.9195253160703679,-0.3382975353630126,8.730986419797695,2.8828318575506637,-2.0162809709503007,-5.782047192790231,0.5037913667990268,-13.821121508114615,41.82458264690774,71.3149316214103,-5.848993360996246,-18.309281766414642,-6.209784746170044,-6.2985496740565114,-10.266560648057363,0
GUIDED_NOGPS,0.09771466255187988,28.00291091660491,-12.029158944705713,44.026054836381256,75.34606448373631,-6.056966816196389,-14.561221283072557,43.731856414364074,77.39567925876197,-0.8336872872022029,-0.3537605233549661,9.150459072579443,0.9762005771248811,-0.33090403000666996,-4.731578988520559,0.5051240369375641,-13.821121508114615,41.82458264690774,71.3149316214103,-0.4451022483408451,-19.732749462127686,-0.5668211728334427,-6.2985496740565114,-11.710524964074235,0
GUIDED_NOGPS,0.14075112342834473,23.240102616953962,-12.19038615401718,43.424572375304024,74.85795543772589,-6.376600034733577,-14.554173313607954,43.732470225327766,77.3884949979738,-0.8375217980909303,-0.45064691681415564,9.460103137281031,1.3619313709393295,-0.32189923436457457,-5.8957734976174105,0.5063263489006198,-13.821121508114615,41.82458264690774,71.3149316214103,-0.6306825205683708,-21.437276899814606,5.629733204841614,-6.2985496740565114,-11.29573440596853,0
GUIDED_NOGPS,0.1624162197113037,46.16684461370816,-12.228709218542269,42.62802289687764,74.37864802456733,-6.752997024455265,-14.542821248817805,43.73345888197047,77.37681129264371,-0.5199393993873466,-0.6217608713261348,9.822310630287747,1.7383794751550554,-0.09958161037375932,-6.2761511859200665,0.507495408170191,-13.611857198940296,39.54320169756456,70.16951266513888,5.75512982904911,-22.780741751194,3.8479048758745193,-7.502427994822508,-10.723714600716425,0
GUIDED_NOGPS,0.19638752937316895,29.442390037765517,-12.227863551008307,41.77848398347156,73.97665094807236,-7.124242466347345,-14.526282185313638,43.73489927676205,77.35962037336228,-0.2469011465730588,-0.7286937260024726,10.089086720211043,1.9480356350792594,-0.06818378637043065,-6.499378653937858,0.5084574235632248,-13.336881773646795,39.175094575628606,70.17755685191963,4.862005636096001,-26.03546977043152,3.2839111983776093,-7.678578079624145,-10.05466939698335,0
GUIDED_NOGPS,0.23000526428222656,29.750845858661805,-12.312611926231286,40.802237975780436,73.69313268547326,-7.486920726204504,-14.503747408008007,43.736861841078486,77.33596039606223,0.17417259859967546,-0.884671714509439,10.367661108151891,2.2181086176927134,-0.31443609521062044,-6.616487004073671,0.5091070692764724,-13.783342522512537,37.43906386832466,70.45865062750505,0.7904713973402977,-28.5348117351532,4.502151533961296,-8.27998236993357,-8.535702773690568,0
GUIDED_NOGPS,0.26595425605773926,27.822173872666728,-12.247624711352833,39.88180909738851,73.60677484771678,-7.867369601467705,-14.474480511929672,43.73941070877383,77.30491478122222,0.546308732060356,-1.0069060605564566,10.523760812764301,2.1212587070415316,-0.02064774381290585,-6.835006142940513,0.5092453498337636,-11.902867993421992,37.680644335222084,71.32851619159953,0.44528734870254993,-29.89000380039215,9.176748991012573,-8.659800957172909,-9.601290831388011,0
GUIDED_NOGPS,0.2979607582092285,31.248539754440337,-12.13501238009224,38.91072652683146,73.64643702212466,-8.179322677210036,-14.437815524038752,43.742603879752245,77.26561155307053,1.024224005197024,-1.088211351775819,10.746442055179642,2.54166717710073,0.011615803228609556,-6.853989978696139,0.5090479363273647,-11.749630374673348,36.55828651865786,71.52717748912852,3.355153277516365,-31.18739128112793,13.751614093780518,-9.105173599266992,-5.492962781476607,0
GUIDED_NOGPS,0.3311128616333008,30.167686808167844,-12.078703695158408,38.004460663213024,73.85724842909599,-8.431229000802247,-14.393155025041892,43.74649338353995,77.21722267878872,1.701334808566238,-1.2071293208156781,10.953873192725636,2.38933191562834,-0.11871947533717556,-6.578262950462083,0.5083999356242318,-11.749630374673348,36.55828651865786,71.52717748912852,0.4933568648993969,-33.393365144729614,22.646620869636536,-9.105173599266992,-4.615081128775807,0
GUIDED_NOGPS,0.3679053783416748,27.1836676496322,-12.005000402974277,36.862181344127805,74.09026132322262,-8.67496386027067,-14.339968271207429,43.75112544285728,77.15896340771539,2.0521770802374633,-1.0813877793515647,11.094059410345563,2.7410007154982066,-0.16611425419083373,-6.530813006079979,0.507671755211232,-11.455736306886804,32.92293833222729,72.03695330278538,0.578131852671504,-34.06747579574585,20.65630704164505,-9.53560740865789,-3.203170890533805,0
GUIDED_NOGPS,0.39751672744750977,33.776546570245934,-11.887513053026861,35.80209367473858,74.15646737731961,-8.981523364196725,-14.277789316180549,43.75654063719064,77.09009161054993,2.177203052664312,-1.3172983511372798,11.112190147497362,3.17028836361182,-0.15092091838606092,-7.4593181044948915,0.5073340605830758,-11.455736306886804,32.92293833222729,72.03695330278538,3.747088834643364,-31.856125593185425,9.184998273849487,-9.53560740865789,-6.933657998201982,0
GUIDED_NOGPS,0.43419742584228516,27.26707969549417,-11.783591115320132,34.8874507546852,74.20743426241364,-9.215621473795022,-14.206215132798459,43.762774066364514,77.00990711855611,2.5256242357181793,-1.261493037575631,11.176667133262283,2.4869833690121377,-0.11983579197297567,-6.810638437175643,0.5070061821403562,-11.455736306886804,32.92293833222729,72.03695330278538,3.747088834643364,-31.856125593185425,9.184998273849487,-9.53560740865789,-6.933657998201982,0
GUIDED_NOGPS,0.46946024894714355,28.365957907266136,-11.6528696487944,33.86250396957391,74.50560904851487,-9.43563469478058,-14.12490373490554,43.769855514113466,76.9177510627659,2.6654224132158846,-1.2319485207122118,11.11215428900422,2.8518807487184863,-0.14915546362090826,-6.90708953509646,0.5060303550356275,-12.245528894484977,32.383476848503165,72.67714546340721,8.086631447076797,-31.37989342212677,19.997595250606537,-9.785356037533653,-3.339631666848313,0
GUIDED_NOGPS,0.5003294944763184,32.398204864785534,-11.622845543058437,32.95225794297723,74.81903946165724,-9.545230314998612,-14.03357229916853,43.777809611654135,76.81300521318315,2.9892312230390226,-1.260337134780312,11.034456618327093,2.9184559299636783,-0.41158607143668036,-6.436560604368902,0.5049849143788148,-12.245528894484977,32.383476848503165,72.67714546340721,2.081771567463875,-31.829479336738586,21.59481644630432,-9.785356037533653,1.5473247149530287,0
GUIDED_NOGPS,0.5356161594390869,28.346212331127887,-11.606675097926336,32.04477841251143,75.16906260572334,-9.600769113221164,-13.93199528689166,43.78665600125723,76.69509131798725,3.1375131358161186,-1.4534686309686504,10.877970154252932,2.7271605276948088,-0.421079293368022,-6.075607650191232,0.5038150717806598,-12.7828547847346,30.708925492437583,72.48861729408651,3.553570806980133,-31.60255253314972,25.52267014980316,-9.682898629116199,1.8405037548866559,0
GUIDED_NOGPS,0.5688033103942871,30.13733985758732,-11.632607770981082,31.007945807435036,75.64109968116037,-9.684523283771057,-13.820002565831842,43.79640949981954,76.5634704427369,3.225326956984268,-1.3098521642814964,10.749180107263172,3.1718955453097863,-0.6371531391114618,-6.3162042250350625,0.5023059269039414,-13.693405167035507,29.03546216840726,74.15447139754187,3.553570806980133,-31.60255253314972,25.52267014980316,-9.93264077037558,1.8405037548866559,0
GUIDED_NOGPS,0.6018495559692383,30.263680443315632,-11.63071166590072,30.06535926737938,75.93368111149364,-9.605135154264191,-13.69747753201382,43.80708026243591,76.41764230957381,3.326352284997927,-1.2494368999169123,10.592088317673817,3.055313848001739,-0.5864943958773602,-5.284571684637202,0.5012099029952004,-14.008996248553967,28.50435981538932,74.37909202761708,6.57065361738205,-30.373477935791016,15.480636060237885,-9.923009076316458,10.074711733329105,0
GUIDED_NOGPS,0.6380057334899902,27.663628329090212,-11.602991447976471,29.134894028753983,76.24210174680836,-9.518019298889158,-13.56435523154534,43.81867394597127,76.25714463642636,3.337478022825643,-1.4027366538564403,10.201449308473277,2.963334090897135,-0.5260172583246229,-5.226032142983466,0.500037607224045,-13.629692528354562,27.971730587596745,74.75386245829316,6.57065361738205,-30.373477935791016,15.480636060237885,-9.933196254060581,10.074711733329105,0
GUIDED_NOGPS,0.6687517166137695,32.5306280732778,-11.534824723121059,28.26819590075035,76.77540311704301,-9.358753210531136,-13.420620482432307,43.83119187263258,76.08155247621337,3.4171013799618897,-1.459334055918399,9.97857596698753,3.196688360102695,-0.5286204389789126,-4.582690593493782,0.4982653733979259,-13.177447479592129,28.249188889172743,77.93475223188459,7.456359267234802,-29.742231965065002,19.28255259990692,-9.770903608407092,13.489656054173741,0
GUIDED_NOGPS,0.70208740234375,30.00217453505007,-11.484615450043966,27.44236250559589,77.336675302431,-9.173351309670444,-13.266305996393953,43.8446311935409,75.89047755604781,3.440475781405554,-1.555138558085229,9.65824948642404,3.0209970312264125,-0.5462214062653248,-4.394890537076858,0.496384505634042,-14.00395451111783,26.859966673057592,78.46387689102579,9.503886848688126,-28.96115481853485,22.044964134693146,-9.374853442983605,13.047477291269931,0
GUIDED_NOGPS,0.7372269630432129,28.461236759427017,-11.463098442805714,26.423271237495264,77.86454577204829,-9.033557619507654,-13.101490500678,43.85898505230332,75.68356761644043,3.755193182556582,-1.6311945287623193,9.186591627062457,3.3896011214399664,-0.6787143734419655,-4.624259295039711,0.4945475546109803,-12.782030593760462,23.662404529490573,78.16188385201711,2.7716660872101784,-29.033973813056946,20.58427184820175,-9.361357693936704,10.348160064297858,0
GUIDED_NOGPS,0.7715761661529541,29.117607447569196,-11.438719436824186,25.356985423728286,78.33972377913429,-8.840236808756455,-12.926296859875828,43.874242748585004,75.46050575050357,3.734715421651238,-1.695561484448579,8.803980651457621,3.6147609434098,-0.7377050008082954,-4.178654536232443,0.4928019549284232,-13.461578492584916,22.009041952422905,77.83066187304689,5.08263073861599,-27.46305763721466,18.501998484134674,-9.01908534988523,12.303534794419436,0
GUIDED_NOGPS,0.8036949634552002,31.1381143281366,-11.408116917234057,24.343244875049304,78.82069199871617,-8.627452333819821,-12.740890197737626,43.890389901681154,75.2210097431548,3.8422635803222587,-1.6950305439623163,8.36899066265525,3.734687441929658,-0.786896373367963,-3.8502173425231323,0.49100079436109656,-13.251576623287512,21.15836683787753,78.59882514771533,5.08263073861599,-27.46305763721466,18.501998484134674,-8.696233476750178,12.303534794419436,0
GUIDED_NOGPS,0.8430466651916504,25.417097425144984,-11.37869291932306,23.35596774725324,79.21664965691438,-8.474252145373052,-12.545476018987571,43.90740861408904,74.96483141032064,3.9926250722582117,-1.3896677272098557,8.078004113445196,3.3667048455695814,-0.694247587559422,-4.305203731201007,0.4893704543835156,-13.968861424015682,19.469104547369426,79.4817475304152,7.510513812303543,-25.46858787536621,12.620101869106293,-8.252263354950145,7.416868268770997,0
GUIDED_NOGPS,0.8705103397369385,36.415210974127454,-11.316428812415566,22.2117353050676,79.81817697129385,-8.205983259810258,-12.340298331138984,43.92527763507997,74.69175593814035,4.003443238129866,-1.418711078942925,7.516962983510241,3.9203159195334023,-0.8394939552886244,-2.9740923861862063,0.48718394741711624,-13.407299283955531,19.185872736236096,80.48666097242338,6.2943123281002045,-25.86628496646881,18.10920536518097,-7.816371182501314,12.460274829266535,0
GUIDED_NOGPS,0.904536247253418,29.39328362392779,-11.207224784363836,21.43119623941888,80.20659015603239,-7.954877579898711,-12.125637766309488,43.9439725242713,74.40160122216949,3.8635955417606778,-1.524870361334906,7.034426767234941,3.3943647814135836,-0.6100366324126852,-3.2961725638595247,0.48548752766534276,-13.247086822870655,18.86586096117736,80.87764766260004,11.4438496530056,-24.467024207115173,13.910253345966339,-7.606780846321145,12.351461378051768,0
GUIDED_NOGPS,0.9421811103820801,26.56791937721304,-11.202325100632997,20.5056459084215,80.70076937860131,-7.616116563323436,-11.901809703036188,43.96346581519844,74.09421720658375,3.9803913496810726,-1.4047083373707525,6.4189737890507255,3.5554705635417436,-0.8224322150261228,-2.770728783365888,0.4834836195699561,-13.307699019892361,18.186423723992043,81.56887818228645,3.257805109024048,-23.706236481666565,14.785991609096527,-7.175684231183823,15.78015486969564,0
GUIDED_NOGPS,0.9728996753692627,32.56093281786141,-11.185088258013913,19.638798572501972,81.25625503487159,-7.326156064515369,-11.669162388090815,43.983727178886824,73.76948522338263,4.055715956508442,-1.425967407884123,6.0152502718345575,3.9025034183341787,-0.9585369435492548,-2.4856343823698763,0.48128307547127763,-13.4769391318072,17.890018653643388,81.88681331200208,4.734385386109352,-21.958209574222565,18.69857609272003,-6.983824276420885,12.388058385398343,0
GUIDED_NOGPS,1.0055720806121826,30.61312312969856,-11.147612738440587,18.90076964978976,81.6763246376603,-7.006321812268392,-11.428075058294905,44.004723587423946,73.42731733159313,4.1006248771881,-1.2912066016210078,5.672446492486202,3.5416686029094935,-0.8449587372169877,-2.265501258151886,0.4793774817348321,-13.234453238792952,16.84333398814357,82.54418087080302,6.325528770685196,-20.25708109140396,12.931579351425171,-6.553335899990034,14.370840957111888,0
GUIDED_NOGPS,1.0389201641082764,29.98908916710162,-11.10752424599802,18.080654961217146,82.28185974798238,-6.711864765889708,-11.178956062334958,44.02641947753131,73.06765565647345,4.085659932716601,-1.0897986237059065,5.206634421280502,3.7624964202834597,-0.8772455857321113,-2.264598088255081,0.4769644897712277,-12.968780142090225,15.75060282219917,83.89490314609489,4.919103905558586,-19.614113867282867,19.665338099002838,-5.616756283882531,9.780453523506615,0
GUIDED_NOGPS,1.0733935832977295,29.011468175467236,-11.073804460795383,17.23815546847443,82.91242786457158,-6.390905064460053,-10.922240982577595,44.048776914136496,72.69047172871677,4.211949703583314,-1.0037992849794528,4.713199784410802,3.842959733158638,-0.9046759892378606,-1.9525450664191513,0.47444510966036296,-13.125786107033116,14.726890360976867,84.66742289193704,4.919103905558586,-19.614113867282867,19.665338099002838,-4.949852738598819,9.780453523506615,0
GUIDED_NOGPS,1.108457326889038,28.52453040627848,-11.060503656485924,16.42051406924869,83.56281396433637,-6.067718906574997,-10.658390756884732,44.07175575394508,72.29576582365485,4.044322347199215,-1.0433946386499573,4.267771985896182,3.8646336036147138,-0.966656874936574,-1.736928687883422,0.47183237964829616,-12.440548670321789,14.190060692785122,85.08235691144263,1.5860486775636673,-19.46834921836853,21.198229491710663,-4.72332333730013,9.759569366345655,0
GUIDED_NOGPS,1.139582872390747,32.13188900975991,-11.021272713923976,15.682411387434941,84.05069448899255,-5.78040294990404,-10.387889800428741,44.09531380901267,71.88356630046184,4.165742620074532,-1.036007575619177,3.774673735843105,3.8377098518350268,-0.9464517235305546,-1.700158102098857,0.4695821795286732,-12.88060418139306,13.940877623073252,85.19375662368105,4.902959614992142,-16.773246228694916,12.534509599208832,-4.504794553382126,7.780748304350718,0
GUIDED_NOGPS,1.1744277477264404,28.70451683547769,-10.985962838749089,14.980922370765702,84.52842675832089,-5.483197519007062,-10.111244127507604,44.11940701031693,71.45392894135792,4.132162421906988,-1.0010818301851399,3.363101477496946,3.7188172558055497,-0.923566581104085,-1.582463896970212,0.4673137554575926,-12.891853222105045,13.530784104223342,85.70979714191003,4.902959614992142,-16.773246228694916,12.534509599208832,-3.9587961311759203,7.780748304350718,0
GUIDED_NOGPS,1.2070250511169434,30.681423503163746,-10.917254381190254,14.267051020813065,85.00858112291911,-5.032655489120296,-9.828979473360093,44.14398957132951,71.00693629081306,4.117040809971402,-0.9982161389414963,2.8915714707388878,3.9086616484055616,-0.9019704175190861,-0.26089221592154965,0.4649958879197349,-12.302801793979198,12.518452032787916,86.35077325846883,5.214530602097511,-15.167871117591858,11.099032312631607,-3.2837907566908644,15.52240572853416,0
GUIDED_NOGPS,1.2403743267059326,29.990375746308676,-10.774976759680403,13.631040045923944,85.45527086920032,-4.6250875961921,-9.54163941598092,44.16901415158812,70.54269699475071,3.90542831599289,-0.8416079054010376,2.3880110784246433,3.7857000847638953,-0.7233553732525682,-0.32878551099935693,0.462718565313876,-10.926498984845484,12.34812508274905,87.13753090582654,6.403093039989471,-13.827097415924072,9.19852927327156,-2.8597672089838153,12.812975552722238,0
GUIDED_NOGPS,1.2762470245361328,27.881171269983714,-10.631134102926591,13.00000855385467,85.90244796211262,-4.204624766570224,-9.249783497935905,44.19443202026847,70.06134513975148,3.951245224945336,-0.9213304070019553,2.0300111953900677,3.7348977062174438,-0.6885709552974781,-0.18074441089253002,0.4603972429440972,-10.847875023789376,12.036474955736475,87.45898582741506,6.403093039989471,-13.827097415924072,9.19852927327156,-2.4022798712168467,12.812975552722238,0
GUIDED_NOGPS,1.3092360496520996,30.316179021626,-10.424518161666793,12.243904276323454,86.4023116585167,-3.7526534516688717,-8.953985348177145,44.2201932197563,69.5630395922569,3.9221896002161016,-0.9465216387648433,1.5562747173649782,3.970355137324535,-0.5830116400411571,0.49316131012556497,0.4579018198343505,-9.312311953275792,8.973094067760691,87.93238836818128,5.869615823030472,-12.165887653827667,10.6288380920887,-2.1365026572595784,13.720126273563835,0
GUIDED_NOGPS,1.3428804874420166,29.728283057382626,-10.215234714188238,11.575749524468808,86.74984743634116,-3.3969952349156842,-8.654830803858168,44.24624672921934,69.04796333777308,3.957109369234615,-0.6550636464195004,1.2867186337277805,3.9734433797688262,-0.5660073354846988,0.1003276795461221,0.4557452897535798,-9.689451697824923,8.670280886060214,88.1077234153241,8.318143337965012,-12.557655572891235,4.719409346580505,-1.6923979631608295,8.774827696532714,0
GUIDED_NOGPS,1.379868507385254,27.040661203912038,-10.115356933050862,11.075347739765236,87.16309153071215,-2.9467139767839514,-8.35291603214911,44.27254062817936,68.51632282007448,3.7097971840117387,-0.7546005268026252,0.8498815590025973,3.616912628842332,-0.7266973429453095,0.6592340365530698,0.45338307822340584,-10.886279598592642,11.22570958531178,88.159140432821,4.774199798703194,-10.884223133325577,9.711487591266632,-1.2738987078366146,14.065509303097516,0
GUIDED_NOGPS,1.4102721214294434,32.89598594531851,-9.879153509399625,10.530518231993689,87.55331894851447,-2.562432390249651,-8.048845652051861,44.29902226008412,67.96834728040754,3.7685005254938826,-0.6090915641068487,0.6181756623421127,3.9816547687104276,-0.49938503267103884,0.9886651572257474,0.45103757082973267,-9.495643382637285,10.713659377840294,88.70150284444298,9.111575782299042,-9.792261570692062,5.122394487261772,-0.710507262147366,7.4333256095761415,0
GUIDED_NOGPS,1.4436399936676025,29.97194531981335,-9.675564973385555,10.160762588087241,87.85140168585102,-2.285433842937788,-7.743230856215238,44.32563839587942,67.40428809669447,3.559887124891241,-0.532127551796117,0.32637173158747945,3.539765089704476,-0.5277933875053171,0.27560790264354895,0.44888221602710865,-9.602856642215183,10.564445740435126,88.74509164300005,9.49760526418686,-8.582887053489685,5.923569947481155,-0.5561352295301152,4.885713714259222,0
GUIDED_NOGPS,1.4820172786712646,26.060480288297246,-9.588409700273274,9.735805048921904,88.14161437407513,-1.9604191422124166,-7.436687532750156,44.35233539758104,66.82441812273692,3.6406679856483937,-0.389232310396634,0.12059638130668389,3.5717587824807313,-0.7169368664430361,0.5197057917454879,0.4467070093716545,-10.259915984880426,10.078684644312286,88.68316256722994,3.1380727887153625,-8.451931923627853,4.422980919480324,-0.1414891943161552,6.06188210773235,0
GUIDED_NOGPS,1.5109920501708984,34.518747736774536,-9.45019261834745,9.249276661199017,88.3660307245162,-1.618016318876315,-7.129834387044786,44.37905938184675,66.22903102741967,3.476897338267824,-0.2787561616862198,0.0034871131851748408,3.9809988817695103,-0.7291552955864627,1.393909848287437,0.4446575007572587,-10.88482704743111,9.964115709048915,88.63040534509344,7.287947088479996,-8.221916109323502,-1.5176167711615562,0.20250150341250256,4.736621783735245,0
GUIDED_NOGPS,1.544206142425537,30.114835902553903,-9.31084273690039,8.966213895125675,88.39398390641082,-1.303318138754809,-6.823291063579708,44.405756383548365,65.61844063391437,3.503141059493129,-0.21137912028839434,-0.2372555587632521,3.4725813404995893,-0.6546331445753674,1.108850773996894,0.4430611418187589,-9.92002147374762,9.550170174414944,88.74235870665697,7.7443622052669525,-7.223840802907944,-6.394019722938538,0.6363562316261415,7.540101956870951,0
GUIDED_NOGPS,1.5778779983520508,29.700495680498513,-9.124098759499269,8.633986264974439,88.46436435549123,-1.0051302642129707,-6.517676267743081,44.432372519343666,64.99298025888326,3.4490203480572403,-0.26351776952408335,-0.3936804177327519,3.6005149826231078,-0.5448254757827833,1.1672346527936002,0.4413215397584801,-9.481521364943973,9.627859308057397,88.8624647294005,8.495736122131348,-6.592927873134613,-6.195087730884552,0.7621471318567296,4.823910320667538,0
GUIDED_NOGPS,1.6115143299102783,29.73650291742586,-8.909105388951213,8.289708162055852,88.41334371622946,-0.6953539544324598,-6.213605887645832,44.45885415124843,64.35300205168285,3.3864235853047777,-0.21889603695468426,-0.4868752006672553,3.6620948596774183,-0.47303854321232724,1.4305570361856625,0.43984914583863344,-8.269542962870993,8.637081475021416,88.74166998855685,7.19447135925293,-5.984999239444733,-12.627840042114258,0.9386360017606021,5.824869847777853,0
GUIDED_NOGPS,1.6461162567138672,28.90191700775899,-8.734266640983787,7.998001286222678,88.36755974273373,-0.41943416115979226,-5.911691115936774,44.48514805020845,63.69887633356761,3.3710906643917453,-0.2210157968357683,-0.5288464463127193,3.5576717855516278,-0.5368526717610073,1.3412201328671531,0.4383282914770847,-8.116054385218888,8.619729208194382,88.68969425238953,4.603404551744461,-4.255599528551102,-11.025573313236237,1.0705770079898462,4.441632743671565,0
GUIDED_NOGPS,1.678842306137085,30.562932196597078,-8.65530223417067,7.703814247993876,88.42918402566661,-0.2221693584354695,-5.612536571617797,44.51120155967149,63.03099093689376,3.329642088300346,-0.14209330782181476,-0.512219898243057,3.6260733431478025,-0.758490297472903,1.0712150955840594,0.4365045172780678,-7.93990550295214,8.06554920895012,88.39962492028062,-1.9703324884176254,-3.5129502415657043,-2.9812222346663475,1.2948547923166864,-0.47866990231824863,0
GUIDED_NOGPS,1.7129628658294678,29.31562687839859,-8.562826704471913,7.4580394277891715,88.46076810971789,-0.03563749163996297,-5.316738421859041,44.53696275915931,62.349750544322895,3.361274615337379,-0.3671485212214109,-0.5269775891619274,3.5269266617276687,-0.7144535689275622,1.079812276159075,0.4347224560865125,-7.255033772635451,8.003655126236685,88.2526751422908,-1.9703324884176254,-3.5129502415657043,-2.9812222346663475,1.6642738802513097,-0.47866990231824863,0
GUIDED_NOGPS,1.7466678619384766,29.67318004952246,-8.393995003132302,7.215842997506237,88.36419127395081,0.20423214046275226,-5.024882503814029,44.562380627839666,61.65557602802575,3.436101258685573,-0.2750448343263906,-0.4655963332774624,3.5416990880833756,-0.5443635698347428,1.5362070690517395,0.4332284618851874,-7.2299450799701965,7.757242462333516,88.00613038848925,3.13589945435524,-2.458333410322666,-10.286853462457657,1.6825354084433068,3.083668833598204,0
GUIDED_NOGPS,1.7795734405517578,30.395930110371115,-8.119568070075987,7.002336714709262,88.2665472657131,0.3273894789954234,-4.7375424464348495,44.587405208098275,60.94890378888586,3.409008032682248,-0.3099137771325255,-0.40605303860996556,3.516980755077213,-0.3118107167308928,0.9463256335345372,0.4317058913079319,-7.2299450799701965,7.757242462333516,88.00613038848925,10.856176167726517,-2.3744242265820503,-9.69279557466507,1.6825354084433068,-3.206686090078834,0
GUIDED_NOGPS,1.8127021789550781,30.190921785698862,-7.9156099922937235,6.815614730426928,88.14542386312141,0.39997776338375535,-4.455277792287339,44.61198776911086,60.23018509570332,3.3583399818718007,-0.4020485200439282,-0.2681568553526972,3.47418944697608,-0.45292654594210113,0.6789453102067813,0.4302119030814548,-6.3405830328454655,7.5827174474625245,87.851012315079,4.157988727092743,-1.7509721219539642,-10.079745203256607,1.6788439368300507,-5.0669502225645715,0
GUIDED_NOGPS,1.8493068218231201,27.32089630015633,-7.776966453595441,6.636899691938622,87.99126793169457,0.4666183303401603,-4.178632119366197,44.636080970415115,59.499885424398464,3.2752479558542453,-0.4533304341060302,-0.1009519234904008,3.4322854647761436,-0.5597148393215718,0.6439339347279185,0.42877154373175974,-7.7076565000539485,7.470672975321256,87.23014180009969,4.157988727092743,-1.7509721219539642,-10.079745203256607,1.7610508944370649,-5.0669502225645715,0
GUIDED_NOGPS,1.8800632953643799,32.51953046255951,-7.643444814102298,6.456780835264308,87.77549669605325,0.5463890033126207,-3.9081311629102107,44.65963902548271,58.7584837972156,3.247354957387794,-0.5404369038082606,0.054748621932066914,3.5248266236680994,-0.6136965392196808,0.8454704224498231,0.42745746775290583,-7.170359447938036,6.905423736423563,86.76467082173102,2.5493163615465164,-0.7083728909492493,-12.469971179962158,1.646328110008274,-3.606253650628461,0
GUIDED_NOGPS,1.913271188735962,30.118295861727262,-7.480684720214734,6.331934882101129,87.4959944289851,0.5994534024529335,-3.6442809372173475,44.68261786529129,58.00647212192666,3.2625331318274435,-0.37678306333466927,0.2078985786173175,3.385268833184094,-0.5229465089258282,0.6792129360151155,0.4262761942323539,-7.170359447938036,6.905423736423563,86.76467082173102,5.9110913425683975,-0.3685353323817253,-16.01765602827072,1.646328110008274,-3.621103335657715,0
GUIDED_NOGPS,1.9472079277038574,29.474666554229735,-7.192623255827653,6.177727890009892,87.24485210128913,0.5931095369013565,-3.387565857459988,44.70497530189647,57.24435453103501,3.1330831178091305,-0.34575095261436256,0.4688399794421309,3.4487903550151096,-0.2421594767205429,0.3185073869470001,0.4249987560743647,-4.004446152960216,6.519452204803974,86.53847455322835,4.769599065184593,-0.44987108558416367,-13.689486682415009,1.3748032291182266,-6.599135823222267,0
GUIDED_NOGPS,1.9800000190734863,30.499371005155577,-7.016495321266268,6.078958648678504,87.12235888073744,0.5298819617514277,-3.138446861500034,44.72667119200384,56.47264672097904,3.251459901078972,-0.4859710543758749,0.7002833940672459,3.3533106429085624,-0.4737332612686706,-0.0674232276072278,0.423375719600604,-5.68731417413334,6.710592291328884,86.15085553234972,2.692088484764099,1.8579963594675064,-4.445771872997284,1.4329448594677692,-9.834788532127714,0
GUIDED_NOGPS,2.0217020511627197,23.983211824913514,-6.862246274370593,6.00666016191646,86.87534267286644,0.4696582365957475,-2.8973595317041205,44.747667600540964,55.69187529133596,3.1522392371100776,-0.5818089070757617,0.9374560567455322,3.2600018886679507,-0.4759982599820953,-0.007232080389663054,0.4220413315461738,-6.590953206786159,6.805716854005895,85.69647654989333,4.5507315546274185,2.045873925089836,-11.069785058498383,1.3313160091249925,-8.733832901134297,0
GUIDED_NOGPS,2.0555670261383057,29.531944855167364,-6.664186381452006,5.8570135094429165,86.59030478089768,0.43548154409878936,-2.664712216758746,44.76792896422935,54.902577084025516,3.0278683225133154,-0.6180331355040417,1.203627674927283,3.466963324726309,-0.4050471474902149,0.05961694220676539,0.4207806807578196,-5.542366931509877,6.288370794773105,84.52807181771948,2.6335008442401886,1.7509039491415024,-9.445911645889282,0.6990641161973472,-5.965060334266011,0
GUIDED_NOGPS,2.0886878967285156,30.198094936389882,-6.588403113950127,5.778357831205502,86.31888749962347,0.3600550101823389,-2.4408841534854577,44.787422255156486,54.10529852251361,3.1378661712188434,-0.6340416048146706,1.5347636769042579,3.3329034628228738,-0.6659766974022993,-0.2405104860789277,0.41946602755722534,-5.441173178747571,6.179896799878723,84.30866710438562,-2.845008671283722,1.5770740807056427,-8.722278475761414,0.5904547511883236,-6.741600335817216,0
GUIDED_NOGPS,2.1234846115112305,28.745632611660533,-6.456218513808712,5.741941432174005,85.96906486368209,0.28612361310757806,-2.226223588655957,44.806117144347816,53.30059495101611,3.0517855105525844,-0.5949697211110242,1.744913016296506,3.238792531922123,-0.530600412060449,-0.2536495383313707,0.41832882521833503,-5.6198648506342685,6.56922323046949,84.21589594423969,2.2257981821894646,1.8253272399306297,-13.84562999010086,0.48619816084319867,-6.030122581865437,0
GUIDED_NOGPS,2.1589174270629883,28.22432472443912,-6.288781149745893,5.686636009329278,85.58188193551217,0.17367686954206976,-2.0210459008073673,44.823986165338745,52.48902997370248,3.1652567238944758,-0.7249487012640429,2.1208986016847233,3.2766910334135098,-0.4486042668348821,-0.5294745177166158,0.4172678700954758,-5.660739060282889,6.159162742601203,83.87632653584618,4.959637299180031,1.9281024113297462,-15.235196053981781,0.40632065856875976,-8.070330395912688,0
GUIDED_NOGPS,2.1903586387634277,31.813592233009707,-6.092250137788954,5.669069886286142,85.19336947228442,0.007419687768755789,-1.8256317220573255,44.841004877746634,51.67117479389955,3.191172809483031,-0.6283704667302973,2.328684695624147,3.213635541874473,-0.3810015410071629,-1.092027078082153,0.41619451330403784,-4.791769088528261,6.271723631621458,83.1152179006668,5.1124174147844315,2.595277689397335,-14.008145034313202,-0.21830954489975932,-9.342823666590036,0
GUIDED_NOGPS,2.23608136177063,21.872560113891772,-5.913245140964104,5.588349480374834,84.74238313769636,-0.13851898757288808,-1.6402250599191195,44.857152030842784,50.847607553295205,3.1022206946010162,-0.8164318281203705,2.5544139099566063,3.2857770882705393,-0.402114853034026,-0.7082791917707474,0.4152630610389971,-4.241846825700824,4.1289478717366315,81.88458174346874,3.413553535938263,3.6056820303201675,-15.557964146137238,-0.7281331873716818,-6.738303488882216,0
GUIDED_NOGPS,2.2624435424804688,37.94239397886814,-5.641512212774998,5.426056946038363,84.22071395404704,-0.3950370465025135,-1.4650314191169347,44.87240972712446,50.01891267114207,3.0942278791682205,-0.9892647491473715,2.7592482949575268,3.6235313229115773,-0.14600000357882828,-2.171946642326045,0.41449549679273756,-4.241846825700824,4.1289478717366315,81.88458174346874,5.445538088679314,3.001834824681282,-15.386264026165009,-0.7281331873716818,-12.660965423875373,0
GUIDED_NOGPS,2.2927422523498535,33.00990067840897,-5.523944247335266,5.452076713496949,83.80500324643663,-0.5225337939013485,-1.3002159234009927,44.88676358588689,49.18568018346126,3.0653077910053286,-1.0175805790121288,3.079339347438062,3.123146930868493,-0.518123473282231,-1.157636228768018,0.41345169234256157,-4.1135832053164405,5.929305000674207,81.86200609342904,1.7136624082922935,2.2838175296783447,-16.518305242061615,-0.8694686943577812,-5.79864960532782,0
GUIDED_NOGPS,2.3270742893218994,29.129943188921146,-5.364068961829172,5.426130454586602,83.36354077184612,-0.6053141633568437,-1.1459014373626335,44.9002029067952,48.34850508224605,3.1644883276128493,-0.9041622996363051,3.3380071490429075,3.233864131972138,-0.4025252314113364,-0.8436607069835883,0.4124624107759998,-3.251269961269232,4.819426375488964,81.3571594561382,1.4898565597832203,3.0806319788098335,-16.47609919309616,-1.0865982543773907,-2.4676401985330023,0
GUIDED_NOGPS,2.35811448097229,32.225701860872505,-5.079170216848134,5.3961580465170345,82.86239691596793,-0.7845078463229622,-1.0021666882495968,44.91272083345652,47.50798665466563,3.149727008155982,-0.9227757390633534,3.588393559722524,3.256685787628074,-0.09156459148392518,-1.6311700428659561,0.41161397434674424,-2.2068027635931955,5.099068229284342,80.54419915542331,5.4845839738845825,3.3096931874752045,-16.284693777561188,-1.7742267478625222,-6.047860156253137,0
GUIDED_NOGPS,2.3912620544433594,30.170290819372614,-4.9163387582784335,5.405354304288627,82.39764891385309,-0.9995784887699874,-0.8690443877811109,44.92431451699187,46.66472782226873,2.995890657479785,-0.892652790554599,3.748392875464188,3.1608154305469096,-0.35694004266448737,-1.8926968569778926,0.41066769727103913,-4.044207494239263,5.575268969384446,80.04515760748112,4.368888214230537,3.151729330420494,-15.21281749010086,-1.7407741523787832,-9.008154642543166,0
GUIDED_NOGPS,2.425723075866699,29.027128778651313,-4.794907105733181,5.416498996629363,81.95239799006308,-1.172851100305167,-0.7465193539631034,44.93498527960825,45.81933448018748,3.114356019765425,-1.0137860887630694,3.986626031732825,3.1523494629106086,-0.43119347430436067,-1.7106075091570943,0.409667341225311,-3.8410653622830617,5.6049351512554715,79.6761057955849,0.714572099968791,3.4808922559022903,-12.587712705135345,-2.0447438787729233,-5.50739710562696,0
GUIDED_NOGPS,2.4665005207061768,24.5259421688156,-4.647511601691076,5.425678472208191,81.54716907490199,-1.369936818631492,-0.6345266329032828,44.94473877817056,44.97241483634092,3.042323991004824,-0.9555020568629407,4.177762472353285,3.1544274144270537,-0.3758457859767155,-1.789740278777212,0.4085631144035973,-3.9287721970591925,5.4852717137237255,79.01872861710277,2.986322157084942,3.4537654370069504,-8.801811933517456,-2.2535646161029863,-6.531370101371985,0
GUIDED_NOGPS,2.4930450916290283,37.68060945809975,-4.348098342791953,5.377622993927227,81.11964181124974,-1.5093811527425256,-0.5329496206264199,44.95358516777365,44.12457875063892,3.0226393858168477,-1.0172280772179325,4.278188878154098,3.31986110572904,0.09151169193421843,-1.957443115159605,0.40751234234847294,-1.3252367507191876,4.80736064172308,78.41577954152702,4.2810846120119095,2.396940626204014,-6.13807886838913,-2.6993725242370035,-0.9805274430950442,0
GUIDED_NOGPS,2.5277345180511475,28.83218191691929,-4.212187971302302,5.372812054171638,80.85182717339764,-1.6149313088207595,-0.44161818488940163,44.96153926531432,43.276437074185736,2.960866728076429,-0.9009663047132681,4.391713879235703,3.1845560631933925,-0.3392905215115464,-1.5774146458186564,0.4060615247519702,-2.9951843213522436,4.259781720779672,77.97740959807905,3.128139302134514,4.042837023735046,-3.727828711271286,-2.694631859285395,-1.7217409592070032,0
GUIDED_NOGPS,2.5631632804870605,28.228123780167714,-4.047815952651383,5.3558896503526325,80.51210070741368,-1.741065957407629,-0.36030678699648355,44.968620713063274,42.42860098848374,3.0596385205508065,-0.7935362336096945,4.570180745832612,3.2130045161591374,-0.2556625252940189,-1.7993806258615543,0.40479125070267513,-3.0693484001162714,4.35671026183633,77.67174536198414,3.128139302134514,4.042837023735046,-3.727828711271286,-2.763585214020544,-1.7217409592070032,0
GUIDED_NOGPS,2.606044054031372,23.323457449174786,-4.015409643252514,5.382607150922599,80.20351791899844,-1.881227174839189,-0.28873260361438646,44.97485414223715,41.581681344637175,2.8884385483439674,-0.8310521682039002,4.6929346131433745,3.120814998831774,-0.4990471377929595,-1.7516772933566611,0.40344540856409683,-3.3888075499394317,5.647209861010863,77.28612436408119,-3.5628195852041245,2.5577161461114883,-2.790224924683571,-2.927333102157032,-2.737555827596978,0
GUIDED_NOGPS,2.627793312072754,45.98866265364078,-3.942736316394431,5.428577985672968,79.78272785108813,-2.118341200178664,-0.22655364858749216,44.98026933657051,40.73628800255592,2.841606929412952,-0.917135923799627,4.711820086198459,3.0200289630992656,-0.4124912215596793,-3.4580309437458943,0.4023839003786695,-3.4157842698640777,5.640672681689296,76.8926033026685,-0.5145576782524586,3.7143774330615997,-9.724783897399902,-3.09696743412544,-6.432963297131381,0
GUIDED_NOGPS,2.6607344150543213,30.363583714600104,-3.7338354773832365,5.491531316937882,79.34256302369002,-2.192906098232569,-0.17336689475306777,44.98490139588784,39.89302917015904,2.87516983866416,-0.7633006937013406,4.797628179628153,3.0335030615426524,-0.10507392599513404,-1.7693169420453052,0.40137616536617254,-2.727207343197604,5.4595407142414825,76.2782150997168,10.267234593629837,4.374439641833305,-16.53451770544052,-3.1971240206881757,-0.8383890720329633,0
GUIDED_NOGPS,2.6964657306671143,27.992631944259056,-3.5188131217353447,5.527880112200228,78.84953374893776,-2.3106963407491112,-0.12870639575617737,44.98879089967554,39.05251074257859,2.9058427241228064,-0.7598496339014857,4.808804930431232,3.092008253178241,-0.09667406917422058,-2.0446000996675893,0.4005074424841021,-0.5064371242214019,5.531204742358929,76.34781228998011,1.4923525974154472,3.3326026052236557,-14.819696545600891,-3.387469308075156,-1.1956468123255346,0
GUIDED_NOGPS,2.728210687637329,31.504379046674778,-3.2838041656110155,5.526253070650222,78.24620794582492,-2.4127258929711903,-0.0920414078652616,44.991984070653956,38.215335641363396,2.8989006906051347,-0.7093240565682569,4.833052955758424,3.17134415622753,0.015799629859922754,-2.089248416233815,0.3999228192388462,-0.05472509853521845,4.735394506867787,75.01542629664047,1.9491912797093391,3.0316736549139023,-18.266572058200836,-3.548057861838096,0.10168486815538795,0
GUIDED_NOGPS,2.7627480030059814,28.960987667960172,-3.0808789378381767,5.534038221944854,77.77408765163732,-2.5387991992057413,-0.06277451178694982,44.9945329383493,37.38210315368259,2.790533549563947,-0.7356734322822852,4.825750202875211,3.146711827784859,-0.05807741631775212,-2.255477572172386,0.39902003875511316,-1.132455013646858,4.654072638451392,74.5637109723764,4.187663644552231,3.6073364317417145,-11.203566193580627,-3.565896567954399,-2.178231849908045,0
GUIDED_NOGPS,2.7976369857788086,28.664106173885706,-2.868262567567227,5.561592978449141,77.26678430897189,-2.6307887795297944,-0.040239734481312794,44.99649550266573,36.553408271529435,2.63366267390556,-0.8458961436218949,4.781374890724461,3.1060624031979827,-0.016478084631659423,-2.104772044443581,0.3982165599063938,-1.2133937971655981,4.64949290138539,73.76499316830586,5.098999664187431,4.833366721868515,-11.509113013744354,-3.644298249552064,0.21504893290467458,0
GUIDED_NOGPS,2.82950496673584,31.38392008679711,-2.6922886944744033,5.619495010893365,76.8092262355283,-2.750081136388431,-0.023700670977172322,44.99793589745732,35.729841030925115,2.8217998077067383,-0.7020575890650096,4.766877814211109,3.0280551600076837,-0.03531340933880242,-2.398664198117734,0.397301536988492,-1.4051130866631856,5.716410218652652,73.29230841650764,3.1285401433706284,3.6414287984371185,-7.047954946756363,-3.6383599702163085,-1.7685045964114359,0
GUIDED_NOGPS,2.862448215484619,30.360946231577728,-2.478939474505466,5.631285554781069,76.37010034192495,-2.868680664484107,-0.012348606186970201,44.99892455410002,34.91198585112218,2.9467211928619212,-0.4381938277707828,4.717775584267887,3.13290867382563,0.051366987017582216,-2.442693706375798,0.3963547137729931,-0.2203634850282809,4.998705455717694,72.83094944761004,3.6279745399951935,2.5923868641257286,-7.8110456466674805,-3.7121726105285493,-2.3183386665788706,0
GUIDED_NOGPS,2.8964860439300537,29.383193807138603,-2.4211918807540105,5.679657277294563,75.93490925543806,-2.9225721999646175,-0.00530063672237624,44.999538365063714,34.10042087380853,2.905788722939681,-0.5297789272169846,4.5931925069200314,3.0378033917866114,-0.2685828657175233,-2.069646501927582,0.3954137790459262,-1.8373336154646411,5.719012571153785,72.31640162477106,-1.9630130380392075,2.880965732038021,-6.833218038082123,-3.584230492897701,1.1057613094047551,0
GUIDED_NOGPS,2.9287872314453125,30.96249926179649,-2.270815295787165,5.672790522982619,75.34337289505233,-3.0267249520180237,-0.0015977927089583233,44.99986084748417,33.29571730231102,2.7695191919219333,-0.5338777344100799,4.449639859812935,3.1633288577816514,-0.053532746208371854,-2.460805724391302,0.39488086101814673,-0.9174865396277705,4.581842543037345,72.00831938655489,1.9671592861413956,2.4743620306253433,-16.528189182281494,-3.5780339461754322,-2.143711646955978,0
GUIDED_NOGPS,2.9617321491241455,30.359407911403856,-2.1521773676203,5.685302343335378,74.8343340437828,-2.968057940164896,-0.00020315960170513847,44.99998230673508,32.498438740799116,2.926163177233829,-0.4646902659953779,4.397376532944467,3.117562593500444,-0.10665371157359389,-1.425428531048522,0.39416026174254076,0.6545511408733312,5.1963808774854625,71.56267993703456,-4.00092676281929,1.923985406756401,-12.069772183895111,-3.5233072777486716,7.1402900036150845,0
GUIDED_NOGPS,2.9968793392181396,28.458340118330348,-1.863023154759881,5.740645166874126,74.21206380954403,-2.949956286140311,5.329070518200751e-15,45.0,31.70914053348868,2.751512678835664,-0.398996412660711,4.214688182553666,3.0471630725290413,0.2539752674248973,-1.6664951186895847,0.3937426918098616,0.2885528510522999,5.964938649867538,70.9313186503448,8.865959197282791,2.494116686284542,-18.03741455078125,-3.518702899727036,4.470777160860009,0
GUIDED_NOGPS,3.0299158096313477,30.273947093002274,-1.7423880301936086,5.810175811113093,73.64802638921861,-2.9351913578994386,0.0,45.0,30.928369103845625,2.919468951516982,-0.5319256343287785,4.060438605432683,2.989268020408191,-0.05485983358912984,-1.671908802840837,0.3932008567865675,-1.1453792573538042,6.157576574111554,69.9958750321798,1.7883270978927612,2.860965020954609,-11.8190236389637,-3.327318303324531,3.611496674590092,0
GUIDED_NOGPS,3.0634682178497314,29.806449778990604,-1.6357839162320282,5.865453826130501,73.06135721869627,-2.8788914515758215,0.0,45.0,30.156661293789625,2.89439874216845,-0.4394693122374298,3.877424540395838,3.015471133567569,-0.07649644443613919,-1.3919436139784687,0.3927382601877334,-1.2661162227490068,6.0714759971139545,69.54928546188407,2.081608772277832,2.294762432575226,-14.73677009344101,-3.28068006517937,5.625806972625593,0
GUIDED_NOGPS,3.101956367492676,25.98620860568136,-1.5333144022850476,5.915271514695764,72.5450077645055,-2.756421247475338,0.0,45.0,29.394543702898005,3.0122049911991837,-0.34048335597997537,3.671807244961305,3.0349105892589914,-0.09752245111363003,-1.0168600686579756,0.39212383984598126,-0.6840961205564108,6.2496226214924455,68.7398032217842,0.40680496022105217,1.471245288848877,-8.863578736782074,-3.1089499556563336,9.02332107759518,0
GUIDED_NOGPS,3.1330950260162354,32.12425994715276,-1.4320712339777353,5.962666432206976,71.90931725502529,-2.6676603933872904,0.0,45.0,28.642532027609036,2.900301092828399,-0.354820456656361,3.4868702682296893,3.0128879215514073,-0.029962197246114708,-1.0014668631879795,0.3918330369314594,-0.09971724574556895,5.6949089945312945,68.54193672520205,-1.5959065407514572,2.7730483561754227,-13.974729180335999,-2.9808976296636898,6.4711841819531255,0
GUIDED_NOGPS,3.165367603302002,31.14227587947907,-1.4158959681392278,5.9754006747420725,71.38886362866558,-2.48936125256485,0.0,45.0,27.90113040042617,2.6938991794129605,-0.5985313979589214,3.217744593231908,3.0883534777594908,-0.22796200688583415,-0.42839233796704934,0.3912806669294015,-0.43120184746789736,5.0475468576988956,67.57428814218596,-4.12629172205925,2.823459915816784,-11.993484199047089,-2.6833286556093556,10.920509426177418,0
GUIDED_NOGPS,3.198826551437378,29.74957974848745,-1.4049430736048647,6.016036353647521,70.73522768935686,-2.290113859182785,0.0,45.0,27.17083072912132,2.7590495791413616,-0.5113385903967138,3.0027204197629747,3.027633640240232,-0.22482601905142627,-0.19003275487441762,0.3910890075994111,-0.7281281276244889,6.0128220552265335,67.33026059246366,-4.145779088139534,1.6799386590719223,-18.24061870574951,-2.649210880228911,12.065903975458228,0
GUIDED_NOGPS,3.231865406036377,30.27329156682161,-1.400630464272997,6.067811642779666,70.09614885158128,-2.1351131181231704,0.0,45.0,26.452112035938796,2.838964713421215,-0.44702488884163905,2.789353847828239,2.998839592627486,-0.22883733448318783,-0.34624163985734935,0.3908899079608938,-0.9991416280169418,6.00906369854209,66.67080528984788,-3.506319969892502,2.464126981794834,-16.711285710334778,-2.4917212598702516,8.886550808333904,0
GUIDED_NOGPS,3.2668795585632324,28.566882798452568,-1.3057223228330672,6.067902935110837,69.44036512242629,-1.9357033431991062,0.0,45.0,25.745439796798905,2.715914159768381,-0.43003810165411155,2.6166612658443404,3.115050337328817,-0.032932889735647716,-0.02190932295850101,0.39076268668593156,-0.3360568287839151,4.9925803173023,66.27585638886067,1.004193164408207,2.101145125925541,-18.45545321702957,-2.2383156154566564,10.990242242508662,0
GUIDED_NOGPS,3.2995920181274414,30.573180065457144,-1.159740682348616,6.085405480115818,68.74308687102352,-1.8224198264925717,0.0,45.0,25.051265280501752,2.732889314289978,-0.40946839999923634,2.301207698366832,3.080762353398052,0.11021482926784944,-0.4005624001554584,0.3907704460236956,-0.07496612722834395,5.273407065451801,65.48327448860852,3.7323370575904846,2.3285020142793655,-18.65980178117752,-1.9304390357930497,4.73069531396979,0
GUIDED_NOGPS,3.3331117630004883,29.837831685281355,-1.0933653446475944,6.146429637204016,68.1270222181017,-1.6699407452022943,0.0,45.0,24.370024887930896,2.6179519581540616,-0.2951879426428309,2.1029717029909674,2.980758632046566,-0.04668037010105944,-0.09221662628162652,0.390607506674573,-0.25166342270355035,6.499781488601643,64.54375967136514,-0.41896901093423367,1.8287351354956627,-14.631246030330658,-1.6852153487523545,6.923189025751644,0
GUIDED_NOGPS,3.36690092086792,29.598424919023053,-1.0276824067949035,6.230161184479818,67.46749697120346,-1.5640464175986648,0.0,45.0,23.702139491257043,2.565638898970699,-0.22060022251345535,1.8537622192827086,2.928406952665647,-0.036509298000411104,-0.3123179076576522,0.390586606300134,-0.598969358728247,6.919662259625792,64.0851013321922,0.6649367976933718,2.1628808230161667,-16.819511353969574,-1.5418542309655066,3.776272426995711,0
GUIDED_NOGPS,3.4074630737304688,24.656277371833685,-1.0286938603588847,6.2725093906682075,66.85257432651346,-1.3302796564904247,0.0,45.0,23.048013773141776,2.624326232196976,0.24186236127586702,1.6719536826343704,3.022140104749246,-0.1645326476344556,0.35402010850455146,0.3904885986165708,-0.6704814240661708,6.232712326310826,63.44686943178422,-3.3062491565942764,1.589852012693882,-13.64300400018692,-1.3254760736715885,11.092528594197834,0
GUIDED_NOGPS,3.4341881275177,37.4270876090875,-1.0396623918225523,6.356539507320433,66.22914444228009,-1.0903678160962755,0.0,45.0,22.40803556594136,2.470145383854516,0.2387714872330247,1.4497466047578167,2.867430806807668,-0.17704000889513177,1.150153130117987,0.3904472278091532,-0.821684150874474,7.212180802115219,62.71743618684051,-3.3062491565942764,1.589852012693882,-13.64300400018692,-1.1207858744208823,11.092528594197834,0
GUIDED_NOGPS,3.4723658561706543,26.197044458046545,-1.0839887828905146,6.38595853533311,65.70067377379034,-0.8718489895949586,0.0,45.0,21.78257519091028,2.4872108249392046,0.1204041755145715,1.1639906997915237,3.032213654389742,-0.2248445989115207,0.6194878612075322,0.3902047535427998,0.20825954188565338,6.254836667988137,62.204862478414825,-7.475224137306213,1.5447582118213177,-14.488784968852997,-0.8551690132825855,10.974470481941456,0
GUIDED_NOGPS,3.5018749237060547,33.89227014884367,-1.09855572729498,6.409354786488625,64.97124123519438,-0.5899285146887118,0.0,45.0,21.171984797404974,2.6089527570357465,0.2629994221991029,1.0570123283076702,3.030276305243331,-0.16459725747788662,1.5547760236826096,0.39050185890552647,0.7197378415143979,5.934092397697602,61.022367672738156,-7.475224137306213,1.5447582118213177,-14.488784968852997,-0.3466329451792578,10.974470481941456,0
GUIDED_NOGPS,3.5349433422088623,30.2490570392113,-0.9949027693061464,6.442661807533991,64.35004973549485,-0.4301351389727807,0.0,45.0,20.576597702087724,2.6040770691854154,0.2885945956183736,0.9356930141660227,3.014785359364225,0.10783902147982917,0.710979954381047,0.3905663699164822,0.26549012052916526,6.338960890101731,60.73391203719055,2.457454241812229,1.511418353766203,-17.116457223892212,-0.2909543529272153,6.018025463071698,0
GUIDED_NOGPS,3.5691046714782715,29.27756526595002,-0.9948562406814916,6.4683071562652446,63.70992077651884,-0.2082546591257895,0.0,45.0,19.996727728130168,2.5209622047228226,0.10544493398422626,0.7150526642911935,3.029709642230441,-0.1004546597094725,1.1723514647901596,0.3907170173790283,0.26549012052916526,6.338960890101731,60.73391203719055,-4.687053337693214,0.7796815596520901,-16.54299646615982,-0.2909543529272153,9.282464431120987,0
GUIDED_NOGPS,3.609539747238159,24.73552481039831,-1.1538423827560238,6.536024345422524,63.04847127554372,-0.05292530203246754,0.0,45.0,19.432668544417055,2.731047937978425,0.03475364667830457,0.5674458196640182,2.9591090678914718,-0.3828131372775185,0.7393311401330289,0.39096049317218334,-0.10234342023959991,7.472386834749237,60.05417430000773,-14.232072234153748,0.35230363719165325,-16.525855660438538,-0.1467902831318056,4.774277043516348,0
GUIDED_NOGPS,3.6412649154663086,31.524032138052327,-1.1936641160496348,6.602763018752846,62.20534713676793,0.0694677096407904,0.0,45.0,18.884693004750176,2.858664686534824,-0.041781287679279536,0.5109329411930386,2.9255773062495116,-0.19125829587809604,0.8089678217088334,0.3916983646699556,0.10966495682471467,7.174946054147848,58.70832898379111,-6.508851051330566,0.8300866931676865,-19.873414933681488,0.3038151266216629,0.38589480249173075,0
GUIDED_NOGPS,3.6806092262268066,25.42079456953241,-1.1666584780989688,6.657031462377606,61.44822999417106,0.17193630377385832,0.0,45.0,18.353052487051542,2.7648362434722435,-0.12693074143163602,0.40349993524255595,2.965621761760634,-0.04535908264212368,0.6532436118155858,0.39226205623220123,0.10966495682471467,7.174946054147848,58.70832898379111,-1.8191061913967133,0.8362267166376114,-24.194034934043884,0.3038151266216629,1.9316690645031664,0
GUIDED_NOGPS,3.7078683376312256,36.6901160807229,-1.1522502315981946,6.683316982656101,60.70934557165912,0.2917965467155898,0.0,45.0,17.83797623256774,2.830438289459512,-0.07204432176708542,0.39736677221342825,3.002868235654383,-0.05399758717846101,0.993004350669397,0.3928215766522716,0.7364887232941575,6.340117827824152,58.512035858832235,-4.311886802315712,1.4538013376295567,-23.155146837234497,0.4188934118357073,1.7588855556259424,0
GUIDED_NOGPS,3.7439844608306885,27.694314955430837,-1.2096429061310379,6.75582128142295,60.02888614842369,0.3824719226078153,0.0,45.0,17.339670685073173,2.781306390882083,-0.291977220124396,0.3420123044978533,2.920181108281493,-0.20080032218882074,0.7324422852439723,0.3932769613416237,-0.5977702121965396,7.431062052484831,57.0869092297401,-5.257141217589378,1.707942970097065,-20.69050669670105,0.5639368041170225,1.928427926298584,0
GUIDED_NOGPS,3.776369094848633,30.88566358126965,-1.2501644931772244,6.807358146020872,59.138486482472246,0.5194458137389311,0.0,45.0,16.858318830073927,2.880128129114766,-0.37772101372635597,0.3433051579221162,2.945781427395098,-0.17334461632000858,1.1570139556797798,0.3942995808690042,-1.2867660584116845,7.20649989028978,56.27992602500492,-2.0493492484092712,0.836423970758915,-29.162001609802246,0.7093811663374949,3.6261004728092256,0
GUIDED_NOGPS,3.809154510498047,30.503807245038217,-1.304388613310637,6.852690243497904,58.413466291636624,0.6000278026586487,0.0,45.0,16.394079534011524,2.9333367968530464,-0.3956296096475707,0.40554050761795013,2.957493220303845,-0.20194514765346688,0.8504724892555231,0.3949515331059372,-1.0642466796783858,6.846519516516576,55.51283701815801,-3.7297457456588745,1.7881875857710838,-20.780713856220245,0.7483296786453129,1.0126976340858043,0
GUIDED_NOGPS,3.842266798019409,30.20440142873603,-1.348515943507208,6.921769265532959,57.67362895577275,0.6176851470902873,0.0,45.0,15.94708688346671,2.7994153568059024,-0.6508724182291985,0.4243162440790656,2.902297531327962,-0.1834214534733124,0.4773154125716035,0.3956836448192349,-1.0092514307942952,7.229819155189885,55.156550313168445,-3.180985525250435,2.2640619426965714,-21.442033350467682,0.8332985205329337,-2.9554456923095547,0
GUIDED_NOGPS,3.876453399658203,29.257551026102483,-1.448219219207648,6.9484132052490075,56.9572885006882,0.6113681675637878,0.0,45.0,15.517449524362775,2.899452868710848,-0.8117275886903772,0.5170095150376756,2.99291303597875,-0.30279539079683443,0.3298247718585477,0.3964004025591864,-0.7598047445437687,6.465750538961089,54.90337287132825,-7.6243191957473755,1.7582882195711136,-20.563100278377533,0.8557271868730645,-4.195639638732147,0
GUIDED_NOGPS,3.9103827476501465,29.479638454293706,-1.5792694180185654,6.990955686365763,56.23228116155834,0.5959561349531338,0.0,45.0,15.105250001169765,2.897123987647285,-1.0000555942623455,0.611926092612404,2.9568960565332296,-0.3823704890149711,0.2665243482108729,0.39718242209902854,-1.5453298221342262,6.7024530029468625,53.22138076110666,-7.443064451217651,2.121097967028618,-17.01902151107788,0.898598527817268,-4.684828886145861,0
GUIDED_NOGPS,3.9451711177825928,28.750558655388453,-1.6056430695744945,7.022941752170636,55.4634505116484,0.5328162273478305,0.0,45.0,14.710544096107895,2.9915968163693742,-1.1045561011813654,0.7507461656766224,2.975333011317024,-0.17006381227524967,-0.044322451527873064,0.39811773396114875,-1.3138935176056417,6.713130428752265,52.93508864778922,-1.176738180220127,1.5437766909599304,-21.297627687454224,0.8732436441311413,-7.1051819775075735,0
GUIDED_NOGPS,3.9791598320007324,29.42421393795687,-1.7401979852935374,7.052634244154496,54.788537016031995,0.5021507632094221,0.0,45.0,14.333360168351163,3.1143929454756254,-0.8693306827467673,0.9645285787379356,2.97869238355936,-0.4059081524594987,0.12197626297300782,0.3988620578807979,-2.5214810205904,6.665960387930222,52.16657015545372,-4.925546795129776,1.5063660219311714,-13.907356560230255,0.779900409054448,-4.631424917686001,0
GUIDED_NOGPS,4.013660669326782,28.990814020196716,-1.875219508242419,7.114485157415311,53.98957190727312,0.3887146326404176,0.0,45.0,13.973698493231467,3.10739306879342,-0.8841932811024208,1.008120233403132,2.9079092476163746,-0.42383697126625414,-0.4263615857662423,0.3999603164648959,-2.6152054510910285,7.101289213302299,50.94977519770721,-4.969272762537003,2.532360889017582,-21.177341043949127,0.5849064132758048,-8.74778100119311,0
GUIDED_NOGPS,4.0526885986328125,25.624867883260734,-1.91687949368712,7.175430482167913,53.288162352048424,0.37360604513694307,0.0,45.0,13.631530601441995,3.147418831103341,-0.78698474817433,1.221291504616288,2.918190985184466,-0.22822603239819256,0.14672920377709195,0.4008584206234839,-2.655664085871451,6.9923121436796105,50.638166247945804,1.1176662519574165,2.940629981458187,-16.78370237350464,0.4671235585377934,-2.1997717052293266,0
GUIDED_NOGPS,4.080307722091675,36.21617607695164,-2.0081939295087907,7.2656747017852235,52.48462836857608,0.28410447315149623,0.0,45.0,13.30679861824089,3.1578060547270494,-0.8622692276403261,1.4265986667738202,2.7919963714526186,-0.39837032316535764,-0.47775668581632635,0.402055425624162,-2.9594332360701254,7.3513123177465935,50.30971076124345,-0.8770806714892387,3.3401839435100555,-17.755834758281708,0.3879426588787016,-6.5258308179551054,0
GUIDED_NOGPS,4.113571643829346,30.06669534050179,-2.166377269685101,7.344712419112867,51.92670614106868,0.20030142088964342,0.0,45.0,12.999414602655037,3.2260247034966674,-1.0335745341707714,1.6489212175360295,2.8480909495169056,-0.5175649327401498,-0.3831815907231444,0.40268177115396586,-3.0299441983904165,7.502358800710173,49.48768661591658,-6.768248975276947,3.558920696377754,-15.963666141033173,0.1710205398373819,-5.0653809866027615,0
GUIDED_NOGPS,4.147373676300049,29.588819989700394,-2.329140184340928,7.4215324674985,51.20627567568054,0.03208149255277315,0.0,45.0,12.709259886684237,3.1264845147406635,-1.1347574901438693,1.8255823528711168,2.847827788701515,-0.5443909294954589,-0.9740087267882303,0.40375746052750927,-3.4329012725413954,7.394275785759252,49.109236652138,-5.468495935201645,3.2811958342790604,-20.427411794662476,0.019835081757391782,-9.914400363319736,0
GUIDED_NOGPS,4.183054447174072,28.03023356834965,-2.4999551906531043,7.491547018784371,50.47288992689609,-0.14419216540994634,0.0,45.0,12.436184414503856,3.1739528353683713,-1.3074528468921178,2.0864204470847336,2.8619463279546675,-0.5672001733339513,-1.07424499436529,0.4049082362190194,-3.698462308310307,7.273884476071316,48.47909716783748,-5.468495935201645,3.2811958342790604,-20.427411794662476,-0.13514545220606514,-9.914400363319736,0
GUIDED_NOGPS,4.214015483856201,32.304879269842495,-2.707970027636912,7.585271405442768,49.784512466962575,-0.33171736985970635,0.0,45.0,12.180006081669745,3.111335368604987,-1.2333916116177888,2.3265094938169097,2.776174599661583,-0.7321229686948229,-1.415592372535593,0.40598873403676794,-3.775626885034873,7.5712831008833295,48.16583177207255,-8.064466714859009,4.117289558053017,-18.87087970972061,-0.19479175705110552,-10.430363952279901,0
GUIDED_NOGPS,4.249597787857056,28.109131119525518,-2.7873369349646238,7.6612489707869065,49.19985918876333,-0.42635320609997285,0.0,45.0,11.94051007432111,2.9310969216921055,-1.429064258342489,2.4653431205377623,2.834891070682101,-0.4277234053839368,-0.7864441353691882,0.40685162721389445,-4.027358874312828,7.210890977446235,47.32147905662736,0.5393403582274914,4.4730305671691895,-15.201815962791443,-0.5106400879728328,-4.211253878061619,0
GUIDED_NOGPS,4.288243532180786,25.880061949687477,-2.9013177890354878,7.741723070486833,48.52089250406772,-0.6404762964812771,0.0,45.0,11.71744820838424,2.9075116381578168,-1.46168321410606,2.6011710371369863,2.829526529698468,-0.49918928613463265,-1.4921725518928446,0.4079913892607913,-3.944375365474211,7.5073302307733965,46.86109506070956,-1.4335738494992256,3.3668849617242813,-15.55614322423935,-0.7248736799263544,-10.532635789817087,0
GUIDED_NOGPS,4.316463470458984,35.44162779693098,-3.0517187853515924,7.818410823619492,47.77804665538996,-0.7557996380547309,0.0,45.0,11.510538268776855,2.614796197314104,-1.4298404453086375,2.8813503060893755,2.7750712015704324,-0.6852415780230298,-1.2726596782634338,0.40933122903346725,-4.111889495281677,7.403932567625921,46.33387654464096,-3.1973224133253098,3.17961685359478,-16.57363772392273,-0.957527661819318,-3.521008407475059,0
