E-kp,E-ki,E-kd,E-I-Tot,E-P,E-I,E-D,E-PID,N-kp,N-ki,N-kd,N-I-Tot,N-P,N-I,N-D,N-PID,D-kp,D-ki,D-kd,D-I-Tot,D-P,D-I,D-D,D-PID,Y-kp,Y-ki,Y-kd,Y-I-Tot,Y-P,Y-I,Y-D,Y-PID,errorN,desiredN,actualN,errorE,desiredE,actualE,errorD,desiredD,actualD,errorY,desiredY,actualY,roll,pitch,yaw-rate,thrust,dt,Time,Mode
0.035,0.005,0.05,-0.002969397839456934,-0.0031325914874051957,-1.484698919728467e-05,-0.13488791890929472,-0.1380353573858972,0.035,0.005,0.05,-0.0030090451058136787,-0.0031744177080071274,-1.5045225529068393e-05,-0.13668893633385168,-0.13987839926738788,0.002,8e-05,0,-0.004166039906411378,-0.00025114281177726486,-3.332831925129103e-07,-0.0,-0.0002514760949697778,0.1,0.02,0,-0.0029514260064011696,-0.008896091283948209,-5.902852012802339e-05,-0.0,-0.008955119804076232,-0.09069764880020363,0.0,0.09069764880020363,-0.08950261392586273,0.0,0.08950261392586273,-0.12557140588863244,0.0,0.12557140588863244,-0.08896091283948208,0,0.08896091283948208,-0.1382523746260608,0.13966390865400582,0.008955119804076232,0.4,0.03317666053771973,0.0334625244140625,STABILIZE
0.035,0.005,0.05,-0.006397463018369319,-0.003587335330910037,-3.1987315091846593e-05,-0.07715562353871686,-0.08077494618471874,0.035,0.005,0.05,-0.006421610121469242,-0.003571115019922919,-3.210805060734621e-05,-0.07681647079303394,-0.0804196938635642,0.002,8e-05,0,-0.009224849506369204,-0.00030250544029342846,-7.379879605095364e-07,-0.0,-0.000303243428253938,0.1,0.02,0,-0.006329666613722169,-0.010100559648887533,-0.00012659333227444338,-0.0,-0.010227152981161976,-0.10203185771208338,0.0,0.10203185771208338,-0.10249529516885819,0.0,0.10249529516885819,-0.15125272014671423,0.0,0.15125272014671423,-0.10100559648887532,0,0.10100559648887532,-0.08091659088502995,0.08027717242029819,0.010227152981161976,0.4,0.03344607353210449,0.06686091423034668,STABILIZE
0.035,0.005,0.05,-0.010689385551307034,-0.0044942434280535095,-5.344692775653517e-05,-0.06435762214771092,-0.06890531250352096,0.035,0.005,0.05,-0.010699517107445053,-0.004479567189295539,-5.3497585537225266e-05,-0.06415351840806105,-0.0686865831828938,0.002,8e-05,0,-0.016381439036479446,-0.00042822574886583416,-1.3105151229183557e-06,-0.0,-0.0004295362639887525,0.1,0.02,0,-0.010405185881695665,-0.01219325408563849,-0.0002081037176339133,-0.0,-0.012401357803272403,-0.12798763397987253,0.0,0.12798763397987253,-0.12840695508724312,0.0,0.12840695508724312,-0.21411287443291707,0.0,0.21411287443291707,-0.12193254085638489,0,0.12193254085638489,-0.06905132994714062,0.06853978868569403,0.012401357803272403,0.4,0.03342437744140625,0.10028386116027832,STABILIZE
0.035,0.005,0.05,-0.015307159135157285,-0.00483059663432201,-7.653579567578643e-05,-0.051858573625029915,-0.05676570605502771,0.035,0.005,0.05,-0.015229363661795768,-0.0047386172409944905,-7.614681830897885e-05,-0.05088033370481493,-0.0556950977641184,0.002,8e-05,0,-0.02458970034313576,-0.0004906606889548972,-1.9671760274508608e-06,-0.0,-0.000492627864982348,0.1,0.02,0,-0.014858141902429562,-0.013309094261213163,-0.00029716283804859126,-0.0,-0.013606257099261753,-0.135389064028414,0.0,0.135389064028414,-0.13801704669491457,0.0,0.13801704669491457,-0.24533034447744861,0.0,0.24533034447744861,-0.1330909426121316,0,0.1330909426121316,-0.05689492555075192,0.05556308797623573,0.013606257099261753,0.4,0.03345799446105957,0.13374614715576172,STABILIZE
0.035,0.005,0.05,-0.02004009921117117,-0.004952129549906183,-0.00010020049605585585,-0.042524910207279054,-0.047577240253241095,0.035,0.005,0.05,-0.019805748095834765,-0.0047883235839786915,-9.902874047917383e-05,-0.041128824657260414,-0.04601617698171828,0.002,8e-05,0,-0.03366694213358476,-0.0005427212753917936,-2.693355370686781e-06,-0.0,-0.0005454146307624804,0.1,0.02,0,-0.019470206919755262,-0.013787590251405352,-0.00038940413839510526,-0.0,-0.014176994389800458,-0.13680924525653404,0.0,0.13680924525653404,-0.1414894157116052,0.0,0.1414894157116052,-0.2713606376958968,0.0,0.2713606376958968,-0.13787590251405352,0,0.13787590251405352,-0.04768783519071757,0.04590155453740541,0.014176994389800458,0.4,0.03345084190368652,0.1672053337097168,STABILIZE
0.035,0.005,0.05,-0.02508622850637762,-0.005210964005001906,-0.0001254311425318881,-0.017729280965311744,-0.02306567611284554,0.035,0.005,0.05,-0.0246041777844373,-0.004955173148574134,-0.0001230208889221865,-0.01519756638143654,-0.02027576041893286,0.002,8e-05,0,-0.04415362051894212,-0.0006188132430821968,-3.53228964151537e-06,-0.0,-0.0006223455327237122,0.1,0.02,0,-0.02444564917378555,-0.014679908374436884,-0.000488912983475711,-0.0,-0.015168821357912596,-0.14157637567354667,0.0,0.14157637567354667,-0.1488846858571973,0.0,0.1488846858571973,-0.3094066215410984,0.0,0.3094066215410984,-0.14679908374436884,0,0.14679908374436884,-0.023117549429091108,0.02021659673392599,0.015168821357912596,0.4,0.03389286994934082,0.20113015174865723,STABILIZE
0.035,0.005,0.05,-0.030430106399904757,-0.005540420040903405,-0.0001521505319995238,-0.016632966993954983,-0.02232553756685791,0.035,0.005,0.05,-0.029642069601271262,-0.005223180121630223,-0.0001482103480063563,-0.01407704275616272,-0.0194484332257993,0.002,8e-05,0,-0.055889121847260706,-0.0006952640337216098,-4.471129747780857e-06,-0.0,-0.0006997351634693907,0.1,0.02,0,-0.029575564321190656,-0.015195965635604755,-0.0005915112864238131,-0.0,-0.01578747692202857,-0.1492337177608635,0.0,0.1492337177608635,-0.15829771545438298,0.0,0.15829771545438298,-0.3476320168608049,0.0,0.3476320168608049,-0.15195965635604755,0,0.15195965635604755,-0.022377040049189875,0.019389153184822445,0.01578747692202857,0.4,0.03375840187072754,0.23486590385437012,STABILIZE
0.035,0.005,0.05,-0.035855562618978425,-0.005672593178675938,-0.00017927781309489213,-0.010008755816134094,-0.015860626807904923,0.035,0.005,0.05,-0.03479604885306168,-0.005388750063812215,-0.0001739802442653084,-0.007724678230625877,-0.013287408538703402,0.002,8e-05,0,-0.06830526339855049,-0.0007418122171310274,-5.4644210718840394e-06,-0.0,-0.0007472766382029114,0.1,0.02,0,-0.034842290704163954,-0.015733237089142437,-0.0006968458140832791,-0.0,-0.016430082903225715,-0.15396428753749186,0.0,0.15396428753749186,-0.16207409081931248,0.0,0.16207409081931248,-0.37090610856551365,0.0,0.37090610856551365,-0.15733237089142438,0,0.15733237089142438,-0.015897053762047485,0.013243805725719936,0.016430082903225715,0.4,0.03347516059875488,0.26835083961486816,STABILIZE
0.035,0.005,0.05,-0.04116615110735574,-0.00556219883611888,-0.0002058307555367787,-0.006192594975275616,-0.011960624566931276,0.035,0.005,0.05,-0.03990556864620265,-0.005351603708089055,-0.00019952784323101324,-0.005194919758619948,-0.010746051309940018,0.002,8e-05,0,-0.0826024176025182,-0.0008556879432979253,-6.608193408201456e-06,-0.0,-0.0008622961367061267,0.1,0.02,0,-0.04012917629725685,-0.015821065489905733,-0.000802583525945137,-0.0,-0.01662364901585087,-0.1529029630882587,0.0,0.1529029630882587,-0.1589199667462537,0.0,0.1589199667462537,-0.42784397164896265,0.0,0.42784397164896265,-0.15821065489905733,0,0.15821065489905733,-0.01199025196832632,0.010712983549086143,0.01662364901585087,0.4,0.033416748046875,0.3017570972442627,STABILIZE
0.035,0.005,0.05,-0.04643498359203517,-0.005513822415515839,-0.00023217491796017587,-0.004741271625686151,-0.010487268959162166,0.035,0.005,0.05,-0.0448173199499593,-0.0051401376902458756,-0.0002240865997497965,-0.0029638416160142327,-0.008328065906009905,0.002,8e-05,0,-0.09786083826864622,-0.0009124517719617247,-7.828867061491699e-06,-0.0,-0.0009202806390232164,0.1,0.02,0,-0.04542229734413016,-0.015826400989025314,-0.0009084459468826033,-0.0,-0.01673484693590792,-0.14686107686416786,0.0,0.14686107686416786,-0.1575377833004525,0.0,0.1575377833004525,-0.45622588598086233,0.0,0.45622588598086233,-0.15826400989025313,0,0.15826400989025313,-0.010510232938838666,0.008299065943104776,0.01673484693590792,0.4,0.033444881439208984,0.3352046012878418,STABILIZE
0.035,0.005,0.05,-0.05195557522549457,-0.005768734144117463,-0.00025977787612747286,-0.00473376310669077,-0.010762275126935707,0.035,0.005,0.05,-0.04973443167450433,-0.005138128696914386,-0.00024867215837252166,-0.0015401755259643695,-0.0069269763812512776,0.002,8e-05,0,-0.114026596162222,-0.0009652791451967663,-9.12212769297776e-06,-0.0,-0.0009744012728897441,0.1,0.02,0,-0.05056442973574001,-0.015352182038536772,-0.0010112885947148004,-0.0,-0.01636347063325157,-0.14680367705469674,0.0,0.14680367705469674,-0.16482097554621322,0.0,0.16482097554621322,-0.48263957259838314,0.0,0.48263957259838314,-0.1535218203853677,0,0.1535218203853677,-0.010780797035524611,0.006898114450565153,0.01636347063325157,0.4,0.03349447250366211,0.3687105178833008,STABILIZE
0.035,0.005,0.05,-0.05739080772750702,-0.005683502933614189,-0.00028695403863753514,-0.0012178653229793085,-0.007188322295231033,0.035,0.005,0.05,-0.05481035704983211,-0.005307783383838773,-0.00027405178524916055,-0.0007200954070069238,-0.006301930576094858,0.002,8e-05,0,-0.13072742385831826,-0.0009979250136628113,-1.0458193908665462e-05,-0.0,-0.0010083832075714768,0.1,0.02,0,-0.055651509663153347,-0.015198421295174425,-0.0011130301932630669,-0.0,-0.016311451488437493,-0.15165095382396493,0.0,0.15165095382396493,-0.16238579810326254,0.0,0.16238579810326254,-0.49896250683140564,0.0,0.49896250683140564,-0.15198421295174425,0,0.15198421295174425,-0.007205013643752585,0.006282840504053396,0.016311451488437493,0.4,0.033471107482910156,0.40219712257385254,STABILIZE
0.035,0.005,0.05,-0.06243811345750979,-0.0052823340256227215,-0.00031219056728754897,0.0033375892358085677,-0.0022569353571017027,0.035,0.005,0.05,-0.05958173559931953,-0.004993558268377369,-0.00029790867799659766,0.0033776100551504507,-0.0019138568912235162,0.002,8e-05,0,-0.14824943806546526,-0.001047881631395297,-1.1859955045237221e-05,-0.0,-0.0010597415864405343,0.1,0.02,0,-0.06080317965879418,-0.015404451496336563,-0.0012160635931758835,0.0,-0.01662051508951245,-0.14267309338221054,0.0,0.14267309338221054,-0.1509238293035063,0.0,0.1509238293035063,-0.5239408156976485,0.0,0.5239408156976485,-0.15404451496336563,0,0.15404451496336563,-0.0022620727587763442,0.0019077820211495632,0.01662051508951245,0.4,0.03344273567199707,0.4356269836425781,STABILIZE
0.035,0.005,0.05,-0.06763519274603606,-0.005438577762552584,-0.0003381759637301803,0.00105898675128803,-0.004717766974994734,0.035,0.005,0.05,-0.06404098607141508,-0.004666463432399947,-0.0003202049303570754,0.0058542468179043445,0.0008675784551473225,0.002,8e-05,0,-0.16663728439966358,-0.0010995597073168817,-1.3330982751973086e-05,-0.0,-0.0011128906900688548,0.1,0.02,0,-0.06569572466647192,-0.014628263851301485,-0.0013139144933294383,0.0,-0.015942178344630922,-0.13332752663999847,0.0,0.13332752663999847,-0.15538793607293094,0.0,0.15538793607293094,-0.5497798536584408,0.0,0.5497798536584408,-0.14628263851301485,0,0.14628263851301485,-0.004715536574865418,-0.0008796206098616075,0.015942178344630922,0.4,0.03344583511352539,0.4690995216369629,STABILIZE
0.035,0.005,0.05,-0.07262363969773902,-0.0052214417477079705,-0.0003631181984886951,0.0025010433681985477,-0.003083516577998118,0.035,0.005,0.05,-0.06853272155957536,-0.004701530441159664,-0.0003426636077978768,0.0037480947005453114,-0.0012960993484122298,0.002,8e-05,0,-0.18642458664507566,-0.0011835145947542377,-1.4913966931606055e-05,-0.0,-0.0011984285616858437,0.1,0.02,0,-0.0707655093322494,-0.015161652836227557,-0.001415310186644988,0.0,-0.016576963022872544,-0.13432944117599038,0.0,0.13432944117599038,-0.14918404993451342,0.0,0.14918404993451342,-0.5917572973771188,0.0,0.5917572973771188,-0.15161652836227557,0,0.15161652836227557,-0.00308693552594317,0.00128793519495889,0.016576963022872544,0.4,0.03343820571899414,0.5025556087493896,STABILIZE
0.035,0.005,0.05,-0.07723478038375885,-0.004823005043303619,-0.0003861739019187942,0.008077475951513346,0.0028682970062909327,0.035,0.005,0.05,-0.07278188105474126,-0.004444392194998513,-0.0003639094052737063,0.005926490413690912,0.0011181888134186926,0.002,8e-05,0,-0.20702772223670166,-0.0012314154985251264,-1.6562217778936135e-05,-0.0,-0.0012479777163040624,0.1,0.02,0,-0.07595230846271876,-0.015500322289760147,-0.0015190461692543753,-0.0,-0.01701936845901452,-0.12698263414281466,0.0,0.12698263414281466,-0.13780014409438912,0.0,0.13780014409438912,-0.6157077492625632,0.0,0.6157077492625632,-0.15500322289760146,0,0.15500322289760146,0.002871311561199014,-0.0011104250795425648,0.01701936845901452,0.4,0.0334625244140625,0.5360603332519531,STABILIZE
0.035,0.005,0.05,-0.08192247540794614,-0.004903880378792065,-0.0004096123770397307,0.00665927584013188,0.0013457830843000848,0.035,0.005,0.05,-0.07670733607559563,-0.004106487677904321,-0.00038353668037797815,0.010260302988646317,0.005770278630364017,0.002,8e-05,0,-0.2283088711891652,-0.0012721477125314604,-1.8264709695133217e-05,-0.0,-0.0012904124222265936,0.1,0.02,0,-0.08059361440427064,-0.013872434119729224,-0.0016118722880854128,0.0,-0.015484306407814638,-0.11732821936869488,0.0,0.11732821936869488,-0.14011086796548755,0.0,0.14011086796548755,-0.6360738562657302,0.0,0.6360738562657302,-0.13872434119729224,0,0.13872434119729224,0.0013597501044938277,-0.0057670033150114385,0.015484306407814638,0.4,0.033457040786743164,0.5694460868835449,STABILIZE
0.035,0.005,0.05,-0.086541289892397,-0.004834165750698023,-0.000432706449461985,0.0038275671044407326,-0.0014393050957192755,0.035,0.005,0.05,-0.08067222207005226,-0.004149747980645157,-0.0004033611103502613,0.007206145072467514,0.002653035981472096,0.002,8e-05,0,-0.250043723297534,-0.0012998991471262825,-2.000349786380272e-05,-0.0,-0.0013199026449900852,0.1,0.02,0,-0.08550856523172598,-0.014697455397722296,-0.0017101713046345196,0.0,-0.016407626702356817,-0.11856422801843304,0.0,0.11856422801843304,-0.13811902144851493,0.0,0.13811902144851493,-0.6499495735631412,0.0,0.6499495735631412,-0.14697455397722295,0,0.14697455397722295,-0.0014324948266680566,-0.002656719339546113,0.016407626702356817,0.4,0.03344082832336426,0.6028971672058105,STABILIZE
0.035,0.005,0.05,-0.09146051027606657,-0.0051503405577495555,-0.00045730255138033286,0.0024600112862667497,-0.0031476318228631384,0.035,0.005,0.05,-0.0847220749672028,-0.004240127500356976,-0.000423610374836014,0.003639450011239125,-0.0010242878639538655,0.002,8e-05,0,-0.27228985827945656,-0.0013309329796697572,-2.1783188662356528e-05,-0.0,-0.0013527161683321138,0.1,0.02,0,-0.09019313759454975,-0.014013337279482785,-0.001803862751890995,0.0,-0.01581720003137378,-0.1211465000101993,0.0,0.1211465000101993,-0.147152587364273,0.0,0.147152587364273,-0.6654664898348785,0.0,0.6654664898348785,-0.14013337279482785,0,0.14013337279482785,-0.0031501275977197413,0.0010165863655530439,0.01581720003137378,0.4,0.03342938423156738,0.6363155841827393,STABILIZE
0.035,0.005,0.05,-0.09577064732854568,-0.004510742541573845,-0.0004788532366427284,0.006068900142456902,0.0010793043642403286,0.035,0.005,0.05,-0.08850827713902687,-0.003962422308038401,-0.0004425413856951344,0.006311574303858221,0.0019066106101246856,0.002,8e-05,0,-0.2950102340456648,-0.0013587339306163767,-2.3600818723653185e-05,-0.0,-0.00138233474934003,0.1,0.02,0,-0.09475142373117634,-0.013629831880915273,-0.0018950284746235269,0.0,-0.0155248603555388,-0.11321206594395432,0.0,0.11321206594395432,-0.12887835833068126,0.0,0.12887835833068126,-0.6793669653081883,0.0,0.6793669653081883,-0.13629831880915272,0,0.13629831880915272,0.0010838368551928407,-0.0019040377098770754,0.0155248603555388,0.4,0.033443450927734375,0.6697642803192139,STABILIZE
0.035,0.005,0.05,-0.0999217783174595,-0.004345172276347696,-0.0004996088915872975,0.004081686759054863,-0.00076309440888013,0.035,0.005,0.05,-0.09192310733397398,-0.003574453692534928,-0.0004596155366698699,0.007431175345896228,0.0033971061166914304,0.002,8e-05,0,-0.31824766254052916,-0.0013899224825943699,-2.5459813003242336e-05,-0.0,-0.0014153822955976121,0.1,0.02,0,-0.09987765797021173,-0.015331016987217429,-0.0019975531594042346,0.0,-0.017328570146621664,-0.10212724835814078,0.0,0.10212724835814078,-0.12414777932421989,0.0,0.12414777932421989,-0.694961241297185,0.0,0.694961241297185,-0.15331016987217427,0,0.15331016987217427,-0.0007540018226920436,-0.0033991358161014284,0.017328570146621664,0.4,0.03343701362609863,0.7032120227813721,STABILIZE
0.035,0.005,0.05,-0.1038093383556889,-0.004065020098370978,-0.0005190466917784445,0.007163692720000484,0.002579625929851061,0.035,0.005,0.05,-0.09565819621750896,-0.003905588912187452,-0.0004782909810875448,0.0017190217796318548,-0.0026648581136431418,0.002,8e-05,0,-0.34203056376556096,-0.0014210598572533429,-2.736244510124488e-05,-0.0,-0.0014484223023545878,0.1,0.02,0,-0.1051788797879933,-0.015837751349940532,-0.002103577595759866,-0.0,-0.0179413289457004,-0.11158825463392719,0.0,0.11158825463392719,-0.11614343138202793,0.0,0.11614343138202793,-0.7105299286266714,0.0,0.7105299286266714,-0.15837751349940532,0,0.15837751349940532,0.0025722498589958445,0.002671978549072858,0.0179413289457004,0.4,0.03347206115722656,0.7366776466369629,STABILIZE
0.035,0.005,0.05,-0.10718246823157329,-0.0035302755092677498,-0.0005359123411578664,0.011136688114467195,0.007070500264041579,0.035,0.005,0.05,-0.09895390393211279,-0.0034492464443042475,-0.000494769519660564,0.00598742684556979,0.002043410881604979,0.002,8e-05,0,-0.3661896668230477,-0.0014448351359620856,-2.929517334584382e-05,-0.0,-0.0014741303093079295,0.1,0.02,0,-0.11057564908622079,-0.01613768914393563,-0.002211512981724416,-0.0,-0.018349202125660047,-0.09854989840869277,0.0,0.09854989840869277,-0.10086501455050713,0.0,0.10086501455050713,-0.7224175679810427,0.0,0.7224175679810427,-0.1613768914393563,0,0.1613768914393563,0.007076227596767437,-0.0020234883280168983,0.018349202125660047,0.4,0.033442020416259766,0.7701249122619629,STABILIZE
0.035,0.005,0.05,-0.11130561237195637,-0.00431593875359544,-0.0005565280618597819,0.0071255004092525805,0.002253033593797359,0.035,0.005,0.05,-0.10217641921264804,-0.003373197276101876,-0.0005108820960632402,0.0074097206382551725,0.0035256412660900566,0.002,8e-05,0,-0.3906786539085831,-0.0014648040399707564,-3.125429231268665e-05,-0.0,-0.0014960583322834431,0.1,0.02,0,-0.11497774530383208,-0.013165526816961912,-0.0022995549060766418,0.0,-0.015465081723038553,-0.09637706503148216,0.0,0.09637706503148216,-0.12331253581701256,0.0,0.12331253581701256,-0.7324020199853782,0.0,0.7324020199853782,-0.13165526816961912,0,0.13165526816961912,0.0022611289203346603,-0.003520454902077678,0.015465081723038553,0.4,0.03343653678894043,0.8035671710968018,STABILIZE
0.035,0.005,0.05,-0.1145328786920369,-0.0033702161227415336,-0.0005726643934601845,0.009723428532375119,0.005780548016173401,0.035,0.005,0.05,-0.10616965350271013,-0.004170112179002236,-0.0005308482675135507,-0.0017563537395737041,-0.006457314186089491,0.002,8e-05,0,-0.4156716786658774,-0.0014914328924497927,-3.325373429327019e-05,-0.0,-0.0015246866267430628,0.1,0.02,0,-0.12031130183335935,-0.01591372336706813,-0.002406226036667187,-0.0,-0.018319949403735318,-0.11914606225720673,0.0,0.11914606225720673,-0.09629188922118667,0.0,0.09629188922118667,-0.7457164462248963,0.0,0.7457164462248963,-0.1591372336706813,0,0.1591372336706813,0.005762590754739127,0.006473344549655454,0.018319949403735318,0.4,0.03351545333862305,0.8370838165283203,STABILIZE
0.035,0.005,0.05,-0.11748661248675628,-0.003091120444369911,-0.0005874330624337814,0.01069295919553264,0.0070144056887289485,0.035,0.005,0.05,-0.11043419763867916,-0.0044629003426708835,-0.0005521709881933959,-0.007572765820923398,-0.012587837151787677,0.002,8e-05,0,-0.4407696874536495,-0.0015008793899253972,-3.526157499629196e-05,-0.0,-0.001536140964921689,0.1,0.02,0,-0.12421876820882538,-0.011683468197327174,-0.0024843753641765076,0.0,-0.014167843561503682,-0.12751143836202522,0.0,0.12751143836202522,-0.08831772698199744,0.0,0.08831772698199744,-0.7504396949626986,0.0,0.7504396949626986,-0.11683468197327174,0,0.11683468197327174,0.006988722636480079,0.012602114395463567,0.014167843561503682,0.4,0.03344440460205078,0.870551347732544,STABILIZE
0.035,0.005,0.05,-0.12164520271542632,-0.003606354602235989,-0.0006082260135771316,0.0046541445434682355,0.00043956392765511464,0.035,0.005,0.05,-0.11624981306547935,-0.0050433368776473374,-0.0005812490653273967,-0.008855273027719705,-0.01447985897069444,0.002,8e-05,0,-0.4719141087383357,-0.0015433503163048753,-3.775312869906686e-05,-0.0,-0.001581103445003942,0.1,0.02,0,-0.12847386360794255,-0.010542984199491259,-0.002569477272158851,0.0,-0.01311246147165011,-0.1440953393613525,0.0,0.1440953393613525,-0.10303870292102825,0.0,0.10303870292102825,-0.7716751581524376,0.0,0.7716751581524376,-0.10542984199491258,0,0.10542984199491258,0.00041291884082995007,0.014480643296780137,0.01311246147165011,0.4,0.0403594970703125,0.9108827114105225,STABILIZE
0.035,0.005,0.05,-0.12493027416965936,-0.003305055697073877,-0.0006246513708482968,0.0025600614266895307,-0.0013696456412326426,0.035,0.005,0.05,-0.12128326245631789,-0.005064069630414756,-0.0006064163122815895,-0.012924343987594782,-0.01859482993029113,0.002,8e-05,0,-0.49937331749175706,-0.0015786430148281535,-3.994986539934057e-05,-0.0,-0.001618592880227494,0.1,0.02,0,-0.13303270314158314,-0.013104493013855377,-0.0026606540628316628,0.0,-0.01576514707668704,-0.14468770372613587,0.0,0.14468770372613587,-0.09443016277353933,0.0,0.09443016277353933,-0.7893215074140767,0.0,0.7893215074140767,-0.13104493013855376,0,0.13104493013855376,-0.0014121714752359093,0.018591648690837733,0.01576514707668704,0.4,0.03478837013244629,0.9456779956817627,STABILIZE
0.035,0.005,0.05,-0.12834804770780328,-0.003575214790036716,-0.0006417402385390165,0.006966560031720283,0.00274960500314455,0.035,0.005,0.05,-0.1258568609264114,-0.004784283309434131,-0.000629284304632057,-0.011184999979414264,-0.016598567593480454,0.002,8e-05,0,-0.5262571930570787,-0.0016069881829200037,-4.2100575444566306e-05,-0.0,-0.00164908875836457,0.1,0.02,0,-0.13598741519864205,-0.008830920504909943,-0.002719748303972841,0.0,-0.011550668808882784,-0.13669380884097518,0.0,0.13669380884097518,-0.10214899400104901,0.0,0.10214899400104901,-0.8034940914600018,0.0,0.8034940914600018,-0.08830920504909942,0,0.08830920504909942,0.0027240186010524087,0.016602785805092394,0.011550668808882784,0.4,0.033458709716796875,0.9791364669799805,STABILIZE
0.035,0.005,0.05,-0.13108815039002136,-0.0028551167064053556,-0.0006554407519501069,0.005029506077719147,0.001518948619363684,0.035,0.005,0.05,-0.1306909747360843,-0.005037022586135103,-0.0006534548736804214,-0.006541196537179568,-0.012231673996995093,0.002,8e-05,0,-0.5535954685652565,-0.0016277589602596745,-4.428763748522053e-05,-0.0,-0.001672046597744895,0.1,0.02,0,-0.1389411199833878,-0.008793384622767346,-0.0027788223996677557,0.0,-0.011572207022435102,-0.1439149310324315,0.0,0.1439149310324315,-0.08157476304015301,0.0,0.08157476304015301,-0.8138794801298372,0.0,0.8138794801298372,-0.08793384622767346,0,0.08793384622767346,0.0015001744579468776,0.012233990774590135,0.011572207022435102,0.4,0.033590078353881836,1.0127463340759277,STABILIZE
0.035,0.005,0.05,-0.13405477851302477,-0.0031070509759777635,-0.0006702738925651239,0.000491248220602374,-0.003286076647940513,0.035,0.005,0.05,-0.1345205497917483,-0.004010844777617335,-0.0006726027489587415,0.004733559845330056,5.0112318753979535e-05,0.002,8e-05,0,-0.5805274133384939,-0.0016118140446351962,-4.6442193067079515e-05,-0.0,-0.0016582562377022757,0.1,0.02,0,-0.14274231392893963,-0.011374629347062697,-0.0028548462785787927,0.0,-0.01422947562564149,-0.11459556507478097,0.0,0.11459556507478097,-0.0887728850279361,0.0,0.0887728850279361,-0.805907022317598,0.0,0.805907022317598,-0.11374629347062697,0,0.11374629347062697,-0.0032859706871067322,-5.66358906186752e-05,0.01422947562564149,0.4,0.03341817855834961,1.046142339706421,STABILIZE
0.035,0.005,0.05,-0.137904001312031,-0.004012129866491803,-0.0006895200065601551,-0.003562380530963676,-0.008264030404015636,0.035,0.005,0.05,-0.13778066642041525,-0.0033980915049911476,-0.0006889033321020762,0.014056370721475734,0.00996937588438251,0.002,8e-05,0,-0.6083311266121911,-0.0016560242232138795,-4.866649012897529e-05,-0.0,-0.0017046907133428549,0.1,0.02,0,-0.14573858472532822,-0.008923083347327372,-0.0029147716945065643,0.0,-0.011837855041833937,-0.09708832871403278,0.0,0.09708832871403278,-0.11463228189976579,0.0,0.11463228189976579,-0.8280121116069398,0.0,0.8280121116069398,-0.08923083347327371,0,0.08923083347327371,-0.008248494363226206,-0.009982233957508102,0.011837855041833937,0.4,0.03357887268066406,1.0797197818756104,STABILIZE
0.035,0.005,0.05,-0.14162865945877107,-0.003889279945675313,-0.0007081432972938554,-0.004989745361350336,-0.009587168604319504,0.035,0.005,0.05,-0.14073798352473488,-0.0030880240960904576,-0.0007036899176236744,0.01686968167811937,0.013077967664405239,0.002,8e-05,0,-0.6375429442614612,-0.001743023801825259,-5.1003435540916896e-05,-0.0,-0.0017940272373661759,0.1,0.02,0,-0.14755512074444713,-0.005419494185902322,-0.002951102414888943,0.0,-0.008370596600791265,-0.08822925988829879,0.0,0.08822925988829879,-0.1111222841621518,0.0,0.1111222841621518,-0.8715119009126294,0.0,0.8715119009126294,-0.05419494185902321,0,0.05419494185902321,-0.009574794127074116,-0.013087030125396124,0.008370596600791265,0.4,0.03351855278015137,1.1132426261901855,STABILIZE
0.035,0.005,0.05,-0.14513222975396933,-0.0036598002022293096,-0.0007256611487698467,-0.0007259354814409861,-0.005111396832440142,0.035,0.005,0.05,-0.14321609190552514,-0.002588611270506612,-0.0007160804595276257,0.018739131925235835,0.015434440195201597,0.002,8e-05,0,-0.6667421909971057,-0.0017429307837292165,-5.333937527976846e-05,-0.0,-0.001796270159008985,0.1,0.02,0,-0.14905562233057498,-0.0044783182750810935,-0.0029811124466114997,0.0,-0.007459430721692593,-0.07396032201447462,0.0,0.07396032201447462,-0.10456572006369455,0.0,0.10456572006369455,-0.8714653918646083,0.0,0.8714653918646083,-0.04478318275081093,0,0.04478318275081093,-0.005099331497978581,-0.015438430619452785,0.007459430721692593,0.4,0.033505916595458984,1.1468100547790527,STABILIZE
0.035,0.005,0.05,-0.14978913765456883,-0.0041953793202151824,-0.0007489456882728442,-0.010789801789036227,-0.015734126797524253,0.035,0.005,0.05,-0.14486323573152482,-0.0014839016129414057,-0.0007243161786576241,0.029013204516939707,0.02680498672534068,0.002,8e-05,0,-0.7009358471050451,-0.0017602772456355228,-5.6074867768403614e-05,-0.0,-0.0018163521134039265,0.1,0.02,0,-0.14876355405615524,0.0007517785404552495,-0.002975271081123105,0.0,-0.0022234925406678556,-0.042397188941183016,0.0,0.042397188941183016,-0.11986798057757664,0.0,0.11986798057757664,-0.8801386228177613,0.0,0.8801386228177613,0.007517785404552495,0,-0.007517785404552495,-0.01573764374727102,-0.026802922018135302,0.0022234925406678556,0.4,0.03885030746459961,1.1856071949005127,STABILIZE
0.035,0.005,0.05,-0.15357924045572813,-0.0039643565770511825,-0.0007678962022786407,-0.006663241689333273,-0.011395494468663097,0.035,0.005,0.05,-0.1454411906267324,-0.0006045269509191626,-0.0007272059531336619,0.02774833692221845,0.026416604018165625,0.002,8e-05,0,-0.7298848568209667,-0.0017302839690986553,-5.8390788545677345e-05,-0.0,-0.0017886747576443326,0.1,0.02,0,-0.14935929679582458,-0.0017803788838929213,-0.0029871859359164917,0.0,-0.004767564819809413,-0.017272198597690358,0.0,0.017272198597690358,-0.11326733077289092,0.0,0.11326733077289092,-0.8651419845493277,0.0,0.8651419845493277,-0.017803788838929212,0,0.017803788838929212,-0.011387285362205285,-0.02642014371871585,0.004767564819809413,0.4,0.033461570739746094,1.2190814018249512,STABILIZE
0.035,0.005,0.05,-0.15743406827967235,-0.004029789083615119,-0.0007871703413983617,0.000479463384928176,-0.004337496040085305,0.035,0.005,0.05,-0.14656783936399567,-0.0011777845833453758,-0.0007328391968199784,0.01764251928792158,0.01573189550775623,0.002,8e-05,0,-0.7586862428595688,-0.0017204920516318482,-6.069489942876551e-05,-0.0,-0.0017811869510606137,0.1,0.02,0,-0.14794060354618366,0.004237383673895939,-0.002958812070923673,0.0,0.001278571602972266,-0.03365098809558216,0.0,0.03365098809558216,-0.11513683096043195,0.0,0.11513683096043195,-0.8602460258159241,0.0,0.8602460258159241,0.04237383673895939,0,-0.04237383673895939,-0.004349129580151477,-0.015728683354297897,-0.001278571602972266,0.4,0.03348040580749512,1.2525513172149658,STABILIZE
0.035,0.005,0.05,-0.16146008897584102,-0.0042069844315505206,-0.0008073004448792051,-0.00207922755239724,-0.007093512428826965,0.035,0.005,0.05,-0.14787480729678115,-0.0013657142276980437,-0.0007393740364839057,0.013396408908268015,0.011291320644086066,0.002,8e-05,0,-0.7874625106797724,-0.0017182696528244997,-6.29970008543818e-05,0.0,-0.0017812666536788815,0.1,0.02,0,-0.1456592450055994,0.006811149333176766,-0.002913184900111988,0.0,0.0038979644330647783,-0.039020406505658384,0.0,0.039020406505658384,-0.12019955518715772,0.0,0.12019955518715772,-0.8591348264122498,0.0,0.8591348264122498,0.06811149333176766,0,-0.06811149333176766,-0.007106930194660347,-0.011282880114302016,-0.0038979644330647783,0.4,0.03349447250366211,1.2860901355743408,STABILIZE
0.035,0.005,0.05,-0.16504815733692355,-0.0037553077559346875,-0.0008252407866846177,-0.0001770508416013922,-0.004757599384220698,0.035,0.005,0.05,-0.1478949530666972,-2.108476160474864e-05,-0.000739474765333486,0.020625960024781308,0.019865400497843074,0.002,8e-05,0,-0.816244507103609,-0.001721344085446393,-6.529956056828873e-05,0.0,-0.001786643646014682,0.1,0.02,0,-0.14363331024496348,0.006058180896083997,-0.0028726662048992697,0.0,0.003185514691184727,-0.0006024217601356754,0.0,0.0006024217601356754,-0.10729450731241963,0.0,0.10729450731241963,-0.8606720427231965,0.0,0.8606720427231965,0.060581808960839964,0,-0.060581808960839964,-0.004778601442431266,-0.019860358936706932,-0.003185514691184727,0.4,0.03344130516052246,1.3194975852966309,STABILIZE
0.035,0.005,0.05,-0.16898818485866046,-0.004119941319243475,-0.0008449409242933023,0.0006492025128890045,-0.0043156797306477725,0.035,0.005,0.05,-0.14826977298438226,-0.0003919353501026749,-0.0007413488649219113,0.009336075792265742,0.008202791577241155,0.002,8e-05,0,-0.8453185674713685,-0.0017372383744815889,-6.762548539770948e-05,0.0,-0.0018048638598792983,0.1,0.02,0,-0.14184439692210227,0.005344573193055123,-0.0028368879384420456,0.0,0.0025076852546130775,-0.011198152860076426,0.0,0.011198152860076426,-0.11771260912124212,0.0,0.11771260912124212,-0.8686191872407945,0.0,0.8686191872407945,0.05344573193055123,0,-0.05344573193055123,-0.004323329448691222,-0.008198762325818558,-0.0025076852546130775,0.4,0.03347158432006836,1.3530421257019043,STABILIZE
0.035,0.005,0.05,-0.17130008704226204,-0.002419521641466224,-0.0008565004352113102,0.013203735336140193,0.00992771325946266,0.035,0.005,0.05,-0.146828131923004,0.001508749709210073,-0.00073414065961502,0.01806552471642636,0.01884013376602141,0.002,8e-05,0,-0.8742569560756558,-0.00173059861377643,-6.994055648605247e-05,-0.0,-0.0018005391702624824,0.1,0.02,0,-0.14200841219025143,-0.0004904291658710966,-0.0028401682438050284,0.0,-0.003330597409676125,0.04310713454885923,0.0,-0.04310713454885923,-0.06912918975617782,0.0,0.06912918975617782,-0.865299306888215,0.0,0.865299306888215,-0.004904291658710966,0,0.004904291658710966,0.009929325863877557,-0.018839283924093904,0.003330597409676125,0.4,0.03344321250915527,1.386420488357544,STABILIZE
0.035,0.005,0.05,-0.1750499887156465,-0.003926083641245174,-0.0008752499435782325,0.0008858364877715014,-0.003915497097051905,0.035,0.005,0.05,-0.1457173089204564,0.0011630128996648768,-0.000728586544602282,0.020002633361026364,0.02043705971608896,0.002,8e-05,0,-0.9030950760485614,-0.0017253156548228455,-7.224760608388492e-05,-0.0,-0.0017975632609067305,0.1,0.02,0,-0.1399091950912974,0.006279556585346098,-0.002798183901825948,0.0,0.00348137268352015,0.03322893999042505,0.0,-0.03322893999042505,-0.11217381832129067,0.0,0.11217381832129067,-0.8626578274114227,0.0,0.8626578274114227,0.06279556585346098,0,-0.06279556585346098,-0.0039378935413377095,-0.020432756099290638,-0.00348137268352015,0.4,0.03342938423156738,1.4198641777038574,STABILIZE
0.035,0.005,0.05,-0.180280029362071,-0.005459333125616862,-0.000901400146810355,-0.01066770898407781,-0.017028442256505027,0.035,0.005,0.05,-0.14490808556918167,0.0008447008630147088,-0.0007245404278459083,0.018893323271741487,0.01901348370691029,0.002,8e-05,0,-0.9320894506670859,-0.0017294588322960282,-7.456715605336688e-05,-0.0,-0.001804025988349395,0.1,0.02,0,-0.13549286087064027,0.013171293267706483,-0.0027098572174128056,0.0,0.010461436050293677,0.02413431037184882,0.0,-0.02413431037184882,-0.15598094644619603,0.0,0.15598094644619603,-0.8647294161480141,0.0,0.8647294161480141,0.13171293267706483,0,-0.13171293267706483,-0.017072105883015793,-0.01897428810456842,-0.010461436050293677,0.4,0.03352999687194824,1.453394889831543,STABILIZE
0.035,0.005,0.05,-0.18382804844788206,-0.0037122008191213464,-0.0009191402422394103,0.0003955578282217637,-0.004235783233138992,0.035,0.005,0.05,-0.14336154611231508,0.0016181043280017213,-0.0007168077305615754,0.014010789559718998,0.014912086157159143,0.002,8e-05,0,-0.9608959243727067,-0.0017222554364595029,-7.687167394981654e-05,-0.0,-0.0017991271104093195,0.1,0.02,0,-0.13246740155817605,0.009044171462857433,-0.002649348031163521,0.0,0.006394823431693912,0.046231552228620604,0.0,-0.046231552228620604,-0.10606288054632418,0.0,0.10606288054632418,-0.8611277182297514,0.0,0.8611277182297514,0.09044171462857432,0,-0.09044171462857432,-0.004259316759275288,-0.014905381373880892,-0.006394823431693912,0.4,0.03345203399658203,1.4868323802947998,STABILIZE
0.035,0.005,0.05,-0.18792864857513572,-0.004207261184834375,-0.0009396432428756787,-0.0006383488449395602,-0.005785253272649614,0.035,0.005,0.05,-0.14106647762830815,0.002354765704932559,-0.0007053323881415407,0.023346361050151337,0.024995794366942357,0.002,8e-05,0,-0.9901983751724455,-0.0017179793903947858,-7.921587001379565e-05,0.0,-0.0017971952604085815,0.1,0.02,0,-0.12808830647841268,0.012837143123331713,-0.0025617661295682537,0.0,0.01027537699376346,0.06727902014093025,0.0,-0.06727902014093025,-0.12020746242383926,0.0,0.12020746242383926,-0.8589896951973929,0.0,0.8589896951973929,0.12837143123331712,0,-0.12837143123331712,-0.005841241885998429,-0.02498276975622254,-0.01027537699376346,0.4,0.03411269187927246,1.5209758281707764,STABILIZE
0.035,0.005,0.05,-0.19196253870512672,-0.00404633890749075,-0.0009598126935256336,-0.013847782518884307,-0.01885393411990069,0.035,0.005,0.05,-0.14011668824802315,0.0009527204756509584,-0.0007005834412401158,-0.004372286253396866,-0.004120149218986024,0.002,8e-05,0,-1.0200964272133626,-0.001713732506097438,-8.160771417706901e-05,0.0,-0.001795340220274507,0.1,0.02,0,-0.12400175511009576,0.01171189331689122,-0.002480035102201915,0.0,0.009231858214689305,0.02722058501859881,0.0,-0.02722058501859881,-0.11560968307116429,0.0,0.11560968307116429,-0.856866253048719,0.0,0.856866253048719,0.1171189331689122,0,-0.1171189331689122,-0.01884547269389559,0.00415868011848739,-0.009231858214689305,0.4,0.03489232063293457,1.5558629035949707,STABILIZE
0.035,0.005,0.05,-0.19570296325774256,-0.003914653612009359,-0.0009785148162887128,0.0001535573775860022,-0.0047396110507120694,0.035,0.005,0.05,-0.14058408165235797,-0.0004891645995717485,-0.0007029204082617898,-0.013736102752299403,-0.014928187760132942,0.002,8e-05,0,-1.0489419718898931,-0.001725095473902639,-8.391535775119146e-05,-0.0,-0.0018090108316538304,0.1,0.02,0,-0.12040479839038853,0.01075572298352065,-0.002408095967807771,0.0,0.008347627015712879,-0.01397613141633567,0.0,0.01397613141633567,-0.11184724605741024,0.0,0.11184724605741024,-0.8625477369513195,0.0,0.8625477369513195,0.10755722983520649,0,-0.10755722983520649,-0.004711579107024896,0.014937058781167778,-0.008347627015712879,0.4,0.03344225883483887,1.589282512664795,STABILIZE
0.035,0.005,0.05,-0.19815119647170767,-0.0025592978899048294,-0.0009907559823585383,0.024784668341631254,0.021234614469367887,0.035,0.005,0.05,-0.14058586150505245,-1.8605961308387767e-06,-0.0007029293075252622,-0.006865262287973632,-0.007570052191629734,0.002,8e-05,0,-1.078326561985464,-0.0017552930823358816,-8.626612495883713e-05,-0.0,-0.0018415592072947187,0.1,0.02,0,-0.11798106103841641,0.007239116478192769,-0.002359621220768328,-0.0,0.0048794952574244405,-5.315988945253647e-05,0.0,5.315988945253647e-05,-0.07312279685442369,0.0,0.07312279685442369,-0.8776465411679408,0.0,0.8776465411679408,0.07239116478192768,0,-0.07239116478192768,0.02124416200772042,0.0075432169819258515,-0.0048794952574244405,0.4,0.03348112106323242,1.6227953433990479,STABILIZE
0.035,0.005,0.05,-0.20171259632098812,-0.0036438487665112784,-0.0010085629816049405,0.0008039463447957252,-0.0038484654033204935,0.035,0.005,0.05,-0.13968656193542558,0.0009201189886530283,-0.0006984328096771279,-0.005770307405984121,-0.0055486212270082205,0.002,8e-05,0,-1.1081916155370373,-0.0017460828911767998,-8.865532924296298e-05,-0.0,-0.0018347382204197628,0.1,0.02,0,-0.11486048845292716,0.009122331545109637,-0.0022972097690585436,0.0,0.006825121776051093,0.026289113961515093,0.0,-0.026289113961515093,-0.10410996475746509,0.0,0.10410996475746509,-0.8730414455883999,0.0,0.8730414455883999,0.09122331545109637,0,-0.09122331545109637,-0.0038396263074518882,0.005554741515181814,-0.006825121776051093,0.4,0.034208059310913086,1.6569619178771973,STABILIZE
0.035,0.005,0.05,-0.2045784886421658,-0.0029694512808348993,-0.001022892443210829,0.010654593264879192,0.006662249540833463,0.035,0.005,0.05,-0.1401485128322367,-0.0004786434828978085,-0.0007007425641611836,-0.023771364246379656,-0.02495075029343865,0.002,8e-05,0,-1.1378108879661903,-0.001753689384274345,-9.102487103729523e-05,-0.0,-0.0018447142553116402,0.1,0.02,0,-0.11332487528709885,0.004546007187898437,-0.002266497505741977,-0.0,0.0022795096821564597,-0.013675528082794527,0.0,0.013675528082794527,-0.0848414651667114,0.0,0.0848414651667114,-0.8768446921371725,0.0,0.8768446921371725,0.04546007187898437,0,-0.04546007187898437,0.006682044063939744,0.0249454564255183,-0.0022795096821564597,0.4,0.03377938270568848,1.6907649040222168,STABILIZE
0.035,0.005,0.05,-0.20593700951004634,-0.001418806747566698,-0.0010296850475502318,0.022556937949384792,0.02010844615426786,0.035,0.005,0.05,-0.13679621762973954,0.0035010570434290253,-0.0006839810881486977,0.021638237276101376,0.024455313231381705,0.002,8e-05,0,-1.167033827987457,-0.0017439851770801498,-9.336270623899657e-05,-0.0,-0.0018373478833191464,0.1,0.02,0,-0.1123107406941519,0.003026108420947054,-0.002246214813883038,-0.0,0.0007798936070640161,0.10003020124082929,0.0,-0.10003020124082929,-0.0405373356447628,0.0,0.0405373356447628,-0.8719925885400749,0.0,0.8719925885400749,0.03026108420947054,0,-0.03026108420947054,0.02009552714073553,-0.024465930207536457,-0.0007798936070640161,0.4,0.03351283073425293,1.7243013381958008,STABILIZE
0.035,0.005,0.05,-0.20811996031825436,-0.0022838348850698085,-0.0010405998015912718,0.01404408718865306,0.01071965250199198,0.035,0.005,0.05,-0.1336176356882926,0.0033254786574364544,-0.000668088178441463,0.0324574654655854,0.03511485594458039,0.002,8e-05,0,-1.196620656204072,-0.0017688097143057305,-9.572965249632576e-05,-0.0,-0.0018645393668020563,0.1,0.02,0,-0.11023941685155021,0.006191568943185104,-0.0022047883370310043,-0.0,0.0039867806061541,0.09501367592675583,0.0,-0.09501367592675583,-0.0652524252877088,0.0,0.0652524252877088,-0.8844048571528652,0.0,0.8844048571528652,0.06191568943185104,0,-0.06191568943185104,0.010681699990894791,-0.035126419445719405,-0.0039867806061541,0.4,0.033453941345214844,1.7577595710754395,STABILIZE
0.035,0.005,0.05,-0.2111458205063325,-0.0031686572183927636,-0.0010557291025316625,-0.005085878593946035,-0.009310264914870461,0.035,0.005,0.05,-0.13062737763777674,0.0031313749372677666,-0.0006531368881888837,0.026639713890132706,0.02911795193921159,0.002,8e-05,0,-1.226593690847575,-0.0017935730512876954,-9.8127495267806e-05,-0.0,-0.0018917005465555014,0.1,0.02,0,-0.10709561896455772,0.00940617330855954,-0.002141912379291154,0.0,0.007264260929268385,0.08946785535050761,0.0,-0.08946785535050761,-0.09053306338265038,0.0,0.09053306338265038,-0.8967865256438476,0.0,0.8967865256438476,0.09406173308559539,0,-0.09406173308559539,-0.009358054908675969,-0.029102628167323816,-0.007264260929268385,0.4,0.03342270851135254,1.7911732196807861,STABILIZE
0.035,0.005,0.05,-0.21497370988088255,-0.0040064210498659365,-0.0010748685494044127,-0.0031852900641469875,-0.008266579663417338,0.035,0.005,0.05,-0.12882335999888936,0.0018881565101701524,-0.0006441167999944468,0.008317053936946607,0.009561093647122312,0.002,8e-05,0,-1.2567640850284856,-0.0018044304464536344,-0.00010054112680227885,-0.0,-0.0019049715732559133,0.1,0.02,0,-0.10439642986349564,0.008071652901661277,-0.002087928597269913,-0.0,0.005983724304391364,0.05394732886200435,0.0,-0.05394732886200435,-0.11446917285331246,0.0,0.11446917285331246,-0.9022152232268171,0.0,0.9022152232268171,0.08071652901661278,0,-0.08071652901661278,-0.00828004083008283,-0.009549438460602223,-0.005983724304391364,0.4,0.033440351486206055,1.8246309757232666,STABILIZE
0.035,0.005,0.05,-0.21796036238175395,-0.0031089259403200924,-0.0010898018119087699,-0.001263072102991244,-0.005461799855220106,0.035,0.005,0.05,-0.12466586160496328,0.004327706219570155,-0.0006233293080248164,0.040878127454671696,0.04458250436621704,0.002,8e-05,0,-1.2868306145965622,-0.001788425836662511,-0.00010294644916772499,-0.0,-0.0018913722858302359,0.1,0.02,0,-0.10096455817217997,0.010206778249818842,-0.0020192911634435997,0.0,0.008187487086375242,0.12364874913057586,0.0,-0.12364874913057586,-0.08882645543771692,0.0,0.08882645543771692,-0.8942129183312555,0.0,0.8942129183312555,0.10206778249818842,0,-0.10206778249818842,-0.005541211261151499,-0.044572703877839084,-0.008187487086375242,0.4,0.033623456954956055,1.8582372665405273,STABILIZE
0.035,0.005,0.05,-0.22066946368387405,-0.0028328475722715902,-0.0011033473184193703,-0.012126476554471669,-0.01606267144516263,0.035,0.005,0.05,-0.12118507339503659,0.0036397835778107235,-0.000605925366975183,0.0010769051208472603,0.004110763331682801,0.002,8e-05,0,-1.3167315362212322,-0.0017866705868598372,-0.00010533852289769858,-0.0,-0.0018920091097575358,0.1,0.02,0,-0.09844800057033236,0.007518596757315355,-0.0019689600114066474,0.0,0.005549636745908708,0.1039938165088778,0.0,-0.1039938165088778,-0.08093850206490256,0.0,0.08093850206490256,-0.8933352934299186,0.0,0.8933352934299186,0.07518596757315354,0,-0.07518596757315354,-0.016068051932923638,-0.0040896816752920735,-0.005549636745908708,0.4,0.033471107482910156,1.8916947841644287,STABILIZE
0.035,0.005,0.05,-0.22470680433248139,-0.004216922148955676,-0.001123534021662407,-0.016539810406207417,-0.0218802665768255,0.035,0.005,0.05,-0.11804880982350299,0.00327576503219388,-0.0005902440491175149,-0.0005273192258951015,0.0021582017571812632,0.002,8e-05,0,-1.3470991669902261,-0.001812479280605552,-0.00010776793335921809,-0.0,-0.00192024721396477,0.1,0.02,0,-0.09251049693063934,0.017718870476473674,-0.001850209938612787,0.0,0.015868660537860887,0.09359328663411084,0.0,-0.09359328663411084,-0.12048348997016216,0.0,0.12048348997016216,-0.9062396403027759,0.0,0.9062396403027759,0.17718870476473675,0,-0.17718870476473675,-0.02188683623359606,-0.002090526245086161,-0.015868660537860887,0.4,0.03350949287414551,1.9252264499664307,STABILIZE
0.035,0.005,0.05,-0.23035065950835057,-0.0059026221058305775,-0.0011517532975417529,-0.023367639802553172,-0.030422015205925503,0.035,0.005,0.05,-0.11514048232323071,0.003041672342603727,-0.0005757024116161536,-0.000866599036554137,0.0015993708944334367,0.002,8e-05,0,-1.378803138851854,-0.001894718711859983,-0.00011030425110814833,-0.0,-0.0020050229629681314,0.1,0.02,0,-0.08247883522360783,0.029976018825525686,-0.0016495767044721566,0.0,0.02832644212105353,0.0869049240743922,0.0,-0.0869049240743922,-0.16864634588087363,0.0,0.16864634588087363,-0.9473593559299914,0.0,0.9473593559299914,0.29976018825525685,0,-0.29976018825525685,-0.03042996640897869,-0.0014401877641307096,-0.02832644212105353,0.4,0.03346562385559082,1.9587485790252686,STABILIZE
0.035,0.005,0.05,-0.2348661925459832,-0.004726439499933078,-0.001174330962729916,-0.006159841227143791,-0.012060611689806785,0.035,0.005,0.05,-0.11416248933394352,0.0010236719910365314,-0.0005708124466697176,-0.007487440431358187,-0.007034580886991373,0.002,8e-05,0,-1.4114227846765788,-0.001951040441514818,-0.00011291382277412632,-0.0,-0.0020639542642889443,0.1,0.02,0,-0.07308014816120191,0.028107629761566777,-0.0014616029632240383,0.0,0.02664602679834274,0.02924777117247232,0.0,-0.02924777117247232,-0.1350411285695165,0.0,0.1350411285695165,-0.975520220757409,0.0,0.975520220757409,0.28107629761566777,0,-0.28107629761566777,-0.012025957111825504,0.007093661828171822,-0.02664602679834274,0.4,0.03343820571899414,1.9921400547027588,STABILIZE
0.035,0.005,0.05,-0.23861984268209693,-0.003915487073519248,-0.0011930992134104848,-0.006880839182584356,-0.011989425469514089,0.035,0.005,0.05,-0.1095087488102363,0.004854384453356037,-0.0005475437440511815,0.00440192386107674,0.008708764570381595,0.002,8e-05,0,-1.4435297048426476,-0.001913782605078038,-0.00011548237638741181,-0.0,-0.00202926498146545,0.1,0.02,0,-0.06637014448924375,0.019998007035527413,-0.001327402889784875,0.0,0.018670604145742536,0.13869669866731535,0.0,-0.13869669866731535,-0.11187105924340705,0.0,0.11187105924340705,-0.956891302539019,0.0,0.956891302539019,0.1999800703552741,0,-0.1999800703552741,-0.012019748672540197,-0.008666864789549623,-0.018670604145742536,0.4,0.033553361892700195,2.0256946086883545,STABILIZE
0.035,0.005,0.05,-0.2427837095572084,-0.004354746321339665,-0.001213918547786042,-0.012987653738588983,-0.01855631860771469,0.035,0.005,0.05,-0.10688123955172624,0.0027479591977772537,-0.0005344061977586312,-0.0077094408105011815,-0.005495887810482559,0.002,8e-05,0,-1.4745918682742114,-0.0018563492060707201,-0.00011796734946193692,-0.0,-0.001974316555532657,0.1,0.02,0,-0.05795311346090886,0.02515109564301123,-0.0011590622692181772,0.0,0.02399203337379305,0.07851311993649296,0.0,-0.07851311993649296,-0.12442132346684756,0.0,0.12442132346684756,-0.92817460303536,0.0,0.92817460303536,0.2515109564301123,0,-0.2515109564301123,-0.0185320146334052,0.005577291163610229,-0.02399203337379305,0.4,0.03346586227416992,2.059131145477295,STABILIZE
0.035,0.005,0.05,-0.2461622588252346,-0.003533654857383505,-0.001230811294126173,0.005823981460252888,0.0010595153087432094,0.035,0.005,0.05,-0.10730582644877038,-0.0004440792281232371,-0.0005365291322438519,-0.0318594110805358,-0.03284001944090289,0.002,8e-05,0,-1.5053576286743549,-0.0018387533490935696,-0.0001204286102939484,-0.0,-0.001959181959387518,0.1,0.02,0,-0.04863911514649688,0.02783312580500539,-0.0009727823029299376,0.0,0.026860343502075452,-0.012687977946378201,0.0,0.012687977946378201,-0.10096156735381442,0.0,0.10096156735381442,-0.9193766745467848,0.0,0.9193766745467848,0.2783312580500539,0,-0.2783312580500539,0.0012190323234694412,0.03283448506924812,-0.026860343502075452,0.4,0.03346371650695801,2.092608690261841,STABILIZE
0.035,0.005,0.05,-0.24953319026652435,-0.003526692367834676,-0.0012476659513326219,0.02027518441469911,0.015500826095531812,0.035,0.005,0.05,-0.10717218084600476,0.00013982097692495573,-0.0005358609042300238,-0.024874054232379008,-0.025270094159684075,0.002,8e-05,0,-1.5357254372916016,-0.0018154866645460322,-0.00012285803498332813,0.0,-0.0019383446995293603,0.1,0.02,0,-0.040544268565727196,0.02419681677423878,-0.0008108853713145439,-0.0,0.023385931402924238,0.003994885054998735,0.0,-0.003994885054998735,-0.10076263908099073,0.0,0.10076263908099073,-0.9077433322730161,0.0,0.9077433322730161,0.2419681677423878,0,-0.2419681677423878,0.015607406726586327,0.025204406832022987,-0.023385931402924238,0.4,0.033454179763793945,2.126089096069336,STABILIZE
0.035,0.005,0.05,-0.25347071634337764,-0.004117032393865751,-0.0012673535817168883,0.005186439679216855,-0.0001979462963657844,0.035,0.005,0.05,-0.10414818216678584,0.003161858557467889,-0.0005207409108339292,0.01816319399635466,0.02080431164298862,0.002,8e-05,0,-1.566047888721273,-0.0018117034091349878,-0.00012528383109770185,0.0,-0.0019369872402326897,0.1,0.02,0,-0.030006624091059676,0.03148011707313097,-0.0006001324818211936,0.0,0.030879984591309775,0.09033881592765397,0.0,-0.09033881592765397,-0.1176294969675929,0.0,0.1176294969675929,-0.9058517045674939,0.0,0.9058517045674939,0.3148011707313097,0,-0.3148011707313097,-0.00031224821495624963,-0.02080291005429513,-0.030879984591309775,0.4,0.033473968505859375,2.1595897674560547,STABILIZE
0.035,0.005,0.05,-0.25648561354254895,-0.003139172831728411,-0.0012824280677127449,0.006592571654383948,0.0021709707549427927,0.035,0.005,0.05,-0.10083609219838865,0.0034486160416648624,-0.0005041804609919433,-0.01201879890353042,-0.0090743633228575,0.002,8e-05,0,-1.5969281328177287,-0.0018373225050853643,-0.0001277542506254183,0.0,-0.0019650767557107826,0.1,0.02,0,-0.018829277319114372,0.03325166521853285,-0.0003765855463822875,0.0,0.032875079672150566,0.09853188690471035,0.0,-0.09853188690471035,-0.08969065233509745,0.0,0.08969065233509745,-0.9186612525426822,0.0,0.9186612525426822,0.3325166521853285,0,-0.3325166521853285,0.0022235970613830197,0.009061611327056964,-0.032875079672150566,0.4,0.033614397048950195,2.1931815147399902,STABILIZE
0.035,0.005,0.05,-0.26092669331146956,-0.004643079410661313,-0.0013046334665573478,-0.002492449438481189,-0.00844016231569985,0.035,0.005,0.05,-0.10002777957207803,0.0008450782034731601,-0.0005001388978603902,-0.01625529150680976,-0.01591035220119699,0.002,8e-05,0,-1.627216125017884,-0.0018094641109445027,-0.00013017729000143073,0.0,-0.0019396414009459333,0.1,0.02,0,-0.004857500585783698,0.041735068468753675,-9.715001171567397e-05,0.0,0.041637918457038,0.02414509152780457,0.0,-0.02414509152780457,-0.13265941173318035,0.0,0.13265941173318035,-0.9047320554722513,0.0,0.9047320554722513,0.4173506846875367,0,-0.4173506846875367,-0.008324046139430774,0.015971408921886678,-0.041637918457038,0.4,0.0334773063659668,2.2267768383026123,STABILIZE
0.035,0.005,0.05,-0.26794085633602455,-0.007338790089368396,-0.0013397042816801227,-0.03252722105817981,-0.04120571542922833,0.035,0.005,0.05,-0.10085849846874721,-0.0008691659410516182,-0.000504292492343736,-0.0036430522978790018,-0.005016510731274356,0.002,8e-05,0,-1.655788337142711,-0.0017082617916997693,-0.0001324630669714169,0.0,-0.0018407248586711862,0.1,0.02,0,0.010976379124144066,0.04733342242572991,0.00021952758248288133,0.0,0.04755295000821279,-0.024833312601474804,0.0,0.024833312601474804,-0.209679716839097,0.0,0.209679716839097,-0.8541308958498847,0.0,0.8541308958498847,0.4733342242572991,0,-0.4733342242572991,-0.041162867200274955,0.005356746008918541,-0.04755295000821279,0.4,0.03345179557800293,2.2600913047790527,STABILIZE
0.035,0.005,0.05,-0.2722835748144267,-0.00454305908320756,-0.0013614178740721336,-0.008711539801241949,-0.014616016758521642,0.035,0.005,0.05,-0.1014183965210778,-0.0005857275678727748,-0.000507091982605389,-0.006209308869116552,-0.007302128419594716,0.002,8e-05,0,-1.684111032845977,-0.0016931024803350945,-0.00013472888262767817,0.0,-0.0018278313629627727,0.1,0.02,0,0.024920452011833218,0.04167813798422696,0.0004984090402366644,0.0,0.04217654702446363,-0.016735073367793566,0.0,0.016735073367793566,-0.12980168809164455,0.0,0.12980168809164455,-0.8465512401675472,0.0,0.8465512401675472,0.4167813798422696,0,-0.4167813798422696,-0.014562513335894185,0.0074082542264383945,-0.04217654702446363,0.4,0.03345656394958496,2.2935667037963867,STABILIZE
0.035,0.005,0.05,-0.27931512812003684,-0.006213089795037187,-0.0013965756406001842,-0.01571879319469004,-0.02332845863032741,0.035,0.005,0.05,-0.10297810797055153,-0.0013781630983578234,-0.0005148905398527576,-0.03771955488713116,-0.03961260852534174,0.002,8e-05,0,-1.7172650298429768,-0.0016739951753712763,-0.00013738120238743817,0.0,-0.0018113763777587145,0.1,0.02,0,0.04355479531836852,0.04704380107498796,0.0008710959063673704,0.0,0.047914896981355336,-0.03937608852450924,0.0,0.03937608852450924,-0.17751685128677674,0.0,0.17751685128677674,-0.8369975876856381,0.0,0.8369975876856381,0.4704380107498796,0,-0.4704380107498796,-0.02300242900331628,0.03980281392309178,-0.047914896981355336,0.4,0.03961062431335449,2.3331949710845947,STABILIZE
0.035,0.005,0.05,-0.2850635617308871,-0.0060210893314472476,-0.0014253178086544355,-0.022388671937099053,-0.029835079077200736,0.035,0.005,0.05,-0.10624899278958504,-0.0034260271617475397,-0.0005312449639479252,-0.057667103539685294,-0.06162437566538076,0.002,8e-05,0,-1.7449943605729155,-0.001659689664836353,-0.00013959954884583325,0.0,-0.0017992892136821862,0.1,0.02,0,0.058177695560848716,0.04376138147498495,0.0011635539112169744,0.0,0.044924935386201924,-0.09788649033564398,0.0,0.09788649033564398,-0.17203112375563562,0.0,0.17203112375563562,-0.8298448324181765,0.0,0.8298448324181765,0.43761381474984945,0,-0.43761381474984945,-0.029363538653024716,0.06185045042247564,-0.044924935386201924,0.4,0.03341507911682129,2.366605520248413,STABILIZE
0.035,0.005,0.05,-0.2900903981137857,-0.005258549712002919,-0.0014504519905689285,-0.0030417341527097077,-0.009750735855281554,0.035,0.005,0.05,-0.10774607239556143,-0.0015660878793737816,-0.0005387303619778072,-0.019563987293352122,-0.02166880553470371,0.002,8e-05,0,-1.7729321856294953,-0.0016700357920661462,-0.00014183457485035964,0.0,-0.0018118703669165058,0.1,0.02,0,0.07240947217126426,0.04253655443104376,0.001448189443425285,-0.0,0.043984743874469046,-0.04474536798210804,0.0,0.04474536798210804,-0.15024427748579766,0.0,0.15024427748579766,-0.8350178960330731,0.0,0.8350178960330731,0.4253655443104376,0,-0.4253655443104376,-0.0095895987758668,0.02174059746966889,-0.043984743874469046,0.4,0.03345775604248047,2.400042772293091,STABILIZE
0.035,0.005,0.05,-0.2959893537275134,-0.006164982696359401,-0.001479946768637567,0.012249383768547714,0.004604454303550746,0.035,0.005,0.05,-0.10776323333056033,-1.793484715758292e-05,-0.0005388161666528017,0.008285423170380612,0.007728672156570228,0.002,8e-05,0,-1.8012799417993512,-0.001692923655464688,-0.0001441023953439481,0.0,-0.001837026050808636,0.1,0.02,0,0.08868459875202213,0.048597403299146455,0.0017736919750404427,0.0,0.0503710952741869,-0.0005124242045023691,0.0,0.0005124242045023691,-0.17614236275312573,0.0,0.17614236275312573,-0.846461827732344,0.0,0.846461827732344,0.4859740329914645,0,-0.4859740329914645,0.004538736049949576,-0.0077674479596659685,-0.0503710952741869,0.4,0.03348970413208008,2.4335899353027344,STABILIZE
0.035,0.005,0.05,-0.300002605068941,-0.0041983329561418835,-0.001500013025344705,0.005168908607461442,-0.0005294373740251466,0.035,0.005,0.05,-0.10772901275373632,3.5798748504817675e-05,-0.0005386450637686817,0.0063237705829012406,0.0058209242676373766,0.002,8e-05,0,-1.8294682541432863,-0.0016850451612626868,-0.00014635746033146293,0.0,-0.0018314026215941498,0.1,0.02,0,0.10240707540382848,0.04101521332766429,0.00204814150807657,-0.0,0.043063354835740864,0.0010228213858519335,0.0,-0.0010228213858519335,-0.11995237017548238,0.0,0.11995237017548238,-0.8425225806313434,0.0,0.8425225806313434,0.4101521332766429,0,-0.4101521332766429,-0.0005710925693087081,-0.005816985176177154,-0.043063354835740864,0.4,0.033457040786743164,2.466989040374756,STABILIZE
0.035,0.005,0.05,-0.304260961523107,-0.0044581092461272445,-0.001521304807615535,0.014994862549819327,0.009015448496076547,0.035,0.005,0.05,-0.1022701526829234,0.005714926595963441,-0.000511350763414617,0.060574577677855616,0.06577815351040445,0.002,8e-05,0,-1.8580227473157591,-0.001708225111875727,-0.00014864181978526075,-0.0,-0.001856866931660988,0.1,0.02,0,0.11472157415106293,0.03683472137489602,0.002294431483021259,-0.0,0.03912915285791728,0.1632836170275269,0.0,-0.1632836170275269,-0.12737454988934982,0.0,0.12737454988934982,-0.8541125559378635,0.0,0.8541125559378635,0.3683472137489602,0,-0.3683472137489602,0.008592385796029249,-0.06583475295887375,-0.03912915285791728,0.4,0.0334317684173584,2.500420570373535,STABILIZE
0.035,0.005,0.05,-0.3102227420059008,-0.006238368477273395,-0.001551113710029504,-0.001853782541304608,-0.009643264728607506,0.035,0.005,0.05,-0.09640687767070195,0.006135292990976794,-0.0004820343883535098,0.08167552139668455,0.08732877999930783,0.002,8e-05,0,-1.8876734777766162,-0.0017729332731003203,-0.0001510138782221293,-0.0,-0.0019239471513224496,0.1,0.02,0,0.12338095656751809,0.02588891904518256,0.002467619131350362,-0.0,0.02835653817653292,0.17529408545647981,0.0,-0.17529408545647981,-0.1782390993506684,0.0,0.1782390993506684,-0.8864666365501601,0.0,0.8864666365501601,0.25888919045182557,0,-0.25888919045182557,-0.010037757310181084,-0.08728431588192359,-0.02835653817653292,0.4,0.033448219299316406,2.533900737762451,STABILIZE
0.035,0.005,0.05,-0.31409870155451247,-0.004058932554948257,-0.0015704935077725623,0.010265660731586542,0.004636234668865723,0.035,0.005,0.05,-0.0944802131112278,0.0020176169035911974,-0.00047240106555613903,0.030591982542696607,0.03213719838073167,0.002,8e-05,0,-1.918662200748354,-0.0018543778448920655,-0.00015349297605986835,-0.0,-0.0020078708209519337,0.1,0.02,0,0.13366767851347966,0.03077808222454539,0.002673353570269593,-0.0,0.033451435794814986,0.05764619724546277,0.0,-0.05764619724546277,-0.11596950156995019,0.0,0.11596950156995019,-0.9271889224460328,0.0,0.9271889224460328,0.3077808222454539,0,-0.3077808222454539,0.00446353436758591,-0.03216163945784907,-0.033451435794814986,0.4,0.033422231674194336,2.567291021347046,STABILIZE
0.035,0.005,0.05,-0.317544071232282,-0.0035962917643143073,-0.0015877203561614102,0.021940902682924642,0.016756890562448924,0.035,0.005,0.05,-0.09031068906635063,0.004352167223288937,-0.0004515534453317532,0.03727641628088868,0.04117703005884586,0.002,8e-05,0,-1.9520960526113253,-0.0019941942349867483,-0.00015616768420890603,-0.0,-0.0021503619191956544,0.1,0.02,0,0.14227104674788058,0.025657808446402627,0.0028454209349576117,-0.0,0.02850322938136024,0.12434763495111249,0.0,-0.12434763495111249,-0.10275119326612306,0.0,0.10275119326612306,-0.997097117493374,0.0,0.997097117493374,0.25657808446402625,0,-0.25657808446402625,0.01657232696956797,-0.04125165650737817,-0.02850322938136024,0.4,0.03353118896484375,2.6008224487304688,STABILIZE
0.035,0.005,0.05,-0.32269836070085567,-0.005388997647780201,-0.0016134918035042784,-0.010154496049688778,-0.01715698550097326,0.035,0.005,0.05,-0.08528249608251966,0.005257159173473526,-0.0004264124804125983,0.04454164430615662,0.049372390999217544,0.002,8e-05,0,-1.9854808823663437,-0.0019945747004179557,-0.0001588384705893075,-0.0,-0.0021534131710072633,0.1,0.02,0,0.15344205324873872,0.03337055648975861,0.0030688410649747744,-0.0,0.03643939755473338,0.15020454781352932,0.0,-0.15020454781352932,-0.1539713613651486,0.0,0.1539713613651486,-0.9972873502089779,0.0,0.9972873502089779,0.33370556489758607,0,-0.33370556489758607,-0.017444250559747278,-0.049271627402278695,-0.03643939755473338,0.4,0.033475637435913086,2.634310722351074,STABILIZE
0.035,0.005,0.05,-0.32614580303923213,-0.0036087189221104114,-0.0016307290151961608,0.00727835988748923,0.0020389119501826583,0.035,0.005,0.05,-0.0806634089727135,0.004835175013799879,-0.0004033170448635675,-0.007599188395455796,-0.003167330426519484,0.002,8e-05,0,-2.019219096329978,-0.0020180879318386696,-0.00016153752770639825,-0.0,-0.002179625459545068,0.1,0.02,0,0.165225802085451,0.03524288710839824,0.0033045160417090203,-0.0,0.03854740315010726,0.1381478575371394,0.0,-0.1381478575371394,-0.10310625491744031,0.0,0.10310625491744031,-1.0090439659193349,0.0,1.0090439659193349,0.3524288710839824,0,-0.3524288710839824,0.0020583556453672696,0.003154729149790587,-0.03854740315010726,0.4,0.033435821533203125,2.667747735977173,STABILIZE
