Mode,Time,Freq,time2delay,actualDelay,North-Desired,East-Desired,Down-Desired,Roll-UAV,Pitch-UAV,Yaw-UAV,Roll-Control,Pitch-Control,Yaw-Control,Thrust-Control,North-Pos,East-Pos,Down-Pos,Yaw-Ang,North-Vel,East-Vel,Down-Vel,Yaw-Vel,North-Acc,East-Acc,Down-Acc,North-Avg,East-Avg,Down-Avg,Yaw-Avg,North-Dif,East-Dif,Down-Dif,Yaw-Dif,North-One,East-One,Down-One,Yaw-One,North-Two,East-Two,Down-Two,Yaw-Two,Landing-State,Q-Size,Kalman-Time,Kalman-Dt
STABILIZE,0.03608894348144531,27.718107322231035,0.03276255925496419,0.03452897071838379,-10.0,40.0,10.0,0.4749275989833163,-0.7565173019993129,4.302766460108742,4.000589536703091,3.9994103763957187,-0.0008503665016295928,0.5184938591056261,-0.03074274696177953,0.0244188496331389,0.7658747891853307,-0.008445113653300956,-0.1799384830519557,-0.06860852590762079,1.192144863307476,-0.0952606883748075,-6.604025512933731,-1.0865291580557823,13.920135796070099,0.0,0.0,0.0,0.0,0.0,0.0,0.0,0.0,0.0,0.0,0.0,0.0,0.0,0.0,0.0,0.0,False,0,3.523850440979004,0.029935791015625
STABILIZE,0.06966710090637207,29.77936185621175,0.032215150197347005,0.03264617919921875,-10.0,40.0,10.0,0.4751745530104946,-0.7567894957099085,4.304398875320376,4.000392342356643,2.9016303714507923,-0.0007857301348977004,0.5185355304948797,-0.03183262294325478,0.023936526457305297,0.7575082822078766,-0.007746495405837777,-0.11012036120519042,0.03467389033176005,1.2293421663343906,0.0268431953894722,-0.8022816851735115,1.0466529987752438,17.51149445772171,0.0,0.0,0.0,0.0,0.0,0.0,0.0,0.0,0.0,0.0,0.0,0.0,0.0,0.0,0.0,0.0,False,0,3.552830457687378,0.034926025390625
STABILIZE,0.10312938690185547,29.885454519544552,0.03242519696553548,0.03255176544189453,-10.0,40.0,10.0,0.4760156267737582,-0.7567875747192044,4.3048270428039705,3.503247184267081,2.0719942544747325,-0.0008338572749294222,0.5185645100752232,-0.028550611086819822,0.024194649860377473,0.7553858049008148,-0.008173097540233815,0.14827264240011573,0.0712709326762706,1.3580660335719585,-0.03153846519359999,3.9988569915294647,0.9283125400543213,15.204574167728424,0.0,0.0,0.0,0.0,0.0,0.0,0.0,0.0,0.0,0.0,0.0,0.0,0.0,0.0,0.0,0.0,False,0,3.581482172012329,0.0399150390625
STABILIZE,0.1367170810699463,29.77471107703666,0.03240993817647298,0.03262734413146973,-10.0,40.0,10.0,0.4756489309926931,-0.7568502203604982,4.3050874437660775,2.9883321958665965,1.6570911036292526,-0.0007839538834257833,0.5185943934499998,-0.028919985319172094,0.02586176173891295,0.7528448135122112,-0.007622950665633721,-0.046800365089438856,0.14349991688504815,1.1443372815847397,0.025873231821104358,-2.0654577761888504,-0.9205660782754421,16.806282103061676,0.0,0.0,0.0,0.0,0.0,0.0,0.0,0.0,0.0,0.0,0.0,0.0,0.0,0.0,0.0,0.0,False,0,3.6106185913085938,0.024947021484375
STABILIZE,0.1703171730041504,29.76203451407811,0.032321961720784505,0.0324556827545166,-10.0,40.0,10.0,0.47533292802187427,-0.7566058276542587,4.305654776354012,2.6829321629667793,1.409363928124856,-0.0006106629446626937,0.5186401942430735,-0.028002136262550922,0.024728423565762256,0.7423396008412974,-0.005850872290005988,-0.013200545799918473,0.0012367026101856027,1.2723245657980442,0.08382043501004688,-1.236403826624155,2.953066863119602,15.197974443435669,0.0,0.0,0.0,0.0,0.0,0.0,0.0,0.0,0.0,0.0,0.0,0.0,0.0,0.0,0.0,0.0,False,0,3.6389005184173584,0.034926025390625
STABILIZE,0.20465993881225586,29.115788304548232,0.03220656712849935,0.03339958190917969,-10.0,40.0,10.0,0.47567859962690034,-0.7561836365861873,4.306170455636348,1.4400092550449444,0.4117265181480672,-0.00044821396722997085,0.5186717398813326,-0.02752335978543896,0.02381668820352292,0.7393441474609009,-0.0041974255807145314,-0.013200545799918473,0.0012367026101856027,1.2723245657980442,0.08382043501004688,-1.236403826624155,2.953066863119602,15.197974443435669,0.0,0.0,0.0,0.0,0.0,0.0,0.0,0.0,0.0,0.0,0.0,0.0,0.0,0.0,0.0,0.0,False,1,3.6676337718963623,0.034926025390625
STABILIZE,0.23810386657714844,29.900154693927014,0.03238967259724935,0.03250885009765625,-10.0,40.0,10.0,0.4755082717844732,-0.7559457539040004,4.307372995817093,1.4453857363904097,0.4144910973372504,-0.0004098100369041687,0.51871052662644,-0.02575311881584708,0.027301508402423312,0.7323518189543582,-0.003788042371760513,0.06094565615057945,0.20263846963644028,1.1440766043961048,0.039411658934428065,0.3396893385797739,1.0736197233200073,17.012862861156464,0.0,0.0,0.0,0.0,0.0,0.0,0.0,0.0,0.0,0.0,0.0,0.0,0.0,0.0,0.0,0.0,False,0,3.724970579147339,0.02993701171875
STABILIZE,0.2715325355529785,29.914229268744965,0.03238561948140462,0.03250861167907715,-10.0,40.0,10.0,0.4753842611623551,-0.7570657982061767,4.3083778873987315,1.4522455563911283,0.41542814206459994,-0.0002520181942588734,0.5187473415248741,-0.026894470599557362,0.026969384271804123,0.7263482292048993,-0.0021954415156121383,-0.11857078643515706,0.03890919324476272,1.2725938111543655,0.08132248675420645,-2.4120520800352097,1.0723530314862728,19.003643095493317,0.0,0.0,0.0,0.0,0.0,0.0,0.0,0.0,0.0,0.0,0.0,0.0,0.0,0.0,0.0,0.0,False,0,3.7537574768066406,0.034925048828125
STABILIZE,0.3050074577331543,29.873534565034685,0.0323970635732015,0.032562255859375,-10.0,40.0,10.0,0.475399949253105,-0.7578790709650842,4.310076896954772,1.4595772500155137,0.4168972719415414,-0.00030515002544644727,0.5187726839358529,-0.029074986784465535,0.02654973052608106,0.7260948422967994,-0.0027086254928131177,-0.16937287291511893,0.025412483955733478,1.3931727036833763,-0.039936676366019906,-1.156575046479702,-0.9604607708752155,16.05069190263748,0.0,0.0,0.0,0.0,0.0,0.0,0.0,0.0,0.0,0.0,0.0,0.0,0.0,0.0,0.0,0.0,False,0,3.7825045585632324,0.034926025390625
STABILIZE,0.33844780921936035,29.90420510773004,0.0324132760365804,0.03253006935119629,-10.0,40.0,10.0,0.47448043503609205,-0.7584345040828238,4.310188741302431,1.466066230541298,0.4176202886550392,-0.0002515367742927999,0.5188002477189514,-0.03291403535151213,0.026112321468772473,0.7247229645849855,-0.0021580559439653493,-0.2648975932970643,0.024703412782400846,1.3249551877379417,0.022180335633368912,-12.253139168024063,0.9809278883039951,15.05325734615326,0.0,0.0,0.0,0.0,0.0,0.0,0.0,0.0,0.0,0.0,0.0,0.0,0.0,0.0,0.0,0.0,False,0,3.8110997676849365,0.034926025390625
STABILIZE,0.3719027042388916,29.890992018244013,0.03240969975789388,0.03253293037414551,-10.0,40.0,10.0,0.4746970800988284,-0.7586532835796758,4.310712531434406,1.472630211586633,0.4184507249160747,-0.00019813424745067625,0.5188277074311614,-0.036752732885523234,0.025671627181770316,0.7234040023600888,-0.0016132391417762585,-0.2648975932970643,0.024703412782400846,1.3249551877379417,0.022180335633368912,-12.253139168024063,0.9809278883039951,15.05325734615326,0.0,0.0,0.0,0.0,0.0,0.0,0.0,0.0,0.0,0.0,0.0,0.0,0.0,0.0,0.0,0.0,False,0,3.842376470565796,0.034926025390625
STABILIZE,0.4054379463195801,29.819376213057296,0.03239277203877767,0.03256678581237793,-10.0,40.0,10.0,0.47452419093546244,-0.7591913744202258,4.312110585780143,1.4804209245148627,0.42056158115660863,-0.00022152627281797583,0.5188579970660582,-0.034823061807870405,0.025505887741918636,0.7206865460915142,-0.0018348725896934843,0.06586395902559161,0.04058116755913943,1.2415489181876183,-0.021468058293716993,-1.367323100566864,-0.908934697508812,18.154580891132355,0.0,0.0,0.0,0.0,0.0,0.0,0.0,0.0,0.0,0.0,0.0,0.0,0.0,0.0,0.0,0.0,False,1,3.8698902130126953,0.029935791015625
STABILIZE,0.43884849548339844,29.931307134038864,0.03235677083333333,0.03248262405395508,-10.0,40.0,10.0,0.4749178873080902,-0.760135221186157,4.31241196787727,1.487731782840993,0.42332979783813107,8.630447307651803e-05,0.5188960724412086,-0.033336124390315997,0.023272934316864533,0.7140754209093381,0.0012351702532258557,-0.012639252236112952,-0.012033364328090101,1.28552271053195,0.08169032979360866,1.716579683125019,0.9518439881503582,19.595159590244293,0.0,0.0,0.0,0.0,0.0,0.0,0.0,0.0,0.0,0.0,0.0,0.0,0.0,0.0,0.0,0.0,False,0,3.927424669265747,0.034926025390625
STABILIZE,0.47235798835754395,29.840803665442955,0.03239134152730306,0.03252887725830078,-10.0,40.0,10.0,0.47489216737699685,-0.7613990729868738,4.314150251021038,1.4941845770646653,0.4251467332681925,-0.00016039167600329516,0.5189242625541922,-0.03563166160883166,0.023656825847566766,0.7124110141847955,-0.0012236027950054307,-0.1845227205194533,0.07177552906796336,1.2742218561470509,-0.15071760892793268,-5.026635900139809,0.8767315186560154,15.43000191450119,0.0,0.0,0.0,0.0,0.0,0.0,0.0,0.0,0.0,0.0,0.0,0.0,0.0,0.0,0.0,0.0,False,0,3.9560675621032715,0.064862060546875
STABILIZE,0.5057904720306396,29.912522554004806,0.03231981595357259,0.03244423866271973,-10.0,40.0,10.0,0.47531062318536593,-0.7620051455540067,4.315319920916403,1.5009118367109289,0.42764966058118514,-0.0004424294233408736,0.5189128958360807,-0.036858280689674755,0.023212285338332105,0.7305017824586493,-0.004017095454338256,-0.041637406684458256,-0.00442141572420951,1.322324015200138,-0.15962627001910526,1.1643048375844955,-1.1117508634924889,16.21343195438385,0.0,0.0,0.0,0.0,0.0,0.0,0.0,0.0,0.0,0.0,0.0,0.0,0.0,0.0,0.0,0.0,False,0,3.9851608276367188,0.034925048828125
STABILIZE,0.5394141674041748,29.739454745275996,0.0323517640431722,0.03271484375,-10.0,40.0,10.0,0.47469900108953245,-0.762726210759119,4.316931845560526,1.5071129694362617,0.43051141278860594,-0.0006259881697607276,0.5189502246758364,-0.036930815995169584,0.024435371488225097,0.7243216887533085,-0.005813559969011601,-0.067062460584566,0.11752152349799871,1.1478393338620663,-0.10130490553227293,-1.4405034482479095,0.9593268856406212,19.03405636548996,0.0,0.0,0.0,0.0,0.0,0.0,0.0,0.0,0.0,0.0,0.0,0.0,0.0,0.0,0.0,0.0,False,0,4.013753175735474,0.029937255859375
STABILIZE,0.5728785991668701,29.884602778767366,0.03241470654805501,0.032527923583984375,-10.0,40.0,10.0,0.47554391683420416,-0.7635882553375686,4.318477602747064,1.513386349729211,0.43204923774436094,-0.0008008506948465629,0.518993106231603,-0.0367685058070977,0.025554948779677976,0.7153004326406317,-0.007511944093310135,-0.067062460584566,0.11752152349799871,1.1478393338620663,-0.10130490553227293,-1.4405034482479095,0.9593268856406212,19.03405636548996,0.0,0.0,0.0,0.0,0.0,0.0,0.0,0.0,0.0,0.0,0.0,0.0,0.0,0.0,0.0,0.0,False,0,4.042746543884277,0.029937255859375
STABILIZE,0.6076304912567139,28.77442458752101,0.03238395055135091,0.03372597694396973,-10.0,40.0,10.0,0.47636172526560744,-0.7637754985703622,4.318334168774494,1.5201292322316855,0.43356150514042424,-0.0008430740641809783,0.5190251403538485,-0.037487445030800155,0.024084974518200273,0.712167854163223,-0.007879523705463805,-0.11533733922988176,-0.02609850198496133,1.4394955709576607,-0.029833879428432238,-2.980213053524494,0.9879881516098976,23.059174418449402,0.0,0.0,0.0,0.0,0.0,0.0,0.0,0.0,0.0,0.0,0.0,0.0,0.0,0.0,0.0,0.0,False,1,4.071143865585327,0.0349248046875
STABILIZE,0.6410558223724365,29.918283496918512,0.03229668935139974,0.03243398666381836,-10.0,40.0,10.0,0.4757406049379594,-0.7643076663562414,4.318199272538386,1.5271916245437445,0.4364702398652524,-0.0006527507826058033,0.5190627208969508,-0.036380232845527716,0.023261866838691688,0.7058152874747752,-0.0059365685847234725,0.08006113930605352,0.03591582353692502,1.1055008508265018,-0.1706696320301713,2.2202610969543457,0.9019456803798676,17.25836843252182,0.0,0.0,0.0,0.0,0.0,0.0,0.0,0.0,0.0,0.0,0.0,0.0,0.0,0.0,0.0,0.0,False,0,4.128582954406738,0.06486181640625
STABILIZE,0.6744077205657959,29.982229275231784,0.032312901814778645,0.03241729736328125,-10.0,40.0,10.0,0.4758891615524072,-0.7636127479690454,4.318112187626469,1.5336528528305489,0.43911498838867824,-0.001007980219908161,0.5190613480807397,-0.034777357306732905,0.023594121670884066,0.7189050662121416,-0.009425878650793067,0.08006113930605352,0.03591582353692502,1.1055008508265018,-0.1706696320301713,2.2202610969543457,0.9019456803798676,17.25836843252182,0.0,0.0,0.0,0.0,0.0,0.0,0.0,0.0,0.0,0.0,0.0,0.0,0.0,0.0,0.0,0.0,False,0,4.15720534324646,0.06486181640625
STABILIZE,0.7078657150268555,29.887584083912895,0.032408746083577473,0.032541513442993164,-10.0,40.0,10.0,0.47677932730033024,-0.7634599758472194,4.318897232494197,1.540222186144715,0.4397760053895199,-0.0011613059845822227,0.5190559972263568,-0.039494332392639046,0.02507781692223827,0.733985713602691,-0.010886264347307675,-0.2562600653618574,0.09512155083939433,1.3364077545702457,-0.05013785737612485,-4.221951216459274,1.0444212704896927,21.566040813922882,0.0,0.0,0.0,0.0,0.0,0.0,0.0,0.0,0.0,0.0,0.0,0.0,0.0,0.0,0.0,0.0,False,0,4.185861825942993,0.03492626953125
STABILIZE,0.7416403293609619,29.613471246513928,0.03240516980489095,0.03254127502441406,-10.0,40.0,10.0,0.4773753680271196,-0.7633352715340137,4.319961034457426,1.5472108821243502,0.44287446672441916,-0.0009820003636552702,0.519084846243415,-0.03559549020978442,0.025137811426604127,0.7319653295016033,-0.009032761933993109,0.11204286711290479,0.056040927302092314,1.4826505444943905,0.07573515855940462,-2.2114045917987823,-0.9007983841001987,23.707853257656097,0.0,0.0,0.0,0.0,0.0,0.0,0.0,0.0,0.0,0.0,0.0,0.0,0.0,0.0,0.0,0.0,False,0,4.214813947677612,0.034926025390625
STABILIZE,0.7748587131500244,30.100571969887255,0.0320613702138265,0.032187700271606445,-10.0,40.0,10.0,0.4772829470299129,-0.7633715035531266,4.320844690181297,1.5534333558874942,0.4461540562323326,-0.0008039453241578602,0.5191127666927372,-0.031781103365213025,0.02520919373222364,0.7304043347295177,-0.0072040301355341865,0.11204286711290479,0.056040927302092314,1.4826505444943905,0.07573515855940462,-2.2114045917987823,-0.9007983841001987,23.707853257656097,0.0,0.0,0.0,0.0,0.0,0.0,0.0,0.0,0.0,0.0,0.0,0.0,0.0,0.0,0.0,0.0,False,0,4.243173837661743,0.034926025390625
STABILIZE,0.8094289302825928,28.92503758465167,0.03229883511861165,0.033599138259887695,-10.0,40.0,10.0,0.47753449009043974,-0.7631612084318842,4.324132572493012,1.560757190714985,0.4466566620693937,-0.0009828109195210593,0.5191356661024269,-0.036398887683977435,0.023228466038513345,0.7317789382214177,-0.008930898291566226,-0.30426005832850933,-0.04682404105551541,1.6096487641334534,-0.10021609733935753,-3.877784311771393,-0.9424012154340744,23.380911350250244,0.0,0.0,0.0,0.0,0.0,0.0,0.0,0.0,0.0,0.0,0.0,0.0,0.0,0.0,0.0,0.0,False,1,4.27190089225769,0.029935791015625
STABILIZE,0.8427963256835938,29.97066032140739,0.03235772450764974,0.03247261047363281,-10.0,40.0,10.0,0.477596388679793,-0.7628029970264287,4.324234598443739,1.5681891898297473,0.44804102402606816,-0.0013437794210085325,0.519181353701531,-0.03687445802160169,0.021368265234185755,0.7213440985638229,-0.012457283562511018,-0.12290631420910358,-0.033039209665730596,1.2565935030579567,-0.1107918381862223,-0.8732572197914124,-1.0192166082561016,19.801266491413116,0.0,0.0,0.0,0.0,0.0,0.0,0.0,0.0,0.0,0.0,0.0,0.0,0.0,0.0,0.0,0.0,False,0,4.330644369125366,0.064863037109375
STABILIZE,0.8778767585754395,28.504757244603926,0.032428773244222005,0.03421425819396973,-10.0,40.0,10.0,0.478358168215661,-0.7628350135381632,4.325129780111833,1.576076547911188,0.4506050757427731,-0.0016197265395640804,0.5191766961063097,-0.03906249493842387,0.020096532129279653,0.7366772699392498,-0.015110688573016198,-0.12290631420910358,-0.033039209665730596,1.2565935030579567,-0.1107918381862223,-0.8732572197914124,-1.0192166082561016,19.801266491413116,0.0,0.0,0.0,0.0,0.0,0.0,0.0,0.0,0.0,0.0,0.0,0.0,0.0,0.0,0.0,0.0,False,0,4.359356880187988,0.064863037109375
STABILIZE,0.9114160537719727,29.817680304269008,0.03246191342671712,0.03258085250854492,-10.0,40.0,10.0,0.4794858964806536,-0.762520611392931,4.326973077414091,1.5829899518989081,0.4528740212154496,-0.0009645790496796725,0.5191768924013607,-0.03540790537088711,0.019321608120102328,0.7489600603609169,-0.008502319159282462,0.14261790784075856,0.0009636703907744959,1.2384393252432346,0.3152538378051383,2.4672800675034523,-1.037462241947651,18.946729600429535,0.0,0.0,0.0,0.0,0.0,0.0,0.0,0.0,0.0,0.0,0.0,0.0,0.0,0.0,0.0,0.0,False,0,4.387898921966553,0.034926025390625
STABILIZE,0.9448800086975098,29.88204784770807,0.03235653241475423,0.032495737075805664,-10.0,40.0,10.0,0.47983188825079703,-0.7631048060103787,4.327761964263227,1.5897987979945452,0.4547683736096277,-0.0007575249670996528,0.5192192002494782,-0.03272706954917389,0.018976855808390685,0.7401995934141121,-0.006389022511001988,0.04191719344817102,0.03257227363064885,1.2593875639140606,0.07540863683045966,-2.098040282726288,-1.0160821489989758,19.17998343706131,0.0,0.0,0.0,0.0,0.0,0.0,0.0,0.0,0.0,0.0,0.0,0.0,0.0,0.0,0.0,0.0,False,0,4.416652202606201,0.0349248046875
STABILIZE,0.9784305095672607,29.80411997527162,0.03235510190327962,0.03262782096862793,-10.0,40.0,10.0,0.4799086211572539,-0.7624411570829768,4.328960662462564,1.5960295014306953,0.4586140953507079,-0.0005574246977521523,0.5192600815642612,-0.030165574150859787,0.01866466357594474,0.7322118722738475,-0.004358736097394045,0.04191719344817102,0.03257227363064885,1.2593875639140606,0.07540863683045966,-2.098040282726288,-1.0160821489989758,19.17998343706131,0.0,0.0,0.0,0.0,0.0,0.0,0.0,0.0,0.0,0.0,0.0,0.0,0.0,0.0,0.0,0.0,False,0,4.445363998413086,0.0349248046875
STABILIZE,1.0118722915649414,29.90335229784261,0.032399924596150716,0.03253030776977539,-10.0,40.0,10.0,0.4797773534591427,-0.7626673537383805,4.3296816743068245,1.6026422665529445,0.4604107524919813,-0.0006976314006945431,0.5193202421365402,-0.031163106640309083,0.017248157447185147,0.7145513129758331,-0.005722532338361992,-0.28176307678222656,0.05332411383278668,1.2941806577146053,-0.05205340527319608,-2.678951993584633,-0.9243207983672619,19.146151840686798,0.0,0.0,0.0,0.0,0.0,0.0,0.0,0.0,0.0,0.0,0.0,0.0,0.0,0.0,0.0,0.0,False,0,4.50296950340271,0.034925048828125
STABILIZE,1.0453262329101562,29.891418064681652,0.032393487294514973,0.03250312805175781,-10.0,40.0,10.0,0.4795292254932008,-0.7625560963601034,4.329829804034449,1.6093084552310197,0.46308896954848405,-0.0007605858910196374,0.5193488265686049,-0.030458862225256796,0.01623238766578817,0.7126797328377048,-0.006309883817044785,-0.03726209979504347,-0.007786857167957351,1.4509416185319424,-0.047477712137816444,-0.968387071043253,1.2140072882175446,23.97116869688034,0.0,0.0,0.0,0.0,0.0,0.0,0.0,0.0,0.0,0.0,0.0,0.0,0.0,0.0,0.0,0.0,False,0,4.532219409942627,0.03492578125
STABILIZE,1.0787346363067627,29.931734330509745,0.0323970635732015,0.03250861167907715,-10.0,40.0,10.0,0.47908163465915343,-0.7630379448617066,4.33138409895745,1.615227776781752,0.4653243537012709,-0.00033366112624652166,0.5193835086733104,-0.026919663178150192,0.017725368901809375,0.7077665075305875,-0.0020270806512769886,0.10943852830678225,0.11811116710305214,1.2753558345139027,0.20098018395747638,1.9320612773299217,1.1945855803787708,21.577216684818268,0.0,0.0,0.0,0.0,0.0,0.0,0.0,0.0,0.0,0.0,0.0,0.0,0.0,0.0,0.0,0.0,False,0,4.560284852981567,0.06486181640625
STABILIZE,1.1122560501098633,29.83464807767543,0.03241756757100423,0.032553911209106445,-10.0,40.0,10.0,0.4799131034688967,-0.7626525727821297,4.333069875021973,1.621124427644038,0.46776667991647863,0.00015377302357616718,0.5193793141754204,-0.023540185980340675,0.01967170989984716,0.722281637646994,0.0028283327556342603,0.10943852830678225,0.11811116710305214,1.2753558345139027,0.20098018395747638,1.9320612773299217,1.1945855803787708,21.577216684818268,0.0,0.0,0.0,0.0,0.0,0.0,0.0,0.0,0.0,0.0,0.0,0.0,0.0,0.0,0.0,0.0,False,0,4.589052200317383,0.06486181640625
STABILIZE,1.1456317901611328,29.958458329762006,0.03234675725301107,0.032486915588378906,-10.0,40.0,10.0,0.4816434892064371,-0.7623557263574987,4.33354201184835,1.627053639900804,0.4698123706771247,0.0004211951310180864,0.5193697678689039,-0.021471345488750355,0.021599786979608907,0.7394477529282236,0.005465979512073107,0.02979062555823475,0.10632930789142847,1.4987723901867867,0.07762849500146009,-0.21285559050738811,-0.8360737003386021,19.244204461574554,0.0,0.0,0.0,0.0,0.0,0.0,0.0,0.0,0.0,0.0,0.0,0.0,0.0,0.0,0.0,0.0,False,0,4.6176581382751465,0.03492626953125
STABILIZE,1.183222770690918,26.60600716800406,0.032449992497762044,0.03657078742980957,-10.0,40.0,10.0,0.4814251365964083,-0.7621259011640983,4.33373709912652,1.634582723577717,0.4722673823796212,4.913190782931292e-05,0.5194209105485179,-0.021155242016336537,0.02015360032900544,0.7277645695565952,0.0017323733472907237,-0.046821069554425776,-0.01988347648875788,1.137499138712883,-0.17335349616758963,-2.123006246984005,1.0820085182785988,18.82883310317993,0.0,0.0,0.0,0.0,0.0,0.0,0.0,0.0,0.0,0.0,0.0,0.0,0.0,0.0,0.0,0.0,False,1,4.64660120010376,0.02993603515625
STABILIZE,1.2165725231170654,29.98180063619143,0.03226950963338216,0.032396554946899414,-10.0,40.0,10.0,0.4817156330795454,-0.762743286232044,4.334957568553836,1.6417705635399624,0.4746440486734015,0.0009170762209160071,0.5194506727474235,-0.02009616944342592,0.017526651920805807,0.7252902483196209,0.010342639737951756,-0.03325148718431592,-0.01840901531977579,1.5580147504806519,0.20264621650643058,-1.7609568312764168,-0.8338438346982002,19.857607781887054,0.0,0.0,0.0,0.0,0.0,0.0,0.0,0.0,0.0,0.0,0.0,0.0,0.0,0.0,0.0,0.0,False,0,4.703878164291382,0.040027587890625
STABILIZE,1.2506637573242188,29.333053591535013,0.032386096318562825,0.03311324119567871,-10.0,40.0,10.0,0.48127305816566973,-0.762864895615782,4.335439096890322,1.6490534338424618,0.476614443073832,0.0008166698420977682,0.5194891272133579,-0.01716303817035323,0.017473170783928495,0.7187101465038916,0.009275380555478017,0.0862425658851862,0.03642553638201207,1.1082160286605358,-0.05631248178794861,-4.4312965124845505,1.0683420114219189,16.762639582157135,0.0,0.0,0.0,0.0,0.0,0.0,0.0,0.0,0.0,0.0,0.0,0.0,0.0,0.0,0.0,0.0,False,0,4.73296046257019,0.02993701171875
STABILIZE,1.2841424942016602,29.870981526058657,0.03234818776448568,0.03248190879821777,-10.0,40.0,10.0,0.48102770496407815,-0.7633664342721019,4.336525096968354,1.655680458018006,0.47819519722115483,0.0013114705417246338,0.5195361336710763,-0.016288283343275447,0.01926532648129021,0.7076363366884939,0.014128893863799643,-0.007803064363542944,0.13363825855776668,1.2017207220196724,0.2543462128509314,-3.1869985163211823,1.2124581262469292,21.22056782245636,0.0,0.0,0.0,0.0,0.0,0.0,0.0,0.0,0.0,0.0,0.0,0.0,0.0,0.0,0.0,0.0,False,0,4.761779546737671,0.02993603515625
STABILIZE,1.3175239562988281,29.95546286905969,0.03231409390767415,0.032436370849609375,-10.0,40.0,10.0,0.481475082354714,-0.76385132434232,4.339094101869925,1.6628833485069139,0.4797313581742143,0.0017889228401450153,0.5195740245558995,-0.0166820210055121,0.01933187662752957,0.7011352168479353,0.018777768922645256,-0.06970496033318341,0.04956931807100773,1.3791670091450214,0.25711638816790044,5.814091861248016,-0.7426427211612463,20.2560693025589,0.0,0.0,0.0,0.0,0.0,0.0,0.0,0.0,0.0,0.0,0.0,0.0,0.0,0.0,0.0,0.0,False,0,4.790931224822998,0.03492578125
STABILIZE,1.350966215133667,29.90228635388224,0.03236440022786458,0.03249859809875488,-10.0,40.0,10.0,0.4813162804565112,-0.7644309832872719,4.339973488725564,1.6693062183137064,0.4817065292733942,0.0021833064757270505,0.5196113325260929,-0.016940394283352603,0.01885535477290111,0.6949230415481216,0.022570708908412125,-0.06267176358960569,0.015608182002324611,1.1798309162259102,0.20692174150408665,0.15219049528241158,1.0459366254508495,10.99509596824646,0.0,0.0,0.0,0.0,0.0,0.0,0.0,0.0,0.0,0.0,0.0,0.0,0.0,0.0,0.0,0.0,False,0,4.819406986236572,0.034925048828125
STABILIZE,1.384890079498291,29.47943125830235,0.032395394643147786,0.03296065330505371,-10.0,40.0,10.0,0.4803412709524919,-0.7648784673996135,4.34018052883478,1.6751253286670862,0.48208043978598997,0.001954754515249161,0.5196594180443084,-0.021764936848134086,0.019422997991941717,0.6835043962657935,0.020148679166107845,-0.3010499058291316,0.06957547157071531,0.882131140679121,-0.11354417096800605,-9.765516221523285,-0.9288043715059757,13.084505498409271,0.0,0.0,0.0,0.0,0.0,0.0,0.0,0.0,0.0,0.0,0.0,0.0,0.0,0.0,0.0,0.0,False,1,4.847954273223877,0.02993701171875
STABILIZE,1.4183828830718994,29.85737268469084,0.0323517640431722,0.03250527381896973,-10.0,40.0,10.0,0.47910511343442536,-0.7637933744560805,4.340768778877047,1.6821350415919885,0.4840419635152257,0.0023816647231703365,0.5197183918273659,-0.01989287878452966,0.018324071490407746,0.6665191011138875,0.024255338925824776,0.0952322909142822,0.04941860679537058,1.1025025509297848,0.2590217975029225,1.1682000942528248,1.107179094105959,15.839962661266327,0.0,0.0,0.0,0.0,0.0,0.0,0.0,0.0,0.0,0.0,0.0,0.0,0.0,0.0,0.0,0.0,False,0,4.905466556549072,0.034925048828125
STABILIZE,1.452735185623169,29.110736321930027,0.03233030637105306,0.03304409980773926,-10.0,40.0,10.0,0.47880095657294824,-0.7641213302579469,4.340928434548896,1.6893685301215327,0.4867134197360123,0.0028408184025944605,0.5197549168977464,-0.01731444052580603,0.01853412747101585,0.6609729318021665,0.028651808888028332,0.0952322909142822,0.04941860679537058,1.1025025509297848,0.2590217975029225,1.1682000942528248,1.107179094105959,15.839962661266327,0.0,0.0,0.0,0.0,0.0,0.0,0.0,0.0,0.0,0.0,0.0,0.0,0.0,0.0,0.0,0.0,False,0,4.934074401855469,0.034925048828125
STABILIZE,1.4858384132385254,30.207882000460934,0.03195169766743978,0.03207540512084961,-10.0,40.0,10.0,0.4791653044764861,-0.7635931645360345,4.3426914771284055,1.6959959522324741,0.4902214739948498,0.002639528833038097,0.5197912780672017,-0.012043870813117887,0.01880847907445845,0.6552869759817718,0.0264620041099458,0.24558771401643753,0.052684335969388485,1.075809821486473,-0.09880855810201923,4.4615983963012695,-1.0358743369579315,11.367633938789368,0.0,0.0,0.0,0.0,0.0,0.0,0.0,0.0,0.0,0.0,0.0,0.0,0.0,0.0,0.0,0.0,False,0,4.962897300720215,0.034926025390625
STABILIZE,1.5192687511444092,29.91060273269247,0.032352717717488606,0.03248333930969238,-10.0,40.0,10.0,0.47997969781330435,-0.7636425233249585,4.344025071563851,1.7026881441717086,0.492752025329604,0.002971943677092601,0.5198170687564323,-0.010726806077237746,0.01828418716784502,0.65489676366595,0.029588185675743943,0.029957375954836607,0.008246584184234962,1.3510174117982388,0.19808559781199256,0.765396049246192,-0.9775142185389996,13.396653532981873,0.0,0.0,0.0,0.0,0.0,0.0,0.0,0.0,0.0,0.0,0.0,0.0,0.0,0.0,0.0,0.0,False,0,4.991501331329346,0.02993701171875
STABILIZE,1.5643632411956787,22.17636173295124,0.032379897435506184,0.04399919509887695,-10.0,40.0,10.0,0.48078501980513116,-0.7641445422289544,4.345003496162455,1.7118000721571438,0.4969309662524255,0.0030558622917205205,0.5198543616455873,-0.009239912845064155,0.018407689006202068,0.6530512334387326,0.030156345315186198,0.045651537948288023,0.049039849545806646,1.4239080250263214,0.07700670099304431,3.018414042890072,1.224268414080143,22.18996435403824,0.0,0.0,0.0,0.0,0.0,0.0,0.0,0.0,0.0,0.0,0.0,0.0,0.0,0.0,0.0,0.0,False,1,5.020148754119873,0.034925048828125
STABILIZE,1.6008563041687012,27.40515393863363,0.03222158749898275,0.03249359130859375,-10.0,40.0,10.0,0.48068683583581223,-0.7641055354454913,4.346533031649715,1.7180731529370337,0.4986540322581102,0.0032431655711850113,0.5198872121242155,-0.008867902871475423,0.018704732800985203,0.649190751676445,0.03181562356419266,-0.10097379563376307,0.0400202174205333,0.9959201328456402,0.07662153568677245,-4.977857694029808,-1.0323590599000454,10.754991322755814,0.0,0.0,0.0,0.0,0.0,0.0,0.0,0.0,0.0,0.0,0.0,0.0,0.0,0.0,0.0,0.0,False,0,5.0845866203308105,0.03492578125
STABILIZE,1.6316087245941162,32.515244776929336,0.029305489857991536,0.029718637466430664,-10.0,40.0,10.0,0.4810155386896191,-0.7642922984306089,4.347378267559504,1.7248103189098878,0.5003726021701805,0.003443497454315047,0.5199094359300767,-0.007983042171809151,0.01885663678606413,0.6506918765641971,0.03359234743940623,0.016103131929412484,0.04452049033716321,1.3903978280723095,0.1353761102577981,0.2825438277795911,1.11392205581069,19.892913103103638,0.0,0.0,0.0,0.0,0.0,0.0,0.0,0.0,0.0,0.0,0.0,0.0,0.0,0.0,0.0,0.0,False,0,5.113121032714844,0.029936279296875
STABILIZE,1.6731927394866943,24.04687482083682,0.03228786786397298,0.04059934616088867,-10.0,40.0,10.0,0.48129888481846883,-0.7645706820001398,4.347653182673597,1.7335862607933885,0.5015607706627311,0.0034092584886727725,0.519946704811819,-0.008125321556881815,0.017527786691514762,0.6476331486632395,0.03297536694475793,-0.03835381066892296,-0.035540523822419345,1.2974180281162262,0.01855252801347358,7.231179624795914,-0.9651735424995422,18.044213950634003,0.0,0.0,0.0,0.0,0.0,0.0,0.0,0.0,0.0,0.0,0.0,0.0,0.0,0.0,0.0,0.0,False,0,5.141690492630005,0.034926025390625
STABILIZE,1.7066295146942139,29.906763829271423,0.03235510190327962,0.03251814842224121,-10.0,40.0,10.0,0.48137647149857193,-0.7658906694180976,4.348499272357032,1.739562306897107,0.5034262598920559,0.00338017380111182,0.5199704521133965,-0.007458594472237224,0.01920633081960326,0.6482775901174126,0.03246721911328257,0.007704351446591318,0.1326961093582213,1.3045073486864567,0.007986292068529967,-6.987237185239792,1.1417494155466557,22.846831381320953,0.0,0.0,0.0,0.0,0.0,0.0,0.0,0.0,0.0,0.0,0.0,0.0,0.0,0.0,0.0,0.0,False,1,5.170710802078247,0.03492578125
STABILIZE,1.7400145530700684,29.95268190614935,0.03236392339070638,0.032492637634277344,-10.0,40.0,10.0,0.48092546556993954,-0.7657811195871129,4.350558574391791,1.746488355560266,0.5048563445277281,0.0030728216555059957,0.5199974715654718,-0.008218470526234697,0.018632004250850587,0.6472663492210662,0.029198600539836313,-0.05043559358455241,0.06454362883232534,1.3873337768018246,0.009071558434834748,-2.929847128689289,0.8884814567863941,13.372838497161865,0.0,0.0,0.0,0.0,0.0,0.0,0.0,0.0,0.0,0.0,0.0,0.0,0.0,0.0,0.0,0.0,False,0,5.227690696716309,0.044905029296875
STABILIZE,1.781071662902832,24.35829771417952,0.032428773244222005,0.04002690315246582,-10.0,40.0,10.0,0.4796265556888735,-0.7656845898042336,4.350846722997401,1.7546035155986726,0.5068166710583456,0.003101854281166195,0.5200102575971446,-0.009961364843639107,0.019185581603258752,0.6561723968148253,0.029249469526575242,-0.12664035893976688,0.054867600556463,1.3775491155683994,0.024019911016136975,-1.7246764153242111,0.9877974167466164,17.132370173931122,0.0,0.0,0.0,0.0,0.0,0.0,0.0,0.0,0.0,0.0,0.0,0.0,0.0,0.0,0.0,0.0,False,0,5.256381511688232,0.024947021484375
STABILIZE,1.8148093223571777,29.640258079105628,0.03226188023885091,0.03260946273803711,-10.0,40.0,10.0,0.4802155527830813,-0.7668886774497129,4.3510324187654605,1.7607838120787194,0.5085979181659478,0.003138147472860813,0.5200518747956082,-0.010086306424724646,0.0209651809751487,0.647955633366167,0.029414380011921655,-0.034478248562663794,0.15230524586513638,1.162059511989355,0.07923245553828916,2.390531450510025,0.8750289678573608,10.19398495554924,0.0,0.0,0.0,0.0,0.0,0.0,0.0,0.0,0.0,0.0,0.0,0.0,0.0,0.0,0.0,0.0,False,0,5.285097360610962,0.02993603515625
STABILIZE,1.8481574058532715,29.984372654289658,0.032195361455281575,0.032372474670410156,-10.0,40.0,10.0,0.4804621866451423,-0.7672162063647561,4.351758126364775,1.7665339272851899,0.5106029285462449,0.0031953107541657167,0.5200853705397516,-0.010245246690937184,0.022827838365780832,0.6437428095779166,0.02978648059490752,-0.034478248562663794,0.15230524586513638,1.162059511989355,0.07923245553828916,2.390531450510025,0.8750289678573608,10.19398495554924,0.0,0.0,0.0,0.0,0.0,0.0,0.0,0.0,0.0,0.0,0.0,0.0,0.0,0.0,0.0,0.0,False,0,5.313753128051758,0.02993603515625
STABILIZE,1.881690263748169,29.824040957087497,0.032366307576497395,0.03250837326049805,-10.0,40.0,10.0,0.47958824259649796,-0.7674559566767941,4.352129091014071,1.7740475682524566,0.5121915920427913,0.00310829698413553,0.5201128148891121,-0.011068689190376986,0.02189709926557826,0.6425530828580663,0.028723992383324425,-0.04066984110977501,0.001023378354148008,1.3776029460132122,0.012962925312317285,-4.63348925113678,1.0634474456310272,17.882797122001648,0.0,0.0,0.0,0.0,0.0,0.0,0.0,0.0,0.0,0.0,0.0,0.0,0.0,0.0,0.0,0.0,False,0,5.371365308761597,0.034925048828125
STABILIZE,1.9149913787841797,30.02558504126966,0.03228357632954915,0.03240060806274414,-10.0,40.0,10.0,0.479867533300528,-0.7667500993147557,4.353507081679121,1.7801546305891862,0.5143860596514596,0.002855929965996602,0.5201385916489145,-0.010741341975942379,0.023152926354740175,0.6421662553696539,0.02602647250603634,-0.0015464747775695287,0.10911334538832307,1.1579959653317928,-0.11465425013090502,-0.0488166231662035,-0.9965647011995316,11.976610869169235,0.0,0.0,0.0,0.0,0.0,0.0,0.0,0.0,0.0,0.0,0.0,0.0,0.0,0.0,0.0,0.0,False,0,5.4000513553619385,0.029937255859375
STABILIZE,1.9484903812408447,29.852485035693697,0.03243568738301595,0.03256487846374512,-10.0,40.0,10.0,0.4804575976117937,-0.7663687826599985,4.353785838774622,1.78703786576014,0.5170244722153119,0.002722477143623959,0.5201729608444943,-0.009538898019600681,0.02301202943306758,0.6375133550970378,0.024527791915153144,0.04866832459811121,0.03475849225651473,1.0929551906883717,-0.034156585425203646,1.3584231957793236,-0.7677772082388401,18.713995814323425,0.0,0.0,0.0,0.0,0.0,0.0,0.0,0.0,0.0,0.0,0.0,0.0,0.0,0.0,0.0,0.0,False,0,5.428903102874756,0.03492578125
STABILIZE,1.9832687377929688,28.753515092101924,0.03238085110982259,0.0339198112487793,-10.0,40.0,10.0,0.4812236460158929,-0.76662779623993,4.355673959193307,1.7945382770363252,0.5194166085823807,0.0026005651084012532,0.5202014776796605,-0.00837419825411328,0.023021191269941225,0.6363027080372037,0.02314739875701674,0.04866832459811121,0.03475849225651473,1.0929551906883717,-0.034156585425203646,1.3584231957793236,-0.7677772082388401,18.713995814323425,0.0,0.0,0.0,0.0,0.0,0.0,0.0,0.0,0.0,0.0,0.0,0.0,0.0,0.0,0.0,0.0,False,0,5.457461833953857,0.03492578125
STABILIZE,2.016904354095459,29.73249780247824,0.03247121175130208,0.032605886459350586,-10.0,40.0,10.0,0.48133570380696344,-0.7670681299979843,4.355878011094762,1.8023106263120046,0.5212374435582694,0.0023480270851902563,0.520228295420988,-0.008888087618522097,0.021520143485745158,0.6354338553657601,0.020484862918548948,-0.052454875549301505,-0.05471229669637978,1.1171644553542137,-0.11032350999072026,1.4577056281268597,-0.8531408384442329,16.65263921022415,0.0,0.0,0.0,0.0,0.0,0.0,0.0,0.0,0.0,0.0,0.0,0.0,0.0,0.0,0.0,0.0,False,0,5.486113786697388,0.034925048828125
STABILIZE,2.050199270248413,30.033109927249814,0.032262357076009114,0.03237628936767578,-10.0,40.0,10.0,0.4814067804630139,-0.7668849421900105,4.356026994596033,1.8083994365066949,0.5234051711215133,0.00231166306860265,0.5202465122792748,-0.008956643326362757,0.02247185311880039,0.6388409734511329,0.01998760902809509,-0.02470614854246378,0.09387874160893261,1.3753293082118034,0.02028535501003375,0.04640677943825722,1.2557128444314003,18.07519942522049,0.0,0.0,0.0,0.0,0.0,0.0,0.0,0.0,0.0,0.0,0.0,0.0,0.0,0.0,0.0,0.0,False,1,5.5149986743927,0.064863037109375
STABILIZE,2.0837113857269287,29.838680762061948,0.03243211110432943,0.03255152702331543,-10.0,40.0,10.0,0.48037595550687084,-0.7679957017037838,4.356491447459594,1.815670894933925,0.5255232026845543,0.0020005639418969744,0.5202349333759718,-0.007917559537531966,0.021938229139637073,0.6571352350109091,0.01676442734490632,0.08158932323567569,-0.03919316513929516,1.231895387172699,0.014544540991998364,1.2584182433784008,-0.7453576195985079,19.474177062511444,0.0,0.0,0.0,0.0,0.0,0.0,0.0,0.0,0.0,0.0,0.0,0.0,0.0,0.0,0.0,0.0,False,0,5.572197914123535,0.029936767578125
STABILIZE,2.117159843444824,29.897383990305794,0.03235677083333333,0.03248429298400879,-10.0,40.0,10.0,0.48122460651124493,-0.7678166226814825,4.356729223420075,1.8220148975879336,0.5269545249026949,0.0017346105418535717,0.5202617289558207,-0.00863133079372689,0.022896736927431282,0.6562307230193737,0.014011223379668775,-0.06108391098678112,0.10242193238809705,1.405320130288601,-0.10652393712042299,-4.213514924049377,1.2703458778560162,21.52516543865204,0.0,0.0,0.0,0.0,0.0,0.0,0.0,0.0,0.0,0.0,0.0,0.0,0.0,0.0,0.0,0.0,False,0,5.602676153182983,0.034925048828125
STABILIZE,2.1505329608917236,29.965521429438954,0.032358678181966145,0.03246116638183594,-10.0,40.0,10.0,0.48140581996766185,-0.7677217470850428,4.3566848271904695,1.8283583375061172,0.5283966658704045,0.0014688709676557248,0.5202813006318653,-0.009374093419178147,0.023980694502694654,0.6589289429657901,0.01127846103332642,-0.06108391098678112,0.10242193238809705,1.405320130288601,-0.10652393712042299,-4.213514924049377,1.2703458778560162,21.52516543865204,0.0,0.0,0.0,0.0,0.0,0.0,0.0,0.0,0.0,0.0,0.0,0.0,0.0,0.0,0.0,0.0,False,0,5.6313605308532715,0.034925048828125
STABILIZE,2.186086893081665,28.1293022507176,0.0323822816212972,0.0345311164855957,-10.0,40.0,10.0,0.48134658942095315,-0.7683797931228913,4.358080747102091,1.8350446945275753,0.5305298910597125,0.0014183103642425585,0.5202990422520744,-0.00974670633396941,0.02386000908651101,0.6633083288498084,0.010696951930659454,-0.03975579747930169,0.03487231151666492,1.4947481453418732,0.012052262326777568,-1.4124934561550617,-0.9241978637874126,14.993058145046234,0.0,0.0,0.0,0.0,0.0,0.0,0.0,0.0,0.0,0.0,0.0,0.0,0.0,0.0,0.0,0.0,False,0,5.660314321517944,0.044905029296875
STABILIZE,2.2229392528533936,27.13126726307142,0.032301934560139973,0.03595089912414551,-10.0,40.0,10.0,0.4814893830632887,-0.7676473086952603,4.358752666961691,1.842966983913655,0.5332673181792711,0.0012554368628828743,0.5203135743121547,-0.00757010522246271,0.023091844630232568,0.6698357044261212,0.009001678005195026,0.1048450474627316,-0.014135123637970537,1.2445340864360332,-0.04432988538967318,5.507116764783859,1.0905921459197998,15.13940840959549,0.0,0.0,0.0,0.0,0.0,0.0,0.0,0.0,0.0,0.0,0.0,0.0,0.0,0.0,0.0,0.0,False,0,5.688632488250732,0.024947021484375
STABILIZE,2.256458044052124,29.836133676677715,0.03244784673055013,0.03257012367248535,-10.0,40.0,10.0,0.48170314663996894,-0.7675675342201886,4.360516136428023,1.848922662404461,0.5371650148539797,0.0014496203018559534,0.5203722962654738,-0.0001271393695636224,0.024755782417491223,0.6529864276816078,0.010870755662709081,0.19157967763021588,0.10056935716420412,1.0673660784959793,0.08567243680143187,3.6586500704288483,1.1067407205700874,17.147986590862274,0.0,0.0,0.0,0.0,0.0,0.0,0.0,0.0,0.0,0.0,0.0,0.0,0.0,0.0,0.0,0.0,False,0,5.746392250061035,0.02993603515625
STABILIZE,2.2898881435394287,29.912735882696943,0.03236440022786458,0.032488346099853516,-10.0,40.0,10.0,0.48284400167477265,-0.7683490572716262,4.361805761520687,1.8560114123106495,0.5389390889475577,0.0014365060346808677,0.5204009375557385,-0.0015508555151221247,0.024406344371350856,0.6511703735526698,0.010668265930679544,-0.09677925845608115,0.029714228003285825,1.3045892119407654,0.022360526895947624,-0.2735391492024064,-0.883103720843792,15.657435357570648,0.0,0.0,0.0,0.0,0.0,0.0,0.0,0.0,0.0,0.0,0.0,0.0,0.0,0.0,0.0,0.0,False,0,5.775108098983765,0.034926025390625
STABILIZE,2.323324203491211,29.906337345274085,0.03238037427266439,0.032562255859375,-10.0,40.0,10.0,0.4836692806255806,-0.7673123092608123,4.363532945607053,1.8628694661856973,0.5416641872920164,0.0014400076986753247,0.5204312092509854,0.00037700486372095523,0.02488662713339695,0.6485620474501597,0.010632067079580273,0.09338128729723394,0.06901725428178906,1.0549850761890411,0.03157428366610289,0.10940926149487495,1.144264079630375,17.732104659080505,0.0,0.0,0.0,0.0,0.0,0.0,0.0,0.0,0.0,0.0,0.0,0.0,0.0,0.0,0.0,0.0,False,0,5.80370306968689,0.064862060546875
STABILIZE,2.3568708896636963,29.810686719072056,0.032457621892293294,0.03258562088012695,-10.0,40.0,10.0,0.4836957476086144,-0.7672164198081677,4.364538690962338,1.8690691524996923,0.5444708709488661,0.0014424640711782706,0.5204246285707252,0.002938308072401049,0.026245875473863742,0.6643471886361407,0.010585790899792731,0.09338128729723394,0.06901725428178906,1.0549850761890411,0.03157428366610289,0.10940926149487495,1.144264079630375,17.732104659080505,0.0,0.0,0.0,0.0,0.0,0.0,0.0,0.0,0.0,0.0,0.0,0.0,0.0,0.0,0.0,0.0,False,0,5.832628488540649,0.064862060546875
STABILIZE,2.390286922454834,29.924687147729056,0.0323522408803304,0.03247880935668945,-10.0,40.0,10.0,0.4835944687098278,-0.7653784052303466,4.366979629816972,1.8750942720636528,0.5459515644373732,0.0012889155637833812,0.5204082858308008,0.0029248099257205506,0.027635970509041718,0.684976599328494,0.008990187820114296,-0.042645412031561136,0.07296383264474571,1.435517892241478,-0.04979653468060933,-4.022275656461716,1.1359230615198612,17.784112691879272,0.0,0.0,0.0,0.0,0.0,0.0,0.0,0.0,0.0,0.0,0.0,0.0,0.0,0.0,0.0,0.0,False,0,5.8674516677856445,0.034926025390625
STABILIZE,2.423686981201172,29.93942595275995,0.03238824208577474,0.03251957893371582,-10.0,40.0,10.0,0.4831004539337655,-0.7655399818928997,4.3677386345884885,1.8822060684215933,0.5458349747384263,0.0014262116864717064,0.5204352499326308,0.0015318940938217687,0.027813449411263735,0.6839610549203705,0.010294271275769077,-0.07372766267508268,0.06218383787199855,1.370448525995016,0.09265330367979481,1.1414505541324615,1.1368286795914173,17.290712893009186,0.0,0.0,0.0,0.0,0.0,0.0,0.0,0.0,0.0,0.0,0.0,0.0,0.0,0.0,0.0,0.0,False,0,5.8981335163116455,0.03492578125
STABILIZE,2.457217216491699,29.8244650970967,0.03244951566060384,0.03258562088012695,-10.0,40.0,10.0,0.4835311827382994,-0.7661616891899297,4.367996047342833,1.8888710670118656,0.5484009563178563,0.0014203664201803427,0.52047198265014,0.0023203378374421694,0.027572232833272814,0.6780727272295307,0.010167767386118028,0.03612278960645199,0.0410450913477689,1.1092470958828926,0.020404843299869305,1.2091584503650665,-0.8357619866728783,19.058172404766083,0.0,0.0,0.0,0.0,0.0,0.0,0.0,0.0,0.0,0.0,0.0,0.0,0.0,0.0,0.0,0.0,False,0,5.924628257751465,0.029936279296875
STABILIZE,2.4905827045440674,29.97066032140739,0.03237489064534505,0.03248143196105957,-10.0,40.0,10.0,0.4841402435131941,-0.7654615948000033,4.369596872929556,1.8959627432719464,0.5508433223608246,0.0015191462910841267,0.5205177192193656,0.0054182130346985755,0.026734751117596534,0.6676760982781039,0.01108151974830785,0.12774765491485596,0.035844475496560335,1.4360037632286549,0.08096907782551117,2.886340580880642,-0.7303817663341761,20.47286480665207,0.0,0.0,0.0,0.0,0.0,0.0,0.0,0.0,0.0,0.0,0.0,0.0,0.0,0.0,0.0,0.0,False,0,5.981884956359863,0.034926025390625
STABILIZE,2.524153232574463,29.788667774605475,0.03243735631306966,0.03257441520690918,-10.0,40.0,10.0,0.4841801574311564,-0.7657775977708222,4.370175731461714,1.9031287307340141,0.5521506499277753,0.0013919116625644775,0.5205412941398672,0.005250499500806344,0.02656518925368592,0.6683836432815468,0.00974393795018915,-0.01066213590092957,0.04198768874630332,1.3705851510167122,-0.04635563345312368,0.4678103607147932,-0.7355676963925362,20.60960978269577,0.0,0.0,0.0,0.0,0.0,0.0,0.0,0.0,0.0,0.0,0.0,0.0,0.0,0.0,0.0,0.0,False,0,6.010741710662842,0.02993603515625
STABILIZE,2.5583794116973877,29.21963997101934,0.03231623967488607,0.03325796127319336,-10.0,40.0,10.0,0.4849999935749695,-0.7653039668405641,4.371693314117926,1.9107664699872278,0.5541924713536107,0.0008332852642082415,0.5205804128064621,0.005868186357255073,0.02557226368922236,0.661613543434843,0.004129397226641842,0.037616092595271766,0.004634047581930645,1.1341772973537445,-0.27890898716889884,0.09193639270961285,1.150695700198412,16.953396797180176,0.0,0.0,0.0,0.0,0.0,0.0,0.0,0.0,0.0,0.0,0.0,0.0,0.0,0.0,0.0,0.0,False,0,6.039321184158325,0.034926025390625
STABILIZE,2.591826915740967,29.895253029223092,0.032349618275960286,0.03248739242553711,-10.0,40.0,10.0,0.4856322129600188,-0.7653675729772098,4.371187026345699,1.9174168305968364,0.5562648562557548,0.000616411426893197,0.520603974087826,0.0051554834976473415,0.02592553608029911,0.662342497793562,0.001947612836396856,-0.03883627650793642,0.06924381013959646,1.3395425863564014,-0.09529457251639312,-1.0018477216362953,1.2211785651743412,18.90847682952881,0.0,0.0,0.0,0.0,0.0,0.0,0.0,0.0,0.0,0.0,0.0,0.0,0.0,0.0,0.0,0.0,False,0,6.068056344985962,0.0399150390625
STABILIZE,2.625387191772461,29.797979510933658,0.03237346013387044,0.03249692916870117,-10.0,40.0,10.0,0.48627542468076357,-0.7653123978553208,4.372777179761843,1.9238857596307555,0.5578208742665057,0.0003906863873890441,0.5206208491267031,0.004485672022629469,0.026415501982793858,0.6663881465748845,-0.0003075807012909975,-0.03883627650793642,0.06924381013959646,1.3395425863564014,-0.09529457251639312,-1.0018477216362953,1.2211785651743412,18.90847682952881,0.0,0.0,0.0,0.0,0.0,0.0,0.0,0.0,0.0,0.0,0.0,0.0,0.0,0.0,0.0,0.0,False,0,6.0967066287994385,0.0399150390625
STABILIZE,2.658755302429199,29.96723419760937,0.032250197728474934,0.03237557411193848,-10.0,40.0,10.0,0.4864922831869115,-0.7662400762828261,4.374074488817322,1.9299048709159676,0.558185701550555,0.0006134300357084051,0.5206401953176586,0.0009958482590874456,0.027588575375725857,0.6691956212926814,0.0019071014083082859,-0.18710765289142728,0.10608441662043333,1.2865811586380005,0.1432870701422596,1.4766721054911613,-0.7780532352626324,19.760288298130035,0.0,0.0,0.0,0.0,0.0,0.0,0.0,0.0,0.0,0.0,0.0,0.0,0.0,0.0,0.0,0.0,False,0,6.12534761428833,0.024947021484375
STABILIZE,2.692143201828003,29.951612442514783,0.0323367436726888,0.03247189521789551,-10.0,40.0,10.0,0.4870616434872555,-0.766269904999592,4.3741398025012606,1.9370037354781398,0.5597315494143338,0.0005287839484395476,0.5206995820149233,-0.0006972691174532372,0.026225670508191214,0.6520108210316345,0.0010535914795429626,0.09686060948297381,-0.04868915129918605,1.0795275680720806,-0.17273741844053975,2.2223733365535736,-1.0303543880581856,11.36281043291092,0.0,0.0,0.0,0.0,0.0,0.0,0.0,0.0,0.0,0.0,0.0,0.0,0.0,0.0,0.0,0.0,False,0,6.182896852493286,0.03492578125
STABILIZE,2.7256064414978027,29.882899442853276,0.032401116689046223,0.03253054618835449,-10.0,40.0,10.0,0.48723165116456535,-0.7663235860176001,4.374840750664833,1.94315067944312,0.5615074812275997,0.00032453861193201854,0.5207337665073056,-0.0007678256632720992,0.02705045463475212,0.6474449171217358,-0.0009822837778868073,-0.0008878239896148443,0.09543998748995364,0.9759427979588509,-0.10049548142488014,-4.115431010723114,-0.8867264725267887,13.690638542175293,0.0,0.0,0.0,0.0,0.0,0.0,0.0,0.0,0.0,0.0,0.0,0.0,0.0,0.0,0.0,0.0,False,0,6.211424350738525,0.065013916015625
STABILIZE,2.7591891288757324,29.778093317808764,0.0323975404103597,0.032547712326049805,-10.0,40.0,10.0,0.48846471375316425,-0.7662921564752474,4.375983099803517,1.950095302288027,0.5620112909208369,0.0006278110644982586,0.5207272515574458,-0.007122431745985549,0.02649824978113555,0.6631926833869988,0.0020368170126900545,-0.3278461517766118,-0.0279919127933681,1.0842387564480305,0.2026153472530333,-3.785410523414612,-0.8481009863317013,12.791194021701813,0.0,0.0,0.0,0.0,0.0,0.0,0.0,0.0,0.0,0.0,0.0,0.0,0.0,0.0,0.0,0.0,False,0,6.240074396133423,0.034926025390625
STABILIZE,2.7925233840942383,29.99831209143315,0.03227117856343587,0.03239798545837402,-10.0,40.0,10.0,0.48853098793245453,-0.7669865946147674,4.376369859265269,1.9571642900550157,0.5639863145585873,0.0008722365358920857,0.5207507966447189,-0.008098063163230338,0.025709494581055863,0.663906360109034,0.004451305539615434,-0.05067696329206228,0.012024233001284301,1.387418806552887,0.13763703627520457,-5.737189948558807,-0.5628930404782295,23.591528832912445,0.0,0.0,0.0,0.0,0.0,0.0,0.0,0.0,0.0,0.0,0.0,0.0,0.0,0.0,0.0,0.0,False,0,6.268768787384033,0.034926025390625
STABILIZE,2.8260324001312256,29.843563891478052,0.03239563306172689,0.032518625259399414,-10.0,40.0,10.0,0.48954121559938174,-0.7682810755450434,4.378449224980715,1.9644357160200856,0.5666472017886217,0.0011184614548123773,0.5207738612990513,-0.009038657081365645,0.024933947163798046,0.6648642248206204,0.006867611218234254,-0.05067696329206228,0.012024233001284301,1.387418806552887,0.13763703627520457,-5.737189948558807,-0.5628930404782295,23.591528832912445,0.0,0.0,0.0,0.0,0.0,0.0,0.0,0.0,0.0,0.0,0.0,0.0,0.0,0.0,0.0,0.0,False,0,6.2982118129730225,0.034926025390625
STABILIZE,2.8594014644622803,29.96723419760937,0.03232005437215169,0.03244590759277344,-10.0,40.0,10.0,0.490233519304786,-0.7681006625014198,4.379093397196812,1.9706747134572027,0.5696290469835822,0.0012731050907159192,0.5207988565196713,-0.007178026647601043,0.025005881357928625,0.6648566384851473,0.008358133445545183,0.09830462513491511,0.05687038064934313,1.3248521834611893,0.08833050763658415,-0.8969638496637344,1.2822612188756466,20.860837399959564,0.0,0.0,0.0,0.0,0.0,0.0,0.0,0.0,0.0,0.0,0.0,0.0,0.0,0.0,0.0,0.0,False,0,6.327131509780884,0.02993603515625
STABILIZE,2.8929967880249023,29.76837144601059,0.03240540822347005,0.032555580139160156,-10.0,40.0,10.0,0.4902614803917007,-0.7671847768224035,4.379205668431294,1.9772625871029983,0.5708212693098825,0.001079257440278543,0.5208354242541015,-0.009915550697903213,0.02611042185132979,0.6590802337606908,0.0063769632713207595,-0.15890360809862614,0.11875296477228403,1.1761742644011974,-0.0956053527937353,-2.608218230307102,1.267358660697937,19.138750433921814,0.0,0.0,0.0,0.0,0.0,0.0,0.0,0.0,0.0,0.0,0.0,0.0,0.0,0.0,0.0,0.0,False,0,6.355581521987915,0.034926025390625
STABILIZE,2.9263789653778076,29.95375144616,0.03227189381917318,0.032422780990600586,-10.0,40.0,10.0,0.49138120452875966,-0.7672623101416537,4.381325588394937,1.983391564131062,0.573494682916345,0.0008924480501400359,0.5208645793360392,-0.01273232164570014,0.027340264299047786,0.6570048259881588,0.004478902621529533,-0.15890360809862614,0.11875296477228403,1.1761742644011974,-0.0956053527937353,-2.608218230307102,1.267358660697937,19.138750433921814,0.0,0.0,0.0,0.0,0.0,0.0,0.0,0.0,0.0,0.0,0.0,0.0,0.0,0.0,0.0,0.0,False,0,6.391362428665161,0.034926025390625
STABILIZE,2.959763526916504,29.954821062554903,0.032367976506551106,0.03248476982116699,-10.0,40.0,10.0,0.4902816507940934,-0.7674659351562847,4.382685649813416,1.9900175362120682,0.575984534777731,0.0013916361848131447,0.5208990938226477,-0.01244009998358328,0.02664945744171559,0.652245921136327,0.009407890253089147,-0.04309264477342367,0.056493887677788734,1.2131892144680023,0.07952592021886831,0.683465413749218,1.2057224288582802,18.902312219142914,0.0,0.0,0.0,0.0,0.0,0.0,0.0,0.0,0.0,0.0,0.0,0.0,0.0,0.0,0.0,0.0,False,0,6.449545860290527,0.064862060546875
STABILIZE,2.993224620819092,29.884815709410113,0.03241399129231771,0.03253459930419922,-10.0,40.0,10.0,0.4902558241412943,-0.7672588416862158,4.384085838593268,1.996280812385651,0.5784115746480457,0.0012479158889454841,0.520888597181983,-0.011549106907923243,0.02725809892037291,0.6699747482886952,0.007917730689684387,0.07921403739601374,0.041115653584711254,1.2353640049695969,-0.09488601514623528,-2.9081637039780617,-0.8481502532958984,16.80212914943695,0.0,0.0,0.0,0.0,0.0,0.0,0.0,0.0,0.0,0.0,0.0,0.0,0.0,0.0,0.0,0.0,False,0,6.478335857391357,0.03492578125
STABILIZE,3.0267231464385986,29.851422715044198,0.03240540822347005,0.03254532814025879,-10.0,40.0,10.0,0.49006319146235877,-0.7673776229447505,4.384743671187705,2.003565247957235,0.5807676911583611,0.0013961016298806013,0.5209287095124099,-0.008882765210867892,0.02549812712919553,0.6624206822148023,0.009337080939733186,0.12227471452206373,-0.035878646303899586,0.9882772341370583,0.08770972748437329,6.484629213809967,-1.0340217500925064,10.842311382293701,0.0,0.0,0.0,0.0,0.0,0.0,0.0,0.0,0.0,0.0,0.0,0.0,0.0,0.0,0.0,0.0,False,0,6.507939100265503,0.034925048828125
STABILIZE,3.060147762298584,29.918710321706257,0.03234699567159017,0.03247499465942383,-10.0,40.0,10.0,0.4893808128755922,-0.7674011550808754,4.385115062723824,2.0105317111364234,0.582735633943165,0.0015575720246585923,0.5209622605076341,-0.011554545953859597,0.025594964540471683,0.6581429439418784,0.010879013865476407,-0.156259851064533,0.05989488563500345,1.1419065296649933,0.09490123632952237,-0.3765930887311697,1.0879012756049633,14.836104214191437,0.0,0.0,0.0,0.0,0.0,0.0,0.0,0.0,0.0,0.0,0.0,0.0,0.0,0.0,0.0,0.0,False,0,6.535851955413818,0.02993701171875
STABILIZE,3.093714475631714,29.7922648009376,0.032387765248616536,0.032561302185058594,-10.0,40.0,10.0,0.48846919606480704,-0.7684519369959996,4.385801496735411,2.0175800036594254,0.5847655914923764,0.0017063532933863984,0.5210012607312718,-0.014070162682325846,0.025593787125893046,0.6511689120149098,0.012284529102132147,-0.156259851064533,0.05989488563500345,1.1419065296649933,0.09490123632952237,-0.3765930887311697,1.0879012756049633,14.836104214191437,0.0,0.0,0.0,0.0,0.0,0.0,0.0,0.0,0.0,0.0,0.0,0.0,0.0,0.0,0.0,0.0,False,0,6.565048456192017,0.02993701171875
STABILIZE,3.1270830631256104,29.96723419760937,0.032285483678181966,0.032414913177490234,-10.0,40.0,10.0,0.48893578336248356,-0.7683782990190103,4.385999145334518,2.024201614693834,0.5868762105467642,0.001832444875506311,0.5210378375662142,-0.013584771732759396,0.025109038906804597,0.6453836367414236,0.013455523372548942,0.002596209742478095,0.03265095583628863,1.1719527654349804,0.08477523409103384,0.06374638760462403,-0.9318319149315357,16.91920906305313,0.0,0.0,0.0,0.0,0.0,0.0,0.0,0.0,0.0,0.0,0.0,0.0,0.0,0.0,0.0,0.0,False,0,6.593757390975952,0.034926025390625
STABILIZE,3.1605284214019775,29.90207317420937,0.03237727483113607,0.032486915588378906,-10.0,40.0,10.0,0.48956629520024036,-0.7692402902366071,4.386335532151141,2.030960671789606,0.5901005814863942,0.001193833035174899,0.5210796164017667,-0.007641936718882664,0.025612404726677914,0.6370108735880747,0.007022466016013466,0.14556871028617024,0.06528532248921692,1.0605931282043457,-0.16102034898130188,1.999489776790142,1.0348184034228325,15.636710822582245,0.0,0.0,0.0,0.0,0.0,0.0,0.0,0.0,0.0,0.0,0.0,0.0,0.0,0.0,0.0,0.0,False,0,6.651973724365234,0.034926025390625
STABILIZE,3.1940510272979736,29.827858651514397,0.0323520024617513,0.03255414962768555,-10.0,40.0,10.0,0.49028314489797437,-0.7689599856763721,4.38683114775279,2.0375687057384053,0.5908843805867066,0.0013237131007080099,0.5211018984857347,-0.009918347253454921,0.024280685669945467,0.638427624717419,0.0082658269754753,-0.14407576527446508,-0.022688446915708482,1.3559062033891678,0.08529453524125975,-1.091957651078701,1.0379248298704624,16.70774519443512,0.0,0.0,0.0,0.0,0.0,0.0,0.0,0.0,0.0,0.0,0.0,0.0,0.0,0.0,0.0,0.0,False,0,6.68073034286499,0.02993603515625
STABILIZE,3.227468252182007,29.925327663582074,0.03236201604207357,0.03248453140258789,-10.0,40.0,10.0,0.49025721152346946,-0.768750544328776,4.386825171337266,2.0446512587068018,0.5931563443311557,0.0011398580915815359,0.5211368561150005,-0.011010104111364539,0.023229096843364067,0.6334756395821617,0.006384583041703232,-0.08232479449361563,-0.0027415473596192896,1.1590017937123775,-0.08727156818107433,-1.3166102580726147,-0.8913617581129074,16.761891543865204,0.0,0.0,0.0,0.0,0.0,0.0,0.0,0.0,0.0,0.0,0.0,0.0,0.0,0.0,0.0,0.0,False,0,6.709230422973633,0.069915283203125
STABILIZE,3.260972499847412,29.847598986649967,0.03239277203877767,0.03253340721130371,-10.0,40.0,10.0,0.48973726337290224,-0.7682490056724561,4.38730371146599,2.0511949256272075,0.5959113635609624,0.0009360906922547291,0.5211207246699049,-0.010216425820154713,0.0237284929302176,0.6540527933208731,0.0043180064453452365,0.049693568143993616,0.04368853697087616,1.245108712464571,-0.09499740592664467,-2.172674797475338,1.010011788457632,16.006849706172943,0.0,0.0,0.0,0.0,0.0,0.0,0.0,0.0,0.0,0.0,0.0,0.0,0.0,0.0,0.0,0.0,False,0,6.738060474395752,0.034926025390625
STABILIZE,3.294398784637451,29.916362936070357,0.03234723409016927,0.03247380256652832,-10.0,40.0,10.0,0.4891124077855519,-0.7685123414814719,4.387436900154806,2.0573329359045207,0.5987030002468728,0.0006163822679199199,0.5211554114632351,-0.006573152335181866,0.02502856061768185,0.6492174915100228,0.0011134749906072444,0.16855570720508695,0.12007945915684104,1.1112377047538757,-0.15092919804985763,-0.5827171728014946,0.9788740426301956,13.691620528697968,0.0,0.0,0.0,0.0,0.0,0.0,0.0,0.0,0.0,0.0,0.0,0.0,0.0,0.0,0.0,0.0,False,0,6.771998882293701,0.029936767578125
STABILIZE,3.328091859817505,29.678639155415922,0.03236845334370931,0.0328214168548584,-10.0,40.0,10.0,0.4904031000952727,-0.7690655334433899,4.3884584403225455,2.0638743335103595,0.6001780241524064,0.0003101464293579435,0.5211955104521122,-0.003025958644472862,0.026199491337796428,0.6418037253825778,-0.001935814410226076,0.16855570720508695,0.12007945915684104,1.1112377047538757,-0.15092919804985763,-0.5827171728014946,0.9788740426301956,13.691620528697968,0.0,0.0,0.0,0.0,0.0,0.0,0.0,0.0,0.0,0.0,0.0,0.0,0.0,0.0,0.0,0.0,False,0,6.800757646560669,0.029936767578125
STABILIZE,3.3616271018981934,29.820436254017007,0.032457860310872395,0.03261733055114746,-10.0,40.0,10.0,0.4904388518667095,-0.7690132931684099,4.388531011082478,2.0706777992792316,0.6014669527183303,0.00010740406291078147,0.5212246009819904,-0.007294671835487305,0.024749495430392728,0.6398012888231317,-0.003936860766654057,-0.24786905851215124,-0.020632080850191414,1.3673068955540657,-0.10046902111195297,-3.42685803771019,-0.9282972663640976,17.331010103225708,0.0,0.0,0.0,0.0,0.0,0.0,0.0,0.0,0.0,0.0,0.0,0.0,0.0,0.0,0.0,0.0,False,0,6.829556226730347,0.034926025390625
STABILIZE,3.395195960998535,29.788244652140563,0.03237179120381673,0.03272247314453125,-10.0,40.0,10.0,0.4900149532513456,-0.7692709193661663,4.388280855404125,2.0770194272471274,0.604038208045158,0.00037936116990371543,0.5212727387598837,-0.006591976655017982,0.02485944798212044,0.6283381366489703,-0.0012091575627580765,0.11114371009171009,0.09318490047007799,1.0649696923792362,-0.044607752025941715,-1.6271745786070824,1.1134535074234009,19.32990401983261,0.0,0.0,0.0,0.0,0.0,0.0,0.0,0.0,0.0,0.0,0.0,0.0,0.0,0.0,0.0,0.0,False,0,6.88683557510376,0.034926025390625
STABILIZE,3.428683280944824,29.862687162253565,0.03249338467915853,0.032601356506347656,-10.0,40.0,10.0,0.4891604325531535,-0.7691621165871222,4.3900857328923015,2.0839938818390893,0.6065226945736026,0.0001966817215887763,0.5213050329747547,-0.003963036526172343,0.024499026438245194,0.6247347345854471,-0.003015777139473294,0.12836274690926075,0.02797979104798287,1.0485021397471428,-0.09059993136981344,6.460922956466675,-0.8630874566733837,18.538206815719604,0.0,0.0,0.0,0.0,0.0,0.0,0.0,0.0,0.0,0.0,0.0,0.0,0.0,0.0,0.0,0.0,False,0,6.915282249450684,0.034926025390625
STABILIZE,3.462144613265991,29.884176926584587,0.0323820432027181,0.0325014591217041,-10.0,40.0,10.0,0.48975263129853475,-0.7691477091568417,4.390529268301529,2.091592901674215,0.6083841422968348,0.0004476709649795498,0.5213341120633097,-0.0016862990721840509,0.0228427542455163,0.6227370076973217,-0.0005025241481698183,0.10940551292151213,-0.04439079493749887,1.1299964971840382,0.148704744175402,3.4000497311353683,1.190041285008192,20.82609534263611,0.0,0.0,0.0,0.0,0.0,0.0,0.0,0.0,0.0,0.0,0.0,0.0,0.0,0.0,0.0,0.0,False,0,6.944234132766724,0.02993603515625
STABILIZE,3.4957478046417236,29.76203451407811,0.03240207036336263,0.03257250785827637,-10.0,40.0,10.0,0.48873717426802427,-0.7688514497015924,4.3920276410507,2.098742764517522,0.6089193196305938,0.000381358603724827,0.5213557504766786,-0.003867107447991453,0.022533526648391797,0.6244746402927349,-0.0011578938024996415,-0.1368615310639143,0.03568661632016301,1.4973795041441917,-0.03273453537093236,-2.3231908679008484,-0.7594867143779993,21.699093282222748,0.0,0.0,0.0,0.0,0.0,0.0,0.0,0.0,0.0,0.0,0.0,0.0,0.0,0.0,0.0,0.0,False,0,6.972815990447998,0.034926025390625
STABILIZE,3.5291779041290283,29.911242645747905,0.0322759469350179,0.03240513801574707,-10.0,40.0,10.0,0.48852052920528793,-0.7682678954143795,4.392435317966786,2.105133755108816,0.6122545680374459,0.00018713755120773536,0.5213936237101977,-0.0025086453442987504,0.022193589043296442,0.618097498649141,-0.0030794918764187346,0.06186988321132958,0.027586554642766714,0.8470147848129272,-0.1026895929843608,2.2132813930511475,-1.006550993770361,13.196226954460144,0.0,0.0,0.0,0.0,0.0,0.0,0.0,0.0,0.0,0.0,0.0,0.0,0.0,0.0,0.0,0.0,False,0,7.001580715179443,0.034926025390625
