Mode,Time,Freq,North-Vision,East-Vision,Down-Vision,Yaw-Vision,North-Desired,East-Desired,Down-Desired,Roll-UAV,Pitch-UAV,Yaw-UAV,Roll-Control,Pitch-Control,Yaw-Control,Thrust-Control,northVraw,eastVraw,downVraw,N-Velocity,E-Velocity,D-Velocity,yawVraw,yawRate,Q-Size
GUIDED_NOGPS,0.0081329345703125,123.22416123156472,-5.99326526805625,19.623081199061755,50.51945128416092,-25.5911149889758,-7.009832139837039,29.717662098479252,49.4108975217364,-0.7575094403371102,0.27297995608250464,22.91832751466802,5.33538165707684,1.8798145050318118,-10.0,0.49778289247515095,-5.522044861284455,30.54731593011499,45.87432011997842,-0.13460619375109673,-5.192533880472183,-20.899204909801483,-28.359175165486015,-11.408761230127547,1
GUIDED_NOGPS,0.014507770538330078,156.99595747866448,-2.6407089661472396,23.68509983933785,48.606957187114645,-27.670476778624675,-7.0097343735539495,29.717875241582217,49.41074965123493,-0.8437503970054531,0.35430645824089113,23.00941491743931,-1.684989080480306,5.400075166019649,-10.0,0.5016075849282405,-5.292877327458034,30.563967102201072,45.459784467035774,5.829326435923576,-5.353928357362747,-20.64659297466278,-28.513425382601746,-15.042258797807897,0
GUIDED_NOGPS,0.026114940643310547,86.1872803863146,-3.0099826162859613,24.554236049536883,47.99762731377207,-27.921739043007072,-7.009063235719371,29.71933840859705,49.409726490654265,-0.8437503970054531,0.35430645824089113,23.00941491743931,-3.5123957074268315,0.46642152526075864,-10.0,0.5028241983537644,-5.292877327458034,30.563967102201072,45.459784467035774,5.222054198384285,-5.722309276461601,-19.510820508003235,-28.513425382601746,-15.437216194111176,0
GUIDED_NOGPS,0.05705547332763672,32.32529498354566,-3.3604032308500185,25.21683133007902,47.7125465116522,-28.071043580296905,-7.007281319959597,29.723223214710757,49.40698534748188,-0.7669511096475949,0.4123002337817207,23.627622169406333,-0.7372659170524072,0.11866174592850723,-10.0,0.5033888776716594,-5.292877327458034,30.563967102201072,45.459784467035774,-3.489406779408455,-8.025305718183517,-5.409057065844536,-28.513425382601746,-9.738693746921157,0
GUIDED_NOGPS,0.08984160423278809,30.505582102361576,-3.1918275929460083,25.42685825574846,46.60735510401683,-28.61992571201155,-7.003889632970377,29.730617529666016,49.40171864980336,-0.7898571095245848,0.6517084227114375,24.014429442482495,0.31603919245026946,0.5052305328420224,-10.0,0.5055887270915731,-2.461866705514326,28.003685097124244,40.29637453897613,2.0592307671904564,-7.166507840156555,-12.22468763589859,-30.462338808163423,-12.419342359344293,0
GUIDED_NOGPS,0.12407112121582031,29.219436413668188,-3.046001955557014,25.569367692860947,45.77112853039911,-29.07081422799711,-6.998426690679991,29.742527448242203,49.39315346188038,-1.1434739854635692,0.8881921434180517,24.287254518689487,0.3975520402681343,0.42045354859562656,-10.0,0.5072440498629626,-2.461866705514326,28.003685097124244,40.29637453897613,2.0529795438051224,-6.720998138189316,-2.5362972170114517,-30.462338808163423,-8.383594460874383,0
GUIDED_NOGPS,0.15719866752624512,30.191573749487127,-2.875466982952276,25.637774428116522,44.90287841397198,-29.61384493892082,-6.990467614412321,29.759879260736437,49.38055099972867,-1.38789294524271,1.1191718522315464,24.745958070516494,0.5239348296410667,0.4102884420644871,-10.0,0.5089553451715134,-2.1614858122286806,27.759019457238438,39.32222200316903,2.656516432762146,-6.381692737340927,-6.8825215101242065,-31.214488907843496,-11.835940897614009,0
GUIDED_NOGPS,0.19897150993347168,23.941457845767452,-2.694314741319024,25.646668141270013,44.119269940909746,-30.063887067410644,-6.979623227049926,29.783521423444625,49.36320614669593,-1.7028186671634233,1.1782993057724658,25.144695976525377,0.596993238715549,0.33551858335733176,-10.0,0.5104878724115723,-2.0656185104707507,27.69725708934704,39.05382871869979,4.66010682284832,-8.439870923757553,-8.56860727071762,-31.433956591672782,-8.739944212894166,0
GUIDED_NOGPS,0.2324845790863037,29.84462565284834,-2.5074918186889192,25.55014643370653,43.36320561030321,-30.584322334981977,-6.965539149197107,29.814226529142505,49.34044696903983,-1.5481121076982842,1.0756599186805686,25.41051840128581,0.7922461813084826,0.2970791796639686,-10.0,0.5119544827174732,-1.6464138846618286,27.51348375032905,38.484957486714876,1.7951296642422676,-10.710670799016953,-4.712884500622749,-31.804667240579874,-9.170262352304249,0
GUIDED_NOGPS,0.2653217315673828,30.456848663524866,-2.3999693794265125,25.434346379296617,42.84563856513117,-30.98136898668664,-6.947894895342984,29.852693277566697,49.31163423150596,-1.2737542943528617,1.0048566836403354,25.643195625551463,0.7855564202304028,0.16538262277396848,-10.0,0.5129319913327496,-1.3937902589870907,27.4244723545185,38.21241837201903,-1.4135533943772316,-12.727801501750946,1.0732308961451054,-31.977806334158558,-8.73109228772983,0
GUIDED_NOGPS,0.30342888832092285,26.245730841191673,-2.2801135962391537,25.219698155421586,42.33497404741038,-31.283934400011255,-6.926402970024565,29.89954844589573,49.27616091290576,-0.8931216723689498,0.8868594561171059,25.793051683488837,0.8982910223350136,0.09490065580960877,-10.0,0.5138823737309908,-1.0789073280299624,27.22183821307624,37.724271221937876,-0.7830205373466015,-17.689618468284607,-1.018453761935234,-32.36651104545304,-3.759776666376484,0
GUIDED_NOGPS,0.33205699920654297,34.935356782915065,-2.1189602151170126,24.945867258693525,41.75590150762219,-31.59974495390492,-6.900807963989818,29.955348859231098,49.233451721694514,-0.25654745475437957,0.606824688354345,25.935109372941348,1.17989700973189,0.05677562662508562,-10.0,0.5149551004281446,-0.6126207891104687,27.046134608028073,36.607394576619555,0.06719776429235935,-18.18230152130127,-1.6660984605550766,-32.979565928890025,-1.363549937597373,0
GUIDED_NOGPS,0.36551666259765625,29.895892285651154,-2.0096976840922243,24.71576816592876,41.39632246280913,-31.83675394986635,-6.870885650360743,30.020583361078305,49.18296261154927,0.32737467549798704,0.3328437627128897,26.026493888941534,1.0289494858577755,0.015699482367625528,-10.0,0.5155732802974803,-0.2578007051294025,26.697829624505243,36.35811589640858,-2.3318620398640633,-17.793746292591095,5.054793506860733,-33.229060829187134,-2.3791222275501065,0
GUIDED_NOGPS,0.39923954010009766,29.65241182334269,-1.8787042877996722,24.396210449405277,41.04834665518274,-32.10725817302048,-6.836442080796442,30.095674783827896,49.124180296946825,0.7617407425279331,0.013683123403570174,26.0268200304744,1.1941964447203264,-0.05383545996956929,-10.0,0.5161516672835281,0.14958535408738632,25.8571904118124,36.33054707751353,-2.3318620398640633,-17.793746292591095,5.054793506860733,-33.51935840354381,-2.3791222275501065,0
GUIDED_NOGPS,0.4330906867980957,29.54754809758297,-1.7033093578142964,24.103107538234465,40.56876960223937,-32.34753988985145,-6.797312681656193,30.180981919236515,49.05662176874168,1.193152726061422,-0.06257771959808742,26.050903277487865,1.2369459130493543,-0.0020826797911464023,-10.0,0.5169757043330047,0.17017274942427563,25.85045990888295,36.0360135141481,1.5073174610733986,-16.51030033826828,-4.501556605100632,-33.59889850351773,-1.780952616173784,0
GUIDED_NOGPS,0.4667818546295166,29.687251827891536,-1.6014000854472576,23.773017845126276,40.445010302994774,-32.482505539148875,-6.753361350162519,30.276801488907935,48.979833809743965,1.4462071793855749,-0.22060467814467172,25.97669668725026,1.266980421424096,-0.1550339967833395,-10.0,0.5170696470134983,0.4585918890776609,25.4056838629673,36.0073815883144,-3.4897074103355408,-17.54719316959381,15.128114819526672,-33.689503022808026,3.4106421554411734,0
GUIDED_NOGPS,0.4998817443847656,30.21549854840685,-1.4982501803734967,23.480092552915245,40.36954031134486,-32.52650613090493,-6.704479550564264,30.38337011477411,48.893392510297446,1.5288302702279266,-0.3724935177729161,25.83307488447782,1.2703275325168255,-0.15718004289119897,-10.0,0.5170477043979052,0.7486571683744981,24.932673181363402,36.03715991748822,-3.6246489733457565,-14.177967607975006,15.80822467803955,-33.74483646915424,7.803538084290111,0
GUIDED_NOGPS,0.5497434139251709,20.05778749085414,-1.2641878669871487,23.22787033536051,40.17984243853822,-32.587010488807735,-6.650585410299655,30.500866289576212,48.79690278385743,1.6129523741496845,-0.5800632601342945,25.666689768749016,1.161686474980348,0.0475661307590709,-10.0,0.5172341206906385,0.7486571683744981,24.932673181363402,36.03715991748822,5.703982338309288,-12.566299736499786,6.974849849939346,-33.74483646915424,5.519345240919428,0
GUIDED_NOGPS,0.5672433376312256,57.158680839465795,-1.137676555120204,22.868246455989162,39.944086229976755,-32.64707678074491,-6.591622816159387,30.629412347345685,48.689997882568775,1.573504616598276,-0.6532231238815936,25.548334543263742,2.0632069072581505,-0.510222028885595,-10.0,0.5174918233051841,0.9194213688861432,24.47890382987294,36.10903811352477,-1.2699932791292667,-13.056996464729309,3.964776173233986,-33.77786136995156,7.0306018612997345,0
GUIDED_NOGPS,0.6056556701660156,26.03589141945536,-0.9485410055638132,22.708913359988156,39.88068977152863,-32.615008197621535,-6.5275605104496845,30.769076433885274,48.572338912843804,1.4814300380485075,-0.8234230069835546,25.257940512964186,1.2291926312768857,0.0027702004472246466,-10.0,0.5173832982826303,1.5667057916510714,23.29970483309564,36.80325539494278,3.2085109502077103,-12.53325492143631,6.972717493772507,-33.57775393412601,5.1664707745267116,0
GUIDED_NOGPS,0.6349432468414307,34.150008141996416,-0.7490299214561358,22.328113777183734,39.797039732875234,-32.60185558009224,-6.458391187155374,30.919874477250083,48.443614350940265,1.6094691911163896,-0.7960164460520553,25.056272347530392,1.73942766038759,-0.23867362602303532,-10.0,0.51729314923613,1.741744477627,23.144438549915712,36.9666851502255,1.491794642060995,-12.965516746044159,7.402820885181427,-33.528285909777956,8.143518434190312,0
GUIDED_NOGPS,0.6683647632598877,29.927249375668925,-0.5688224586688804,22.068017026903398,39.792067580196296,-32.541097643405436,-6.38413058810296,31.08177215822861,48.30353955853933,1.5780140355543653,-0.7990270120112971,24.75804921289471,1.5090998493714123,-0.1533847791766455,-10.0,0.517022943956686,1.9688411119498026,23.14189147829159,37.843204715418906,1.491794642060995,-12.965516746044159,7.402820885181427,-33.351990504027626,8.143518434190312,0
GUIDED_NOGPS,0.7017600536346436,29.9481906720361,-0.3433231042133431,21.810306832941365,39.8788436450795,-32.506286668831365,-6.3048165991236935,31.25468688082378,48.15185629832349,1.4116810000179836,-1.0004135388635365,24.260896818682408,1.588719391003009,-0.11590191808000772,-10.0,0.516546025306488,1.9688411119498026,23.14189147829159,37.843204715418906,4.70224916934967,-10.670845210552216,13.06236982345581,-33.351990504027626,6.788885735441214,0
GUIDED_NOGPS,0.735626220703125,29.530489393310006,-0.11485031970627368,21.551481955665754,39.99727704957748,-32.451329975511,-6.220508346216645,31.438489742734014,47.98833224955456,1.5571023441933134,-1.0779666016293288,23.930001474151968,1.6239006606564663,-0.13071545742334523,-10.0,0.5159821103999541,2.203741287288871,22.915235590055588,38.28704803414938,4.70224916934967,-10.670845210552216,13.06236982345581,-33.09339711572441,6.788885735441214,0
GUIDED_NOGPS,0.7694158554077148,29.625812284568006,0.1578099432440394,21.281207115858138,40.16304377764976,-32.30247056340194,-6.131285291711774,31.63300750583425,47.812760523651626,1.6264612076675005,-1.1570166497621177,23.528232671698895,1.7309435245616944,-0.10263677420815265,-10.0,0.5152994334920037,2.6309261025739596,22.208992052954322,39.13736344968508,6.853076070547104,-9.745453298091888,12.878870964050293,-32.657310909988766,10.880356451594205,0
GUIDED_NOGPS,0.8027360439300537,29.99166243591302,0.3857010926803097,21.03474524448462,40.36714959850971,-32.178019107288186,-6.0372463304330015,31.838024566656998,47.624959179768986,1.680420342440836,-1.327500626044869,23.176341325659838,1.719290867282913,-0.1616537778073619,-10.0,0.5145156191625185,2.6309261025739596,22.208992052954322,39.13736344968508,4.588181525468826,-9.332416951656342,15.130782127380371,-32.657310909988766,9.142431038983739,0
GUIDED_NOGPS,0.8360726833343506,30.000672355461457,0.6358761115898119,20.806002191465154,40.47354186610209,-32.00082995890821,-5.938508885861282,32.05328492687338,47.424770740374115,1.913979087996245,-1.3873258260981873,22.71073416012924,1.7600710653462068,-0.1349402864483964,-10.0,0.513902457748544,2.7346881874821403,21.941273367119237,39.62473834452524,6.414946913719177,-8.396460860967636,7.359502464532852,-32.301658721105966,11.136488545469684,0
GUIDED_NOGPS,0.8695023059844971,29.918923738667086,0.8683653702168126,20.59532374139047,40.6213218934604,-31.738798191602598,-5.835208006297676,32.27849416377417,47.21206170682563,2.021893942448331,-1.5763774581962067,22.208739161795396,1.7696347506014505,-0.1575500816919978,-10.0,0.5131814796267304,2.7346881874821403,21.941273367119237,39.62473834452524,5.762699991464615,-7.874441891908646,9.955615550279617,-32.301658721105966,16.297821737080074,0
GUIDED_NOGPS,0.9033160209655762,29.577761166664317,1.2086833079538226,20.431140393643123,40.726683600529086,-31.559693411241664,-5.727495461026419,32.51332140075084,46.98672207495123,2.012761979528024,-1.6431893014402137,21.806584453654214,1.832434314629595,0.010323473295825059,-10.0,0.5125200769488443,2.677039524532776,21.79679958034552,39.88091136626504,13.680259883403778,-5.063062533736229,6.521184742450714,-32.141150644608715,10.66085807733209,0
GUIDED_NOGPS,0.9372081756591797,29.50929749885672,1.5800775823122775,20.22960957184225,40.97646976155985,-31.205345798777056,-5.615538836477995,32.75740127777661,46.74866485062567,1.923778061577686,-1.7713579079372088,21.221915138059245,1.9533002880502444,0.02141174120101086,-10.0,0.5115443901781317,3.4168590882515875,20.475395455804566,41.32559533689293,13.873185217380524,-4.051518812775612,11.209706962108612,-30.746771062225594,17.125297447479827,0
GUIDED_NOGPS,0.9750938415527344,26.398031305267267,1.7851474692196907,20.04246791378893,41.19096262092049,-30.881255102717013,-5.499520632392208,33.010335921887474,46.49782556534872,1.7952582339469643,-1.7673827378402613,20.884765047796368,1.7858857092537912,-0.1671175638589859,-10.0,0.5106137258888565,3.5437844735916113,20.38163759596701,41.58758334632185,3.086940385401249,-3.9198212325572968,8.51268395781517,-30.512541301778608,14.801853214496372,0
GUIDED_NOGPS,1.0114047527313232,27.54626175589765,2.132326818641458,19.841950975568437,41.36521915671017,-30.53459545620402,-5.379637357981254,33.27169691766326,46.234161791823084,1.6573577818214646,-1.6324040058539404,20.19645785683021,1.9772009344286472,-0.017187333517820313,-10.0,0.5097378852702258,4.153127410930342,20.514072740193683,42.225028992322535,10.142143815755844,-3.923610970377922,3.48215252161026,-29.766789963021107,13.164320483627693,0
GUIDED_NOGPS,1.0450739860534668,29.704281809039532,2.5538524703676835,19.70588528536143,41.61151123967088,-30.169545279245874,-5.2560986280927855,33.541027277708686,45.957652659532414,1.6019946162868686,-1.8243847218888374,19.5684766041609,2.0525625632268825,0.13141847588818978,-10.0,0.508692282839723,4.332024977569257,20.58799009416927,42.667592207167154,15.50394892692566,-1.998802088201046,7.4704959988594055,-29.2787508404909,13.527555920104495,0
GUIDED_NOGPS,1.0858845710754395,24.50946064395489,2.9459965623372297,19.59692211322833,41.853265572551045,-29.816114935503787,-5.129126259372997,33.81784341313435,45.66829837031923,1.7889701910423212,-1.563880346449199,19.127330053595408,1.9214092131600782,0.11186306745996466,-10.0,0.5076300655955364,4.210230545605211,20.508369570760376,42.92424503845293,15.50394892692566,-1.998802088201046,7.4704959988594055,-29.084429755709387,13.527555920104495,0
GUIDED_NOGPS,1.112663745880127,37.35342470633288,3.466196419320223,19.45689018418586,42.08687074725212,-29.46743465409294,-4.998953366429687,34.10163710403782,45.36611971396288,1.7858560516676185,-1.4336822132733582,18.526783963274745,2.4798807838724644,0.3405653356122236,-10.0,0.5065584979334216,4.8066886852272,20.725626444438326,43.57079092809976,19.575880467891693,-2.1888289600610733,3.7838947027921677,-28.300567319105227,9.144455336299002,0
GUIDED_NOGPS,1.1466598510742188,29.41926071403521,3.850892062570213,19.455818014609722,42.34002858410592,-29.152591831774274,-4.865823457995324,34.3918774699847,45.0511575837575,1.6612887691322187,-1.1257808073054743,17.8729350766713,1.9679174095769332,0.21495085359314514,-10.0,0.5054222579993032,4.8066886852272,20.725626444438326,43.57079092809976,18.201448023319244,-0.6756910588592291,9.43707823753357,-28.300567319105227,12.986218178377733,0
GUIDED_NOGPS,1.1794452667236328,30.506247727107425,4.262595109935441,19.43940002577676,42.59660463970741,-28.661053365947204,-4.729989533090135,34.68801294048958,44.723472492089996,1.8510621601264379,-0.9391378841069421,17.361446115391143,2.0736632266583213,0.26449356538722635,-10.0,0.5042537357047652,5.456492208158215,21.29827623242612,44.506290804192574,14.700984954833984,0.15601428458467126,5.048729851841927,-26.95718538621773,17.137012929453693,0
GUIDED_NOGPS,1.21315598487854,29.668142657065655,4.61362013485632,19.458262369115925,42.859151943656784,-28.245884505784176,-4.591713177185163,34.98947322549718,44.383144086017936,1.9404411618315784,-0.5304170696567049,16.76569652541512,2.004181953392326,0.22126171009093976,-10.0,0.5030479842847223,5.456492208158215,21.29827623242612,44.506290804192574,12.457287311553955,1.1813560500741005,6.612414121627808,-26.95718538621773,14.022170045266492,0
GUIDED_NOGPS,1.248030185699463,28.67802126423028,5.048661736430211,19.490958013980887,43.05842826025717,-27.78626241741168,-4.451263658365342,35.29567128586335,44.03027066284759,1.9809010680406183,-0.12524424499559822,16.17947846442585,2.0621647249443513,0.35826838543837936,-10.0,0.5019436848051808,6.063832253813192,21.93878822092602,45.10868868642289,16.632813215255737,0.06680809892714024,1.3824963010847569,-25.912713061278104,14.250414476760808,0
GUIDED_NOGPS,1.2813763618469238,29.994236146370415,5.57668417345529,19.562345372607506,43.09968676158183,-27.260609549666384,-4.308917023492569,35.60600530383609,43.66496868571182,1.972017766694782,-0.08463137323164044,15.787662955140776,2.133347129683953,0.5538652923944564,-10.0,0.5011305638482599,6.295283321659027,22.02612004469345,45.234411996294675,22.97174781560898,1.9521364942193031,-8.034422993659973,-25.598715049316972,18.35671396048872,0
GUIDED_NOGPS,1.314647912979126,30.062600792723572,6.022897645788122,19.70508654622356,43.35398893913314,-26.582451200839042,-4.164955194368779,35.919860653536645,43.287372299148075,2.2152557440777456,0.2396672025096484,14.986027557918474,2.0029344717343536,0.5302112373075858,-10.0,0.4998667667200299,7.041975655296207,22.785521592026953,45.77285401320765,16.905292868614197,3.822675719857216,4.495062679052353,-24.399553160550514,25.229137605234243,0
GUIDED_NOGPS,1.347311019897461,30.618486560670434,6.463590388682413,19.857518386242173,43.60364114294759,-25.908731641554297,-4.019665063899011,36.23661187144051,42.89763284467632,1.9419585310443792,0.22136723141290662,14.392113581281892,2.013827842024637,0.572350377779541,-10.0,0.49858798340345745,7.231278462373153,23.000979906655147,45.88765774421695,16.905292868614197,3.822675719857216,4.495062679052353,-24.086458140413182,25.229137605234243,0
GUIDED_NOGPS,1.3812551498413086,29.464727783631893,6.726693785269447,20.024175946606338,43.97718608466453,-25.42528644316813,-3.8733375922544866,36.555624626858474,42.49591837637704,2.0759540359553355,0.20868247622670869,13.790235604073077,1.8830462995960444,0.35333717071254933,-10.0,0.497037464583425,7.294516632132874,23.09916492059502,46.04472521347219,5.849907919764519,4.44110669195652,12.50040978193283,-23.806972596705272,14.158221437117623,0
GUIDED_NOGPS,1.4148128032684326,29.80327286421806,7.021150080454927,20.205359471527608,44.263983231187865,-24.80588952740094,-3.7262669030356657,36.87625769241771,42.082413176469124,1.8724231498688295,0.1190539324930246,13.191392792176686,1.8943330516804067,0.4295199897280305,-10.0,0.4956368598905625,7.294516632132874,23.09916492059502,46.04472521347219,8.36685597896576,5.548024550080299,7.427718490362167,-23.806972596705272,23.08016543195689,0
GUIDED_NOGPS,1.448455810546875,29.732076274190117,7.212602795132709,20.450700958869827,44.500488123384535,-24.23088928977069,-3.578749379435341,37.197864914542734,41.657317270887894,2.009176130213767,0.00018150360605449412,12.552401274565312,1.7508010644266163,0.34884844766355094,-10.0,0.49431365829500673,7.440143430578518,23.528052836338347,46.287732074416795,2.1324822679162025,8.42541679739952,4.107197001576424,-23.27358789777726,19.653850553691473,0
GUIDED_NOGPS,1.4809598922729492,30.76807511737089,7.529962803855469,20.787281344105338,44.638939024888906,-23.64367742551294,-3.4310827604016962,37.51979718393653,41.22084594486302,2.02104166290596,-0.09486018182332956,11.92993881474537,1.7057675075168315,0.6145741765817712,-10.0,0.49316381383994823,7.8218129816882245,25.496221360885826,46.640777118295766,10.52444577217102,8.577299118041992,-2.132217399775982,-22.439978222296627,19.470704153739458,0
GUIDED_NOGPS,1.5205540657043457,25.261261044225083,7.896084167918775,21.1565827563072,44.80644540390566,-23.121412862288334,-3.2835652368013726,37.84140440606155,40.773229258496485,1.9347836307646922,-0.07275025917040326,11.326254252501085,1.6757389566528953,0.6790294622603308,-10.0,0.4919335677091816,8.249172436893858,26.099074652363626,46.75481130722263,13.431286811828613,9.27458330988884,0.1432955265045166,-21.810219352900347,15.66822172957747,0
GUIDED_NOGPS,1.5565776824951172,27.763976964321177,8.283558041040301,21.57487968341284,45.094876061247625,-22.385431095301133,-3.1364945475825534,38.16203747162078,40.314711562340534,1.964547033846669,-0.08264262758461637,10.682266451511849,1.6201426502972778,0.8067716861860413,-9.326733514640674,0.49043967100218583,8.636351294801406,26.442341783392926,46.63794092335611,10.336226969957352,11.563355475664139,6.618473678827286,-20.531546792685482,20.77236233217276,0
GUIDED_NOGPS,1.5878980159759521,31.933731270556706,8.626725435637113,21.989918130194447,45.26394402105973,-21.826009957510966,-2.990167075938026,38.48105022703875,39.845551012975676,1.9228830933530028,0.06178206926084705,10.177715254881129,1.5880452248871673,0.827556749412488,-9.535896779455605,0.4891632139838319,8.63854531567943,26.695429892010218,47.0589451657347,12.402713298797607,10.98269298672676,0.41863429360091686,-20.011767108016812,14.765719806239712,0
GUIDED_NOGPS,1.6217074394226074,29.58047294295205,8.88309083492237,22.415293091651616,45.48189819790085,-21.363196962841126,-2.8448769454682594,38.79780144494261,39.366019088588565,1.6279597938600836,0.03781878411478705,9.59560811399856,1.5153792698598247,0.7168492660729586,-10.0,0.48776824178137546,8.63854531567943,26.695429892010218,47.0589451657347,9.121160209178925,12.500599026679993,4.763206094503403,-20.011767108016812,12.299972850767274,0
GUIDED_NOGPS,1.6561391353607178,29.046426592797783,9.273355766280346,22.861499279934982,45.64467048988562,-20.813846460885593,-2.7009151163444685,39.11165679464317,38.87640010455003,1.6179996705029125,0.1745023953509666,9.040555352418414,1.5456346652354136,0.947397308107137,-9.302423609655301,0.4864634592293288,8.829178581942486,27.16502815437461,47.22995870567591,16.632765531539917,12.74048238992691,0.7360928226262331,-19.38473005054569,15.221909848452157,0
GUIDED_NOGPS,1.6890015602111816,30.43430686064652,9.578686673643437,23.3215875592147,45.77998529769016,-20.30754881638742,-2.5585684814716974,39.4219908126159,38.37699072899298,1.4273281096328365,0.4419682276587289,8.41586795847634,1.4593480597714692,0.8893475106568731,-9.10052793121609,0.48519401086260566,8.829178581942486,27.16502815437461,47.22995870567591,11.926809698343277,14.165487885475159,-0.46113114804029465,-19.38473005054569,13.469853628222582,0
GUIDED_NOGPS,1.7300007343292236,24.395558631760785,9.806182348138167,23.822724817465385,45.913159854098794,-19.778871119630313,-2.418118962651878,39.728188872982074,37.868099498390386,1.1515660520827418,0.8085369298526291,7.847291422339567,1.3810838249531276,0.7858023711394995,-9.277481479284425,0.4839098792885832,9.047995378661874,27.80235608159174,47.2526799419687,7.715804874897003,15.954996645450592,0.36277039907872677,-18.763483858871957,16.05931153126323,0
GUIDED_NOGPS,1.76991605758667,25.05483109823482,10.165899796463615,24.345266247016212,46.00942173362181,-19.157034435662293,-2.2798426067469,40.02964915798968,37.35004633313325,0.9412687964062804,1.0894671460877494,7.183312511423349,1.3828036897238782,0.9981283338791251,-8.38823704662611,0.4826812491990229,9.047995378661874,27.80235608159174,47.2526799419687,11.763802170753479,15.360228717327118,-3.412071615457535,-18.763483858871957,16.26661801785687,0
GUIDED_NOGPS,1.7967569828033447,37.264815110968954,10.533159765576471,24.86507504740341,46.09389332782226,-18.51290379921891,-2.144008681841715,40.32578462849456,36.823162053108504,0.996937399462823,0.9178534138275957,7.072216496365329,1.2768122205565096,1.2304679705606087,-6.3064205955693,0.4814585374505725,9.047995378661874,27.80235608159174,47.2526799419687,13.457553088665009,15.518026053905487,-3.1381845474243164,-18.763483858871957,19.598891436534966,0
GUIDED_NOGPS,1.8352179527282715,26.00425312939805,10.846699602543486,25.29811996165848,45.83412178108003,-18.172072671168706,-2.0108787734073506,40.61602499444143,36.287787893277056,0.9212943350654011,0.8937426326140391,6.253869760678122,1.4219147252641482,0.9981531532268371,-9.130093142894363,0.4809073322243941,9.047995378661874,27.80235608159174,47.2526799419687,19.671301543712616,15.937133133411407,-20.877277851104736,-18.763483858871957,14.061573406588296,0
GUIDED_NOGPS,1.8694438934326172,29.223711713720352,11.113613035153676,25.808699209501455,45.922690700428326,-17.615671767267028,-1.8807058804640366,40.89981868534491,35.74427501925167,1.0132542945031604,0.9428880848481023,5.672142549068137,1.248846899812155,1.0404409086339028,-7.312504279629868,0.47964316863764667,9.047995378661874,27.80235608159174,47.2526799419687,9.556013345718384,16.81431531906128,-1.1027921922504902,-18.763483858871957,18.372423395579748,0
GUIDED_NOGPS,1.904320240020752,28.67566846930613,11.267431038215635,26.274605357489722,45.970833627426295,-17.211804745462082,-1.7537335117442492,41.17663482077057,35.19298404287494,1.053213782633791,0.9299331369832922,5.1727814424329805,1.2390552839645326,0.8831323280850767,-8.021067716045488,0.4784443008308973,9.047995378661874,27.80235608159174,47.2526799419687,6.488163769245148,16.81046634912491,-2.6458166539669037,-18.763483858871957,14.254395623273279,0
GUIDED_NOGPS,1.939976453781128,28.050854372178566,11.467866989269076,26.749168571951806,45.96035965500679,-16.807048713260965,-1.6301947818557831,41.445965180815996,34.634284537797285,1.1742738697520954,0.9617232919797645,4.811651411767835,1.2218388967950091,0.9751117364902233,-7.811883029475418,0.477347849765581,9.047995378661874,27.80235608159174,47.2526799419687,10.285579413175583,18.26254576444626,-5.957561731338501,-18.763483858871957,14.790641458973797,0
GUIDED_NOGPS,1.9702448844909668,33.04344811829863,11.621703157656581,27.21256790875834,46.00743306041431,-16.540967327105026,-1.5103115074448308,41.707326176591785,34.068554555054874,1.1538748694656176,1.0417812199019534,4.368457085111809,1.144096327180557,0.9516268263285272,-8.166352726443797,0.47612224298928113,9.047995378661874,27.80235608159174,47.2526799419687,8.946061134338379,19.339048862457275,-1.9085587933659554,-18.763483858871957,10.146502144147817,0
GUIDED_NOGPS,2.0035910606384277,29.99359267734554,11.634515108188635,27.905004043218845,46.10371168363335,-16.136511356043364,-1.3942933033590403,41.96026082070266,33.496180138647574,1.2992419990144104,1.129177545757086,3.977842835347012,0.7294732866191241,0.8484143662218113,-7.25431786213338,0.47478493691002843,9.448108498688532,32.51190534282262,46.776299869576405,0.1782975159585476,22.338107228279114,2.84596960991621,-16.15617830069928,13.578612437923987,0
GUIDED_NOGPS,2.03722882270813,29.733340894912946,11.7371536696085,28.593920178267357,46.185753391166585,-15.81799718054697,-1.2823366788106139,42.204340697728426,32.91755484111694,1.1963667569527363,1.1855041948514773,3.6572926660882046,0.7268225226774085,0.9975545144792625,-7.596337591861962,0.4734636028999007,9.448108498688532,32.51190534282262,46.776299869576405,4.584794119000435,21.52741849422455,1.908867247402668,-16.15617830069928,7.024038049507352,0
GUIDED_NOGPS,2.0711445808410645,29.488135998368918,11.878145950841093,29.255776631611177,46.1149248895288,-15.521985121220181,-1.174624133539366,42.43916793470508,32.3330792391241,1.2793849315498909,1.2708621361261845,3.3552256290536864,0.7359870484248728,1.0658223883008617,-7.564274577591794,0.4724363086991906,9.448108498688532,32.51190534282262,46.776299869576405,7.676494866609573,21.073731780052185,-7.328708469867706,-16.15617830069928,6.893520391544402,0
GUIDED_NOGPS,2.1044979095458984,29.987373899863442,11.932338872623166,29.95182479550436,46.26605137657635,-15.312631149935779,-1.0713232539757573,42.66437717160588,31.743160449027858,1.2247397896517924,1.250734956024332,3.1050097596599087,0.5866615109530177,0.9761110742118145,-7.926673751457656,0.470954218144903,9.448108498688532,32.51190534282262,46.776299869576405,2.625342272222042,24.459196627140045,6.547194719314575,-16.15617830069928,2.5746013878222254,0
GUIDED_NOGPS,2.1383981704711914,29.50182526675623,11.937969558110819,30.648506526089562,46.40656038558782,-15.03907124513475,-0.9725858094040358,42.879637531822254,31.14821164246247,1.2307921910300699,1.387742040750735,2.8787563283086515,0.5307759119547684,0.9194726396151391,-7.422212716593142,0.4694833025137493,9.448108498688532,32.51190534282262,46.776299869576405,0.14088554307818413,26.239803433418274,6.093190982937813,-16.15617830069928,8.234865384150064,0
GUIDED_NOGPS,2.1707732677459717,30.892033025712035,11.939723500710981,31.332247123075728,46.54632391062612,-14.768578661695658,-0.8785468481252625,43.084654592645,30.54865156191574,1.165334432789018,1.134216517817263,2.6685721976403185,0.45140881173697706,0.9265526535256832,-7.188911771136467,0.46800465530257923,9.448108498688532,32.51190534282262,46.776299869576405,0.14088554307818413,26.239803433418274,6.093190982937813,-16.15617830069928,8.234865384150064,0
GUIDED_NOGPS,2.2060770988464355,28.333000081061364,12.00842603367016,31.957655423213996,46.597945530680335,-14.636156721220678,-0.7893237936203921,43.27917235574524,29.944904036306887,1.0744811774402125,1.0995358054197002,2.4896822862016914,0.5662288446017729,1.012348618817065,-8.027321796347447,0.4666939170112531,9.448108498688532,32.51190534282262,46.776299869576405,5.327912047505379,24.604099988937378,0.9777430444955826,-16.15617830069928,2.080278826360423,0
GUIDED_NOGPS,2.2382729053497314,31.06178581214684,11.96073559032646,32.615984558872974,46.710125823987276,-14.401904970263944,-0.7050155407133385,43.46297521765549,29.337397496564577,0.9299353781391135,0.9527343361452045,2.291028582069398,0.3636608125412895,0.8730938438313152,-7.194373206722936,0.4652545433451546,9.448108498688532,32.51190534282262,46.776299869576405,-2.5200866162776947,26.559558510780334,4.701215773820877,-16.15617830069928,7.787911465242769,0
GUIDED_NOGPS,2.277799606323242,25.303169604613846,11.973907159091118,33.217074686520725,46.693817689633356,-14.211071098431635,-0.62570155173408,43.63588994025065,28.72656449120483,0.8763252233436835,0.7945505700622942,2.108969676299296,0.5396364537233067,0.946610607520584,-7.559010951758673,0.464065493603143,9.448108498688532,32.51190534282262,46.776299869576405,2.532195672392845,25.838860869407654,-2.870634011924267,-16.15617830069928,7.461604300287287,0
GUIDED_NOGPS,2.3061695098876953,35.25513995124821,12.013401100436823,33.92951650867935,46.67303011009381,-14.067580201951687,-0.5514409526816646,43.797787621229176,28.112841201908957,0.7987014040869579,0.9532407306391375,1.9283271810083262,0.0829212651098094,1.0817431584516446,-7.427239637032157,0.46287962218363027,9.448108498688532,32.51190534282262,46.776299869576405,2.264418452978134,27.929136157035828,-3.569304198026657,-16.15617830069928,1.417963920280749,0
GUIDED_NOGPS,2.339458703994751,30.044081515705024,11.96663740901572,34.44828919032338,46.614939344476284,-14.005077823370012,-0.48227162938735013,43.94858566459399,27.49666695910161,0.8559764889806287,0.8963403456544654,1.8034147604764288,0.43168429804290764,0.8680596591508398,-8.028516936402399,0.46176345522925066,9.448108498688532,32.51190534282262,46.776299869576405,0.9331817738711834,27.918481826782227,-4.7342367470264435,-16.15617830069928,3.830842223369528,0
GUIDED_NOGPS,2.3727149963378906,30.07424084895852,11.932782459197986,35.03376122016471,46.617532774064784,-13.858320473219454,-0.41820932367765273,44.088249751133574,26.87848375752862,0.8640251732264013,1.0789602874318598,1.7265019212236195,0.2836838118357818,0.9233390878638434,-7.432629730691483,0.46052190196692766,9.448108498688532,32.51190534282262,46.776299869576405,-0.04302780143916607,27.7371883392334,-1.275159977376461,-16.15617830069928,6.583095977730139,0
GUIDED_NOGPS,2.406636953353882,29.48834331674119,11.894090492579243,35.59642794172977,46.61828603839683,-13.721584553045805,-0.3592467295373769,44.21679580890306,26.25873577183505,0.6525639572658345,0.9945292241718646,1.5981788884183585,0.2748090331361296,0.9197114366850137,-7.42558532473518,0.45928089946687645,9.448108498688532,32.51190534282262,46.776299869576405,-0.04302780143916607,27.7371883392334,-1.275159977376461,-16.15617830069928,6.583095977730139,0
GUIDED_NOGPS,2.439725399017334,30.226821657382118,11.812060244973932,36.16652179295855,46.555824745982605,-13.674817529719569,-0.30535258927277376,44.33429198370516,25.637868872143095,0.606569783560086,1.0304054331175914,1.5663201113650689,0.17530280236732318,0.8670602747049375,-7.920496460729215,0.45816408825232097,9.448108498688532,32.51190534282262,46.776299869576405,-2.8627270832657814,28.71580719947815,-5.128459632396698,-16.15617830069928,1.581287830600917,0
GUIDED_NOGPS,2.4727210998535156,30.309168690021966,11.718817293041658,36.73549882038515,46.51215495453157,-13.561682679681526,-0.256470789674518,44.44086060957133,25.01633013963007,0.36495656410636573,0.8832047179417672,1.4816874508028524,0.12711065027806917,0.8585445668318072,-7.457641049086039,0.457008350370197,9.448108498688532,32.51190534282262,46.776299869576405,-3.1894519925117493,30.67706525325775,-3.8190551102161407,-16.15617830069928,6.5833683315232925,0
GUIDED_NOGPS,2.5082688331604004,28.135340363304625,11.635679916914782,37.28651377489912,46.445869778365235,-13.568667329283812,-0.21251945818083762,44.53668017924275,24.39456738210636,0.4012230810105616,0.7002692534412299,1.4352553979382825,0.14892618181464576,0.876915212974544,-8.180541762048422,0.45589739520748224,9.448108498688532,32.51190534282262,46.776299869576405,-2.5279760360717773,29.88063395023346,-5.163710564374924,-16.15617830069928,-0.48422626120805395,0
GUIDED_NOGPS,2.5417957305908203,29.831252978286074,11.54962068660078,37.839989589891665,46.41401199048084,-13.57317949941898,-0.17339005904059412,44.62198731465138,23.773028649593343,0.3035259227525504,0.6182802496137786,1.3868755672214954,0.05092812409766695,0.8806073563502791,-8.170883116919008,0.454718033318225,9.448108498688532,32.51190534282262,46.776299869576405,-2.7307482436299324,29.678094387054443,-2.9278337955474854,-16.15617830069928,-0.6375955976997515,0
GUIDED_NOGPS,2.576072931289673,29.177969933703885,11.466105627396908,38.30617662481894,46.446015113607515,-13.55820556444822,-0.1389464894762984,44.69707873740096,23.15216174990138,0.36168055458441906,0.40024164152376895,1.2980946339555541,0.14597575720025455,0.8619050484594348,-8.047410644333656,0.45341229327258775,9.448108498688532,32.51190534282262,46.776299869576405,-2.0903922617435455,27.55942940711975,1.07894754037261,-16.15617830069928,1.9860834740733655,0
GUIDED_NOGPS,2.610295295715332,29.225340728559882,11.361956254614851,38.77724549402683,46.40914417803063,-13.46770874432041,-0.10902417584721213,44.76231323924817,22.532413764207817,0.2179332204055505,0.3033059693169348,1.2037085699802652,0.08423788393145364,0.8401180015030039,-7.552099723875677,0.45224653917235436,9.448108498688532,32.51190534282262,46.776299869576405,-3.3798713237047195,28.92204225063324,-3.1823180615901947,-16.15617830069928,6.827467766515324,0
GUIDED_NOGPS,2.650601863861084,24.813668417814377,11.090152180996117,39.836319725591295,46.33883829901754,-13.228809892288465,-0.0834291698124705,44.81811365258352,21.914230562634827,0.266109933035809,0.36704801605499127,1.1562520954618993,-0.6846154893595465,0.8130191567648306,-6.745695433862215,0.45115078452723456,6.743316689006058,45.7389727125275,44.45537280024364,-6.615860760211945,30.697962641716003,1.3653112575411797,-11.746158980326413,3.933728351045192,0
GUIDED_NOGPS,2.6835670471191406,30.338326666714888,10.993864476193236,40.951294535474304,46.12856475472796,-12.908315218310099,-0.06193724449404847,44.86496882091258,21.298056319827467,0.10754478359707544,0.45087311346955944,1.074355992879331,-1.0765769036654904,1.085976969529895,-5.818560748658643,0.450338983130199,6.743316689006058,45.7389727125275,44.45537280024364,4.1355811059474945,27.05855965614319,-7.264158129692078,-11.746158980326413,6.986982992599564,0
GUIDED_NOGPS,2.7170321941375732,29.886732221747184,10.762596040248171,41.943581169198545,45.89600923867987,-12.771238011102444,-0.04429299063992609,44.90343556933675,20.684333030531604,0.2828646538741147,0.6052775971464842,1.043270734749545,-1.0266270790793557,0.8485290815162507,-6.843233023603615,0.44957664758370347,6.583949466182694,46.18677611846879,44.326211518632874,-3.772087022662163,29.252585768699646,-8.541300147771835,-11.716128216342227,-0.7735744187909503,0
GUIDED_NOGPS,2.7536120414733887,27.34137739969362,10.409133204784954,43.37075489665297,45.60859324176763,-12.482528753957054,-0.03020891278710458,44.93414067503464,20.07350002517184,0.3431186350608367,0.685898588788376,0.9782939712364501,-1.7545534186230773,0.8081074466251414,-5.82497974384224,0.4489298135668084,3.116911934502207,56.89131218543436,42.537478602105786,-2.171376906335354,28.17838191986084,-7.042846083641052,-9.366324854303503,2.311913166117181,0
GUIDED_NOGPS,2.785203218460083,31.660859325462724,10.074618594803132,44.76463530564043,45.180025647886424,-12.254310406743514,-0.019364525424728996,44.95778283774281,19.46599348542952,0.3922874326680395,0.9760693572794358,0.9214993474622073,-1.9114710664763228,0.814466590388627,-5.9826869573324934,0.4485719356750862,2.8655343308578036,57.28482579478311,42.40748374617152,-0.8014896884560585,26.979047060012817,-15.5808225274086,-9.301614338944269,-0.9913436879759941,0
GUIDED_NOGPS,2.81813645362854,30.369299833466076,9.759765421691258,46.13861766036619,44.64421951420935,-11.987753331132843,-0.011405449157054548,44.97513465023705,18.862245959820697,0.3444756815911271,1.1330217683210397,0.8365870760308435,-2.0211467447879308,0.8280379870040191,-5.576780617754519,0.4484360528912227,2.381246872787676,58.15107656783229,42.05897013871781,1.2227903120219707,28.466767072677612,-21.788115799427032,-9.221112010834002,2.437539127973933,0
GUIDED_NOGPS,2.8522400856018066,29.32587537755901,9.445464289058044,47.48040487838824,44.11016758017983,-11.737227228682675,-0.005942506866661645,44.987044568813246,18.26268587927396,0.0907885286342491,1.3037551532302023,0.7956090359402347,-2.0231921566468434,0.811140953457885,-5.575643661566276,0.44830503659818827,2.147964989151324,58.67706813741579,41.88178176294687,1.2227903120219707,28.466767072677612,-21.788115799427032,-9.232327728105272,2.437539127973933,0
GUIDED_NOGPS,2.8920516967773438,25.12145950251855,9.13023911849427,48.77987018209185,43.6545847274833,-11.553947734733317,-0.002550819877436439,44.99443888376854,17.66773707270856,-0.2337984425065943,1.1785679243059177,0.7022397096559256,-1.806427455372173,0.7987458643093839,-6.009229929737694,0.4480263046904505,2.155101193931965,58.68239846541013,41.90341789860453,0.4718259908258915,28.116944432258606,-17.349430918693542,-9.017553803687646,-1.7391044740159392,0
GUIDED_NOGPS,2.9208531379699707,34.89176351188347,8.6617359414061,50.11524463346623,43.23598478269226,-11.39029844994273,-0.0007689041176579536,44.99832368988223,17.077818282612313,-0.5169573814844013,0.9583462970437221,0.6850419336560682,-2.710831088719957,0.4961263779716072,-5.680787512448038,0.4476836669998401,1.4835107479869936,59.54074033125475,41.53607806077498,-8.319118618965149,31.134596467018127,-14.68164175748825,-8.927160671003762,-2.4789804469893393,0
GUIDED_NOGPS,2.953545570373535,30.471452338227493,8.266656619967609,51.30782848368844,42.87855586247845,-11.239656614202538,-9.776628307811563e-05,44.99978685689706,16.493342680619477,-0.9100877021847027,0.6782560339939548,0.6220468854976291,-2.224840353817856,0.5932589719230528,-5.836665503337315,0.4472295736362821,0.4876276815620761,61.61643674574147,41.065677810456265,-2.1847374737262726,29.156920313835144,-12.482409179210663,-9.105342528464398,-0.31120860490834534,0
GUIDED_NOGPS,2.991795539855957,26.14707129142458,7.754079061277856,52.6039619557818,42.548057234920385,-10.999553688464546,1.2434497875801753e-14,45.00000000000003,15.914717383088856,-1.07678337807733,0.7384591889682983,0.5888358377103825,-2.254827326741558,0.4664672343712362,-5.344236296813108,0.44673332029633694,0.2851355120297603,61.940716318251006,40.85222435629839,-9.89244356751442,30.693572759628296,-9.363669157028198,-9.081395785096971,4.538214606743306,0
GUIDED_NOGPS,3.0204341411590576,34.922558137598564,7.2502199849850175,53.88507127436407,42.051679982252594,-10.806260718697859,0.0,45.0,15.342342966681557,-1.360987762884972,0.37108769942308356,0.4811788228994647,-2.935649912032326,0.32989049493324984,-5.135114296185906,0.4465813259688579,-0.8547907743704017,63.703363145335054,40.16072861226813,-6.875097006559372,27.128809690475464,-18.400965631008148,-8.99663720681876,0.3483255604054871,0
GUIDED_NOGPS,3.0612480640411377,24.504878419275308,6.759592360942707,54.9909296550532,41.641604771412034,-10.556011227615278,0.0,45.0,14.776612983939131,-1.522898037490359,0.5736096385031316,0.39199360113159676,-2.119081705543634,0.4011206136600203,-5.104893145684076,0.4462700164250542,-0.8547907743704017,63.703363145335054,40.16072861226813,-8.129771053791046,27.034199237823486,-15.871402621269226,-8.99663720681876,7.229925137414101,0
GUIDED_NOGPS,3.0875961780548096,37.96196837637007,6.4276072834590865,56.13442065434391,41.166046128621176,-10.385114034143706,0.0,45.0,14.217913478861504,-1.6517262908507893,0.6610798691395181,0.2411686701882876,-3.0224333169647823,0.5008064926963602,-4.932362457471737,0.44610373470048065,-1.280666685993983,64.14445163422502,39.925545617000644,3.913966566324234,22.59022891521454,-17.930905520915985,-8.97501013455313,-0.5710712627311199,0
GUIDED_NOGPS,3.125170946121216,26.616812940646398,5.914134508503734,57.143753086532,40.85964359192026,-10.239532337971156,0.0,45.0,13.66662250248477,-1.7089380897729316,0.8440573286312805,0.08784267604935053,-2.3007587994577507,0.2640078208674399,-5.3708784725300465,0.445613957821129,-2.5306371206027576,65.95148402422772,39.24112672372644,-7.820787280797958,23.802611231803894,-9.612180292606354,-8.882141247923368,2.311050854734467,0
GUIDED_NOGPS,3.1601061820983887,28.629475164331105,5.283909109611043,58.468942158587296,40.465637354951625,-10.018994021653402,0.0,45.0,13.123109628459375,-1.7369292722087017,0.7486703751383204,-0.09732035726542998,-3.003511536312118,0.09734615279148362,-4.748513720833724,0.4453149445470155,-3.504798032126436,67.08825329877035,38.701161573488065,-10.722380876541138,23.13668578863144,-8.174826204776764,-8.724846625484005,3.840727641532652,0
GUIDED_NOGPS,3.192300796508789,31.065006628794894,4.734727702368417,59.63135052846771,40.114090530612465,-9.863434182340276,0.0,45.0,12.587735468627912,-1.931148262578953,0.8194139527450216,-0.2538120973939217,-3.0027361262373926,0.089880330819116,-4.952782403860879,0.4449472898760309,-4.19477379883016,67.75307981437196,38.25034060267134,-5.073045194149017,20.055152475833893,-6.903434544801712,-8.635716629273459,1.0438339051909538,0
GUIDED_NOGPS,3.236488103866577,22.63349773897277,4.103867383479758,60.715379875318106,39.6114348222578,-9.623129736796384,0.0,45.0,12.060851188603195,-2.364287056672839,0.4406676369107968,-0.5385055077378809,-2.506261250811008,0.07565543395416563,-4.686408702676718,0.4448988327326908,-4.891484778557114,68.39095316872351,37.81138230485894,-10.712096840143204,21.469682455062866,-17.880520224571228,-8.499500452618605,7.108010102710781,0
GUIDED_NOGPS,3.269618272781372,30.18853149269093,3.290616243833045,62.068467696806145,39.09540568979403,-9.393640969179165,0.0,45.0,11.542798023346037,-2.577088430453756,0.35149850344007544,-0.7529294249726464,-3.523470282284881,-0.36635773392880555,-4.244790353572556,0.444894784667104,-5.18798465459261,68.6516932407157,37.57098252970223,-17.869381606578827,19.664452970027924,-11.766098439693451,-8.42715910396848,3.4364696620139306,0
GUIDED_NOGPS,3.3036484718322754,29.390194168634512,2.6358248672766758,63.04676752242945,38.59590144545378,-9.131578591463834,0.0,45.0,11.033906792743466,-2.6315391254039207,0.2114449142200086,-0.9225598410525576,-2.9685217847245733,-0.262487967425683,-3.9300906111556637,0.4448760106945794,-6.190091833920176,69.44672158236,37.006431908441925,-10.138455778360367,16.675840318202972,-16.63947105407715,-8.174459946733863,8.264196777767037,0
GUIDED_NOGPS,3.3501665592193604,21.500099957454008,1.904468962381611,63.98726322413046,38.24725086622328,-8.93479460669149,0.0,45.0,10.534497417186415,-2.79433604394094,0.03844497038840639,-1.2228701320882072,-2.589196636719105,-0.21131038550372738,-4.518935505582363,0.44457449310192626,-6.804898992142924,69.93779020762652,36.58824933594802,-14.710153639316559,15.730096399784088,-7.0310622453689575,-8.026832478644067,4.314437118966179,0
GUIDED_NOGPS,3.3706448078155518,48.84139922679212,0.9756582070626563,65.23408550222497,37.630425509431944,-8.592633210353137,0.0,45.0,10.044878433147872,-2.684723460593283,-0.10257610779047545,-1.341328664184677,-4.280117803682823,-1.5533018014429367,-1.8207077012094648,0.44482890584743184,-8.81911929286304,70.75701145268881,35.25090399403078,-15.84390103816986,14.69796895980835,-12.823203206062317,-7.434689792010889,8.060803135794165,0
GUIDED_NOGPS,3.4035861492156982,30.360506695620703,0.29738906594299164,65.69882497197251,37.370357722191294,-8.378270729797519,0.0,45.0,9.565346508760754,-2.585558718798218,-0.1315345824169155,-1.5515519617190319,-2.4811880524705003,-0.646870266526979,-3.727063049956019,0.4443899775731389,-8.81911929286304,70.75701145268881,35.25090399403078,-16.691163182258606,12.089486420154572,-8.346904814243317,-7.434689792010889,8.956432181279597,0
GUIDED_NOGPS,3.437575101852417,29.424833208224886,-0.4534385795718095,66.4603728163064,36.78272037345281,-8.098197549397472,0.0,45.0,9.096185959395896,-2.245676125980513,-0.33351309457112444,-1.7415611009613223,-2.9967898525721406,-0.7539367110118689,-3.176203091638988,0.4446269311718862,-9.67967585239164,71.10146294448583,34.79499891103403,-12.743125855922699,10.664963722229004,-20.563805103302002,-7.258650206040443,9.118951409938173,0
GUIDED_NOGPS,3.4709415435791016,29.974087228705578,-1.248200193295805,67.19185303611154,36.22929021639936,-7.85068804871209,0.0,45.0,8.637668263239973,-2.243538703657122,-0.5261685319103983,-1.9110717752873467,-2.996521070257313,-0.8773562465822544,-3.257802041287869,0.4448167560936812,-10.351126187748331,71.06564149932532,34.27214602290645,-14.861641824245453,10.320506989955902,-17.500337958335876,-6.937980987509324,6.626230329886061,0
GUIDED_NOGPS,3.5047085285186768,29.62120933911496,-2.072720953036012,67.90283129957457,35.661406839424494,-7.598104806707115,0.0,45.0,8.190051576873415,-1.906971740794635,-0.8975101222715358,-2.0606019051352624,-3.0488436223415363,-1.0163572246988666,-3.0590031815092793,0.44505728947489787,-11.540026600455304,71.40855756754449,33.65276300592504,-14.861641824245453,10.320506989955902,-17.500337958335876,-6.670833761483802,6.626230329886061,0
GUIDED_NOGPS,3.5382840633392334,29.786763818167614,-2.8472492887052585,68.50663876885297,35.111102812658366,-7.39758631708865,0.0,45.0,7.753580250848515,-1.8228225295596086,-1.1647384987839344,-2.159980517228713,-2.938337806164775,-1.040295717370746,-3.243814233493924,0.4452849548763803,-11.863211125850325,71.52511475152384,33.47580133474854,-12.95127421617508,6.861045211553574,-17.684918642044067,-6.569747330784046,4.108063806967889,0
GUIDED_NOGPS,3.571622848510742,30.003676865079083,-3.6107768413639727,69.07445244042417,34.67963365625726,-7.188779478380101,0.0,45.0,7.328484345267313,-1.8643494393830513,-1.3434447421669116,-2.237647665497986,-2.9459184178750712,-1.1174526280481365,-3.05270756091061,0.4452977013780201,-12.193421930888759,71.59527038216862,33.30860442267972,-13.06142508983612,6.658809632062912,-10.894398391246796,-6.4656228359288725,4.878358454296765,0
GUIDED_NOGPS,3.6046903133392334,30.244694582453004,-4.361980004130252,69.59213333979059,34.23640317508182,-7.0053152061257995,0.0,45.0,6.914979145359368,-1.85620700011875,-1.5052767897619608,-2.334953315178338,-2.908079270194984,-1.172675469174839,-3.10317349773085,0.4453571519405551,-13.060424672951548,71.77935298176466,32.86044680729006,-11.793849617242813,5.452081561088562,-11.698154360055923,-6.16552557509829,3.1811646613582583,0
GUIDED_NOGPS,3.6465773582458496,23.877127665630585,-5.091936195939706,70.08493819327404,33.80897195167524,-6.830435635464445,0.0,45.0,6.513264677060093,-1.9419899072258788,-1.3667006825171588,-2.4406449430555845,-2.735944144854576,-1.012907942486071,-3.2618228026655496,0.4454085854507697,-13.060424672951548,71.77935298176466,32.86044680729006,-11.793849617242813,5.452081561088562,-11.698154360055923,-6.16552557509829,3.1811646613582583,0
GUIDED_NOGPS,3.67368745803833,36.895707248416606,-5.880849564898672,70.53250820116934,33.41650374209482,-6.731378863013449,0.0,45.0,6.123525222588327,-2.117074336079751,-1.1754482354025144,-2.540200072850398,-3.0856022304628743,-1.6408571691099554,-3.304572854274231,0.445414042960987,-13.755026576920354,71.87136093327783,32.48787613129504,-15.312179923057556,3.981563076376915,-9.325399994850159,-6.063184239798257,-1.236232436703985,0
GUIDED_NOGPS,3.707533836364746,29.549837959701282,-6.518013027561511,70.77055566199537,33.187935604959875,-6.5539149439624165,0.0,45.0,5.745928836024589,-2.260991117646974,-1.282697146410524,-2.7010454782754976,-2.5704873740478438,-1.2396352560450843,-2.8869970215826406,0.4451159864621294,-14.047964768091198,71.89413352641256,32.32344676674446,-13.087800145149231,1.6307536512613297,-5.166725069284439,-6.02843210220531,6.102652360661802,0
GUIDED_NOGPS,3.7430360317230225,28.172758903263073,-7.375065191855582,71.13226659010783,32.917962538913805,-6.347178342815228,0.0,45.0,5.380626858888817,-2.1545545722633728,-1.1483331314495042,-2.7933358481143564,-2.7911741695302235,-1.5724068443717893,-2.643141521762697,0.44492532863995005,-15.805486368420304,72.30586530616551,31.277138795398226,-18.67000311613083,2.099737338721752,-1.105556171387434,-5.769036375690764,5.7295720602700735,0
GUIDED_NOGPS,3.773627996444702,32.69214400960272,-8.1463769163009,71.411490268678,32.64365775766524,-6.140267741962263,0.0,45.0,5.027753435718509,-2.100278687467278,-1.1731679127150823,-2.866485253134489,-2.7669274644813218,-1.7057522560518512,-2.333480187918892,0.44476819135610657,-16.309111520610116,72.23193611518654,30.898707443649783,-13.84335309267044,-0.967645924538374,-1.6915593296289444,-5.698991212531229,6.029345220960525,0
GUIDED_NOGPS,3.807246685028076,29.750634832815535,-8.951303489130758,71.6372255686371,32.27587047143382,-5.991352218294277,0.0,45.0,4.687425029646462,-2.3199800464137894,-1.3324585963303577,-2.9936768224150545,-2.6626456313399287,-1.735275073490138,-2.7081916359111577,0.4448231091164253,-16.5746306574563,72.23140178241161,30.690129586747283,-19.3031445145607,-0.8884530514478683,-9.52417328953743,-5.630811644696028,3.6507600170339103,0
GUIDED_NOGPS,3.841273069381714,29.392871659028156,-9.782393818632082,71.8636088981693,31.779610045836037,-5.844404372190619,0.0,45.0,4.359739937978915,-1.9161009289505917,-1.4990230045248736,-3.0905165251279647,-2.68502042653134,-1.843646257691761,-2.6388031421730695,0.44516025978428575,-17.20419332625175,72.06955078277801,30.255201395809042,-17.772257328033447,-2.1559789776802063,-15.549106895923615,-5.4544906324904,2.5847967258189386,0
GUIDED_NOGPS,3.8745059967041016,30.093445069452418,-10.51872638033877,72.0084754226935,31.388002659347706,-5.767877426243091,0.0,45.0,4.0447778077735705,-1.699982217667164,-1.6746373066479507,-3.117150207466195,-2.571596148667028,-1.8002249760372724,-3.002243163723458,0.4453135502968517,-17.42645420930102,72.00631685492337,30.073596766652035,-13.156947493553162,-5.33796101808548,-9.51407179236412,-5.401228744187481,-1.4170817586607596,0
GUIDED_NOGPS,3.9080440998077393,29.82086029150373,-11.213504778176864,72.10041630947092,30.97750264218669,-5.715216253589837,0.0,45.0,3.742599151417167,-1.305187465243495,-1.8919632538671782,-3.123330888334822,-2.4968367015670085,-1.8033548575814238,-3.1156934895094475,0.445530193018461,-18.109123073450995,71.75924211169193,29.536469129729316,-9.786254167556763,-6.927502155303955,-10.24911180138588,-5.206269245052036,-2.8422152431359065,0
GUIDED_NOGPS,3.9421591758728027,29.317676005144552,-11.959625318832815,72.15864155629696,30.638401210571697,-5.686362221390565,0.0,45.0,3.4532448622040164,-1.32158461500658,-2.085736147507263,-3.198391038775265,-2.461859905895181,-1.9351747403111934,-3.2427098960533014,0.44562968730326463,-18.58853780703828,71.34668765943314,29.1148908813176,-14.441610872745514,-6.204872950911522,-5.958601087331772,-5.131182715091396,-3.9785484792656387,0
GUIDED_NOGPS,3.975937604904175,29.61138056408627,-12.686507209802699,72.1883976392378,30.237648215371372,-5.5969576900828715,0.0,45.0,3.1767357299133465,-1.0389836171065985,-2.2575905372139538,-3.269844422447119,-2.425143082495403,-1.9929480486492301,-2.827718857695417,0.44587817502908395,-18.58853780703828,71.34668765943314,29.1148908813176,-15.146349370479584,-6.946798413991928,-10.715104639530182,-5.131182715091396,0.2000135521073609,0
GUIDED_NOGPS,4.008111953735352,31.083884833438322,-13.401008655482164,72.17831746207717,29.840188324943146,-5.515012458009505,0.0,45.0,2.913071956387725,-0.8693700096953477,-2.185062039078058,-3.3690480109430885,-2.3710665998814635,-2.0962329132339534,-2.800563245355191,0.4461457672628892,-19.076533594878185,70.89905181666694,28.636914984604925,-15.146349370479584,-6.946798413991928,-10.715104639530182,-5.089674176139511,0.2000135521073609,0
GUIDED_NOGPS,4.042740345001221,28.88420298737699,-14.013699388992293,72.10686958722918,29.31672088089992,-5.369088379867852,0.0,45.0,2.6622326711107718,-0.5268812194616067,-1.9638055314348997,-3.4712620053157406,-2.2570914623664713,-1.9444259728741422,-2.3775139401198144,0.4466910235804217,-19.201677680450793,70.74043340421073,28.486906021200344,-10.330111533403397,-9.256885945796967,-19.85631287097931,-5.061681153175167,4.6625270378453,0
GUIDED_NOGPS,4.075751066207886,30.29603305307561,-14.560183284593858,72.00241016990778,28.90001381469945,-5.32021402827985,0.0,45.0,2.424175446785185,-0.46534025454443984,-1.758949161762588,-3.6351287022315133,-2.1916744417627974,-1.9425591547633523,-2.896283518838331,0.4470483232641715,-19.44703285122831,70.3950109505718,28.077567845123653,-5.114657431840897,-10.689132660627365,-11.432889848947525,-5.032156850042508,-1.5378674642734997,0
GUIDED_NOGPS,4.109602212905884,29.546091097366826,-15.088076017876222,71.88095046662845,28.545277769183997,-5.159626663496658,0.0,45.0,2.1988358149108223,-0.5033416128173924,-1.6483148248037793,-3.7744513278082565,-2.1551107305569577,-1.9533145667449792,-2.1450957160076483,0.4473071160914536,-19.606303706763036,70.24724011492134,27.87086304056629,-6.508326530456543,-9.94764119386673,-9.14793312549591,-4.994414321942125,5.949748757694135,0
GUIDED_NOGPS,4.143741130828857,29.299244170613466,-15.645130108248388,71.7465044802881,28.254279315083327,-4.96168023398625,0.0,45.0,1.9861267813622732,-0.4754803640584113,-1.3165136264346686,-3.841348334973477,-2.1278735295812132,-2.0475766343057455,-1.8173312151599244,0.4474636949325579,-19.73403166532634,69.89103803453953,27.516543434845822,-8.776427805423737,-9.59157794713974,-4.498729854822159,-4.9252501415379815,8.165264902733988,0
GUIDED_NOGPS,4.182925462722778,25.525685108661914,-16.174711997634486,71.56766207027965,27.8867775495035,-4.875781589944915,0.0,45.0,1.7859383419673946,-0.8104081882418012,-1.3079041729858676,-3.9856787698723086,-2.054572291660771,-2.031544818397411,-2.443343625213999,0.44779832158492777,-20.013220451605868,69.22401341835814,26.657224032386075,-8.389697968959808,-9.840047359466553,-8.059261739253998,-4.715406671628063,0.937804823280026,0
GUIDED_NOGPS,4.2119646072387695,34.43966925862366,-16.67253972454508,71.36552607686947,27.52589221894871,-4.7933532613743814,0.0,45.0,1.5981369980847688,-1.0442979311676914,-1.1697803523301673,-4.080918073885321,-1.9817396750061675,-2.107009165899564,-2.3695413935773066,0.44814448955827213,-20.06483317641372,68.87787207997735,26.265748714383495,-8.389697968959808,-9.840047359466553,-8.059261739253998,-4.601206662392772,0.937804823280026,0
GUIDED_NOGPS,4.245017766952515,30.26411718017173,-17.065408953670797,71.1297555976649,27.214678933451502,-4.6985056198975235,0.0,45.0,1.4225652721818705,-1.2031785899893546,-1.1548919273217149,-4.13987754746134,-1.9030036464838591,-1.979769670080283,-2.2463422307394163,0.44841577267746074,-20.10321995618805,68.70595791131566,26.0884981020791,-4.23373207449913,-11.022812873125076,-6.512225419282913,-4.530658217827455,2.138923044017564,0
GUIDED_NOGPS,4.278846025466919,29.564834916965065,-17.4882446101434,70.90668161614296,26.97797990132686,-4.607739260452424,0.0,45.0,1.2590412234129786,-1.1533542809848156,-1.2172787684789055,-4.212085026706245,-1.9138959099376127,-2.0516559149997495,-2.2281341572015405,0.4485621226441722,-20.10232507287104,68.5573757108651,25.9179685967829,-6.819915026426315,-9.850698709487915,-1.9035525619983673,-4.447226922268522,1.819348951479834,0
GUIDED_NOGPS,4.319450378417969,24.63064925303016,-17.927571123557687,70.6299972053751,26.6888748717205,-4.557394231298445,0.0,45.0,1.107357963197117,-1.2310735094465097,-1.3315474064063957,-4.375211715314129,-1.875341016268813,-2.0120620056878247,-2.4863458882936644,0.4488369661829532,-20.11709941826929,68.21097658016906,25.54356800345701,-8.595412969589233,-12.371913343667984,-4.599876329302788,-4.339404382360543,-0.7769532279959911,0
GUIDED_NOGPS,4.346613645553589,36.82088648155138,-18.39159510482333,70.30577228588925,26.256318648666472,-4.408188459147722,0.0,45.0,0.9672831707961933,-0.6983450610859904,-1.3127557417306923,-4.49314731105227,-1.6111588672494617,-2.4009528882929394,-1.535647487182153,0.4494219290442594,-20.0863071016514,67.86454240785594,25.2172972943542,-6.680010259151459,-14.54942375421524,-9.987547248601913,-4.2343848453223645,4.185481866775869,0
GUIDED_NOGPS,4.379669904708862,30.25582133479528,-18.626061365017385,69.92707916704418,26.002818250351794,-4.239391220388167,0.0,45.0,0.8385586088926544,-0.5159747413784186,-1.2407871056633257,-4.690319504464905,-1.5725235571992253,-1.9167964835250264,-1.5315597490751733,0.44967148071708174,-19.96500323885692,66.94999600963565,24.429448752105785,-4.301214218139648,-15.24866372346878,-5.620012804865837,-4.03666650608343,7.603695286912001,0
