Mode,Time,Freq,North-Vision,East-Vision,Down-Vision,Yaw-Vision,North-Desired,East-Desired,Down-Desired,Roll-UAV,Pitch-UAV,Yaw-UAV,Roll-Control,Pitch-Control,Yaw-Control,Thrust-Control,northVraw,eastVraw,downVraw,yawVraw,zGyro
GUIDED_NOGPS,0.007299184799194336,138.2388187600936,23.434812677991093,-14.082017248713031,56.45771317372325,3.335071517683196,24.13435753608989,-14.900597357148616,60.050697948819106,0.8875737444939011,0.05016816634056678,5.518964457873199,0.5195468940108798,-0.4933289763323711,-10.0,0.5053894771626438,27.056823542358014,-16.493913603969947,64.4783214525425,3.6025672410834093,9.740282517223996
GUIDED_NOGPS,0.033830881118774414,37.64273406088455,27.42422375907778,-16.064142408108996,66.17536310637732,6.458278489112235,24.134315236624758,-14.900492911184429,60.050722124551214,1.0389048564877317,-0.20095313000506076,5.855065260324833,-0.3080220058169964,0.7271062786251364,-10.0,0.4908130385272608,27.14047002657673,-16.740643435231352,65.06325530416628,3.9391788902937828,9.682986737710912
GUIDED_NOGPS,0.05542731285095215,46.32235548781835,27.658518005384423,-16.401375820196087,66.19780710809046,6.5605808442424856,24.13402255387279,-14.899770218069175,60.050890383440624,1.0389048564877317,-0.20095313000506076,5.855065260324833,-0.11161936652466777,0.18641128444323607,-7.065548259255461,0.49077962491302524,27.712710305441117,-16.80914145376765,65.47001473208293,4.2283612078118855,9.682986737710912
GUIDED_NOGPS,0.07540583610534668,50.08482995796714,27.655783844564002,-16.74382196123107,66.6096074569095,6.505834970245192,24.133238429325385,-14.897834055421741,60.05134414655308,1.0318074361664422,-0.1674662066083692,5.961115473133505,-0.13014614445076442,0.14212506546756215,-3.2560546127260004,0.49016260503446535,27.594068690935757,-17.47939577417158,66.52041175654144,4.864951220409949,9.396507840145501
GUIDED_NOGPS,0.10603594779968262,32.66057731990874,27.742969543382237,-17.039115628368734,67.00878267364614,6.57692870389053,24.13173185098424,-14.894114007733902,60.052221948643734,1.0663697941922934,-0.21746895430497473,6.068193202525442,-0.11361422984432365,0.15798271809282627,-5.889710995185482,0.4895651589124964,27.622104859707985,-17.83475966053623,67.0426287293551,5.159344724899673,9.625690958197831
GUIDED_NOGPS,0.15715694427490234,19.566726846085306,27.86102159988148,-17.32477870602423,67.64325428066557,6.746026541227323,24.1292817147888,-14.888064124206558,60.053659457725345,1.0424100241924177,-0.20106945666436254,6.480474092997989,-0.10992970231159546,0.16112156229000185,-6.564764483147866,0.48861560776558965,27.51621668074087,-18.010186126182557,67.59989255081001,5.383261122884229,8.651662706475431
GUIDED_NOGPS,0.18689370155334473,33.63623532430872,28.02922630295278,-17.910912812394226,68.66407487087936,6.9723321993237395,24.125676686043693,-14.87916257658597,60.05578949463651,1.0058150445582528,-0.16388078418093563,6.572431918001633,-0.18435271187901114,0.18237988229065988,-8.947073226155913,0.48708757193563573,27.715288644858905,-19.210399592355635,68.5204025981998,5.831809132319516,7.104676659622208
GUIDED_NOGPS,0.23097538948059082,22.689942819429493,28.068980548411087,-18.36038020324185,69.0239389624925,7.020645253588802,24.12071506084618,-14.866911317,60.05874205260982,0.8906292936521298,0.01651091510144801,6.911276748952319,-0.16564620417285486,0.16494558305836654,-5.683500643015817,0.486552204635176,27.715288644858905,-19.210399592355635,68.5204025981998,5.831809132319516,6.302535746439056
GUIDED_NOGPS,0.2653322219848633,29.113767301098108,28.018694082433043,-18.804411997347795,69.70915287851537,7.205361680391846,24.11420462751359,-14.85083573579434,60.062644316840135,0.8069086767875217,-0.007921952220156977,7.015155388491751,-0.19381470924862024,0.15424959459269053,-8.019052666247097,0.48553023715748717,27.251014601148295,-19.09531426739096,69.30421261616446,5.906498055092978,6.302535746439056
GUIDED_NOGPS,0.305966854095459,24.61518237037472,27.95638969378375,-19.30190755965003,70.0975509464593,7.232770982194366,24.10596252801078,-14.830484319368752,60.06762068405274,0.727078172820353,0.020513405955075482,7.153889764026227,-0.21080785178216813,0.15205411448685338,-5.692160361602358,0.4849551046063902,27.53384460891597,-19.99229404380115,69.48865946357328,6.214535482980278,5.042028597151244
GUIDED_NOGPS,0.32435131072998047,54.427655653889076,28.766562061567786,-19.009816375524874,70.63931257601425,7.309721480341331,24.09581511937757,-14.805428308013308,60.07379278207157,0.6403284204196971,0.1351201382464813,7.261775163287517,-0.10137751199223916,0.37268136614499753,-7.552108941465848,0.484151720309086,30.571144784748864,-17.371629244565632,70.21057011728023,6.214007584993997,3.8388172273765155
GUIDED_NOGPS,0.367586612701416,23.13230898200951,29.739130764244365,-18.879720176465693,70.68868715240461,7.31189640811717,24.08359783515618,-14.775261353744616,60.08127948938742,0.5368099132764252,0.24466015083420706,7.3914121537343584,-0.14269233154223107,0.3235727160205967,-5.481443385396346,0.4840888885054742,32.46909177696229,-18.16535175073455,69.95716056274819,6.098909682583539,2.3491269600363753
GUIDED_NOGPS,0.4143717288970947,21.37900381266948,31.167240876513777,-18.80223392985249,71.02050279611984,7.402245739989745,24.06915504681869,-14.739599178142065,60.09019695472614,0.5339858968588894,0.30605458684933606,7.459700385056146,-0.1465521296007694,0.4162020492716672,-6.542952200972583,0.48360454123790947,33.7757333401454,-17.931998136562346,69.99156315065527,5.9781921114035255,0.6875493541569879
GUIDED_NOGPS,0.4512364864349365,27.13074076948951,32.46343646324475,-19.42412811936492,71.13681781298898,7.412883193950259,24.05233992519447,-14.698079230184053,60.10065861661686,0.5091234213106611,0.33657998291059243,7.440550242170723,-0.23979354343754192,0.4881665449741843,-5.7401503710906905,0.4834457612054418,34.02489652443959,-20.55841576423806,69.61142529371494,6.111196892250322,-1.6615776058793874
GUIDED_NOGPS,0.4983789920806885,21.216356756975497,33.132074152572955,-19.98622857681534,71.30388097707707,7.3439711998387756,24.033014301897634,-14.650360344084236,60.112775222960195,0.4908982354492457,0.24618840566099742,7.301029114221226,-0.24432195074298668,0.43208638094193264,-4.837199550930689,0.4832133413688247,33.201035489388026,-20.964434180506107,70.3842335620853,5.97783334474981,-2.4064227395494577
GUIDED_NOGPS,0.5390007495880127,24.62269655929507,33.42412441680007,-20.4467562617097,71.72602550330802,7.209245181501193,24.01104853075448,-14.596122397127749,60.12665485059643,0.510501518697417,-0.009355651615624965,6.9797989142531796,-0.2625159150331556,0.417496670021602,-3.830850492816363,0.4826009440209326,31.960108175746594,-20.837583042789788,71.31624039140402,5.963627163111529,-4.870141258611998
GUIDED_NOGPS,0.572474479675293,29.886732221747184,33.5791426384656,-21.14193177833431,71.90563478229873,7.032303211943918,23.986321349230934,-14.535065967507448,60.142402924873764,0.4509439766821983,0.042732224768538524,6.803115153916466,-0.3270552494047287,0.41568203488261063,-2.720206403141465,0.48235515221386255,32.18298746352003,-22.345028093880284,70.99215515189807,5.872956260259656,-5.729577951308232
GUIDED_NOGPS,0.6116998195648193,25.498528803832404,33.23030383608747,-21.553499688582516,72.2298731694145,6.83744139510421,23.95871973985999,-14.466911992160151,60.160122239216484,0.38998795343441955,0.1345741499997034,6.528965447897318,-0.3067444195961338,0.3479221121434344,-2.7838292400586773,0.48189537360470297,30.55997606448756,-22.03722902105328,72.15288790173501,5.693777150913712,-7.104676659622208
GUIDED_NOGPS,0.6517632007598877,24.96758140365498,36.08491246409003,-23.85848479452227,71.1280221617908,6.552095822719351,23.92813879166917,-14.391401424602869,60.179912974693174,0.2775460709447904,0.17166442507039983,6.13540952103436,-0.5668311464065241,0.7917340934939185,-1.4973244772939678,0.4835778362193536,44.37037069584557,-30.85481360214554,65.53508196304679,4.9310158934220985,-9.224620501606255
GUIDED_NOGPS,0.6887943744659424,27.010709478822537,36.10211226043977,-24.197325152818163,71.58538754132715,6.227913506074136,23.894481561607943,-14.308294892769037,60.20187271958497,0.1741826170998057,0.17823613426900992,5.729698418769718,-0.4066337552711289,0.506815002478088,-0.47861192879909,0.4829247277673867,33.47756010707485,-23.40230795810389,72.28830757272394,4.692214415406213,-9.396507840145501
GUIDED_NOGPS,0.7637419700622559,13.343972105038782,35.615138381220405,-23.17169392019293,72.42815446793976,5.876674024846459,23.85765893597519,-14.217372356844763,60.226096488953694,-0.03606909508871341,0.4802519448847528,4.672424835726296,-0.2860069788080055,0.4599006228959426,-2.3299787656301203,0.4816969130315209,31.39309796782638,-17.169972908906743,74.76957909795655,3.718899384698681,-11.000789666511807
GUIDED_NOGPS,0.8103117942810059,21.47709071544149,38.5026966049935,-23.22839948580976,72.35202174496322,5.135648779449455,23.817589491846647,-14.118432767105055,60.25267674421012,-0.21696285329573264,0.5625130357010939,3.8038625492611544,-0.350079354473873,0.8599039726789081,3.8726980613791673,0.4818509824988704,44.705573614021354,-20.83119668757316,69.75149593279887,2.257039838411908,-11.802930579694959
GUIDED_NOGPS,0.8502373695373535,25.053035235370363,40.11367407385189,-23.378008310345834,72.27890670438816,4.609159703091246,23.774199358502333,-14.011293721750054,60.28170341268215,-0.45469423078421134,0.7892761699191635,3.1039956900115735,-0.3711543318023613,0.8412091085367517,2.864710945318016,0.48200419506244097,42.934369466370626,-22.526938543515524,70.77716397694942,1.83005159603543,-12.146705256773453
GUIDED_NOGPS,0.8908376693725586,24.63730454294475,41.27219260913467,-23.13028041087514,72.6407520364565,4.162648848343402,23.72742207885401,-13.89579112474128,60.31326390718305,-0.48944948829326257,0.8381956923020872,2.6990175524222386,-0.33127697933246086,0.8432435441562843,2.0386844988499098,0.4815087678060898,42.8872795034565,-20.955026436220347,73.11909603784986,0.9692373567658212,-12.204001036286535
GUIDED_NOGPS,0.9144425392150879,42.37398341129285,41.490235151023064,-23.675926882075927,73.08234147121762,3.7925022588155413,23.677198470872614,-13.771778843637858,60.34744314557961,-0.4699358512779477,0.7227161899008008,2.5304282065822257,-0.47145510918876254,0.7801147413735029,4.619986676273316,0.480897652511543,39.50926913505741,-25.074864332053426,73.87849997985266,1.7806482856211525,-11.115381225537972
GUIDED_NOGPS,0.9570882320404053,23.45479658884384,42.22469909672715,-24.330725886048477,72.8309239324174,3.5093469569751843,23.623476489015726,-13.639128367432763,60.38432357036041,-0.44060536479547335,0.8225618161787512,1.8178142933506967,-0.4652048229755389,0.8422411820786472,0.2707613167756051,0.4813300994569145,43.57796959265097,-26.66114908825043,70.88401006990475,0.7121300078307536,-11.631043241155712
GUIDED_NOGPS,0.9978435039520264,24.543594785010416,42.977765240101284,-24.967154889323275,72.98823876099324,3.037316769676871,23.566211085654974,-13.497728464389052,60.42398516820398,-0.45312205997549193,0.8389508550921968,1.489303325170828,-0.4964495655244805,0.8818512565542918,3.1118804205457185,0.4811536196108161,42.45551346837661,-26.357096056584982,72.53705544025341,0.11454263600073526,-10.657014989433312
GUIDED_NOGPS,1.0284156799316406,32.7186663858401,43.333510923257464,-25.408287550949343,73.27162121387143,2.704899311212639,23.505364072503514,-13.347484839876094,60.466505489547025,-0.5457856356194682,1.072964235114235,1.0898348023641664,-0.5194571284071061,0.874110550651252,2.9680224277866247,0.4807923264135134,41.862146192039226,-26.16705638798236,73.72251624075281,-0.215708816810401,-9.224620501606255
GUIDED_NOGPS,1.0607459545135498,30.94057244024786,43.613134664382045,-25.902667534383138,73.22358871812058,2.426735783179496,23.44090398204346,-13.18831979420582,60.51195966815265,-0.6376587235887212,1.2218397340188873,0.8215465192307995,-0.5469992335252621,0.8765705968130671,2.006936076809789,0.4809325564250481,42.207648646555626,-27.163357034697768,72.06285384147634,-0.5060399093354676,-8.995437383553925
GUIDED_NOGPS,1.0932574272155762,30.76739801794268,43.95028743665695,-26.3776424511781,73.39546615744204,2.1245082217229285,23.372805928953323,-13.02017188046894,60.560420440678534,-0.6468900977779637,0.9943096976230722,0.4567655390108706,-0.5695645448229192,0.9014025545530572,2.5724906086627843,0.4807474314248547,42.57878864646252,-27.340221669125956,73.3826847742029,-1.329783430207523,-8.59436692696235
GUIDED_NOGPS,1.139880657196045,21.45303333316284,43.83426333424251,-27.04036681093368,73.75564313719562,1.8554978063525787,23.30105147153546,-12.8429955623712,60.61195816624516,-0.7483768904474213,1.2383980335577023,0.1492527334541633,-0.59480504165541,0.8462258708993096,0.959238799390846,0.4802844725435743,39.73285942333939,-29.021453539014875,74.78941946764054,-0.7517890082024722,-7.219268218648373
GUIDED_NOGPS,1.1991276741027832,16.880524811848513,44.16411234637279,-27.75769590973524,74.0927535394576,1.520532757720313,23.225628473143527,-12.656760872069603,60.66664084600401,-0.733737393817704,1.1586794806598983,-0.20217135827655602,-0.6583365852587162,0.9155058242756106,3.182516828015068,0.47986083095981963,41.90568621060656,-29.197309908416408,74.55180203716763,-1.569040643187603,-6.245239966925974
GUIDED_NOGPS,1.210277795791626,89.76189355190789,44.388856740835536,-28.52896242530872,74.03232811838357,1.2994692177333642,23.146530963609905,-12.461453068008648,60.724534142705785,-0.733737393817704,1.1586794806598983,-0.20217135827655602,-0.6974208324571616,0.9153410348023879,1.5457073770590952,0.4800383090364833,42.55642068653115,-30.7697893039613,72.54452687733368,-1.4317580157105654,-5.500394833255903
GUIDED_NOGPS,1.2498400211334229,25.281055048912947,44.621695540941126,-29.123492357106965,74.04689786507996,1.081078924800645,23.063759000673166,-12.257072292756575,60.78570140026861,-0.6906822291674707,0.9998758749098094,-0.3571193222401728,-0.7022741751550813,0.9269105651681644,1.360291686963659,0.480108205302783,42.7976437334524,-30.118190326385157,73.04330103538973,-1.976713301792447,-5.099324376664327
GUIDED_NOGPS,1.2847731113433838,28.636511978807512,45.18412396825116,-29.540225525609888,73.86768829736413,0.9213559471219682,22.97731853140549,-12.043633230841584,60.85020366334623,-0.7062234174893356,1.1081883744376368,-0.5011095283409734,-0.7194188516705459,0.9987659800049306,1.045077689771904,0.48047377304897315,46.47619393042932,-30.14771497711666,71.98096913266671,-2.7072236193313657,-4.640958140559668
GUIDED_NOGPS,1.3147740364074707,33.345025241483484,45.21532062681814,-30.16611819258528,73.77375410336118,0.8184894770375059,22.887221253640135,-11.821164766588087,60.91809969689622,-0.8071852994489072,1.173424364974075,-0.6636227272231727,-0.7848175691403273,0.9429159998181651,0.4448947952739044,0.48071651839030255,43.35097525515689,-32.447448077123674,72.37220160715607,-2.1115946334612095,-3.151267873219528
GUIDED_NOGPS,1.354339361190796,25.27907425265188,45.23254879602768,-31.059296835406187,73.70419508297032,0.6847392392373661,22.793484477398874,-11.589709641952936,60.98944600574822,-0.8120662166628217,1.101861271388678,-0.7096577753422355,-0.8292587100512777,0.9434393159040848,0.5482231647818845,0.48092787638416684,42.379946704528756,-34.34193473373984,72.57804796870475,-2.1125778746903556,-2.521014298575622
GUIDED_NOGPS,1.4006001949310303,21.622129888340154,45.04501574174857,-32.01777337065283,73.71770720619911,0.5765552992031795,22.69613098631942,-11.34932411436166,61.06429685417209,-0.9315350297870717,1.0344221179580877,-0.8456274183667372,-0.8651887296328618,0.9213408100566362,0.09664227298807093,0.4810198844719595,40.72349690603776,-35.31913696958597,72.99426204836683,-1.9934036542854388,-1.2032113697747289
GUIDED_NOGPS,1.4439668655395508,23.06311378957671,45.05565038329102,-33.07200742900109,73.72293023322352,0.470573456864223,22.595188899082906,-11.100077614544709,61.14270428544617,-0.9987591389805124,1.0398685534909382,-0.8492753797137587,-0.9294260879024356,0.9452956755477868,0.22865435122398847,0.481129661078334,41.56121308800527,-35.64540517260971,72.97651735575025,-2.1709227172185144,0.0
GUIDED_NOGPS,1.4838380813598633,25.090502312059197,44.72105252390155,-34.236287069061774,73.73002899467863,0.4359889174185631,22.490691530841293,-10.842052404373666,61.224718141425456,-1.060335428782293,1.0688934423689074,-0.8055600345915614,-1.0016807263772793,0.9027475433336624,-0.5614603867968642,0.48124203372012025,39.50509951443955,-37.22730763686579,73.0802880385457,-1.7997480078259906,0.9740282517223995
GUIDED_NOGPS,1.5098414421081543,38.4618572961275,44.2641084811014,-35.272839656662015,73.66908180227624,0.4169681124011947,22.382677254644836,-10.575343234697517,61.310386082109815,-1.1128591566128678,1.1369415498526865,-0.7933599293517435,-1.1014051949864974,0.858248842386417,-0.6202582103478669,0.48146195641975037,39.181693779004675,-38.2922853835997,72.82422405541124,-1.6401953814020984,0.9740282517223995
GUIDED_NOGPS,1.5383479595184326,35.09114334956411,43.75932646036428,-36.07794427670517,73.60051618378168,0.4020679845493181,22.271189362869528,-10.300057003178864,61.39975360521219,-1.0628449896937437,1.0025003750983867,-0.7823331759061397,-1.098779966994131,0.8404531182343282,-0.7126308650065334,0.48169885613214575,39.181693779004675,-38.2922853835997,72.82422405541124,-1.6401953814020984,1.3750987083139758
GUIDED_NOGPS,1.5731232166290283,28.76929302906215,43.47630322593851,-36.821160852222135,73.56147948707307,0.39310811868838524,22.156275928644526,-10.016312412130164,61.49286406572682,-1.039820315279925,0.9696057571687823,-0.7007604934529419,-1.1069361390038723,0.8706349351072935,-0.8418761626517205,0.4818970768679806,40.02381089284298,-38.24143257172575,72.96308513696312,-1.8214383743527354,1.7188733853924698
GUIDED_NOGPS,1.6089463233947754,27.91791635881973,43.20982575890934,-37.58891892084371,73.496749224343,0.40170326891578767,22.037989667279618,-9.724239626349968,61.58975869549744,-1.060818344500954,1.0255187529315646,-0.6515924695781059,-1.1451769392022353,0.8682555251205488,-1.1026317749693784,0.4821395142067316,40.10437339805727,-39.425398402671426,72.76968369720258,-1.6595280458594701,2.7501974166279517
GUIDED_NOGPS,1.639193058013916,33.06819722796008,43.101628348965086,-38.44523418198513,73.45230942388051,0.43317573516511737,21.916387797692654,-9.42397993095916,61.69047662278547,-1.0269378314533404,0.9303757118971678,-0.49533748488378376,-1.2203692683083307,0.8878008291140086,-1.5337772221376067,0.48235725079835745,40.999229608290086,-39.487891283188375,72.81274284397344,-1.7629060550074656,3.896113006889598
GUIDED_NOGPS,1.6851332187652588,21.808985024958403,43.00480290729012,-39.21593654165084,73.43799414125483,0.48025678517341325,21.791531903836994,-9.11568538923719,61.795054891838255,-0.9974785852328407,0.8519205305524048,-0.31339861435226,-1.208362870237563,0.8904822920990061,-1.5698615483404903,0.48253559112587513,41.25381836985561,-40.244441151885084,73.08212518425923,-1.5927584573634115,3.724225668350351
GUIDED_NOGPS,1.7282819747924805,23.151333837466673,43.056056521995934,-40.15083542096487,73.47779474069031,0.5789560671349757,21.663487796128948,-8.799518500458305,61.90352848245725,-1.0867940875230413,0.9139345927913008,-0.12529571153821134,-1.2726320284302417,0.9127872289950061,-2.260056142304746,0.4826386006126504,42.121274337674045,-40.144673403461574,73.38202317528034,-1.710553398557763,4.469070802020421
GUIDED_NOGPS,1.7607007026672363,30.853401793398703,43.36935544225755,-40.78768572420657,73.56978985305051,0.6732555032628074,21.532325372875224,-8.475651857727794,62.01593032956624,-1.05270354615845,0.8055608350043548,-0.0757075643283535,-1.3124826167219745,0.970626667226569,-2.6604221575268654,0.4826692107147736,44.37973207353013,-39.06228272590125,73.80013361041583,-2.1638235920409583,4.239887683968092
GUIDED_NOGPS,1.8030400276184082,23.62602166406615,43.607158763457335,-41.1730417647344,73.65312834794231,0.7510313207285174,21.398118481700372,-8.144267805818222,62.13229134277954,-1.1027308398473852,0.8189563300706307,0.22202352988282287,-1.29377557420369,0.9668380060731065,-2.179051714306368,0.4827187444922558,44.338925121324905,-39.54739640833949,73.90349404135695,-2.023067775690142,4.8128454790989155
GUIDED_NOGPS,1.8406293392181396,26.609720662593656,44.32600896584045,-41.45149620770516,73.75119457801298,0.8532014172204813,21.260944780974235,-7.805558099005656,62.25264042597019,-1.0988277069018402,0.8924478848794986,0.3601340236655136,-1.315254997874265,1.0590911606743931,-2.6964907941049425,0.48275216877193583,47.878580627628175,-38.125141503971506,73.98436062790061,-2.7342438441120653,4.5263665815335035
GUIDED_NOGPS,1.8725533485412598,31.334214871093778,45.26048935662087,-41.494541418313446,73.82976851565964,0.9306236163060467,21.120885601239372,-7.459723558905914,62.3770044968382,-1.059305564321502,0.7826412814707308,0.462560687717362,-1.316563620604557,1.152845577928552,-2.6521477242278384,0.4828208539717678,50.26910374707063,-37.894486510799744,73.98373149642525,-3.0532391123960743,5.099324376664327
GUIDED_NOGPS,1.9222304821014404,20.134334376620135,45.81413693356487,-41.60488782191999,73.97657229278016,0.9870465676653069,20.978025806638524,-7.106973732310797,62.50540850647871,-1.0903649957984887,0.843156117186809,0.7090845196996305,-1.3227014295262218,1.0970719437562655,-1.9913007113571806,0.4827932543205478,48.179855508708236,-39.023014231459946,74.57694491470754,-2.394089131368967,3.9534087864026803
GUIDED_NOGPS,1.9605436325073242,26.106222341173762,46.3867674204112,-41.93163766881302,74.14049403815795,1.0846570045855068,20.832453656342054,-6.747526549024322,62.63787545895024,-1.028576329802203,0.6007727672237434,0.7899878436141671,-1.380086964465412,1.1461918250699323,-2.7721900657217664,0.4827460721311884,48.179855508708236,-39.023014231459946,74.57694491470754,-2.394089131368967,4.411775022507339
GUIDED_NOGPS,1.9878568649291992,36.62156097475793,47.16472223627687,-41.82471165692743,74.18593658520409,1.1419488310144905,20.68426066597538,-6.381607979698961,62.774426430842865,-1.1013839051987175,0.8515333442038296,0.8598898672099288,-1.360295666700375,1.2471287570349232,-2.6041717789882752,0.48288273476845817,50.47937814560023,-37.9675688801876,74.06748135809855,-3.054110004421629,3.666929888837269
GUIDED_NOGPS,2.0111043453216553,43.035275286778436,47.73460925663156,-41.64722486619772,74.21070460246796,1.125477581667821,20.533541469046423,-6.009451693671869,62.91508059084645,-1.0227005528469937,0.692520137023586,0.9963444536655013,-1.3639570659616294,1.2653071233503455,-1.1676736530877305,0.48305656398256774,51.06774730638553,-38.23113202553298,74.05933669856144,-3.0621434844030007,4.239887683968092
GUIDED_NOGPS,2.052420139312744,24.209966117739413,48.175293824842996,-41.54929826774993,74.26568447200016,1.1268223666030797,20.380393678373068,-5.631298716801139,63.059855219318834,-1.0198295255180612,0.8103893518607307,1.1982622411691206,-1.369524352535394,1.2226512993464855,-1.5506019765385783,0.483191256120978,49.93137891557641,-39.0706321766236,74.36062158256325,-2.6149879716450175,2.635605857601787
GUIDED_NOGPS,2.0929415225982666,24.685445235713026,48.733566732479204,-41.72152056064113,74.34769222129862,1.1981618588118232,20.224917747510588,-5.247397089302021,63.20876572785404,-0.929446806170046,0.8211714457958305,1.357241831012043,-1.4166121238928397,1.2660591167183977,-2.486744078348016,0.48329161025983314,49.69514499837629,-39.67660198176509,74.3903310578749,-2.3749713751624575,2.979380534680281
GUIDED_NOGPS,2.1515109539031982,17.076046819338423,49.18564833633884,-41.91566003736541,74.43759276427024,1.2311197905918614,20.067216832179085,-4.8580015235831535,63.36182567885051,-0.8715935564353042,0.7879760860993339,1.4553191853469007,-1.4258917818652896,1.2629559951513756,-1.9059075913853947,0.4833863493718704,49.34394007651819,-40.2660123300483,74.53067297972461,-2.150595318149612,0.8021409131831525
GUIDED_NOGPS,2.176032304763794,40.80975315488874,49.423227745049644,-42.453588461598116,74.5886491486802,1.2516467888098997,19.907396651690966,-4.463373062082823,63.51904680507927,-0.8345790537757126,0.791768762079395,1.487896092758394,-1.5642793691487589,1.3037660965608795,-2.065446408331249,0.4833955964845986,47.821847164812,-41.789641680307994,74.79803671849896,-1.527196463603211,0.7448451336700702
GUIDED_NOGPS,2.221318244934082,22.084931838645304,49.42562040162213,-42.60516190184619,74.6666116205288,1.2092955612934113,19.745565350378346,-4.063778735105181,63.68043902925217,-0.7649384983591155,0.8895002313658149,1.5041513026527895,-1.4904128537382217,1.2601412314015474,-1.1395928618530142,0.4835207411130851,47.89788637542853,-42.12611129480965,74.85006184609283,-1.4788220287201648,-0.8021409131831525
GUIDED_NOGPS,2.2759249210357666,18.315178138659515,49.67617347597591,-42.969993436732516,74.82910381524061,1.166432423179011,19.581833359020514,-3.6594912186564788,63.846010483590085,-0.7063210144892728,0.8245688245776772,1.4204774298953138,-1.5277163633727207,1.2948282770518553,-1.189903706663066,0.4835253600025242,48.28330727953582,-42.313349374883884,75.21554748695429,-1.5509628739922885,-1.6615776058793874
GUIDED_NOGPS,2.2963857650756836,48.89548967720125,49.50392126481834,-43.65319273878414,74.82633150930363,1.1061183995464954,19.416313256271383,-3.2507884922813197,64.0157675293911,-0.7742278224345973,0.9855228726992623,1.4105514574839926,-1.7119905756783658,1.2626473325274086,-0.04805789727598819,0.4837841540301312,45.91365441412803,-45.32236452587332,74.20007717371102,-0.7646575025541127,-1.8334649444186344
GUIDED_NOGPS,2.3505136966705322,18.477842733852885,49.576584338976836,-43.670130999674036,74.96035275236348,1.0318129925204746,19.249119630086923,-2.837953496898871,64.18971477659876,-0.7318769143208159,0.8440141597012919,1.2752347378554618,-1.5631221437286587,1.2933180017828814,-0.8043897259270133,0.4838440430363529,48.932426604877435,-42.43825391973791,75.49855429434926,-1.7612661118645458,-2.6929016371148693
GUIDED_NOGPS,2.3777916431427,36.67503759924452,49.745613463815566,-43.9781673718862,75.16620305430372,0.9235922041193508,19.0803689391526,-2.4212737926391306,64.36785510337025,-0.7268814313557449,0.8843011767469658,1.187371611259241,-1.6590307672321927,1.340353567297702,0.5915443292273901,0.4838024780735998,48.40525924823158,-42.934162801280806,75.6373468784117,-1.6659249735479256,-2.6929016371148693
GUIDED_NOGPS,2.4282357692718506,19.82738098051914,50.09611097891174,-43.90475825300202,75.22744768326912,0.8297233604082181,18.91017937431084,-2.0010412166791394,64.55018967564456,-0.7915491821697497,0.9384144176634497,1.008007001673298,-1.6059338166922623,1.3625835217233153,-0.22822358008084853,0.48398411298856314,51.17355004962086,-41.808638230667455,75.22102537173762,-2.6490151928571226,-2.864788975654116
GUIDED_NOGPS,2.4591522216796875,32.35671580766353,50.59287460171977,-43.9871714212205,75.3093407304375,0.6783106992466088,18.738670719988455,-1.5775515410792167,64.7367179667108,-0.8349489512079511,0.8918560062992347,0.8559880149248532,-1.6426181506740387,1.4095663820289719,0.6996614423259329,0.48414106585440997,51.620717858117494,-42.11640848612607,75.22072312111494,-2.9429125682046116,-3.9534087864026803
GUIDED_NOGPS,2.49017071723938,32.24750511278889,51.327361584974476,-43.75416809547606,75.4106476717978,0.5018778897226435,18.565964215624085,-1.1511041306192098,64.92743777677632,-0.9128349323349289,0.9735252185353118,0.7498368433825116,-1.6263827795248236,1.4968880017554207,1.7523929083372005,0.48427518515746776,54.097443575614,-40.3428876638367,75.47116384338334,-3.928302187976192,-5.099324376664327
GUIDED_NOGPS,2.536947250366211,21.383908678872046,51.352305378210005,-43.89643368944032,75.54600838319084,0.35177710026513015,18.39218241709567,-0.7220016006347265,65.12234525253493,-0.9494075004108794,0.9699829116770139,0.581865896466649,-1.670889854193932,1.4049532094673278,0.6021592649980265,0.48436450530401615,49.62376096136355,-43.377070036205325,75.90155596820651,-2.648362979299318,-4.984732817638163
GUIDED_NOGPS,2.5766429901123047,25.25076758214634,51.369600752479165,-44.053573027448195,75.75206023818156,0.17499644950601834,18.21744905814786,-0.29054947485337834,65.32143490673515,-1.196767283514534,1.1665608786318584,0.29402630355582626,-1.7040352859922536,1.4166599297400724,1.3794109777785453,0.4843540620028304,49.357638304816184,-43.407009666344834,76.23594285178203,-2.849291252028884,-5.156620156177409
GUIDED_NOGPS,2.6166486740112305,25.000768923566614,51.02580178534881,-44.38173869086251,75.94370831183397,0.004893467390168292,18.041888911819473,0.14294415676902972,65.52469963774834,-1.2452427368797012,1.1421122164977977,0.11811206007865042,-1.7478394653262461,1.3743582515294475,1.359818771291271,0.48437148698887156,46.85402232559271,-44.9016135529442,76.45755292153332,-2.3406284850221715,-5.958761069360562
GUIDED_NOGPS,2.647946834564209,31.960498041666032,50.27019102748714,-44.909393851361216,76.12866557036382,-0.12413116770062285,17.865627651870952,0.5781689802121761,65.732130749137,-1.2563478774182015,1.1498247807312116,0.0017840079752339743,-1.895130258633675,1.2477633507949248,2.6667379140108713,0.48440519776815977,43.786977009105044,-46.37712222038154,76.50190620398799,-1.6097628187952888,-5.500394833255903
GUIDED_NOGPS,2.6860153675079346,26.272198837442374,49.501702574944304,-45.299744299982635,76.20789661066759,-0.2176551155460883,17.68879171421178,1.0148127995550773,65.94371796922292,-1.397536745463945,1.2283570151475487,-0.15611027006128253,-1.8072220423710381,1.2976053696163161,0.32699396743606335,0.48460373203783297,43.176883758966916,-46.88182189134646,76.33114342002087,-1.6044978338615783,-5.67228217179515
GUIDED_NOGPS,2.7138705253601074,35.92151623373843,48.76727234567891,-46.006240822354094,76.24084258544333,-0.40692347998770984,17.511508158327963,1.4525618791398038,66.15944947065539,-1.4355548590447054,1.1204632915932078,-0.39922095512967515,-1.939786480386788,1.242159172026879,2.9703173083448573,0.4848779103278181,42.62860579290402,-47.80680599376417,75.58246781759163,-1.559301056322853,-5.729577951308232
GUIDED_NOGPS,2.767883777618408,18.51659043952745,48.165024821958276,-46.5111479331922,76.1958248876342,-0.5471401446037067,17.333904528709432,1.8911012857352354,66.3793118899794,-1.6718258300308442,1.127651638807823,-0.8650563183476616,-1.8892045108260387,1.2756291252785883,0.9318270190087294,0.4852752305035178,43.463678984157845,-48.19312050181617,75.49982578373026,-1.9774649595528926,-6.359831525952138
GUIDED_NOGPS,2.8224036693573,18.344576627011897,47.80442201733727,-46.96691333726729,76.24635882999219,-0.8218876781300236,17.156108716277515,2.330115230700862,66.60329034720394,-1.749162888064135,1.131036637871799,-1.160579767353043,-1.9199771809684234,1.2878722331324914,2.3687467896875667,0.4855353972758176,45.30600084331803,-46.73421985650742,75.79360305238276,-3.0528777197061276,-5.443099053742821
GUIDED_NOGPS,2.8581392765045166,27.991511058314757,47.46025572228726,-47.315182579909404,76.222694010252,-1.0605694742067326,16.978248819812386,2.7692874121505007,66.83136846537003,-1.8234137678096378,1.1526742502755762,-1.4018957935365883,-1.9702798298015813,1.276449480780948,3.377149931067997,0.48591301168267703,45.42422438640443,-46.82018563243591,75.45872876224554,-3.426365565122278,-5.557690612768986
GUIDED_NOGPS,2.906736373901367,20.58210654418404,47.60176857468189,-47.036214503600625,76.25623064949018,-1.2608459821478188,16.80045300738047,3.2083013571161096,67.0635283901191,-1.8988329300683302,1.2991850096235231,-1.560497908706162,-1.9093461382695045,1.3361279828505948,2.230944814932333,0.4862109466109434,48.76525973663929,-43.60809085056153,76.06217116563556,-5.004950195209268,-5.443099053742821
GUIDED_NOGPS,2.93693470954895,33.12460709829256,47.10971255491512,-47.30127231519191,76.16124560149004,-1.4536487114904777,16.622849377761934,3.6468407637115625,67.2997508092611,-1.9472939760032169,1.2901730019005144,-1.7811244381200924,-2.008263443811189,1.2548458298625509,3.506366470579673,0.4867077578116566,44.22400894687854,-46.94658538641105,75.26187445060613,-3.7075915624576727,-4.698253920072751
GUIDED_NOGPS,2.980003595352173,23.22517484066381,46.906359960720735,-47.17143964177992,76.15064395872176,-1.6182961068238584,16.44556582187812,4.084589843296278,67.54001497234275,-1.9925394969429084,1.1659126509909419,-2.048476825254609,-1.9620623126614825,1.2943018296190976,2.33996420625494,0.48708405652043146,45.923261325621226,-45.05677248141241,75.84748164126617,-4.53647091815183,-5.614986392282068
GUIDED_NOGPS,3.029280662536621,20.298227784391727,46.47402597853276,-47.27273115973421,76.06790867734148,-1.835387588127852,16.26872988421895,4.52123366263918,67.7842987102157,-2.1693003103511956,1.3826725462827048,-2.3196308529924723,-1.9970669811609338,1.266099190796418,2.813710289232294,0.48757458504931134,44.327171794701144,-46.10885914441273,75.31477506252956,-4.30306855813348,-5.099324376664327
GUIDED_NOGPS,3.0768861770629883,21.009547280577845,45.94574789290949,-47.404953178650175,75.95659297897876,-2.0540285211045153,16.09246862427042,4.956458486082337,68.03257845460479,-2.2946944726629903,1.331364165237569,-2.596647530915734,-2.021829495725967,1.2441783354635803,3.0285121423866417,0.48811397821343905,43.517529307278906,-46.42336922434139,75.12898498826942,-4.310114019212816,-4.698253920072751
GUIDED_NOGPS,3.126368284225464,20.21351325301205,44.95832189984956,-47.73423585071077,75.70058792898563,-2.27800474289751,15.916908477942041,5.389952117704734,68.28482925767626,-2.3106483004602594,1.3116091237237764,-2.7818735100266054,-2.063728032816274,1.174982569436563,3.1905672398608704,0.48887636199303597,40.253614723273905,-47.881508328338924,74.27439959376322,-4.108167214584877,-4.984732817638163
GUIDED_NOGPS,3.1795809268951416,18.797158670759853,44.022670324562846,-48.01681613524908,75.45697816217594,-2.4861436201742784,15.74217511899423,5.821404243486089,68.54102481160591,-2.452799478127034,1.263929707562033,-2.9951687918618792,-2.083563982167455,1.1533216678053886,3.0404715522048242,0.48962606997414493,40.253614723273905,-47.881508328338924,74.27439959376322,-4.108167214584877,-4.297183463481175
GUIDED_NOGPS,3.2317581176757812,19.168791046072144,42.45947070365624,-48.27614776779904,75.24026964007696,-2.6873086324506916,15.568393320465807,6.250506773470573,68.8011374681473,-2.571629615203035,1.2393450819748069,-3.1296063380781827,-2.1086029660025676,1.0485002359037168,3.1547991864809326,0.4903413017421055,36.08959007174744,-47.91407298517282,74.35689579817291,-3.6096020790848855,-3.4377467707849396
GUIDED_NOGPS,3.2702646255493164,25.97462177276021,41.154033903006756,-48.768190654678214,74.63095953726986,-2.8132181842327397,15.395686816101449,6.676954183930565,69.06513825820005,-2.6417348902874576,1.0596031044372207,-3.322124397901689,-2.179699117728507,0.9912936330518588,2.9554209077308267,0.4916512680813953,36.27455321191167,-49.574255792191956,72.13671845831988,-3.817371357545818,-2.521014298575622
GUIDED_NOGPS,3.3226263523101807,19.102876610008927,40.03862095844405,-48.98858690327954,74.14239229176843,-2.8988621478535097,15.224178161779058,7.100443859530504,69.33299691137796,-2.69607053923879,1.1203119602144096,-3.3615138854017412,-2.16306149688702,0.9964526464725293,2.237582917382283,0.4927859069294143,36.29521918432682,-48.85216559584724,72.26953021332967,-4.087274368793897,-1.5469860468532228
GUIDED_NOGPS,3.346628189086914,41.67424114461722,39.04235386167959,-49.11457980752424,73.68740218161523,-2.9614699679300425,15.053988596937298,7.52067643549049,69.60468187557721,-2.7053779526434014,0.9822055351967518,-3.419925236296867,-2.212857088405832,0.9082227638328455,2.6633273689074266,0.49387591954094295,35.99016826307106,-48.58139419551122,72.05041210344002,-4.163503662681441,-1.1459155902616465
GUIDED_NOGPS,3.3929874897003174,21.577080771862317,38.14807482843974,-49.20707138320956,73.24113144384755,-2.9859425740048033,14.885237906002974,7.937356139750232,69.88016033654466,-2.766273571405708,1.1460357332891469,-3.4451922404708597,-2.194351863227764,0.9450893560676155,1.7331613320169041,0.49495854333904565,34.70451749015435,-48.9002415283044,71.41453637408273,-4.083800165079006,-0.5729577951308232
GUIDED_NOGPS,3.4304494857788086,26.707486978337556,37.2750484490511,-49.19641540053838,72.83131512048466,-3.0097794893016734,14.718044279818514,8.350191135132679,70.15939823744597,-2.736297792129226,1.1569751350185686,-3.4476705319225167,-2.20761492467857,0.9037792394388877,1.8138670279673297,0.49599212467544196,35.39537584264292,-47.6737384067575,71.79202089533803,-4.418117117817258,0.5729577951308232
GUIDED_NOGPS,3.4734745025634766,23.24538340464209,36.693129755049824,-49.086044459256435,72.51837518533142,-3.0074796909123567,14.552524177069383,8.758893861507833,70.44236029843381,-2.7375120716976076,1.1982469799651938,-3.4157485756194044,-2.20432278635965,0.9251286677112329,1.4758647666751368,0.4968859776696536,35.39537584264292,-47.6737384067575,71.79202089533803,-4.418117117817258,1.1459155902616465
GUIDED_NOGPS,3.4981963634490967,40.46798205412707,35.33128993843912,-49.04322679611466,72.37047519934958,-2.990642817984492,14.388792185711555,9.163181377956537,70.72901003621614,-2.749019446345198,1.1898383767666734,-3.3944691212602294,-2.245438898870909,0.7205395606555005,1.1548624348191003,0.4975378022552998,31.23436872136399,-47.61522796461595,72.7710996326862,-3.4512530119317533,1.3750987083139758
GUIDED_NOGPS,3.5458405017852783,20.99461407548303,34.358659405814514,-49.0814885518965,72.1706474219997,-2.972791198976372,14.226960884398931,9.562775704934207,71.01930978362435,-2.782875840287305,1.1035688186811812,-3.3391121455845685,-2.2424875856931665,0.814691585606718,1.3092987665746527,0.498272993542437,30.25913293848902,-48.750399700212114,71.69845124110961,-3.253938975981481,1.604281826366305
GUIDED_NOGPS,3.576054811477661,33.104998539823356,33.461468698495466,-49.14407847564604,71.66047596333556,-2.932771283762679,14.067140703910813,9.957404166434497,71.31322070918148,-2.7815874958551112,1.1275566564896775,-3.2436322908467257,-2.2791364011412614,0.7554841146515411,0.8144770648449318,0.49947911711876886,31.8378178439648,-48.375371876451034,70.2402074329053,-3.628790852764072,2.4064227395494577
GUIDED_NOGPS,3.605619192123413,33.835128223744185,32.712155874119546,-49.082028466930154,71.26023143780358,-2.8772141442914063,13.909439788579316,10.346799732153382,71.61070283667044,-2.811809588828537,1.1285419112774517,-3.1113618355880206,-2.276693378464871,0.7495843687544005,0.5071145020780227,0.5005257070983002,31.17891100964282,-48.04681613862229,69.96026942003544,-3.5176749368747173,3.4377467707849396
GUIDED_NOGPS,3.650413751602173,22.328774561735067,31.773347825868232,-48.66182282616748,71.09477444297673,-2.809826498615773,13.75396385771683,10.730701359652503,71.91171506470224,-2.806347571926642,0.9524950660808426,-2.902094657815762,-2.2350703737701787,0.7291558926529547,0.6598591826056923,0.5012254109325882,29.000756694505085,-45.44062894463782,71.19885189181356,-3.2079520210033294,3.6096341093241864
GUIDED_NOGPS,3.7106106281280518,16.614526555964,30.718007040291884,-48.25265989973791,70.713982222413,-2.6850574435005314,13.600816067043475,11.108854336523233,72.21621518628413,-2.806479479954988,0.944976735351951,-2.7164434994290567,-2.2382296049400954,0.7039958035786709,0.30353649062198795,0.5022533494458067,29.768990981786757,-45.17524829247057,70.17530063032946,-3.3441496966020536,4.354479242994256
GUIDED_NOGPS,3.7470409870147705,27.46077596930692,29.548259351315128,-47.830145825351366,70.28387234714963,-2.5332762961613167,13.450096870114521,11.481010622550311,72.52415990838787,-2.7136301018212463,0.8300494110563778,-2.534107544110747,-2.235100236249203,0.6095975317966875,-0.8828009916607265,0.5033604313418574,28.31069440114931,-45.08413599267973,70.11873496113381,-2.9484457465753215,4.411775022507339
GUIDED_NOGPS,3.778563976287842,31.7322398583728,28.69602971466687,-48.061705026156254,69.56564445225494,-2.4304220831324717,13.30190387974784,11.846929191875684,72.8355048715179,-2.602555644547795,0.7562231769781793,-2.3818246345839045,-2.330256510318588,0.6085711812710514,-0.4197635155985575,0.5049047906288945,27.281174053631396,-49.33311951493189,67.02661153606945,-1.8472107175612398,3.9534087864026803
GUIDED_NOGPS,3.8287441730499268,19.930358093210675,27.965595516129426,-48.26665721222121,68.96214453514557,-2.3224423144242365,13.156331729451377,12.206376375162161,73.15020466927959,-2.470057018282129,0.7788466844999655,-2.2038625616553413,-2.3268759099218723,0.6269120866530034,0.04083997024021113,0.5062820902012011,27.281174053631396,-49.33311951493189,67.02661153606945,-1.8472107175612398,4.411775022507339
GUIDED_NOGPS,3.859596014022827,32.4242522631168,27.165638000113105,-48.326200642591495,68.53449227003729,-2.191654140105895,13.013471934850525,12.559126201757277,73.46821286794739,-2.351442245608395,0.7360775340212267,-2.0841432193267693,-2.3514117655435856,0.5618465403765462,-1.103483819212085,0.5074005808968651,,,,,3.9534087864026803
GUIDED_NOGPS,3.889129161834717,33.87119541956376,26.744980813079785,-48.35125046630905,68.28880745643276,-2.127318398820865,12.87341275511567,12.904960741857007,73.78948202603308,-2.2515221275798094,0.7060148832762386,-1.9769794722399732,-2.363174490304342,0.5987714365438198,-0.09810880677055522,0.5082510118544005,,,,,4.068000345428845
GUIDED_NOGPS,3.93669056892395,21.028612683435526,26.17163629600796,-48.383702518089045,68.05214475459725,-2.0347435926114095,12.736239054389518,13.243670448669587,74.11396371385399,-2.0793825774752706,0.7755788658689375,-1.7536193730541567,-2.3621809585023428,0.5831154079525778,-0.04174014194840492,0.5090927284388851,,,,,4.297183463481175
GUIDED_NOGPS,3.965444564819336,34.79162208120775,25.422496618117176,-48.425459500393806,67.6503440693315,-1.9141397068077277,12.60203216321467,13.575054500579153,74.44160853310113,-1.9119722930407306,0.54970643100732,-1.5915007776790844,-2.3957559038620264,0.5101185796658796,-1.2420176456537888,0.5101868966956544,,,,,4.411775022507339
GUIDED_NOGPS,4.0059661865234375,24.683701933828463,24.86982482724949,-48.45683044366829,67.42290350760906,-1.8355309060501979,12.470869739960957,13.89892114330966,74.7723661364075,-1.8392222406436323,0.531610912018429,-1.4760808259896239,-2.395648810215002,0.5377270600220555,-0.16160529372746324,0.5110241939431976,,,,,4.010704565915763
GUIDED_NOGPS,4.024790287017822,53.150315533365436,24.18710020297895,-48.50244042877636,67.0879039547485,-1.7237275846749103,12.342825632252907,14.215088032088556,75.10618524691621,-1.8720197418209756,0.6565916344420264,-1.4347138920031475,-2.4459687979283427,0.44191366057539094,-2.1757677670317292,0.5120274219382516,,,,,4.068000345428845
GUIDED_NOGPS,4.061535835266113,27.221069164021987,23.90027111686494,-48.51916820300529,66.9325548584062,-1.682203976124866,12.21796973839724,14.523382573810533,75.44301367784874,-1.7477514935051752,0.5114953645825068,-1.2508822319783104,-2.423833472470965,0.5337056674414195,0.14561866253063194,0.5127656882291638,,,,,4.068000345428845
GUIDED_NOGPS,4.091310262680054,33.638123651645294,23.11904736790533,-48.562444679373336,66.62303391587162,-1.553439386851793,12.096367868810287,14.823642269201311,75.78279835207314,-1.7243601233102914,0.5272090685417673,-1.0937252354267233,-2.447484968216589,0.43685212923696737,-1.532512974567551,0.5137396466543023,,,,,3.552338329811104
GUIDED_NOGPS,4.144531726837158,18.792610746945414,22.479008358983194,-48.59802909601004,66.3702335106525,-1.4498918566425907,11.978081607445372,15.115715054981504,76.12548532167223,-1.7582932501588553,0.5518760832858568,-1.0136650663487132,-2.443075327905355,0.46569722245161244,-0.4137617286002029,0.5146328777165295,,,,,2.864788975654116
GUIDED_NOGPS,4.165445327758789,47.84741044946384,21.551073836415963,-48.649581843015234,65.99564918195183,-1.2945472846530337,11.86316817322037,15.399459646030234,76.47101978751178,-1.7895878962753844,0.6087879942147534,-0.9609132742328833,-2.492134720682713,0.3164170864460671,-3.276990763974375,0.5157130559083399,,,,,2.864788975654116
GUIDED_NOGPS,4.208648920059204,23.153506447624096,21.157670431045972,-48.6719128273953,65.82660231129788,-1.2342309795470046,11.75168028144505,15.674745877548883,76.81934611880878,-1.8541626391228005,0.6218445411434674,-0.9026544286553191,-2.472389497509284,0.4354181251304598,-0.28744493730265747,0.5164891157112663,,,,,3.0366763141933633
GUIDED_NOGPS,4.227040767669678,54.38672199170124,20.418875670488788,-48.72222348198684,65.46680132740116,-1.115232689121874,11.643666005248594,15.941455047225059,77.1704078726996,-1.8611988011849714,0.6087455189758524,-0.8622001253358327,-2.5,0.30403681859528614,-2.7923328152886855,0.5175554098179477,,,,,2.635605857601787
GUIDED_NOGPS,4.273768663406372,21.403987568828175,17.64080432527691,-26.730470838849563,69.48676367260292,-1.393860383687015,11.539168637006984,16.1994802573961,77.52414781380818,-1.9982689584394915,0.5521603899100587,-0.7226926044038231,-0.0026429212504626154,0.10090835640386492,3.523586341013812,0.5120560762118079,13.01904269145238,6.06310760877255,74.40315230258075,0.46371858752288464,1.3750987083139758
GUIDED_NOGPS,4.31874418258667,22.23915164369035,10.012443696229473,-31.47482585881974,68.25254828507421,-1.3074939952439522,11.43822654977048,16.448726757213034,77.88050793381431,-2.0805842638823693,0.7420390085061784,-0.6155451323771587,-2.260482134665602,-0.6402707423015395,-0.47600818469980155,0.5144419394731101,-6.268004229932906,-45.033717021898596,66.0748709555131,-0.4946884077453903,2.0053522829578814
GUIDED_NOGPS,4.370858430862427,19.192912773298435,8.450584550073328,-30.39788269204982,68.09325592614319,-1.2332158814652934,11.340873058691013,16.689112284804292,78.23942947102177,-1.9213388302703454,0.7609334461845493,-0.5438981555310175,-1.7751290604857644,-0.14245820591864197,-0.2759596477028512,0.5152192603173179,,,,,1.948056503444799
GUIDED_NOGPS,4.400731801986694,33.48505097438108,6.908117227001215,-29.30229993415547,67.90663990842874,-1.1609819316857077,11.247136282449755,16.920567409439467,78.60085292992656,-1.4404579743734225,0.7797316208843054,-0.45519171401571157,-1.6990966905817488,-0.2817693850998289,-0.8172442653270894,0.5160413195322467,,,,,2.0053522829578814
GUIDED_NOGPS,4.453163146972656,19.074989198899424,5.925936420216024,-28.60200505700327,67.80190466954373,-1.1147143380088995,11.157039004684403,17.143035873692934,78.96471810078515,-1.0328252410744798,0.42049739460066154,-0.34562630166200986,-1.755367134720765,-0.1918223177378146,-0.07610234701694513,0.5167442201468622,,,,,2.807493196141034
GUIDED_NOGPS,4.486911773681641,29.637116490722292,4.613850344161126,-27.680983058826904,67.65702534386656,-1.0539062893063214,11.070598535416725,17.356474935607974,79.33096407918256,-1.0193557878660973,0.4151561866697116,-0.3081947572566508,-1.6883353647220836,-0.3187685116701835,-0.5778785291129018,0.517510908102974,,,,,2.46371851906254
GUIDED_NOGPS,4.506296873092651,51.613309706635164,4.088927598265818,-27.308259218931994,67.59923879885932,-1.0303296299298177,10.98782657248,17.560855710859993,79.69952928560076,-0.9586355128663898,0.3510222044671728,-0.2453761467582948,-1.727573052178328,-0.28189521969578596,-0.29537519784224414,0.5181504357301122,,,,,2.177239621497128
GUIDED_NOGPS,4.558347225189209,19.215246472420745,3.4997976241940236,-26.88247805483178,67.53223530522915,-1.0040263080269602,10.908729062946374,17.756163514920967,80.07035148498667,-0.8948022724307432,0.11503297878429694,-0.15102520756442125,-1.7366090587591847,-0.2508841536612175,0.04526699225745656,0.5188071742696363,,,,,2.119943841984046
GUIDED_NOGPS,4.576143264770508,56.22692905785833,2.3087601182043676,-25.8615834463866,67.38001018734143,-0.9501412883186817,10.833306064554431,17.94239820522257,80.44336780632055,-0.929884898772279,0.16172778048850067,-0.09473877921289656,-1.5536799301346085,-0.5082308115932359,-1.2581668068492493,0.5195950364284687,,,,,2.979380534680281
GUIDED_NOGPS,4.607234001159668,32.17403711175717,1.8082932422159081,-25.484280051775777,67.32008277764876,-0.9301532195249513,10.761551607136564,18.119574523320306,80.81851476218408,-0.9201025737769397,0.008191104362137791,0.012809765490544358,-1.6940763083741253,-0.3289751109446119,-0.070224795723348,0.520247647976803,,,,,2.864788975654116
GUIDED_NOGPS,4.667656660079956,16.55315252738926,0.7900158345155774,-24.772545558187467,67.21246829241278,-0.8820142282126704,10.693453554046439,18.28772243705718,81.19572826832862,-0.9893828900756716,-0.005083154846370427,0.11766065394362134,-1.6675053142989442,-0.3755810628158046,-0.1770864062005496,0.5209748899638738,,,,,2.521014298575622
GUIDED_NOGPS,4.690841197967529,43.14728060159039,-1.0290856159238895,-23.517877350978175,66.99901939654292,-0.8203723319370129,10.62899346358638,18.44688748272746,81.57494366324343,-1.0352201828739214,0.021799189066330382,0.16717768447678905,-1.4915706726997637,-0.6852342290108719,-1.1462814624661704,0.5218638864000508,,,,,2.177239621497128
GUIDED_NOGPS,4.72116231918335,32.989649205600124,-1.7296997822026197,-22.991679715860162,66.91839961442616,-0.8061298155988843,10.56814645043492,18.597131107240426,81.95609572772382,-1.019660585057809,-0.030527317051960427,0.22856761149984878,-1.604579169448004,-0.49296728638577203,-0.060292077693853,0.5225565441699465,,,,,2.2345354010102105
GUIDED_NOGPS,4.758896827697754,26.531283011468222,-2.2252153545257283,-22.606737549820362,66.81244582472063,-0.7864039899631258,10.510881047074161,18.738531010284145,82.33911870443946,-1.062078194237704,0.0636219314581994,0.3269129440379236,-1.6182513195542596,-0.47372382676493474,-0.10051518652471891,0.5232900093195783,,,,,2.521014298575622
GUIDED_NOGPS,4.792051315307617,30.15163866663791,-3.070516572884925,-22.0101964710093,66.71738824924627,-0.7468657175396107,10.457159065217251,18.871181486489274,82.72394631750244,-1.0347833709321579,0.0466478441536599,0.3534158656061449,-1.5760430187180905,-0.5541049142110173,-0.45594028665320413,0.5240098371023842,,,,,2.521014298575622
GUIDED_NOGPS,4.836373329162598,22.5706505946295,-3.828310310524806,-21.303467968406,66.60268883717858,-0.7139720489789733,10.406935457235885,18.995193767592678,83.11051179203565,-0.9999765134783614,-0.037416843490387666,0.402554541011891,-1.5595553199453442,-0.5517422143928115,-0.25281285619021915,0.5247617344322856,,,,,1.604281826366305
GUIDED_NOGPS,4.874720335006714,26.084304531150885,-4.6881647914601485,-20.523837404495094,66.48477680164864,-0.674228170304562,10.360158177587547,19.11069636460142,83.49874787374081,-1.0820695176080966,-0.022027360073291122,0.4042903695564262,-1.5217330570217222,-0.6061487824965393,-0.42731621715922624,0.5255209566081382,,,,,0.40107045659157625
GUIDED_NOGPS,4.89435601234436,50.952452683495714,-5.080332469440067,-20.20953533346597,66.43485689532022,-0.6571833169171802,10.316768044243243,19.217835409956404,83.88858684846686,-1.1975405889946265,-0.058871108003632405,0.3954728087813513,-1.5395932270354693,-0.6062585436200547,-0.3514383979142289,0.5261805949297199,,,,,-0.17188733853924698
GUIDED_NOGPS,4.936551570892334,23.706275999276542,-5.654476998832099,-19.7882842821954,66.36819562169553,-0.6384255540460584,10.276698600114681,19.316774999696133,84.27996056177797,-1.2693591743436643,-0.1013612879434586,0.39094543389826425,-1.5397846735163827,-0.6081814030118743,-0.1517281942530699,0.5268676474101237,,,,,-0.2864788975654116
GUIDED_NOGPS,4.9647767543792725,35.440429918545306,-6.797711406056468,-18.977628934649008,66.21787880037581,-0.5846533322115355,10.239875974481944,19.407697535620382,84.67280043852192,-1.3162319878531115,-0.26170958366302827,0.35384800847328046,-1.4512454517690376,-0.7579001818719512,-0.9110533216558696,0.5276823824572192,,,,,-1.2032113697747289
GUIDED_NOGPS,5.003971576690674,25.517144039130752,-0.43760468646940787,-12.669090623346502,22.724021399243256,-2.067487572540733,10.20621874442072,19.490804067454246,85.06703750239822,-1.4761679109015415,-0.23779410317105174,0.28763498072041327,-0.7496042213573888,0.3035214455668376,10.0,0.5935145241547325,5.868946643588032,-8.774015558260668,-0.7559839679131465,-124.3211342168322,-0.40107045659157625
GUIDED_NOGPS,5.0532965660095215,20.278208066216074,-1.519943386310988,-11.43004515928355,20.55964530662733,-2.0678646542584267,10.175637796229903,19.56631463501152,85.46260239552635,-1.608929926337076,-0.2464513679440429,0.23659807301435903,-1.1938246949783762,-0.474936962083813,1.0957179001225952,0.5973544356333486,,,,,-0.5156620156177409
GUIDED_NOGPS,5.092536687850952,25.48985098573061,-2.859235805136544,-9.884837886636044,17.856956136579896,-2.068341538635958,10.148036186858928,19.634468610358834,85.85942539801391,-1.5439244546851258,-0.24736234442459334,0.15898108394680352,-1.0914000309870215,-0.5760383377466879,1.1064136880041058,0.6020037038921511,,,,,-0.9167324722093172
GUIDED_NOGPS,5.125447034835815,30.394167989159186,-3.9048941966381965,-8.672701236984597,15.719979252847507,-2.0686901413709764,10.123309005335411,19.695525039979128,86.25743644752492,-1.4573277945714134,-0.18857810788946705,0.15890619198977138,-1.060303594107501,-0.607805505084875,1.112689169007802,0.6058061857920162,,,,,-0.11459155902616465
GUIDED_NOGPS,5.1574859619140625,31.220627642470077,-4.747384829992428,-7.685928869815651,13.93998567975284,-2.0689796651161654,10.101343234192239,19.74976298693566,86.65656515884794,-1.3482894807225663,-0.14817262975037568,0.1554696330016897,-1.048272620319477,-0.6198262720522981,1.118734507386013,0.6090748692186426,,,,,-0.2291831180523293
GUIDED_NOGPS,5.185396194458008,35.84201261301294,-5.543304951945638,-6.733055132366158,12.226492690222338,-2.069249407380288,10.08201761089543,19.797481873035434,87.05674084346435,-1.2981775567209464,-0.13668659944394143,0.1485015327073809,-1.0051255448205783,-0.6594716052830774,1.1249987206987095,0.612245372229863,,,,,-0.34377467707849396
GUIDED_NOGPS,5.232531785964966,21.21936214991096,-6.263069091360978,-5.890107100516703,10.718554295762132,-2.0694902594692595,10.065202489271197,19.83900182099337,87.45789252911649,-1.1441408894029974,-0.09871160143231678,0.10938051032832875,-1.03259603527001,-0.6370109631446444,1.1326633293828676,0.6151090073500316,,,,,-0.2291831180523293
GUIDED_NOGPS,5.254137992858887,46.30190095599762,-7.243036385199305,-4.683349054509,8.588585260742715,-2.069829547913956,10.050759700933693,19.874663996596052,87.8599489793759,-1.1912562813496859,-0.03650117125478283,0.1142438784917489,-0.8571778901813963,-0.7949390189648391,1.1426674853369232,0.6189070455779497,,,,,-0.2291831180523293
GUIDED_NOGPS,5.300242185592651,21.698641475855933,-7.765145454974019,-4.055339817903071,7.438275813653865,-2.070002100412201,10.038542416712328,19.904830950864703,88.26283871321156,-1.3301007936845282,0.020249803341795304,0.11186980745589428,-0.9844794942142502,-0.6822055479635687,1.1462969280434252,0.6212368443493366,,,,,0.0
GUIDED_NOGPS,5.315846681594849,64.10564284404231,-8.696158372111089,-2.963491176319489,5.013802272740968,-2.070322674394281,10.028395008079098,19.92988696222015,88.66649002455802,-1.3473758361993713,0.051190346838541505,0.10067706840726728,-0.7516148503307036,-0.9067020811089364,1.1580161615150644,0.6254790316277256,,,,,-0.6875493541569879
GUIDED_NOGPS,5.361220836639404,22.06471637268466,-9.0317228873052,-2.525091539824214,4.192955870518749,-2.070425128985339,10.02015290857629,19.950238378645746,89.0708310018837,-1.3888664606428485,0.10136406270780891,0.09419924095921182,-0.945635779415132,-0.7179849480902905,1.158388780593341,0.6273168126970474,,,,,-0.4583662361046586
GUIDED_NOGPS,5.39076828956604,33.8299430562501,-9.82490440209802,-1.6026649639703632,2.4935458322406086,-2.0706996103728694,10.01364247524371,19.966313959851345,89.475789547759,-1.4394862732422824,0.1985228633210056,0.09110457162570763,-0.8394784556303182,-0.8247105009870165,1.1682357404474975,0.6304733655732776,,,,,0.34377467707849396
GUIDED_NOGPS,5.426969766616821,27.628641064488505,22.55557642984963,-9.973830085424751,50.49181527981471,-1.1673090233600476,10.008680850046172,19.97856521943744,89.88129339842462,-1.4083359148719699,0.15706852425749415,0.09117723576713158,-2.0816295306113375,2.5,-10.0,0.5590842171779149,48.52418814315085,-16.388566453738985,80.5439894689892,90.37673493281547,0.4583662361046586
GUIDED_NOGPS,5.468846797943115,23.88651028230055,22.87714553250707,-9.209321942616874,50.500360001769856,-1.1542383622998162,10.005075821301102,19.987466767057935,90.28727014335962,-1.3260901919812613,0.2737859984458455,0.13930548340275206,-1.1572181152632068,0.6205661202314247,0.37082629888492735,0.5596803652123846,,,,,0.5729577951308232
GUIDED_NOGPS,5.522268533706665,18.721896871875447,23.22054539614158,-8.371008911531579,50.50984167410998,-1.1401271690799881,10.002625685105652,19.993516650585274,90.6936472448498,-1.1629065139824901,0.23625752405121042,0.19596578457005565,-1.1403296128305451,0.628628482906997,0.39784671072868993,0.5602757083561097,,,,,1.604281826366305
GUIDED_NOGPS,5.562709808349609,24.731003496524114,23.569114361175423,-7.512315170997686,50.522681589074566,-1.1261412131469073,10.001119106764516,19.99723669827308,91.10035205755574,-1.1920224364754908,0.3998424756637199,0.23557647948576613,-1.0895730925605862,0.6523529953403886,0.3495123424919584,0.5608665057027218,,,,,1.4896902673401404
GUIDED_NOGPS,5.593103408813477,32.913539557731845,23.724426155372385,-7.124895396141185,50.53216216455349,-1.1203518936234549,10.000334982217094,19.99917286092052,91.50731184808116,-1.1965522392773844,0.4819483931198547,0.25217389252975,-1.106700624599298,0.6450143064992971,0.42613370472433754,0.5614627245252914,,,,,1.3178029288008934
GUIDED_NOGPS,5.622469663619995,34.06735002193018,18.777075709661382,11.070180318935567,62.33549424361122,-0.9854765473576423,10.000042299465118,19.999895554035856,91.91445381454099,-1.241487733661781,0.6916063857786852,0.27665627872283755,1.7618652203857201,-0.2558363206343203,-1.8963997598168194,0.5443684393563947,12.255426171861265,31.77039300634335,74.28048622683728,0.6327124643625323,1.4896902673401404
GUIDED_NOGPS,5.666161775588989,22.890799046012955,12.46970959215938,16.622849553525615,67.49438787025956,-0.9410049345504794,9.999999999999996,19.999999999999954,92.32170510612968,-1.2816038892564987,1.0739121373049858,0.3211935944229635,0.15513204821260834,-0.397211812967169,-0.10095039699183694,0.5372409758538051,-1.4871274096849036,27.001776694741263,76.48596982218339,0.7664765684677778,1.432394487827058
GUIDED_NOGPS,5.692099094390869,38.581794098167634,5.991183144955437,23.63005538473339,68.72236409024163,-0.8405166274963265,10.0,20.0,92.72899284268937,-1.1787028205420256,0.9702554789135798,0.34691032386511933,0.9333488398577845,-1.09026719472904,-1.6149541128349933,0.5360099431286716,-12.312058435079502,37.587916927203864,69.63349488803289,2.502201622434325,2.0053522829578814
GUIDED_NOGPS,5.750154972076416,17.236039367975508,4.966352648355407,25.883759547995712,72.14381957223125,-0.7763191888305931,10.0,20.0,93.13624413427807,-0.894255430410319,0.9512141921680536,0.44202430991511704,0.17690021044199764,-0.197175256150324,-0.2636469800220548,0.5314886368430702,2.241350987317437,29.172848280055117,81.85408226419659,1.4729107758448228,1.948056503444799
GUIDED_NOGPS,5.771474123001099,46.89045154221959,4.407778824010068,28.339321541319073,73.26205614141739,-0.7077193464335476,10.0,20.0,93.5433861007379,-0.5675774075272467,0.9402660392587578,0.5133614469689483,0.527895799016038,-0.2503534178488934,-1.3176162438431136,0.5304219949389808,,,,,1.5469860468532228
GUIDED_NOGPS,5.815133810043335,22.933228353345143,4.173204283001296,29.428186622484247,73.77608424176908,-0.6806703941020352,10.0,20.0,93.95034589126332,0.25488889272483006,0.3110690129171832,0.6584220184178841,0.25633889708755087,-0.18011392037459423,-0.08680417101220028,0.5302613924742413,,,,,3.151267873219528
