Mode,Time,Freq,North-Vision,East-Vision,Down-Vision,Yaw-Vision,North-Desired,East-Desired,Down-Desired,Roll-UAV,Pitch-UAV,Yaw-UAV,Roll-Control,Pitch-Control,Yaw-Control,Thrust-Control,northVraw,eastVraw,downVraw,N-Velocity,E-Velocity,D-Velocity,yawVraw,yawRate,Q-Size
GUIDED_NOGPS,0.00567626953125,176.8629137676576,-21.1451846959422,13.802098176497623,46.17637543732375,-10.216799192100869,-14.789642550558062,3.3611741894784557,50.25574605943682,-0.8791649278519692,0.7326841573033468,55.51363972465342,-3.230063140733681,-1.3053940619749467,-5.108399596050434,0.506526992995381,-11.49928945826668,0.5879276675225995,51.29222262573519,13.418656587600708,19.459247589111328,2.91544646024704,-10.909343243867042,-16.805612150924674,0
GUIDED_NOGPS,0.013272285461425781,131.72651612700605,-18.841201430662643,15.728263397973517,52.7136063210256,-11.558178785163166,-14.789436279087996,3.361754927098205,50.255727353008645,-0.7048998015333812,0.806474372805844,55.685999548358694,-1.0949243352646636,0.19320777575972584,-5.779089392581583,0.49606739365117286,-10.851197713985128,0.06880725675952627,51.4921019540356,14.11842405796051,18.204252421855927,4.323357343673706,-11.536603560579543,-19.369791523847105,0
GUIDED_NOGPS,0.04732155799865723,29.374345183068606,-17.674860270844853,13.854070915540952,52.51299687895432,-11.748761181955036,-14.788020283886178,3.3657415263250257,50.25559715952309,-0.822928672042375,0.8100276719998374,56.322272650680404,-0.7050580979405662,-0.05442353012790005,-5.874380590977518,0.49638816044891004,-10.393600838361902,-0.2317274175940862,51.646026244953916,13.798460364341736,21.511310338974,2.347763814032078,-11.767380995159876,-17.012404665783272,0
GUIDED_NOGPS,0.07948422431945801,31.096098812295192,-16.438655506562625,12.569911683270938,52.609606970589645,-12.25507531376021,-14.784260722085477,3.376326213440226,50.255246051766264,-0.6524081969362465,0.7683355569758449,56.93477327959588,-0.6095445247364475,0.0361453428911422,-6.127537656880105,0.4962330225298826,-9.824320635704886,-0.9207294425234931,51.7562543891859,16.122081875801086,15.14185220003128,4.366138577461243,-12.286931638539773,-18.003786133243114,0
GUIDED_NOGPS,0.1157689094543457,27.564545914578446,-15.278827799353586,11.406568237919451,52.732508060088435,-12.85223307821544,-14.777104796349555,3.3964730387750843,50.25456683586147,-0.7721874101417618,0.615765245895333,57.77640626459778,-0.5166670342002976,0.10933948019074373,-6.42611653910772,0.49603529404123686,-8.941476356844085,-2.1781924191407147,51.92072111409058,17.108486592769623,13.839194178581238,6.427909433841705,-13.155317368285916,-20.898553492183332,0
GUIDED_NOGPS,0.1502246856689453,29.028535044190214,-14.19061071513309,10.43095872015455,52.78480277678566,-13.520331022572268,-14.765578847919208,3.4289232455567302,50.253454536127954,-0.7433434145550921,0.6077415345287134,58.374703515134215,-0.42998879875397816,0.18289883562624523,-6.760165511286134,0.4959498428149477,-8.462188279717807,-3.0120768518153582,51.95909476412103,17.70714372396469,15.043802559375763,1.7610453069210052,-13.754014384296049,-21.126133687780865,0
GUIDED_NOGPS,0.18212008476257324,31.357172227663185,-13.196285096570717,9.529224558592688,52.992211966998894,-14.14021680768582,-14.7487864496587,3.4762006387540296,50.2518063799396,-0.5419822874688289,0.4669200559551226,58.83326192544136,-0.3442664430034035,0.24635290740469806,-7.07010840384291,0.49561535106070514,-8.462188279717807,-3.0120768518153582,51.95909476412103,20.772919058799744,9.625402092933655,12.026295065879822,-13.754014384296049,-23.49795102801364,0
GUIDED_NOGPS,0.2161116600036621,29.425452504560123,-12.287621291575954,8.748144869506918,53.009976213856845,-14.659665867587144,-14.725906499102088,3.5406169539234678,50.24952178258372,-0.32394279892474653,0.5022208748241286,59.64517334226995,-0.27260119178254594,0.2999029098209579,-7.329832933793572,0.495583272909963,-7.933712731501759,-3.7461447596205018,51.99151396516299,19.603922963142395,12.644967436790466,1.4187043532729149,-14.406931146415992,-17.766988597360648,0
GUIDED_NOGPS,0.25009775161743164,29.42916883007536,-11.348234007489811,7.981326883431613,53.0922920061368,-15.330108362002958,-14.69619131149957,3.624277226055031,50.24650233211971,-0.1745249403113129,0.35115128437031545,60.28033995394611,-0.19215067100608327,0.35811987781629945,-7.665054181001479,0.4954467365215727,-7.110921224363848,-4.860167996970143,52.18256643887858,21.349622309207916,10.483556240797043,3.8648996502161026,-15.443166865708674,-22.098332568956724,0
GUIDED_NOGPS,0.2829887866973877,30.40805022692012,-10.450023334006607,7.4032780198098855,53.18822865771747,-15.934944122453468,-14.658964712863808,3.72908515841809,50.24265177423784,0.16932970099344552,0.3157798157320822,60.81982244553957,-0.1277162922121725,0.41385945800599916,-7.967472061226734,0.4952870769864326,-6.60201332747905,-4.902936795482308,52.393052740727235,21.31989300251007,15.804733335971832,4.143904522061348,-15.825345026121662,-19.264917384236146,0
GUIDED_NOGPS,0.31974029541015625,27.214180973514488,-9.535409820281041,6.747779124528963,53.216186890212335,-16.582822437980134,-14.613620133016266,3.856748491407286,50.23787599711796,0.2354978255886052,0.26828270692423994,61.36484422054991,-0.05081169782436626,0.4637184612129157,-8.291411218990067,0.495234702571049,-5.297156283399076,-7.331493589521157,52.469279143380895,21.698930859565735,17.005474865436554,0.6242583505809307,-17.725528107135723,-17.060272339034015,0
GUIDED_NOGPS,0.35105276107788086,31.941513342268795,-8.664391000138805,6.102629568374743,53.31967736614986,-17.210996167152384,-14.559618698633548,4.008784371388408,50.232083016288236,0.18182662597746813,0.2780610031751859,61.87435584206535,0.03157103705853241,0.5112538081631197,-8.605498083576192,0.4950598490402214,-5.297156283399076,-7.331493589521157,52.469279143380895,22.358369827270508,11.788710951805115,4.907455667853355,-17.725528107135723,-15.626152886932068,0
GUIDED_NOGPS,0.3851642608642578,29.32013533540251,-7.85870315335686,5.430053642021137,53.33784663130177,-17.74570055117593,-14.496487326293723,4.1865247195442805,50.225182959483874,0.3192751650398362,0.4301264405460722,62.34350787577519,0.10935388093870985,0.5454355963821877,-8.872850275587965,0.49501973812509137,-4.775331195711872,-8.443606502538243,52.53163559681344,23.449377715587616,11.592106521129608,0.801492016762495,-18.547207411103635,-14.317006259847494,0
GUIDED_NOGPS,0.41857337951660156,29.93793004996431,-7.053292102516459,4.846996058362063,53.31956014309927,-18.371584696735162,-14.423816815522672,4.391121600720647,50.217088051505876,0.09746163679356477,0.3731056734772785,62.74192647044037,0.18477627738731356,0.5829996902981004,-9.185792348367581,0.4950360446534506,-4.307835929518354,-9.38201497513015,52.47156975213555,22.1125066280365,15.04300832748413,-1.5861254185438156,-19.06767292507407,-17.34695586906696,0
GUIDED_NOGPS,0.45154452323913574,30.33349967094082,-6.2820684869126096,4.324869606473101,53.31049759139478,-18.912459855082748,-14.341259941840407,4.623552592272049,50.20771259907972,0.3714950561740513,0.5565377407552434,63.0930733258599,0.25719975814903434,0.6155059842663164,-9.456229927541374,0.4950355440122959,-3.8133357406170267,-9.748285506918574,52.529122072806395,21.539469063282013,16.468416154384613,-0.8737202733755112,-19.307450533110085,-14.58813488781938,0
GUIDED_NOGPS,0.48515939712524414,29.7540116056354,-5.479916219962111,3.7852625605075843,53.2821227335935,-19.398381050363547,-14.24852954980742,4.884626152907711,50.19697297571415,0.40485143224414577,0.5571445070134639,63.36509243974482,0.3350862380426466,0.6481164506372535,-9.699190525181773,0.495063760387393,-2.8775578354429308,-10.556547980318008,52.57926112668302,23.27076643705368,15.170793235301971,-1.9639231264591217,-19.838988580550417,-11.95499365616827,0
GUIDED_NOGPS,0.5201625823974609,28.577587910253527,-4.707894512843602,3.2813170673379304,53.25242214298583,-19.87173727718141,-14.14539664607101,5.174986991537426,50.184787606559865,0.2651828415776855,0.6215729344022537,63.49225007152295,0.40921810105655543,0.6752740759778052,-9.935868638590705,0.49509178474171844,-2.880176901087748,-10.942991697954351,52.56915813178209,23.27076643705368,15.170793235301971,-1.9639231264591217,-20.03841128038517,-11.95499365616827,0
GUIDED_NOGPS,0.5542867183685303,29.31193917200123,-3.9340038225494838,2.7524959895918872,53.24203793084649,-20.21720310493692,-14.03168849241161,5.495121436117435,50.17107695326827,0.40540126247233177,0.6732231450710074,63.69521597289905,0.4893050519989048,0.7012412480206269,-10.0,0.49508646243587484,-2.7573399625178157,-11.144683423229607,52.63141406735436,25.567913055419922,11.218485236167908,-1.0023698210716248,-20.267355677471475,-4.654181400453191,0
GUIDED_NOGPS,0.5862734317779541,31.265544051106588,-3.137751966461434,2.141770272149795,53.31196956573104,-20.571221985098987,-13.907286698789136,5.845362802496311,50.1557634988502,0.39557227341113965,0.6856384012696808,63.74308876879167,0.5808658915393337,0.7246180050076021,-10.0,0.49495007029299065,-2.2274175914528938,-12.565954574317097,52.506570268071414,27.52780318260193,8.822812139987946,4.523284733295441,-20.650347060706466,-6.287135343257024,0
GUIDED_NOGPS,0.6231298446655273,27.140572020188948,-2.3480605879103997,1.4258046889133502,53.36600352554591,-20.796674570104216,-13.772125316389312,6.2258967632608435,50.13877173253464,0.5307627946225838,0.8926007637230305,63.77115401609125,0.6735736123596303,0.7412688572760328,-10.0,0.494836429131182,-1.1200172311527095,-14.615014813198169,52.319509428768,28.151080012321472,7.425016909837723,4.616784304380417,-21.19926343505361,-0.09980357792587256,0
GUIDED_NOGPS,0.6556165218353271,30.78569016896405,-1.5309327907835037,0.8529560858541031,53.344017395885224,-21.019182731344323,-13.626188930670008,6.636766716581924,50.1200281346275,0.5604324960468845,0.8772803826104274,63.737057711754545,0.7597035374944656,0.7662140591948358,-10.0,0.49484161718198766,-1.1200172311527095,-14.615014813198169,52.319509428768,27.031201124191284,11.999078094959259,-0.5676811095327139,-21.19926343505361,1.609968648699447,0
GUIDED_NOGPS,0.6895923614501953,29.438050519725714,-0.7695279144375999,0.21357283423038242,53.39709884459663,-21.184610406990334,-13.469510754407567,7.077879155060417,50.09946116137028,0.641943866880111,0.8097837595412739,63.57936913438646,0.8512765382921254,0.7788020188683613,-10.0,0.49472377970683784,-0.8105838006872794,-15.985785716190694,52.21128251377542,27.961039543151855,10.922826826572418,4.84735481441021,-21.325668611109172,1.8322133993381413,0
GUIDED_NOGPS,0.7235689163208008,29.437224089891426,-0.015360685473528798,-0.3598608241688558,53.31187649585841,-21.261176218947366,-13.302170720743149,7.5490090345730625,50.077001229798846,0.6676151862364568,0.8481939686690753,63.37638274244286,0.9363735357542526,0.7948021417867699,-10.0,0.4948241995743047,-0.8105838006872794,-15.985785716190694,52.21128251377542,29.51653003692627,12.381939589977264,-3.582201525568962,-21.325668611109172,6.161111522881118,0
GUIDED_NOGPS,0.7609314918518066,26.770729216531034,0.73953807802367,-0.9919957986198481,53.22149846354106,-21.311762816257833,-13.12429357622906,8.049805143118338,50.05258070260215,0.8036442732510787,1.0346272370765996,63.22144673131029,1.027738983138448,0.806710042593661,-10.0,0.49492973158249776,-0.025348153633146575,-17.79161430897224,52.144441894327485,29.51653003692627,12.381939589977264,-3.582201525568962,-21.291467473332837,6.161111522881118,0
GUIDED_NOGPS,0.7912235260009766,33.01665669573979,1.5805439264932595,-1.6751129804926732,53.212805436851106,-21.324075834077014,-12.936046973875087,8.57979546966236,50.026133872980964,0.7038232996871637,1.2079296268873332,63.01628833921061,1.134686162698896,0.82611473733384,-10.0,0.4949013254978078,0.5631316480602077,-18.581881785526242,52.16058192763308,30.72514235973358,8.587070554494858,1.0776394978165627,-21.223469082288716,8.619169392895415,0
GUIDED_NOGPS,0.8299314975738525,25.83829137122757,2.296999616059317,-2.4373892180616092,53.30511158844567,-21.2377238985539,-12.73763956619483,9.138392572984756,49.997596949506594,0.9187460341747518,0.9844132871242526,62.459463997314494,1.227353851218305,0.8276748081773373,-10.0,0.4947079765776975,0.9640236044114083,-19.670211804878967,52.09313751635225,31.342557072639465,6.061483547091484,8.004766702651978,-21.044089492647824,10.414306177541201,0
GUIDED_NOGPS,0.857407808303833,36.404464735188434,3.0263859274547085,-3.1900442742758006,53.30414609182916,-21.04403914070776,-12.529319098252039,9.724898950524548,49.966908040979646,1.0702251158136482,1.2597642526636772,62.11328951961074,1.3429584894092899,0.8370254115478906,-10.0,0.4946604191186408,1.2827823141650707,-20.62859142702535,52.057359974052126,30.5454283952713,6.702100485563278,2.1587789058685303,-20.905022933102238,16.853601060033185,0
GUIDED_NOGPS,0.8915526866912842,29.290650576831755,3.6201278363994778,-3.9618473950697832,53.29811415875156,-20.773990566252742,-12.311370500706946,10.338512407226048,49.93400714128871,0.8282526977786941,1.1241203242852207,61.709659490608836,1.429834756947398,0.832512336327734,-10.0,0.49461742877205944,1.4837720916985726,-21.58599385283938,52.06306937555895,31.31808340549469,6.66157454252243,2.451595291495323,-20.62524837287674,18.467002732564207,0
GUIDED_NOGPS,0.926060676574707,28.98420288853569,4.346696776470279,-4.72331680310468,53.30493940035255,-20.513452920545497,-12.08411398286261,10.978331424384715,49.89883611426914,0.8793477954948257,1.025327507634804,61.17763556558903,1.5331709303786423,0.8452760974989564,-10.0,0.49455023474226656,1.7828565484364371,-22.51235967965414,52.08007840135315,31.31808340549469,6.66157454252243,2.451595291495323,-20.289017767324545,18.467002732564207,0
GUIDED_NOGPS,0.9585361480712891,30.80083715806866,5.004464315484707,-5.369614422982075,53.23786381943873,-20.416238536073138,-11.847903125711227,11.643360528493067,49.86133867856174,1.1133765434424963,0.8860584029935104,60.62176061998754,1.6289095418836923,0.8461400190796132,-10.0,0.4945975597745968,1.7828565484364371,-22.51235967965414,52.08007840135315,29.32136356830597,11.788562685251236,-2.212570607662201,-20.289017767324545,8.015764868407102,0
GUIDED_NOGPS,0.9972379207611084,25.843704365507254,5.63712570428892,-6.043376302240129,53.139113585007344,-20.243924022942608,-11.603122974980487,12.332515660086553,49.821460392471515,1.2668363799406965,0.7071642760475049,60.00239223586161,1.7206338174360916,0.8461511795417436,-10.0,0.49469175489194267,1.7828565484364371,-22.51235967965414,52.08007840135315,31.21451437473297,7.894279807806015,-3.9915472269058228,-20.289017767324545,12.086591764680552,0
GUIDED_NOGPS,1.0300219058990479,30.50935436003375,6.31731469541322,-6.844021043617827,53.0354392845008,-19.97873618978751,-11.350188134179906,13.044629542589414,49.77914863882642,1.1695145085610659,0.774255783521512,59.665377041834844,1.838990290882354,0.8491590215936335,-9.989368094893756,0.494789934966921,1.7828565484364371,-22.51235967965414,52.08007840135315,32.99638628959656,-2.497624233365059,-4.46496456861496,-20.289017767324545,17.845175480337076,0
GUIDED_NOGPS,1.0640292167663574,29.409977912561793,6.926416460872361,-7.559296587506092,53.19903919134827,-19.62653081274339,-11.089540857647137,13.778457051160624,49.734352609836066,1.6111940273252294,0.5474030564314389,58.67461712158948,1.934558066463978,0.851182610091525,-9.813265406371695,0.4944565014695805,1.7828565484364371,-22.51235967965414,52.08007840135315,32.87627696990967,1.1350063607096672,12.473555654287338,-20.289017767324545,22.561390366379616,0
GUIDED_NOGPS,1.0993976593017578,28.278176681971104,7.510584183546377,-8.226831161308644,53.28204825750359,-19.298049159285316,-10.821649143594342,14.532680581539694,49.687023291950446,1.7159264405109125,0.9407095746679855,57.84469449591957,2.0292105564830796,0.8528182274097075,-9.649024579642658,0.49424796005511495,1.7828565484364371,-22.51235967965414,52.08007840135315,31.808459758758545,2.3226745426654816,7.263081520795822,-20.289017767324545,20.963230260981476,0
GUIDED_NOGPS,1.1310820579528809,31.568638371856725,8.060811487335354,-8.865487301379765,53.36379780458394,-18.96991996931785,-10.547004827154492,15.305915418892623,49.637113450718694,1.9362064445461706,0.9509152646701597,57.31037562733864,2.129159659388757,0.8514715986156075,-9.484959984658925,0.4940373050338156,1.7828565484364371,-22.51235967965414,52.08007840135315,31.808459758758545,2.3226745426654816,7.263081520795822,-20.289017767324545,20.963230260981476,0
GUIDED_NOGPS,1.1697285175323486,25.88357555000154,8.530681363935507,-9.454333485256596,53.38320158390611,-18.703568779996857,-10.266121673427715,16.096715106657747,49.58457761564778,1.8953753602444228,1.042652495907953,56.3483981242557,2.213306986939294,0.843663134846944,-9.351784389998429,0.49392220165078665,1.7828565484364371,-22.51235967965414,52.08007840135315,30.83067536354065,3.5504594445228577,3.52308452129364,-20.289017767324545,17.74222062388289,0
GUIDED_NOGPS,1.2018508911132812,31.131411945460886,9.00994384294436,-9.96730457674657,53.39575999942226,-18.440815300341637,-9.979533470527642,16.90357681539163,49.52937206506128,1.7432042950652393,1.1101624058294763,55.630852601000015,2.3036074932531934,0.8392405897657992,-9.220407650170818,0.49381377930502246,1.7828565484364371,-22.51235967965414,52.08007840135315,29.516473412513733,6.961112469434738,2.8544019907712936,-20.289017767324545,17.182488328947638,0
GUIDED_NOGPS,1.23231840133667,32.82981238112384,9.4696516338186,-10.493879578402119,53.49764040708352,-18.141360888382316,-9.687792122627712,17.724946711614955,49.471454810958086,1.983470286385601,1.0754499970852964,54.93156417339577,2.3981475733016095,0.8328224122221715,-9.070680444191158,0.4935581030461993,1.7828565484364371,-22.51235967965414,52.08007840135315,29.20595407485962,4.509105905890465,8.522982150316238,-20.289017767324545,19.4580307377345,0
GUIDED_NOGPS,1.2658026218414307,29.867365467738605,9.815079970030533,-11.002610053695971,53.55050960256149,-17.825593244026553,-9.39146574300754,18.55922532665837,49.410785583871125,2.080618201384808,1.1781770026976404,54.24309818053141,2.47898014569454,0.8184130358832302,-8.912796622013277,0.4933764415700954,1.7828565484364371,-22.51235967965414,52.08007840135315,28.736191987991333,3.59959714114666,5.912469327449799,-20.289017767324545,21.848929918961,0
GUIDED_NOGPS,1.299637794494629,29.561084250736506,10.230695784306594,-11.514743781856064,53.563587690108996,-17.452754988365772,-9.091136747099224,19.404772925508446,49.3473258177261,2.256141683336265,1.0020122300161425,53.40352791265886,2.5677074228492613,0.8166506063549285,-8.726377494182886,0.4932539810041874,1.7828565484364371,-22.51235967965414,52.08007840135315,29.668882489204407,2.217525988817215,2.9931072145700455,-20.289017767324545,24.67575567867981,0
GUIDED_NOGPS,1.332533836364746,30.405184599882563,10.601928911849173,-11.998374658227625,53.484349991957764,-17.154113634661737,-8.78739994553369,20.25991487565348,49.28103863470025,2.228874500952516,0.9331903901654478,52.48410931829427,2.6545541422271683,0.8061127752769582,-8.577056817330869,0.493274701828388,1.7828565484364371,-22.51235967965414,52.08007840135315,27.80649960041046,2.759230136871338,-2.975112944841385,-20.289017767324545,20.068997989181312,0
GUIDED_NOGPS,1.3657543659210205,30.105109028007064,10.94352950797026,-12.497002629005488,53.48186898815082,-16.90142006319604,-8.480860637187037,21.122947015929412,49.21188883008104,2.3667561700577986,0.7755725159274436,51.782344947115895,2.743158190196417,0.7916988689089269,-8.45071003159802,0.49316803174708834,1.7828565484364371,-22.51235967965414,52.08007840135315,27.223387360572815,0.2961618360131979,2.16432586312294,-20.289017767324545,17.934193335789853,0
GUIDED_NOGPS,1.3993351459503174,29.78443709079547,11.246667908737496,-12.897539886963063,53.41259742595229,-16.618662573099535,-8.172132702226847,21.992141025365715,49.139842857124876,2.374865739036719,0.7056768956340288,50.90054703469974,2.8206739834590593,0.7791701264742804,-8.309331286549767,0.49316359268987614,1.7828565484364371,-22.51235967965414,52.08007840135315,24.885563552379608,5.5546835064888,-2.14673038572073,-20.289017767324545,20.054463346627525,0
GUIDED_NOGPS,1.4330418109893799,29.67359990944336,11.560273298986841,-13.514158740385154,53.41296315554353,-16.23002302480091,-7.861836695158532,22.865749792031306,49.06486881191592,2.4434811791084328,0.7530391348861897,50.03957778415754,2.9219140252000564,0.7678080985880286,-8.115011512400455,0.4930430490501958,1.7828565484364371,-22.51235967965414,52.08007840135315,25.877299904823303,-9.75913405418396,2.287936396896839,-20.289017767324545,26.540298284350328,0
GUIDED_NOGPS,1.479569435119629,21.496133129013575,11.831154631062505,-14.002429262126315,53.49877702314818,-15.911983645484602,-7.550597937871682,23.742012781880327,48.986936418224744,2.5723755999264473,0.7787938572556037,48.75133580480143,2.9953562448359885,0.7574430779834908,-7.955991822742301,0.4927810550321225,1.7828565484364371,-22.51235967965414,52.08007840135315,24.450184404850006,-2.4920007213950157,7.80191496014595,-20.289017767324545,22.66290917556081,0
GUIDED_NOGPS,1.5082144737243652,34.92284891175834,12.084517638027135,-14.529049742673989,53.60798171247771,-15.513867386420777,-7.239044612686378,24.619161407598142,48.906017012367066,2.6552612261650212,0.8664848417403992,48.16906217805784,3.097499221254157,0.7425536760557157,-7.756933693210389,0.492476856479823,1.7828565484364371,-22.51235967965414,52.08007840135315,23.8878071308136,-6.026223301887512,9.192276000976562,-20.289017767324545,27.408823431661855,0
GUIDED_NOGPS,1.5402262210845947,31.241324345461994,12.215382207911475,-14.985282755628962,53.66121502016963,-15.269723918785125,-6.927805855399528,25.495424397447152,48.82208352806253,2.5852387671242854,1.360220113655286,47.20228988217756,3.175329320909569,0.7148324308330374,-7.634861959392563,0.49225738961262866,1.7828565484364371,-22.51235967965414,52.08007840135315,22.260916233062744,-3.5986345261335373,6.116737797856331,-20.289017767324545,20.76607855813635,0
GUIDED_NOGPS,1.5741500854492188,29.48834331674119,12.39619190203016,-15.59591677954557,53.87325196521632,-14.935505894560771,-6.617509848331217,26.369033164112743,48.735110481293376,2.7176054853616054,1.5429054758383245,46.33032402707164,3.2716465823261283,0.6976396834051946,-7.467752947280386,0.4917789736257233,1.7828565484364371,-22.51235967965414,52.08007840135315,23.08337092399597,-14.394369721412659,16.078615188598633,-20.289017767324545,25.71444815897304,0
GUIDED_NOGPS,1.6218163967132568,20.980751530673498,12.573830677957266,-16.153166350269412,53.94801946710772,-14.546657874855454,-6.3087819133710195,27.23822717354905,48.64507395516323,2.465790497928398,1.5281911139320015,45.51885315744452,3.3477175604398703,0.6891091595847725,-7.273328937427727,0.4915152871808888,1.7828565484364371,-22.51235967965414,52.08007840135315,20.78707069158554,-11.256913095712662,6.952093541622162,-20.289017767324545,28.291338513940865,0
GUIDED_NOGPS,1.6410582065582275,51.981112667154136,12.702636208632224,-16.699978679888556,54.020897305209125,-13.968203435080362,-6.002242605024369,28.101259313824983,48.55195158475578,2.5568450304143076,1.538969472607399,44.77609740596231,3.473590248237129,0.6684305034130884,-6.984101717540181,0.49124968684727466,1.7828565484364371,-22.51235967965414,52.08007840135315,19.89712566137314,-11.944771558046341,4.845033958554268,-20.289017767324545,30.31263908370505,0
GUIDED_NOGPS,1.6745641231536865,29.85206009836089,12.528086219002,-17.139334677182323,54.005229754103325,-13.907833170451608,-5.6985058034588345,28.95640126397003,48.45572254199354,2.5639896217295526,1.5586340141146888,43.918570570761794,3.5168661143695537,0.6165214366324462,-6.953916585225804,0.49112078846062435,1.7828565484364371,-22.51235967965414,52.08007840135315,18.79585236310959,-12.517046928405762,4.388771951198578,-20.289017767324545,20.867093640866255,0
GUIDED_NOGPS,1.7102673053741455,28.012636162667217,12.627514024957483,-17.62668108795512,53.977824045906985,-13.5989433755044,-5.398176807550522,29.801948862820097,48.35636752049659,2.9545347158290043,1.5381781311590295,42.90969698883755,3.6007781133478645,0.6068390828941,-6.7994716877522,0.4910056695593434,1.7828565484364371,-22.51235967965414,52.08007840135315,17.80324876308441,-10.408167541027069,0.804279837757349,-20.289017767324545,25.40931628799189,0
GUIDED_NOGPS,1.7416539192199707,31.86483119093202,12.708084293583854,-18.117487107453115,54.06358210025229,-13.293143116493233,-5.10185042793035,30.636227477863493,48.25386872044127,3.2840868609704765,1.4000014832589676,42.23477867619191,3.6883905152258163,0.5855330437007759,-6.646571558246617,0.4907044585923024,1.7828565484364371,-22.51235967965414,52.08007840135315,16.861094534397125,-11.380299925804138,8.102067559957504,-20.289017767324545,25.194687838607994,0
GUIDED_NOGPS,1.7771615982055664,28.1676505154293,12.74080659065634,-18.57752198373225,54.14234771291545,-13.026120322034341,-4.810109080030417,31.457597374086845,48.14820983341893,3.2742612069625903,1.4760521178507686,41.81432930635885,3.762366848053213,0.563241950529577,-6.513060161017171,0.49040937939280554,1.7828565484364371,-22.51235967965414,52.08007840135315,16.861094534397125,-11.380299925804138,8.102067559957504,-20.289017767324545,25.194687838607994,0
GUIDED_NOGPS,1.8089232444763184,31.490896532047962,12.779463937395937,-19.04277152654375,54.265437169969935,-12.756596634781896,-4.523520877130343,32.264459082820714,48.03937602729468,3.630592175962155,1.1812415164791545,40.99283513412474,3.84585437341406,0.5405727586602025,-6.378298317390948,0.49003830217171956,1.7828565484364371,-22.51235967965414,52.08007840135315,13.485412299633026,-10.784678161144257,10.243397951126099,-20.289017767324545,22.64168948535687,0
GUIDED_NOGPS,1.8434357643127441,28.980197609341534,12.705484098170006,-19.52580946131571,54.36233812423101,-12.580643747812136,-4.24263772340357,33.055258770585844,47.927353931066094,3.6819650169175833,1.0766976805475874,40.07617935127942,3.921342492999204,0.5035566629045808,-6.290321873906068,0.48970402529093615,1.7828565484364371,-22.51235967965414,52.08007840135315,10.532311350107193,-14.810806512832642,9.349571168422699,-20.289017767324545,20.39900882421423,0
GUIDED_NOGPS,1.877173662185669,29.6454955400687,12.629003880127945,-20.016457160995262,54.44871622260587,-12.301893053771886,-3.9679934069637124,33.828493607938775,47.81213161972193,3.605242355744476,1.1686430191116546,39.32328076887975,4.000018521298524,0.47598564737686155,-6.150946526885943,0.4893814646353857,1.7828565484364371,-22.51235967965414,52.08007840135315,9.031376987695694,-15.264874696731567,8.289424329996109,-20.289017767324545,25.167320978151043,0
GUIDED_NOGPS,1.9103643894195557,30.134958041154157,12.51894754296652,-20.447034813282595,54.426559056021354,-12.181465509855173,-3.700101692910918,34.582717138317854,47.69369859910091,3.7559974373313514,1.1216261312994023,38.75599599226975,4.0715367090392425,0.4368764273728949,-6.090732754927586,0.4892274232689273,1.7828565484364371,-22.51235967965414,52.08007840135315,8.336549997329712,-12.733997404575348,1.766110211610794,-20.289017767324545,16.762004808168726,0
GUIDED_NOGPS,1.9430148601531982,30.637273378036845,12.366147358701888,-20.966693406329696,54.50434389838463,-12.098831752035771,-3.439454416378153,35.31654464688905,47.57204579075041,3.696457824562704,1.1533542809848156,38.062878640580614,4.15223427550784,0.390145103870122,-6.0494158760178856,0.48890832302778525,1.7828565484364371,-22.51235967965414,52.08007840135315,6.117364391684532,-19.80457305908203,8.265911042690277,-20.289017767324545,15.160369844030342,0
GUIDED_NOGPS,1.976966142654419,29.45769187549163,12.199134954669965,-21.315968809233908,54.48624443961813,-11.979015881860585,-3.186519575577572,36.02865852939191,47.44716551678519,3.9162844747918024,1.013274464905553,37.658736347390956,4.165795725101187,0.3617383052427471,-5.9895079409302925,0.4887374737234673,1.7828565484364371,-22.51235967965414,52.08007840135315,5.230377614498138,-9.29742082953453,2.286326512694359,-20.289017767324545,18.33937552528064,0
GUIDED_NOGPS,2.010279893875122,30.022791043921433,11.9925641653687,-21.73362059505928,54.50805715351208,-11.933428498230587,-2.941739424846828,36.71781366098542,47.31905148474616,3.8861483995132367,0.896527108639583,37.1085953455977,4.157800588428084,0.328590555327801,-5.966714249115293,0.4884975909299745,1.7828565484364371,-22.51235967965414,52.08007840135315,2.2693732753396034,-14.202779531478882,4.683005064725876,-20.289017767324545,13.276280090728896,0
GUIDED_NOGPS,2.0453147888183594,28.551714748607914,11.732256458840222,-22.164600170280536,54.50404337833702,-11.883560873267209,-2.7055285676954437,37.38284276509375,47.187698772459065,3.980083564281599,0.690655228575908,36.48559671592791,4.149174691367688,0.2925846262928383,-5.9417804366336044,0.4882938486305953,1.7828565484364371,-22.51235967965414,52.08007840135315,-0.7141526788473129,-16.254080832004547,3.3400002866983414,-20.289017767324545,14.750346757965307,0
GUIDED_NOGPS,2.0779778957366943,30.622510367385082,11.469145309769509,-22.587124767662527,54.50033848481671,-11.831575835727831,-2.4782720498511193,38.02266178225239,47.053103812893255,4.008283707817289,0.7049879003015037,36.12990436961574,4.140737843623399,0.25735044480738045,-5.9157879178639154,0.48808442452492246,1.7828565484364371,-22.51235967965414,52.08007840135315,-0.7141526788473129,-16.254080832004547,3.3400002866983414,-20.289017767324545,14.750346757965307,0
GUIDED_NOGPS,2.1114611625671387,29.87161974489178,11.17044957419016,-22.96870045863431,54.57291129223406,-11.777742937674004,-2.2603234523060234,38.63627523895392,46.91526437902039,3.9996080869109036,0.6823794405402327,35.78907451493752,4.131954431279704,0.22028367229379786,-5.888871468837002,0.48774776493885813,1.7828565484364371,-22.51235967965414,52.08007840135315,-2.0062124356627464,-15.493057668209076,8.533710986375809,-20.289017767324545,16.30428992622408,0
GUIDED_NOGPS,2.1458518505096436,29.0802595817849,10.859837899800104,-23.268157584308536,54.450511478830464,-11.772289548497984,-2.0520029843632255,39.22278161649371,46.77417956867319,4.1144017956308385,0.44500043144381785,35.33830593537877,4.12346822221966,0.18005807933941065,-5.886144774248992,0.48771786894374836,1.7828565484364371,-22.51235967965414,52.08007840135315,-3.1338054686784744,-10.304266959428787,-3.928248956799507,-20.289017767324545,12.972842960435555,0
GUIDED_NOGPS,2.177964687347412,31.14597597017807,10.52046257016512,-23.492159078274025,54.281227867601764,-11.904322107701166,-1.8535955766829755,39.7813787198161,46.62984978940414,4.019399413804662,0.41740737433146546,35.026480479011006,4.114790744101616,0.12747698738159496,-5.952161053850583,0.4877577950748838,1.7828565484364371,-22.51235967965414,52.08007840135315,-5.079961568117142,-6.305401027202606,-6.732362508773804,-20.289017767324545,4.7981173919274545,0
GUIDED_NOGPS,2.2228431701660156,22.286655543629582,10.146947658340506,-23.67712987021918,54.158711487743396,-12.018818659779376,-1.6653489743289978,40.31136904636012,46.482276743344244,4.0539605978917495,0.44744153038100987,34.713746607483635,4.106225029908789,0.07786250056563315,-6.009409329889688,0.48771770440896134,1.7828565484364371,-22.51235967965414,52.08007840135315,-7.116515934467316,-5.076746642589569,-3.5894006490707397,-20.289017767324545,6.8151085392121855,0
GUIDED_NOGPS,2.2539310455322266,32.171569266642635,9.691273481462858,-23.938603288454708,54.056635778530165,-12.094173688848734,-1.4874718298148988,40.81216515490545,46.331463412061765,3.9694617663485827,0.5076899353586047,34.606792675270405,4.094823296293063,0.018789883838973842,-6.047086844424367,0.48763972421365054,1.7828565484364371,-22.51235967965414,52.08007840135315,-12.999814748764038,-10.017789155244827,-2.418138086795807,-20.289017767324545,8.508346158517373,0
GUIDED_NOGPS,2.2823445796966553,35.198925814031554,9.199728126541563,-24.06644307113753,53.85630877974378,-12.208885042843294,-1.3201317961504895,41.28329503441805,46.17741404142092,3.9255137679077823,0.6440545554162035,34.539788519512584,4.082604672122614,-0.04601526831584568,-6.104442521421647,0.4877137684186834,1.7828565484364371,-22.51235967965414,52.08007840135315,-13.747182488441467,-6.962532550096512,-8.049535006284714,-20.289017767324545,6.236064738172368,0
GUIDED_NOGPS,2.3143742084503174,31.228996038955238,8.677555569202909,-24.262357200678096,53.83982479041503,-12.400371782414885,-1.1634536198880507,41.72440747289654,46.020134126440624,3.7987049026641486,0.5301677143911465,34.379900621231755,4.070912875106833,-0.1120319143755214,-6.200185891207442,0.48748849493764096,1.7828565484364371,-22.51235967965414,52.08007840135315,-16.974826157093048,-12.776152789592743,3.3477988094091415,-20.289017767324545,5.141027892981591,0
GUIDED_NOGPS,2.3479771614074707,29.76330168461986,8.161527234663842,-24.402484907752633,53.67376210585073,-12.673500703684295,-1.017517234168741,42.13527742621762,45.859630396153264,3.7518754181672485,0.6102581924335987,34.34793875101068,4.059555682380052,-0.17936075126643103,-6.336750351842148,0.48749738926448405,1.7828565484364371,-22.51235967965414,52.08007840135315,-18.34350675344467,-6.184239685535431,-6.6277675330638885,-20.289017767324545,-1.2120512191646127,0
GUIDED_NOGPS,2.379498243331909,31.7332001755262,7.609884684136586,-24.61779839063025,53.616259316681564,-12.87922280249984,-0.8823558517689118,42.515811386982115,45.695910798463345,3.7636566407118743,0.44916279141270593,34.349396996398475,4.045937651288269,-0.2505632150165219,-6.43961140124992,0.48732744237085085,1.7828565484364371,-22.51235967965414,52.08007840135315,-21.33253514766693,-9.77940559387207,0.24339128285646439,-20.289017767324545,1.3861937222432579,0
GUIDED_NOGPS,2.414560079574585,28.528604757143537,7.053074291692415,-24.769270992915764,53.470479176437145,-13.180117397791278,-0.7579540581464439,42.86605275336104,45.52898448500631,4.005873931700744,0.24152458707706875,34.44448689002339,4.032483309885951,-0.32340268598524835,-6.590058698895639,0.4872936084937107,1.7828565484364371,-22.51235967965414,52.08007840135315,-21.9418928027153,-7.525153458118439,-5.5311668664216995,-20.289017767324545,-3.649364097122289,0
GUIDED_NOGPS,2.45029354095459,27.991137449614264,6.457338072264326,-25.048328231237974,53.34459147042422,-13.436479433155421,-0.6442459044870414,43.18618719794103,45.35886179600721,3.820186274490662,0.1346411445505077,34.52303406547854,4.018092542804648,-0.3954523648161632,-6.718239716577711,0.4872228325209328,1.7828565484364371,-22.51235967965414,52.08007840135315,-24.679087102413177,-15.360340476036072,-4.3122656643390656,-20.289017767324545,-1.776475320451135,0
GUIDED_NOGPS,2.4803924560546875,33.228000126754765,5.857094896120626,-25.18686438028396,53.21381766565903,-13.72004331628408,-0.5411130007506326,43.4765480365708,45.18555424513946,3.7818556797553735,0.0961665755640135,34.61898456293888,4.001738243976333,-0.4741018004264865,-6.86002165814204,0.4871547785271687,1.7828565484364371,-22.51235967965414,52.08007840135315,-25.16983151435852,-6.5542809665203094,-4.6664997935295105,-20.289017767324545,-3.5609413219009505,0
GUIDED_NOGPS,2.5163841247558594,27.788441535210055,5.26529236561808,-25.216450480962443,52.922104058633266,-13.924275303377105,-0.44838260871764213,43.73762159720639,45.00907450438355,3.760978352783583,-0.2042851417421163,34.69484747405021,3.9878711839900842,-0.5373766980167511,-6.962137651688552,0.48733915271320044,1.7828565484364371,-22.51235967965414,52.08007840135315,-26.12369954586029,-2.04638559371233,-15.340207517147064,-20.289017767324545,2.3192146383399246,0
GUIDED_NOGPS,2.5496327877044678,30.081142914518082,4.664016949618036,-25.267879734018365,52.62702431332353,-14.105586816238096,-0.36582573503539173,43.970052588757774,44.82943638888582,3.855384373717853,-0.3354866990761408,34.822264653016795,3.9724502171245084,-0.6045149452725207,-7.052793408119048,0.48752385932089964,1.7828565484364371,-22.51235967965414,52.08007840135315,-26.12369954586029,-2.04638559371233,-15.340207517147064,-20.289017767324545,2.3192146383399246,0
GUIDED_NOGPS,2.5835094451904297,29.523629862176733,4.031580658572168,-25.24757243303441,52.36623809331132,-14.487378870363257,-0.2931552242643445,44.1746494699342,44.64665484181713,3.808133125039705,-0.26085503628440976,35.03295549834418,3.9541533406467297,-0.6858536988751918,-7.243689435181628,0.4876486667976093,1.7828565484364371,-22.51235967965414,52.08007840135315,-29.915043711662292,1.032479852437973,-13.501113653182983,-20.289017767324545,-9.501662277059621,0
GUIDED_NOGPS,2.6199405193328857,27.456461685497704,3.4057493395491663,-25.223373033895125,52.11054053311131,-14.766013013720674,-0.23002385192450525,44.35238981809008,44.46074591923165,3.564585227823152,-0.3944962518125982,35.140110921137925,3.9369792147261564,-0.7574012445648242,-7.383006506860337,0.48776032861779256,1.7828565484364371,-22.51235967965414,52.08007840135315,-29.535838961601257,1.192273385822773,-13.23116272687912,-20.289017767324545,-3.5811364837293853,0
GUIDED_NOGPS,2.653275728225708,30.00453540693474,2.7703855081290736,-25.21843565013998,51.93843303313778,-15.122371114686727,-0.17602241754180703,44.50442569807115,44.27172677492554,3.5870381940590996,-0.6774528997970966,35.3290510290534,3.9178239013541285,-0.8350422386759165,-7.5611855573433635,0.4877332699868604,1.7828565484364371,-22.51235967965414,52.08007840135315,-31.654265522956848,-1.065155304968357,-8.28874260187149,-20.289017767324545,-8.456876414253097,0
GUIDED_NOGPS,2.683887004852295,32.673298486418275,2.1409189729049687,-25.174827868616656,51.70832073300778,-15.441759342100891,-0.13067783769422725,44.63208903106045,44.079615645295725,3.685327177536522,-0.9134101623290908,35.46819905791949,3.8979103582113077,-0.9118873904906033,-7.7208796710504455,0.4877940718596607,1.7828565484364371,-22.51235967965414,52.08007840135315,-32.91046321392059,0.7722022011876106,-12.55372017621994,-20.289017767324545,-6.428171492541794,0
GUIDED_NOGPS,2.7170116901397705,30.197007876283315,1.4998882992447462,-25.22970573709413,51.50153487185358,-15.753063171044253,-0.09345123905850095,44.736896963423426,43.88443183419858,3.5404332520311637,-1.1261889111083825,35.61654735159758,3.8789562213548026,-0.9824770625533823,-7.876531585522127,0.487812635139752,1.7828565484364371,-22.51235967965414,52.08007840135315,-35.713499784469604,-6.619048118591309,-11.63257509469986,-20.289017767324545,-6.411358555012984,0
GUIDED_NOGPS,2.752148389816284,28.464520332265597,0.8397333487820637,-25.182857780283445,51.17736588037236,-16.026562575137824,-0.06373605145598127,44.82055723555505,43.686195697808714,3.336840894242128,-1.2434350846271751,35.7761415517441,3.8591029071517102,-1.053617084355765,-8.013281287568912,0.48801412770789815,1.7828565484364371,-22.51235967965414,52.08007840135315,-34.37715768814087,1.6248151659965515,-18.583819270133972,-20.289017767324545,-4.488447714016478,0
GUIDED_NOGPS,2.7877678871154785,28.09839755613913,0.1574806858811324,-25.116530173762364,51.001020101467184,-16.256664103337055,-0.040856100899381076,44.88497355072446,43.48492862947765,3.2901038307424346,-1.4782974358187047,35.834741159728225,3.8389586373945885,-1.123571234337926,-8.128332051668528,0.4879742536448167,1.7828565484364371,-22.51235967965414,52.08007840135315,-36.787423491477966,2.4884965270757675,-9.114670753479004,-20.289017767324545,-2.0808265221544935,0
GUIDED_NOGPS,2.8208353519439697,30.247530036202097,-0.557070077038595,-24.957971702048148,50.66730650407802,-16.38928292677044,-0.024063702638860818,44.93225094392171,43.28065304459258,3.0473518640076,-1.5216760739591613,35.96796058439474,3.81920646011671,-1.1907351832051722,-8.19464146338522,0.4881813544648233,1.7828565484364371,-22.51235967965414,52.08007840135315,-37.41459846496582,8.927800506353378,-18.910935521125793,-20.289017767324545,3.759502605036037,0
GUIDED_NOGPS,2.853461980819702,30.652274637336937,-1.2447227471282272,-24.919557781861453,50.559156047234126,-16.57677054811207,-0.012537754208514329,44.964701150703384,43.07339236543511,3.0060697737772197,-1.4778500584280687,36.06300949688463,3.7995364692751488,-1.2561474866059592,-8.288385274056035,0.4880227781091216,1.7828565484364371,-22.51235967965414,52.08007840135315,-38.79572153091431,-0.21589049138128757,-5.342192202806473,-20.289017767324545,-0.15860979913238984,0
GUIDED_NOGPS,2.8871357440948486,29.70344036372392,-1.9134583002943364,-24.843685910617314,50.429731743002215,-16.73437846407658,-0.005381828472570405,44.98484797603829,42.86317100603997,3.0465902979151434,-1.5898091319207426,36.078042743247835,3.780862360056114,-1.3171629011395594,-8.36718923203829,0.4878935028208604,1.7828565484364371,-22.51235967965414,52.08007840135315,-38.823240995407104,1.9461926072835922,-7.338297367095947,-20.289017767324545,1.2964223048259589,0
GUIDED_NOGPS,2.9204816818237305,29.992305822118617,-2.6130805610831045,-24.751693342167965,50.39061400308091,-17.00316289475655,-0.00162226667185017,44.995432663153515,42.650014357053735,3.1856602064925963,-1.6487282646919768,36.1423728799456,3.7578998072925196,-1.3896346092513971,-8.501581447378275,0.4876150405663565,1.7828565484364371,-22.51235967965414,52.08007840135315,-41.069138050079346,2.951093018054962,-1.7115786671638489,-20.289017767324545,-5.996796808244476,0
GUIDED_NOGPS,2.9557197093963623,28.389189335535356,-3.2815865723860362,-24.61987630586018,50.33480612161943,-17.27209509312579,-0.00020627147006813118,44.99941926238029,42.43394877059358,3.375041715383186,-1.889715694743421,36.18968901542086,3.735956606123723,-1.4567197393821698,-8.636047546562896,0.4873586282383586,1.7828565484364371,-22.51235967965414,52.08007840135315,-39.82217311859131,5.409083142876625,-3.0655916780233383,-20.289017767324545,-6.308056639571595,0
GUIDED_NOGPS,2.989161729812622,29.905271188495078,-3.9656128218609323,-24.445953943817393,50.25049533490109,-17.48248204427663,2.3092638912203256e-14,45.00000000000001,42.21500154510602,3.1672383325274254,-1.9510335045737988,36.199773789730386,3.7138617089419457,-1.523516081550342,-8.741241022138315,0.48714320993632787,1.7828565484364371,-22.51235967965414,52.08007840135315,-40.72204828262329,8.136692643165588,-4.8644255846738815,-20.289017767324545,-2.869546031656301,0
GUIDED_NOGPS,3.0227842330932617,29.747680785270504,-4.6455428933427285,-24.29180646062599,50.29564692686456,-17.69455486127006,0.0,45.0,41.99320091022558,3.297421097777634,-2.2971014740151854,36.21892905525768,3.6916616940497895,-1.5890815373733804,-8.84727743063503,0.48671608637337765,1.7828565484364371,-22.51235967965414,52.08007840135315,-42.83328354358673,6.461537629365921,2.5449421256780624,-20.289017767324545,-3.4657690391191696,0
GUIDED_NOGPS,3.0564050674438477,29.748102756145652,-5.30919331291594,-24.123922572814262,50.2865148064211,-17.87125750904782,0.0,45.0,41.76857601163361,3.0904977421077473,-2.4959297748581375,36.252987793553956,3.6705832408129666,-1.6505778138891882,-8.93562875452391,0.48637129792834,1.7828565484364371,-22.51235967965414,52.08007840135315,-43.30521523952484,7.251217216253281,-1.350918784737587,-20.289017767324545,-1.7250469842087008,0
GUIDED_NOGPS,3.0898051261901855,29.945838658318042,-5.9553557887821835,-23.876043893139457,50.18111124856625,-17.968426005983076,0.0,45.0,41.54115689591696,3.2466928559251262,-2.6022410289591513,36.32120430788946,3.6519641942567853,-1.7055639778812353,-8.984213002991538,0.48617607303576116,1.7828565484364371,-22.51235967965414,52.08007840135315,-43.32877695560455,12.429077178239822,-7.737841457128525,-20.289017767324545,2.7627645617196137,0
GUIDED_NOGPS,3.1227548122406006,30.35347585068967,-6.607327736321782,-23.56397640541897,50.079136121388274,-18.16802984506008,0.0,45.0,41.31097449542672,3.3139433253798947,-2.805701692163253,36.392251935635926,3.6296072938441735,-1.7682296370709532,-9.08401492253004,0.48597094139846153,1.7828565484364371,-22.51235967965414,52.08007840135315,-44.691917300224304,16.58726930618286,-7.619740813970566,-20.289017767324545,-3.9424406842183664,0
GUIDED_NOGPS,3.1659092903137207,23.17679173343648,-7.2288636117968865,-23.20975479133241,49.92876096630759,-18.4051197977963,0.0,45.0,41.078060613136955,3.2117908027097726,-2.9818772437370344,36.450390505851075,3.6080581680314086,-1.8259112314380705,-9.20255989889815,0.485838879434927,1.7828565484364371,-22.51235967965414,52.08007840135315,-43.77557933330536,19.342200458049774,-11.051850020885468,-20.289017767324545,-6.685636753965894,0
GUIDED_NOGPS,3.201150417327881,28.38035307093221,-7.852233970927992,-22.718938242463864,49.7729194565098,-18.607527046823726,0.0,45.0,40.84244790750344,3.0790003993005004,-2.9689526048366663,36.49190439562641,3.585040606125318,-1.8877861685559165,-9.303763523411863,0.48571124552158984,1.7828565484364371,-22.51235967965414,52.08007840135315,-43.99688243865967,28.076383471488953,-11.17759570479393,-20.289017767324545,-4.680514341024529,0
GUIDED_NOGPS,3.224928855895996,42.07093564435885,-8.508146850422609,-22.459665843087418,49.5879603773499,-18.780280177451676,0.0,45.0,40.6041698773224,3.394822370106366,-3.0604777800450718,36.576673873415444,3.5590589184646597,-1.9582071827720335,-9.390140088725838,0.485625935199956,1.7828565484364371,-22.51235967965414,52.08007840135315,-47.74862229824066,13.168860971927643,-13.390843570232391,-20.289017767324545,-3.1922265796059173,0
GUIDED_NOGPS,3.2569525241851807,31.230623748147817,-8.86705368516354,-22.138522474359796,49.428209779293596,-18.925222525144356,0.0,45.0,40.3632608465892,3.4045323377851853,-2.76549130130233,36.68270914518531,3.5500860411549766,-1.9788932973196525,-9.462611262572178,0.48549608170767294,1.7828565484364371,-22.51235967965414,52.08007840135315,-46.11877202987671,20.16613334417343,-15.446573495864868,-20.289017767324545,-3.779231179566796,0
GUIDED_NOGPS,3.2908551692962646,29.500995252329876,-9.482493916951697,-21.753865606967324,49.45613858304796,-19.09463913142896,0.0,45.0,40.11975594935713,3.19378386273668,-2.8144846751056547,36.74796818761019,3.5258227336814354,-2.0425236629268597,-9.54731956571448,0.48506178778609466,1.7828565484364371,-22.51235967965414,52.08007840135315,-47.9635089635849,22.333043813705444,-0.4014842212200165,-20.289017767324545,-4.15493299193934,0
GUIDED_NOGPS,3.328347682952881,26.676401936029613,-10.285598436257507,-21.150233703084737,49.35309521883495,-18.62957941692013,0.0,45.0,39.8736911145961,3.302839358780158,-2.6852897259641595,36.81737656995586,3.520708005260818,-2.0778442546548073,-9.314789708460065,0.48483295343321786,-1.5539675598077658,-16.115725353727782,49.94558502992838,-50.10406970977783,18.40551644563675,-2.6112718507647514,-7.613666124999094,-0.6087083798222405,0
GUIDED_NOGPS,3.3660848140716553,26.50228102766299,-11.236701301133296,-20.096412954711724,49.139130246898276,-17.67963831937469,0.0,45.0,39.62510305105138,3.1889009178103556,-2.8503967425445236,36.85667747844012,3.5304304066050594,-2.0952428461699855,-8.839819159687345,0.48477755648664494,-3.237562108403921,-6.566496153174738,47.14059580016544,-50.8506715297699,19.942745566368103,-1.1133147403597832,5.2298105233337635,-6.211693342553294,0
GUIDED_NOGPS,3.3919687271118164,38.651123787056406,-12.16962762469279,-18.90734333106391,48.869177565187684,-16.788738983284777,0.0,45.0,39.374029232102345,3.3501930602958567,-2.9909818859006614,36.95117314560724,3.53775201844529,-2.122394373546593,-8.394369491642388,0.48480776266706344,-3.237562108403921,-6.566496153174738,47.14059580016544,-49.97526407241821,29.101461172103882,-5.213094875216484,5.2298105233337635,-8.635370601606686,0
GUIDED_NOGPS,3.430659055709839,25.848004535706362,-12.700198790631822,-17.691485465454807,48.62213761454547,-15.76452231256285,0.0,45.0,39.12050788062117,3.104228343330177,-3.2279153852362916,36.95148050411989,3.5698169156736026,-2.0776193127437534,-7.882261156281425,0.4847973924257211,-2.220856928230387,-4.038434162314778,46.69000571486657,-51.29924416542053,33.48454535007477,-7.210917770862579,5.238565246805821,1.5399575021595235,0
GUIDED_NOGPS,3.463531732559204,30.42591746280458,-13.548881966643123,-16.24923807563419,48.250047719321074,-14.8276173656275,0.0,45.0,38.8645779538316,3.1141688298934844,-3.210782069146726,37.0014057718581,3.582801529931233,-2.0964462551198184,-7.41380868281375,0.48498324837521684,-0.9700536398604538,-1.5458484641990164,46.34919612807728,-52.57842540740967,33.73521268367767,-10.351034998893738,5.126386100840669,-2.020778914066326,0
GUIDED_NOGPS,3.4961233139038086,30.69130183446631,-14.146437082333119,-14.85895064820873,47.90728088398719,-13.92304218034555,0.0,45.0,38.60627912816766,3.1073625463855667,-3.1151656106254833,37.04125651057054,3.6057604797473775,-2.07871673227425,-6.961521090172775,0.4851183971906887,-0.1991948496574627,-0.1097787279650701,45.95485559078066,-52.57842540740967,33.73521268367767,-10.351034998893738,5.184877142899477,-2.020778914066326,0
GUIDED_NOGPS,3.5297577381134033,29.733130117321803,-14.728073331020244,-13.44901746328408,47.57412627835674,-13.009507660700274,0.0,45.0,38.34565178413238,3.14012589661706,-3.1413958849158594,37.06483090849084,3.6282019859482104,-2.0652944083593425,-6.504753830350137,0.48523444080924105,0.21503604223455114,0.8740805158022267,45.84141611355335,-52.42207646369934,33.98258984088898,-9.89515632390976,5.186844814666436,0.5054813830183106,0
GUIDED_NOGPS,3.5654983520507812,27.98833570222676,-15.317071286226335,-11.998316219137914,47.380717945703,-12.07771799983137,0.0,45.0,38.08273699115656,3.132047703819639,-2.926879920209857,37.09971609967668,3.6019691223604284,-2.0407111569018914,-6.038858999915685,0.4851232304727257,1.102872089601625,2.6115805723463654,45.56327944265019,-54.645925760269165,33.25755596160889,-0.632849894464016,5.2284985570059686,3.209229268327606,0
GUIDED_NOGPS,3.59673810005188,32.02223223215581,-15.89878595996658,-10.506038733691964,47.16578521913805,-11.20882106095954,0.0,45.0,37.81757649245746,3.1189990542971526,-2.8247822524965067,37.14557740485873,3.5132679621116316,-2.011949062839189,-5.60441053047977,0.48504286603731106,1.3468398588189188,3.323327320201181,45.3699779853241,-56.412750482559204,36.70797944068909,-2.241177298128605,5.2519629752951795,1.0708191288280278,0
GUIDED_NOGPS,3.6310336589813232,29.161943432433183,-16.310760474774845,-8.821805957536391,46.84827252179986,-10.46197568175965,0.0,45.0,37.55021268989755,3.063971635248945,-2.7473370853752592,37.13620980041206,3.4177227265735035,-1.9701682781370318,-5.230987840879825,0.4851231042689563,3.2409463908616676,6.983343683055437,44.88744084068678,-55.98364472389221,44.5570170879364,-8.921463787555695,5.210264468575181,-3.6801878870729103,0
GUIDED_NOGPS,3.6641111373901367,30.236627353729922,-16.741071682364176,-7.041450205775081,46.53901545566926,-9.72725966549412,0.0,45.0,37.280688628843244,3.034940769955452,-2.5812051135325698,37.17224929356763,3.3090619792329896,-1.9392534170195779,-4.86362983274706,0.48518667707707835,4.794818157328364,9.561308262686167,44.53297529217523,-57.07641839981079,42.874476313591,-7.03544095158577,5.237845160034373,-3.432214667604424,0
GUIDED_NOGPS,3.6981377601623535,29.393489610708155,-17.11004722143597,-5.3052410357545465,46.27598361953898,-8.980187503477508,0.0,45.0,37.00904798302361,3.2373406194040864,-2.3400413792231745,37.22253997642643,3.2124610786151857,-1.9044315413857653,-4.490093751738754,0.4851729029815754,5.969768023471058,11.310047773110522,44.35000296652066,-58.99361968040466,39.61430490016937,-4.712262377142906,5.231754526461662,-0.5159576125446407,0
GUIDED_NOGPS,3.7317049503326416,29.79522771025282,-17.458500252480174,-3.5785695509916007,46.01593175754445,-8.254226335118311,0.0,45.0,36.735335039389135,3.04674419061488,-2.3494770721181357,37.16422723638745,3.112383780783905,-1.8732934959490948,-4.1271131675591555,0.4851510452509515,6.5609012242660825,12.011110889192079,44.27384591342401,-58.99361968040466,39.61430490016937,-4.712262377142906,5.281408794513256,-0.5159576125446407,0
GUIDED_NOGPS,3.765744209289551,29.382370454434007,-17.767920085556902,-1.7974050334267024,45.79010579334171,-7.5466396462541105,0.0,45.0,36.45959468297043,2.8778739532452504,-2.2616598358554008,37.178317916645184,3.007697954842664,-1.8414842625533507,-3.7733198231270553,0.48507118222340595,7.125113986458439,12.809208689041732,44.225225220681246,-59.156328439712524,44.76321339607239,-3.3808231353759766,5.2916165115448965,0.2775586107452197,0
GUIDED_NOGPS,3.799257755279541,29.8437762377083,-18.06637699133137,-0.0167673692912651,45.525532297871244,-6.884736016287969,0.0,45.0,36.18187238173698,2.878447902578943,-2.1484897911672247,37.15239734874499,2.90128052519574,-1.815104089085432,-3.4423680081439847,0.4850501441341852,7.674876712941898,13.660362029675646,44.17582928952034,-60.02575755119324,45.29329538345337,-6.199223920702934,5.311072217054472,-1.130182970947253,0
GUIDED_NOGPS,3.836979627609253,26.516690269067368,-18.313354603740823,1.8320595281287817,45.211608844831886,-6.190784773544702,0.0,45.0,35.90221417145583,2.8845820527838493,-2.3296328112583096,37.081493154971085,2.796356702286811,-1.783621521851197,-3.095392386772351,0.4851049685225983,8.884135943017629,15.30953106450269,44.10817192479617,-60.52981615066528,48.44471216201782,-9.883905947208405,5.3623821428376335,2.5076873051840796,0
GUIDED_NOGPS,3.865602731704712,34.9420507181179,-18.656195812058918,3.7897799339348617,44.9763380727273,-5.462994365071937,0.0,45.0,35.62066664055038,2.745129867056287,-2.3031863187920205,37.048653605441665,2.66104057976078,-1.7657033618751026,-2.7314971825359686,0.4850309257085169,9.561469631053797,16.42560739586295,44.04061325746956,-60.85522770881653,47.78347909450531,-3.8644231855869293,5.347034434528419,4.5671630828799366,0
GUIDED_NOGPS,3.9081459045410156,23.507905459559133,-18.61824815835166,5.566812104421495,44.813958380207644,-4.801822982837362,0.0,45.0,35.33727691495908,2.8483491798974008,-2.125452416870418,37.021165509126945,2.584411347026266,-1.7109129037268673,-2.400911491418681,0.4848373096556023,12.351916690773088,20.702982074357244,43.68548475153463,-63.10504078865051,45.89731693267822,-2.3977939039468765,5.373759991420723,5.582180419962606,0
GUIDED_NOGPS,3.9330408573150635,40.17917425040713,-19.041626058629976,7.819990332408851,44.54440984457754,-4.242197910446636,0.0,45.0,35.052092642994154,2.5739604172573016,-2.1201758822931716,36.985067959363434,2.390046716465999,-1.72207982489194,-2.121098955223318,0.4848122924774666,12.351916690773088,20.702982074357244,43.68548475153463,-63.19090127944946,49.754464626312256,-4.408610239624977,5.373759991420723,-4.973112814878705,0
GUIDED_NOGPS,3.966940402984619,29.503485435732223,-18.776705366380178,9.449910714423487,44.39220434136154,-3.832078783852423,0.0,45.0,34.76516198020034,2.4525237092392946,-1.9791988568334042,36.9828891290182,2.3355643937594763,-1.6541881986302855,-1.9160393919262115,0.48459673222214206,13.92796435709639,22.813334385145133,43.5481403826513,-63.19090127944946,49.754464626312256,-4.408610239624977,5.434333395246611,-4.973112814878705,0
GUIDED_NOGPS,4.0002171993255615,30.05829194705423,-18.836609942156592,11.376862149965358,44.09632524007851,-3.3077347818320866,0.0,45.0,34.47653357421365,2.386781004043806,-1.7679579678344233,37.0286923775923,2.2046282494218365,-1.6386698265808466,-1.6538673909160433,0.4846083333346162,13.92796435709639,22.813334385145133,43.5481403826513,-64.00513648986816,52.20863223075867,-10.475394874811172,5.434333395246611,-0.38340797330361137,0
GUIDED_NOGPS,4.033966541290283,29.63460369946444,-18.87966044705541,13.229961612773444,43.76876238846589,-2.7623781861809817,0.0,45.0,34.18625654962005,2.1786619383823442,-1.679485673741602,36.94212656005156,2.093753502533195,-1.6144275377829074,-1.3811890930904909,0.48466799065784666,13.92796435709639,22.813334385145133,43.5481403826513,-64.20162916183472,52.829015254974365,-13.283281028270721,5.434333395246611,2.7718704845437103,0
GUIDED_NOGPS,4.069766283035278,27.937999986678122,-18.952953490769303,15.011127114919045,43.686336380315474,-2.22504776148405,0.0,45.0,33.89438049281421,2.260668818095514,-1.4932672894886685,36.83546291087806,1.988912381792096,-1.5967088609765065,-1.112523880742025,0.48433287057999796,13.92796435709639,22.813334385145133,43.5481403826513,-65.40196537971497,51.659053564071655,1.594778522849083,5.434333395246611,3.5155675214709095,0
GUIDED_NOGPS,4.100947856903076,32.07561772060904,-19.01726369467064,16.718669266047673,43.61469039843136,-1.7110890835855352,0.0,45.0,33.60095543685826,2.2625466932304445,-1.53838783931089,36.7443003760259,1.8782119378458049,-1.5802450168556852,-0.8555445417927676,0.48397802406148305,13.92796435709639,22.813334385145133,43.5481403826513,-65.40196537971497,51.659053564071655,1.594778522849083,5.434333395246611,3.5155675214709095,0
GUIDED_NOGPS,4.135258197784424,29.152417028670722,-19.023903183479526,18.305095524085683,43.44887469365459,-1.2916336691061299,0.0,45.0,33.3060318463405,2.1577803425423228,-1.7708996449325831,36.54699670147174,1.7877138394068752,-1.5628000009984815,-0.6458168345530649,0.48377145144429745,13.92796435709639,22.813334385145133,43.5481403826513,-65.88399410247803,52.564263343811035,-5.584578961133957,5.434333395246611,-0.0634729479569285,0
GUIDED_NOGPS,4.177086353302002,23.909930966075898,-19.11253375927225,19.926531932691454,43.22881012219839,-0.7495359932878218,0.0,45.0,33.009660602234106,2.0652502757522795,-1.8981001788364347,36.296134098540925,1.6963079175229845,-1.553439023288321,-0.3747679966439109,0.48364936076805715,13.92796435709639,22.813334385145133,43.5481403826513,-65.94945788383484,53.17390561103821,-8.789246529340744,5.434333395246611,7.406436862361094,0
GUIDED_NOGPS,4.202057361602783,40.05370665698979,-19.449021206425712,21.89408669513442,42.98466163653652,-0.08035601213173266,0.0,45.0,32.71189298675591,2.1013448373080346,-1.823161264253759,36.00890756846896,1.536665351553634,-1.5715111799011778,-0.04017800606586633,0.483563570160351,13.92796435709639,22.813334385145133,43.5481403826513,-66.19455814361572,58.37875008583069,-7.8299880027771,5.434333395246611,12.8379817290473,0
GUIDED_NOGPS,4.235219955444336,30.163130870021718,-19.218373530168552,23.013706714587382,42.886113270831,0.4445479428256077,0.0,45.0,32.4127806682251,2.031148848773698,-1.8896160166702212,35.61641074781418,1.5171445077152055,-1.518796793570571,0.22227397141280386,0.4832426678358306,13.92796435709639,22.813334385145133,43.5481403826513,-66.57366752624512,53.78150939941406,-5.406415089964867,5.434333395246611,13.323358023356855,0
GUIDED_NOGPS,4.269955158233643,28.793783080587918,-19.29538758940973,24.49701231564954,42.76949693301123,0.9784197314392494,0.0,45.0,32.11237568592198,1.9669617191616802,-1.868182029281075,35.2906038942154,1.4186408469668292,-1.5218486703729983,0.4892098657196247,0.4829486060046572,13.92796435709639,22.813334385145133,43.5481403826513,-66.55794382095337,56.23248219490051,-3.704211860895157,5.434333395246611,10.955319485282388,0
GUIDED_NOGPS,4.302653551101685,30.62072187828525,-19.393864711277345,25.94568528435299,42.65709511549597,1.50043954980326,0.0,45.0,31.81073043494662,1.6996257671698538,-1.5329277433996995,34.7324100993907,1.3296514216620956,-1.5202331139595973,0.75021977490163,0.48264581651112104,13.92796435709639,22.813334385145133,43.5481403826513,-66.55794382095337,56.23248219490051,-3.704211860895157,5.434333395246611,10.955319485282388,0
GUIDED_NOGPS,4.335770606994629,30.168988757579463,-19.458705958377603,27.25927203766274,42.63790925728845,1.9860382089731707,0.0,45.0,31.507897651077705,1.378242314832305,-1.1469340098867093,34.29443787924197,1.2556015130373979,-1.5160450352432113,0.9930191044865854,0.4821919814300628,13.92796435709639,22.813334385145133,43.5481403826513,-67.68686175346375,55.56795597076416,1.064483541995287,5.434333395246611,11.022161424047423,0
