Mode,Time,Freq,North-Vision,East-Vision,Down-Vision,Yaw-Vision,North-Desired,East-Desired,Down-Desired,Roll-UAV,Pitch-UAV,Yaw-UAV,Roll-Control,Pitch-Control,Yaw-Control,Thrust-Control,northVraw,eastVraw,downVraw,N-Velocity,E-Velocity,D-Velocity,yawVraw,yawRate,Q-Size
GUIDED_NOGPS,0.02301478385925293,43.48051086415658,4.018348080158557,15.879636135865255,63.97070543456744,-15.414926651184011,-1.2248340134470035,7.739414087923881,68.17164448176678,0.03715038607147783,-0.7376256924461453,40.99191647368137,-2.792875660814228,4.919333851572944,-10.0,0.5084018780943986,-4.786210844443012,-0.21937331472614208,71.23717295453469,12.721364200115204,-46.57392203807831,28.304484486579895,-16.423728462253706,0.07060604000837545,1
GUIDED_NOGPS,0.04610586166381836,43.32645366554072,5.593962982644063,6.22327093188234,70.68381180530774,-16.444540596397786,-1.224956400880096,7.739864027025419,68.1714404665442,0.11193077890042855,-0.8250099053876719,40.957881641047194,4.968725284346113,2.704028300277133,-10.0,0.49497525732247294,-4.503282537930624,-2.195232679392072,72.1000043838496,10.44391542673111,-50.59298872947693,27.31797695159912,-16.379788924490228,0.3002930021193129,0
GUIDED_NOGPS,0.06480598449707031,53.481721389862926,4.634349308633523,4.632090681327249,71.27777106062473,-16.42651822183546,-1.2257965559338528,7.742952731482147,68.17002882371132,0.1763303647482309,-0.8546214968431746,40.93607967721652,2.9764393345524325,-4.049181116315406,-9.66419833792189,0.4937845155261732,-4.247969187382637,-3.358041300054514,73.03234292234796,15.448512136936188,-47.17721343040466,28.984490036964417,-16.368921892205368,0.03549595950802736,0
GUIDED_NOGPS,0.09516024589538574,32.95025610407567,3.9380170268117523,3.0081456894982397,72.04069633593409,-16.41939466568759,-1.2280272236950975,7.7511534480341995,68.16624690014396,0.13992380228562334,-0.8503748267267192,40.932644092064,3.0882720087968965,-2.0916793057137744,-9.804768048459223,0.49225110112841974,-4.680373664784106,-4.985223793493384,73.80024541376332,20.097440481185913,-43.140459060668945,33.35864245891571,-16.339469188781987,-0.05253119834997963,0
GUIDED_NOGPS,0.13660550117492676,24.131684780419885,3.3383578497556083,1.0612689242895823,73.01649863497298,-16.41300544862671,-1.2322730623558698,7.766762639141758,68.15898049820146,0.19450908664699176,-0.6493252736604849,40.915298826666756,3.0101844338835595,-1.507307966151398,-9.816939052980134,0.49028496372645697,-5.598474140520719,-5.8307763603176355,74.27039320058844,13.150998950004578,-48.682111501693726,32.499516010284424,-16.258175628004125,-0.05516242200602126,0
GUIDED_NOGPS,0.16762542724609375,32.242299384258224,2.936377979113481,-1.3239940814885252,74.24644857463662,-16.38735363790461,-1.2391117746697737,7.791904142615167,68.14716320737512,0.298834383205545,-0.5293421686360741,40.90997810930331,3.6920952377624983,-1.6229820103073225,-9.667113142476449,0.487801429265477,-5.736568192859814,-7.774977825897137,75.0924079939048,12.037456780672073,-51.957279443740845,32.288411259651184,-16.23981024242797,1.311853943316839,0
GUIDED_NOGPS,0.20237374305725098,28.782520380994207,2.5311781875117747,-3.2197875673461724,75.16137743348074,-16.35380766813331,-1.2490752394083255,7.828533331245052,68.12977573593679,0.8788354245853689,-0.4727455136260559,40.86297957762446,3.709737124250608,-1.563935262552129,-9.619170463127679,0.4859367966049121,-5.582827552844898,-8.79546597583083,75.36127881148246,12.037456780672073,-51.957279443740845,32.288411259651184,-16.222274502404506,1.311853943316839,0
GUIDED_NOGPS,0.24654126167297363,22.643639563571973,2.1972444840515,-5.149756073470644,76.21476088935593,-16.28778794326719,-1.2626506428173019,7.878441272432431,68.10584524258729,1.452459577240487,-0.5675659883047282,40.801716195864024,3.403124168919104,-1.199156872256511,-9.473577594587129,0.48378216870646273,-6.154247039234086,-9.26395327119372,76.52550568079057,12.68952339887619,-52.59060263633728,33.13571512699127,-16.169431105668725,2.984348704999521,0
GUIDED_NOGPS,0.2692756652832031,43.99727266051966,1.9634293811644676,-7.649590181266722,77.6197040075955,-16.210082232015445,-1.2802816100730874,7.943258887818837,68.07444466810499,2.1727459273440557,-0.9790571381544932,40.724255020486915,3.734757240202171,-1.48201565399315,-9.035472111452297,0.48090948132101896,-6.516050088089754,-12.954416709495135,78.64490863517881,11.50912269949913,-53.756511211395264,33.141517639160156,-16.183742773090692,3.4151936227493405,0
GUIDED_NOGPS,0.30222630500793457,30.35347585068967,1.600838184208441,-9.09888033287715,78.31076347262328,-16.195378146758383,-1.302369336739022,8.024461112916432,68.03469206699424,2.7813994522095244,-1.3561427041642,40.632993447891785,3.684660258391285,-1.5471326333726674,-9.628476046414754,0.47944785718874194,-6.902866412342922,-15.084306320179401,78.7626208478554,15.646699070930481,-50.065767765045166,31.818553805351257,-16.131385248504774,0.40259354779535406,0
GUIDED_NOGPS,0.3395228385925293,26.816428827169965,1.3405216589445614,-11.128340643707975,79.34197531705033,-16.122992440887508,-1.32927372022175,8.123371056738126,67.98574993913394,3.2702134661057114,-1.820935903244804,40.55702125375373,3.787982456576411,-1.2999892522808825,-9.286397503964137,0.4772875492441672,-7.082468794176453,-18.16494391758394,80.2663798365285,12.830306589603424,-51.065731048583984,31.418704986572266,-16.084615291611183,3.2619036872067446,0
GUIDED_NOGPS,0.37575268745422363,27.60554703594253,1.0793277334966132,-13.243640837899438,80.41940637142103,-16.046596379895544,-1.3613144912275663,8.241164161427685,67.92682456142599,3.5989590085948873,-2.1562337315821383,40.479194663256024,3.782377478377344,-1.3204391229870491,-9.205866785774313,0.4750148363800099,-7.530895164578385,-18.858476986594162,80.90394976430711,10.124626755714417,-51.48807168006897,28.558453917503357,-16.004968332261164,3.0410136619012396,0
GUIDED_NOGPS,0.4064629077911377,32.566747676468076,0.7692159165872537,-15.28971051266792,81.45813834998539,-16.00059205100551,-1.3987723452187657,8.378872361889858,67.85716531944384,3.841714603867719,-2.5061631057821088,40.384029637550235,3.7269658671907084,-1.5143304587865376,-9.299800494340392,0.4727980539389169,-8.262867876259381,-20.929879885763338,81.75455147942967,8.784908056259155,-50.404155254364014,29.744282364845276,-15.943608878870881,1.2904558144208353,0
GUIDED_NOGPS,0.4442887306213379,26.44146609004829,0.4477790537490356,-16.989992273518983,82.38698436352837,-15.914651365098086,-1.4418900738699905,8.537388245420493,67.77606403908092,3.972668540163904,-2.6810861714168395,40.309461047286625,3.7525535006827355,-1.4269509505632447,-9.095884478740533,0.4707781593511051,-8.094344011783328,-22.18165354790768,84.36380590901254,8.279048651456833,-47.92344272136688,26.342767477035522,-16.001598604464974,4.28923756291024,0
GUIDED_NOGPS,0.47528815269470215,32.265366093819715,0.1816733119690841,-18.749202258625647,83.37964766142366,-15.803382605156402,-1.490873696524577,8.717469211336642,67.68285431819928,4.110793321314956,-2.884921641251646,40.21760866332829,3.7511602807870563,-1.4343490222103683,-8.736629459438763,0.46860641331355124,-8.483408555829005,-24.03878966487136,85.2042216659465,9.832248091697693,-43.56032609939575,25.918662548065186,-15.92999617404096,5.041133815049216,0
GUIDED_NOGPS,0.5068831443786621,31.65608018355271,-0.03359940713029075,-20.208778064580383,84.30486671995726,-15.722362290034349,-1.5458935916509053,8.919741630606692,67.57691085827791,4.145768585620476,-2.9740114271341187,40.034023423722104,3.793670422772159,-1.2852264907564117,-8.934695890292216,0.4665440882766413,-8.598944747945048,-24.93929387540645,85.59830973820198,13.345412909984589,-38.51253688335419,30.050820112228394,-15.906545956238876,4.1018935848264295,0
GUIDED_NOGPS,0.5429449081420898,27.73551992064804,-0.34303411538855866,-21.781339421646905,85.27910870364106,-15.66854360523126,-1.6070856282987456,9.144705005480473,67.45764879606142,4.092816263419483,-2.916290352231987,39.9022588293488,3.7499636062958626,-1.4417807344718259,-9.09809775076651,0.46435708018484073,-9.802516629323684,-25.780067707978233,86.94779078269966,8.84162038564682,-40.754300355911255,27.028992772102356,-15.735959695506764,1.8311781987920615,0
GUIDED_NOGPS,0.573777437210083,32.43804426845679,-0.6010649129607171,-23.421591071560517,86.38045130448167,-15.576253265515493,-1.674552297555607,9.392736129119374,67.32452303520841,4.034651226221301,-2.9323645621133774,39.74022625166859,3.765657342210257,-1.3877535112769352,-8.761485977344403,0.4618881434614535,-9.035301734759829,-27.246566491728125,88.88352935658435,6.943228840827942,-40.28088450431824,28.09411585330963,-15.900022872760566,4.615270666525275,0
GUIDED_NOGPS,0.6080548763275146,29.178578882194984,-0.8839895069738073,-24.8608218412547,87.327201952353,-15.49767607970925,-1.748363844003085,9.664093245226466,67.17702757794005,3.9201191991239415,-2.8684367662464085,39.56556806930761,3.761352462077808,-1.404964264199588,-8.8405549963692,0.4596996512511741,-9.677400747277904,-28.302535687949568,88.98465193378259,7.607072591781616,-37.97774314880371,27.052003145217896,-15.766493331421781,3.8368912096532206,0
GUIDED_NOGPS,0.6409904956817627,30.366661357350747,-1.1596965969246966,-26.299952420589946,88.19896171483207,-15.405408888193541,-1.8285593971732097,9.958920207676613,67.01469485668856,3.8369104195602612,-2.8091833810926667,39.41204932242782,3.761869360816334,-1.4052226417407896,-8.682863849639965,0.457631466283713,-10.526406335432817,-29.456042174560707,89.98624519592111,8.853613585233688,-33.77445936203003,18.856851756572723,-15.648764119715072,4.117463427926297,0
GUIDED_NOGPS,0.6749136447906494,29.485441124780316,-1.5401289233438948,-27.569419337764117,89.14462056184585,-15.297752644144525,-1.915148103004792,10.27725064014659,66.8370950657457,3.7502809958828736,-2.815396505359851,39.232415347256484,3.707196913377575,-1.6076600938788328,-8.543927078418449,0.4553849490077997,-12.338493599958497,-29.265619131081323,91.57825245700418,7.3126643896102905,-31.734031438827515,23.24165552854538,-15.205517634487052,3.92760295202016,0
GUIDED_NOGPS,0.7087790966033936,29.532776612074187,-1.9380811644736649,-28.987609838374954,90.04489839866794,-15.160739143630181,-2.0081102552997736,10.6190120957452,66.64383549291132,3.75412895370653,-2.7710301578323873,39.020413105608455,3.6971862022058866,-1.6498851630456053,-8.285441124815822,0.4531978741884868,-13.216148693981683,-33.495107936579984,92.0765664982238,7.362551242113113,-30.003932118415833,20.784395933151245,-14.783999125884304,4.436284278664621,0
STABILIZE,0.7419037818908691,30.194616619513493,-2.3095283971992773,-30.27826695885953,90.91770304789456,-15.005519044695083,-2.107398427179575,10.984030216643394,66.4345598511418,3.852259135285749,-2.6216793204501845,38.887579586630046,3.7101535077231538,-1.608111177452777,-8.067189146265363,0.45103371360649447,-13.158557203635993,-33.222187498375824,92.95287556431444,7.52362534403801,-29.141798615455627,19.806143641471863,-14.737753674095003,5.717730646683386,0
STABILIZE,0.7754421234130859,29.819164213908913,-2.747258672154663,-31.504390042121198,91.80320188790489,-14.835848377504135,-2.2129386025414406,11.372032893704375,66.20894761019859,3.78666925557294,-2.4097522108830285,38.67954226979521,3.676796316320586,-1.7409669341716087,-7.889621529052409,0.44881149144458743,-13.724588682870596,-33.458656183012025,95.17196588540415,3.834722936153412,-30.248621106147766,17.62038767337799,-14.39735745468642,5.935965435949049,0
STABILIZE,0.8096475601196289,29.23919469075902,-3.153373957809748,-32.73729934807112,92.66014556413815,-14.660878323523352,-2.324631307514789,11.782654426113734,65.96671332829672,3.562582701735869,-2.2467999055423915,38.512851503101054,3.6984254710837328,-1.6673117604840528,-7.773722457216786,0.44661313552831716,-13.545294213202839,-35.618346842099115,95.21098763253144,3.8709111511707306,-27.447301149368286,18.705101311206818,-14.318063090377729,6.361539155206911,0
STABILIZE,0.8425719738006592,30.377878048250537,-3.496019307080479,-33.894036250651766,93.57971504119429,-14.480277414000586,-2.44235274191756,12.21543968100955,65.70760598375327,3.0954116363287483,-1.8469777070027702,38.36227656775354,3.7292242167507776,-1.5566657432085331,-7.587204110689818,0.44425578188511794,-13.487342656101706,-36.55149283218154,96.08409765457841,6.49128258228302,-23.038630187511444,21.60743623971939,-14.11858787084017,6.272858540344404,0
STABILIZE,0.8764970302581787,29.48171057440886,-3.8603206936741223,-34.968748672436284,94.41760496931882,-14.299979537923786,-2.565955910712562,12.669848253112509,65.43140830663593,2.3654782843527715,-1.3902457319683679,38.20976527377632,3.724910266192777,-1.5809924429437157,-7.51960281218662,0.44202760667463425,-14.224902700471041,-37.222283991455605,96.14492699900194,6.49128258228302,-23.038630187511444,21.60743623971939,-13.915092144412126,6.272858540344404,0
STABILIZE,0.9102151393890381,29.66205808929089,-4.223864796355883,-35.95820375692417,95.22518035350906,-14.113019415818332,-2.6952717554638235,13.145258624356039,65.13793611041143,1.9280187552786177,-1.2004623091338051,38.11223017242854,3.7269962107582253,-1.580972643640643,-7.357391524613284,0.4398255115138047,-14.422973391664915,-36.61034541124717,97.89356715886757,5.793406069278717,-21.324536204338074,15.383806824684143,-13.818643645187473,6.561670528077455,0
STABILIZE,0.9438941478729248,29.697761854524085,-4.597908987431955,-36.902210442833756,96.02735324010499,-13.943387535520769,-2.830110285792933,13.640972323516394,64.8270376235941,0.9136865715470648,-0.6460598029069841,37.90830462947405,3.7230762917307376,-1.6045065462137469,-7.350933935827134,0.4375993687669782,-14.456932486027478,-37.85892321157898,97.51052775340082,4.236532747745514,-20.12118101119995,20.190197229385376,-13.715862235367858,5.705612183548491,0
STABILIZE,0.9774456024169922,29.807297070653952,-4.912278211903344,-37.795246595370195,96.8179714737937,-13.833631155823321,-2.9702617108353944,14.156218085842799,64.49859282139437,0.13947434382172477,-0.25171098713092294,37.723619729411496,3.7561688928346944,-1.475437396725769,-7.6526397514248234,0.4353612426952013,-14.030576080556028,-38.63409726886229,98.25365111521477,5.798753350973129,-18.811824917793274,20.322206616401672,-13.651638901706438,2.377831321796974,0
STABILIZE,1.0106372833251953,30.133226047473993,-5.283935468723062,-38.73758351793747,97.66367639742194,-13.65447869602075,-3.115497570696973,14.690156012687554,64.15251275736722,-0.20358867589018656,0.043566128167194934,37.59509264470478,3.7281427237928417,-1.5979665051883618,-7.113091977878298,0.43297767271989057,-15.132644034366647,-38.79802931055201,98.98185991245276,4.338923841714859,-22.898422181606293,22.722122073173523,-13.277665286069794,5.673323318020903,0
STABILIZE,1.0457971096038818,28.445987738050025,-5.6045182345487365,-39.6730419083903,98.4336723587481,-13.506376380673796,-3.26557186791004,15.241881731136143,63.78873889506077,-0.04859658250122916,0.5155754421162373,37.45884744623595,3.7608325494655763,-1.4693728402853963,-7.2603615546809905,0.43071013307262535,-14.859989364508227,-39.93213772712595,98.83699075179129,5.952133610844612,-25.060725212097168,22.85238951444626,-13.199196077814065,4.162842350998215,0
STABILIZE,1.0785200595855713,30.565382148895235,-5.942836600116347,-40.795794619579056,99.30647771692281,-13.321601189587234,-3.4202221988899257,15.810430553637381,63.40724243966469,0.5223931448466737,0.8608412912169704,37.327871738711785,3.7486981125102004,-1.5284122501020638,-6.853308603088726,0.42820152944548373,-14.848271619816963,-41.6708982862539,100.20993803032243,3.596121072769165,-30.980446934700012,24.77724403142929,-12.83394396582163,5.375872848535079,0
STABILIZE,1.1119306087493896,29.938357435509428,-6.2277991280379,-41.8409219616185,100.05289954768405,-13.161479344452548,-3.5791708853912625,16.39478163763349,63.00802366965878,1.9650020952001213,1.1756321169015758,37.163639840118826,3.7809153930661386,-1.3983580608816668,-6.94443280002619,0.42591024824394946,-14.103874654923356,-42.031385069185205,101.03906738627339,4.254257306456566,-33.95181894302368,20.699408650398254,-12.883656102841208,5.062631835461831,0
STABILIZE,1.1458277702331543,29.50493823686654,-6.539805825227625,-42.99108683224866,100.77695380776042,-12.997087472891954,-3.742126105964334,16.99386214519024,62.59111126846144,3.815878132671676,1.4683983572772406,37.047738360092886,3.7718179852944154,-1.4442336095849289,-6.830343272996247,0.423628314921402,-15.00494161548378,-44.553159562208464,100.77700599622725,4.254257306456566,-33.95181894302368,20.699408650398254,-12.756375259573574,5.062631835461831,0
STABILIZE,1.1794953346252441,29.706385630913932,-6.846414536215724,-44.142257840736704,101.40971501587437,-12.784553695657495,-3.9087830274114275,17.606551402627066,62.15656165607815,6.751728652582699,1.7670092118700262,36.91820723757817,3.778035958713355,-1.4263248814308782,-6.410045932583863,0.4214936932804076,-15.00494161548378,-44.553159562208464,100.77700599622725,3.761044144630432,-37.44245171546936,17.249681055545807,-12.756375259573574,8.384221130730731,0
STABILIZE,1.2145657539367676,28.518324108951955,-7.192628469209119,-45.20908719832873,101.97920992253431,-12.647463538140414,-4.078824936243171,18.23168506014717,61.704458320750035,10.26570004422194,1.8787797081085842,36.76884124571375,3.7644530207118563,-1.4929724708122416,-6.805267770799849,0.4194504967964314,-15.713914317184654,-44.85609711122224,101.46110971834372,2.446940913796425,-35.640913248062134,14.444895088672638,-12.534332916419237,3.692256831336323,0
STABILIZE,1.2484724521636963,29.496638442712875,-7.566509656731697,-46.4040472054102,102.44014133729618,-12.443346174317579,-4.251924370134898,18.868059251467663,61.23491115060231,12.642257535738707,1.817652503244732,36.61975870669988,3.7525890465173193,-1.5573143158042848,-6.26398271926036,0.41758953962661227,-15.492615243191032,-49.326123496052816,101.0427279936297,-0.926912110298872,-33.83357226848602,11.013522744178772,-12.455500185157643,8.034173935767578,0
STABILIZE,1.2794287204742432,32.31110083968878,-8.014955006174027,-47.43358600259947,102.87125145056848,-12.329101344704917,-4.4277442493829735,19.514434753449645,60.74805576529282,14.601243728383928,1.6414183614544764,36.436139316147845,3.7067459153370383,-1.7737453980884772,-6.656932203765022,0.41575360862944866,-15.492615243191032,-49.326123496052816,101.0427279936297,-6.762886792421341,-29.46227788925171,12.038780003786087,-12.455500185157643,3.1392573953754104,0
STABILIZE,1.3183367252349854,25.705432437732888,-8.55413428903474,-48.25936966562954,103.25098498790622,-12.07146828035309,-4.6059390083611635,20.16954114572836,60.244052847660505,16.080000174259197,1.3744333104312594,36.23898590575543,3.692271297812734,-1.861861145031346,-5.829391635729037,0.4139861357195086,-15.492615243191032,-49.326123496052816,101.0427279936297,-13.843671977519989,-20.78438550233841,12.325159460306168,-12.455500185157643,12.8074038259068,0
STABILIZE,1.3471460342407227,34.71761083336092,-9.167519679793,-48.96549928495573,103.74115108137174,-11.949498944600949,-4.786155726976968,20.832080970343277,59.723087475373966,17.35804809627906,1.0257117057756173,36.029814777518375,3.6308805894614946,-2.162762757783751,-6.389494434859995,0.41196387278800445,-15.492615243191032,-49.326123496052816,101.0427279936297,-19.42785680294037,-9.826264530420303,16.58025085926056,-12.455500185157643,3.5629032937400362,0
STABILIZE,1.3807203769683838,29.792476417774747,-9.954936033246215,-49.496973537368774,104.06004426489544,-11.829333824018958,-4.968035262127975,21.500733891368235,59.18536845257991,18.060749910921018,0.7265398685363914,35.81785693209995,3.5645171743536794,-2.4936149669324585,-6.382567067360442,0.41025064837536895,-15.492615243191032,-49.326123496052816,101.0427279936297,-32.384178042411804,-6.962238997220993,11.294253915548325,-12.455500185157643,5.019605058785336,0
STABILIZE,1.4143226146697998,29.7624568922697,-10.871569803168283,-49.90738592998977,104.43376532728522,-11.70961500339093,-5.1512133791582055,22.17416085454154,58.63112764155166,18.185293287794323,0.673729753008352,35.77320457040099,3.501469555318689,-2.815451030152281,-6.311587947930316,0.4083947246285329,-15.492615243191032,-49.326123496052816,101.0427279936297,-41.49014055728912,2.105419524013996,13.515594601631165,-12.455500185157643,4.6983394272109695,0
STABILIZE,1.460266351699829,21.767785597143508,-11.860617173919904,-50.11702953334937,104.72166264502542,-11.664585934067759,-5.335321883314471,22.85100824689612,58.06061929433769,16.92722366909675,0.3164699049620915,35.55154102617198,3.5509701632820034,-2.5836354372360804,-6.802948658029786,0.40667791329862457,-15.492615243191032,-49.326123496052816,101.0427279936297,-47.14699983596802,11.911074817180634,10.029125958681107,-12.455500185157643,0.4608789670776579,0
STABILIZE,1.4817683696746826,46.519126470947064,-13.076079013877942,-50.39778167558493,105.18189356494078,-11.48035994544891,-5.519989751202699,23.529912056389566,57.47411938441013,15.410660418618168,0.08771761822049451,35.450413245320775,3.123843866137205,-4.716100030745421,-5.175899783765399,0.4045844516389387,-15.492615243191032,-49.326123496052816,101.0427279936297,-55.77511191368103,21.20763510465622,10.83340123295784,-12.455500185157643,6.1662742921200016,0
STABILIZE,1.514784574508667,30.29384488711052,-14.157224100352442,-50.0026758075647,105.24472122252409,-11.505833250188187,-5.704844262244306,24.20950203153432,56.87192493831323,12.743270057147672,-0.056927732421778655,35.389470882451334,3.3893854762697355,-3.4026875292019145,-7.0575830812491365,0.40325440743157825,-15.492615243191032,-49.326123496052816,101.0427279936297,-64.20029401779175,27.852103114128113,12.059512734413147,-12.455500185157643,0.22944654478823834,0
STABILIZE,1.547429084777832,30.638839986851238,-15.393951794404707,-49.785872885112255,105.4337839872562,-11.32813753925332,-5.889512130132536,24.888405841027758,56.25435336731186,9.045376612198796,-0.36769912518196385,35.2945449133665,3.3105207712886173,-3.8384290265441363,-5.707232336916277,0.4016411387601113,-15.492615243191032,-49.326123496052816,101.0427279936297,-66.9565498828888,31.930193305015564,8.214958012104034,-12.455500185157643,9.906219504241353,0
STABILIZE,1.5838871002197266,27.432398493093345,-16.62301334050025,-49.544882825429866,105.60681915662735,-11.155623294050823,-6.073620634288799,25.565253233382332,55.62174179904008,4.938402220403524,-0.364131658681528,35.2592396655467,3.3527397059038084,-3.6728830866634326,-5.747453434810103,0.40002984528482544,-15.492615243191032,-49.326123496052816,101.0427279936297,-66.9565498828888,31.930193305015564,8.214958012104034,-12.455500185157643,9.906219504241353,0
STABILIZE,1.615851879119873,31.290735062629157,-17.96300964482616,-49.12289214639212,105.90715404708969,-11.170820094969624,-6.25679875131903,26.238680196555645,54.97444640914958,2.1850626794082926,-0.28063184902618166,35.20033269904993,3.227167631858698,-4.304723311926031,-6.797991997621583,0.3981345847241198,-15.492615243191032,-49.326123496052816,101.0427279936297,-74.12030696868896,42.874398827552795,16.047075390815735,-12.455500185157643,-1.8524224349883283,0
STABILIZE,1.6657147407531738,20.05663652491596,-19.242513132195384,-48.671420033786895,106.17869055089547,-11.125461168544286,-6.438678286470038,26.907333117580603,54.312841752958214,-0.7578059132357711,-0.2443202155208667,35.08509716246806,3.405569319251041,-3.4123044621979424,-6.493601725079605,0.39626830240412547,-15.492615243191032,-49.326123496052816,101.0427279936297,-75.66381692886353,40.62395691871643,18.30228567123413,-12.455500185157643,3.004620706456119,0
STABILIZE,1.6913087368011475,39.15226644761407,-20.902488165234196,-48.4312402418816,106.60742385090326,-11.033601605768968,-6.618895005085843,27.569872942195527,53.63732009709848,-1.907380484927778,-0.3611332323163189,35.000474533746186,3.160521867087742,-4.691599037392285,-5.903674651944278,0.3940597924923904,-15.492615243191032,-49.326123496052816,101.0427279936297,-71.24354243278503,35.510241985321045,11.536549031734467,-12.455500185157643,1.7223961237587955,0
STABILIZE,1.7251596450805664,29.505145791565546,-21.856790133308884,-48.04242326314738,106.61265370693602,-11.020767502891571,-6.797089764064033,28.22497933447423,52.94829075116605,-3.116573910254975,-0.6623003385668348,34.884163242370036,3.3597853423344253,-3.6731449301734544,-6.536498448753439,0.39267127408846003,-15.492615243191032,-49.326123496052816,101.0427279936297,-67.38833785057068,30.64620792865753,9.570085257291794,-12.455500185157643,3.1240807150396424,0
STABILIZE,1.7576913833618164,30.742140946238134,-23.535242084359787,-47.56427845389004,107.18272531489416,-10.910992493786262,-6.972909643312104,28.87135483645621,52.24617939936826,-3.5283993124872475,-1.0637421990742484,34.80800321802981,3.1705543291017797,-4.684824996327394,-5.874017970375492,0.3901269081689482,-29.30749056889843,-44.921421321685884,110.1987562515489,-62.95778751373291,26.497581601142883,11.698919534683228,-10.976112789848589,3.0264960948203776,0
STABILIZE,1.7920997142791748,29.069779046879766,-25.140204929097763,-47.072369332564726,107.68691739376179,-10.844372473232385,-7.146009077203836,29.507729027776723,51.531427432172606,-3.7342846928467037,-1.604672797493454,34.7261229102597,3.175999411997233,-4.681135304068152,-6.119039747859856,0.3876890200768216,-29.445256525819907,-42.59650154534998,110.59676016104996,-61.13333702087402,20.286570489406586,8.747480809688568,-11.038840647680509,1.146899111888919,0
STABILIZE,1.8258090019226074,29.671290826901718,-26.769935335701746,-46.57006597286815,108.02805247574896,-10.755494750418784,-7.316050986035579,30.132862685296818,50.804491277955265,-3.449228455383514,-2.3185051524398896,34.63547263959529,3.1832570066844106,-4.676203035518732,-5.924781764075229,0.3855528776044126,-30.94368814593581,-40.63102707485211,110.3115013745928,-59.401148557662964,15.45456051826477,-0.1451732125133276,-10.770219404959196,1.737346554078307,0
STABILIZE,1.859459400177002,29.721752563439367,-28.484134410228044,-45.778107857365804,108.38062117414896,-10.643414884085814,-7.482707907482672,30.745551942733638,50.06584173464959,-3.1650355965200965,-2.8472486656673826,34.51616631026809,3.192398324292249,-4.669967123980215,-5.720561445857403,0.38337044112100127,-35.87669959919748,-32.42079321764183,110.82290526042294,-55.916666984558105,10.755257308483124,1.5924898907542229,-10.079406648567101,1.7166937695754811,0
STABILIZE,1.892808198928833,29.989732442906377,-30.214323261426074,-44.811076346488875,108.67426103641048,-10.495020289247694,-7.645663128055743,31.344632450290394,49.3159633013946,-2.771256834735467,-3.192934784845483,34.40032288685009,3.2044826982277215,-4.661683240714579,-5.407731424435658,0.38128340452996823,-39.961683683100375,-27.42675857939748,109.76158922030706,-49.050551652908325,8.877221494913101,2.4581417441368103,-9.773385141119494,3.4234154629627436,0
STABILIZE,1.9271621704101562,29.14147947946557,-32.00289860302253,-43.775093668371525,108.9144125629484,-10.344645934275343,-7.804611814557083,31.928983534286505,48.55535351018352,-2.3542142351943625,-3.4571457118486166,34.25169797051061,3.2167063640675653,-4.653256941902867,-5.318986936209429,0.37928188189447026,-42.673442148721854,-25.280444456674168,109.08617789178905,-49.050551652908325,8.877221494913101,2.4581417441368103,-9.58030172694328,3.4234154629627436,0
STABILIZE,1.9599008560180664,30.554249165901773,-33.70853269210599,-42.59445325567295,109.24437134353782,-10.169648339388521,-7.959262145536966,32.49753235678775,47.784522257512236,-1.9228700733048976,-3.7184288355753425,33.99110234801253,3.2309037074355995,-4.643410517419163,-5.046321642579107,0.3770803018279488,-45.11494808343315,-22.119489262738178,109.96480363151092,-40.02913236618042,10.907842218875885,6.548084318637848,-9.277246962544819,4.359212850957021,0
STABILIZE,1.993915319442749,29.400700967334924,-35.35538723999016,-41.472809174112584,109.53430844922076,-9.963637978415163,-8.10933644275003,33.04925807523633,47.003991136027835,-1.5640988057809337,-3.8078966297396932,33.74709725500841,3.2475784437546187,-4.631763622170321,-4.768449591285616,0.37493936537361416,-45.11494808343315,-22.119489262738178,109.96480363151092,-41.7079359292984,9.436848014593124,5.607438087463379,-9.277246962544819,6.797135323298121,0
STABILIZE,2.0269010066986084,30.32100050603629,-36.95552603161796,-40.354046750509504,109.80134466355172,-9.704580143171643,-8.254572302611612,33.5831960020811,46.21429276617708,-1.338784525440553,-3.9876193973702385,33.49627221811803,3.2684872895087005,-4.617032687594931,-4.252859026631992,0.37282589620525075,-45.77748332580245,-20.934040471349377,111.29055412913272,-39.89637494087219,7.914392650127411,0.9556828066706657,-8.881625946082881,9.05234340515221,0
STABILIZE,2.06117582321167,29.182436146305147,-38.44230531995478,-39.355839884206596,109.97637449445352,-9.484320811723396,-8.394723727654076,34.09844176440749,45.41597012785499,-1.1959112687124611,-4.186474805526459,33.18593232789475,3.2862121249524887,-4.604433718690633,-4.400203562158583,0.3708791912668029,-44.95840201942614,-22.76767938117937,109.92430405488683,-39.89637494087219,7.914392650127411,0.9556828066706657,-9.457452042318865,9.05234340515221,0
STABILIZE,2.097238302230835,27.732585740639113,-39.990635078219405,-38.19775992452079,110.05870540278859,-9.240675724209657,-8.529562257983178,34.59415546356784,44.609575892053186,-0.7073241985236184,-4.723136002105878,32.80953426311368,3.3024415454466705,-4.589877549259816,-4.197130428079964,0.3691017409785292,-48.44287074447561,-18.51967179754664,110.21695882264451,-36.86886429786682,7.93246254324913,-5.031094327569008,-8.687440586855,8.410955344915807,0
STABILIZE,2.1276369094848633,32.90063066737787,-41.356457247244364,-37.09291258655443,110.01889546540923,-9.019333113595637,-8.658878102734443,35.069565834811364,43.795671752508596,-0.4059822821190324,-5.046682916863029,32.59073256814691,3.134377286689131,-4.54759798574573,-3.95478332077313,0.36755355257419875,-48.44287074447561,-18.51967179754664,110.21695882264451,-30.13535737991333,7.193660736083984,-11.392507702112198,-8.687440586855,6.9606953020314775,0
STABILIZE,2.1695520877838135,23.86069187577866,-42.65866661451587,-36.0049499611737,109.89881320560121,-8.74458425042362,-8.782481271529447,35.52397440691434,42.97482775735176,0.1317101929837789,-5.606497174068321,32.26647616748973,3.3453836888395947,-4.561623392438923,-3.9365649952884807,0.3661520291035011,-51.81377969001691,-17.316584535846637,109.18991629787355,-27.410581707954407,7.032430171966553,-11.265072226524353,-8.2194979083141,10.903343453245883,0
STABILIZE,2.1954972743988037,38.54917098636079,-44.283305475207314,-34.82485173084325,109.8159516589981,-8.444577148843658,-8.900202705932218,35.95675966181013,42.1476216407555,0.8806048704672254,-6.444595109287913,31.792239057942815,2.6011514511867575,-4.43001454080617,-2.750121685249936,0.3646633399635148,-51.81377969001691,-17.316584535846637,109.18991629787355,-23.478011786937714,7.647348195314407,-12.97806054353714,-8.2194979083141,9.376022654824528,0
STABILIZE,2.231106996536255,28.086543676967892,-45.14199261386644,-33.875070542131255,109.62501242923248,-8.237900671953616,-9.011895410905565,36.36738119421948,41.31463815458331,1.5242538300406065,-7.240202864567678,31.318449325786542,3.3855921420248274,-4.53186119026827,-3.780934598960048,0.3633792514507016,-50.86933342326563,-17.75668621922536,110.04236973929955,-21.973034739494324,7.848712056875229,-15.31059741973877,-8.123738312735123,9.150160251803255,0
STABILIZE,2.2622663974761963,32.097955185502634,-46.32678083950213,-32.759408143398026,109.46713264722676,-7.977195643575296,-9.117435586267435,36.75538387128052,40.476468400037916,1.868827482157641,-7.644271733223754,30.98055986754601,2.8774954724390174,-4.442322460981666,-3.1144888943442712,0.3620186715056223,-53.65576555408832,-15.542368326088024,110.4110144238464,-19.708351790905,9.591098129749298,-16.48048460483551,-7.217005115556235,7.850725299944791,0
STABILIZE,2.2961556911468506,29.513035034513816,-47.434045640255604,-31.683537644657264,109.2699666729907,-7.7287815915972775,-9.216723758147227,37.120401992178664,39.63370915930979,2.110699848593425,-7.922239088102117,30.655162825297435,2.9760377518000016,-4.440568530038592,-3.157788583119372,0.3607274849726382,-55.00479861260331,-14.943129542743577,109.86583628220927,-19.708351790905,9.591098129749298,-16.48048460483551,-7.004858312100107,7.850725299944791,0
STABILIZE,2.330659866333008,28.98700724277105,-48.54425053072415,-30.653805344779236,108.95955141300125,-7.465787821285387,-9.309685910442214,37.46216344777729,38.78696222722556,2.17664148304849,-8.108223431654272,30.30273530940853,3.0241884972515853,-4.430504451844157,-2.9581566686163194,0.35965482162844864,-53.75901422838215,-15.816936869475885,109.33405126420101,-21.652323007583618,9.878261387348175,-22.127506136894226,-6.684774756940845,7.609975645853828,0
STABILIZE,2.363347053527832,30.597490516486722,-49.44803143567849,-29.518325425002686,108.6534975067593,-7.19295704301567,-9.396274616273802,37.78049388024727,37.93683374289667,2.170118652391128,-7.954593694200468,30.050281272401104,2.6974071380178124,-4.372154213919158,-2.660507964226963,0.35856667247227475,-53.75901422838215,-15.816936869475885,109.33405126420101,-11.105021834373474,18.790096044540405,-21.47078961133957,-6.684774756940845,8.606125439127984,0
STABILIZE,2.3996219635009766,27.570887673538074,-50.25680370078979,-28.41602427655729,108.33772129992887,-6.933717151866003,-9.476470169443923,38.07532084269739,37.08393352136768,2.0716303127673057,-7.6892749958913225,29.83234359636434,2.810835758744538,-4.371296589234202,-2.730049221889898,0.35749242444287765,-53.71642186415824,-15.356264060783328,109.21621713004521,-11.105021834373474,18.790096044540405,-21.47078961133957,-6.592275183377536,8.606125439127984,0
STABILIZE,2.4334137439727783,29.601140485835675,-51.084946514439714,-27.151206613707263,108.01588424900288,-6.6463495020372685,-9.550281715891396,38.3466779588045,36.22887438526504,1.7237852134812468,-6.879455324496053,29.574811313709006,2.337527681553344,-4.299441658402432,-2.285602645364292,0.3564259802725243,-55.03781172366317,-13.93022295321961,108.58498687283449,-4.501762613654137,24.204736948013306,-19.58872526884079,-6.171211825792254,8.506330398938573,0
STABILIZE,2.4698405265808105,27.456281953090734,-51.60322317983694,-25.957872929762722,107.69849325780795,-6.393273392665547,-9.617748385148262,38.594709082443394,35.372271496445265,1.220851491023351,-5.63868230609789,29.396444338628708,2.4976053186893883,-4.304886092172518,-2.4462764267330965,0.3553475564772746,-53.030704882160606,-14.363914528108054,108.6683381433521,-0.3683904651552439,26.450014114379883,-19.818000495433807,-6.077933511216562,8.090423104903572,0
STABILIZE,2.5024476051330566,30.67267302404493,-51.98000002093292,-24.76494840566892,107.34813973258893,-6.18069286874928,-9.678940421796101,38.81967245731716,34.51474168764374,0.7921741978396587,-4.411500510374407,29.282629481394203,2.222055467280997,-4.264021628912053,-2.4033787759258165,0.3543332039101096,-52.0952772338299,-14.021765639981398,108.59798007031588,3.2327525317668915,27.976146340370178,-21.804797649383545,-5.785070644201344,5.49052952658479,0
STABILIZE,2.5338165760040283,31.88372481946028,-52.36089605899303,-23.523104919953298,106.89869393825431,-5.947735066174948,-9.733960316922415,39.02194487658722,33.65690279412308,0.4332899653901252,-3.122743278622789,29.202781154902166,1.9662233438113952,-4.226494394882962,-2.086238716690189,0.3535164177117375,-54.30373350230377,-12.456504408165909,106.41000882200177,6.555107235908508,29.538431763648987,-22.053126990795135,-5.436796948793627,6.487332456698328,0
STABILIZE,2.5663697719573975,30.726826516633334,-52.66173458787461,-22.39013442202041,106.49912761076929,-5.753477754211842,-9.782943939577011,39.20202584250337,32.79937298532159,-0.14326620604877932,-1.6582991739881627,29.06900848491288,2.1366730229462734,-4.2355349497366985,-2.25546423556692,0.3526004907491046,-53.86933778816447,-12.651483784071846,106.56708996282691,4.884383454918861,27.86591947078705,-20.41417956352234,-5.324958807441433,4.92136474040575,0
STABILIZE,2.5995426177978516,30.147087574032547,-53.00135774870878,-21.15933914513992,106.0531013428492,-5.575791774359617,-9.826061668228236,39.36054172603398,31.942770096501796,-0.5410028490140196,-0.4188219171807457,28.995051196579986,1.9037528273922575,-4.204868344138984,-2.277708518721097,0.35177933750730517,-55.14712612441477,-9.69162643828894,105.60237584819804,7.43265226483345,25.99560022354126,-20.470714569091797,-4.815204544961962,2.6010214133054808,0
STABILIZE,2.6350622177124023,28.158006391149065,-53.26789803876438,-19.94344621097387,105.50628771800204,-5.378715481775935,-9.863519522219436,39.49824992649622,31.087710960399157,-0.991226080656223,0.9324054520194252,28.91555803992479,1.9518982426665845,-4.201467624088878,-2.1160314046098603,0.35116284648479423,-54.084495570972344,-9.00840242569616,104.28027709585726,8.646757900714874,24.35828000307083,-23.175102472305298,-4.544824796633332,3.3104065680502974,0
STABILIZE,2.6683242321014404,30.067988587322752,-53.574976865445656,-18.76961989182237,104.91576402041352,-5.17306191719988,-9.89556029322524,39.61604303118569,30.234810738870166,-1.439174432417989,1.7033687108350208,28.85202362026533,1.8137660007489873,-4.180564884964748,-1.8680849551441707,0.3506380934369133,-54.87028838319113,-8.241110052805228,103.51894888159289,6.716485321521759,20.824040472507477,-23.66400957107544,-4.433559523092828,3.531214631085762,0
STABILIZE,2.701411247253418,30.227257331056002,-53.82189463229838,-17.681555883500632,104.24671552126964,-5.002806767048752,-9.922464676707998,39.71495297500747,29.38468225454126,-2.011916530174823,2.5468616417252763,28.791545710259456,1.8679293556822345,-4.178811412444908,-1.973237516988124,0.3502759334665433,-54.34373902478016,-6.475797335247084,100.9211365279922,3.896656259894371,16.13967716693878,-23.16696345806122,-4.053714813876317,1.9042618632414325,0
STABILIZE,2.735060453414917,29.7236482177025,-54.00587894665324,-16.640951297299697,103.40030570347828,-4.867437958511605,-9.944552403373928,39.79615520010501,28.537935322457045,-2.385968638419398,2.9126566915935403,28.76573101029139,1.8907476001722874,-4.175489358618824,-2.1150925781926935,0.35027525923795755,-53.266278690778186,-5.482635618702783,97.98307219804339,3.433527424931526,13.352090120315552,-27.14787721633911,-4.058162104208141,0.49150212022141004,0
STABILIZE,2.76857328414917,29.846749402254353,-54.150413983828095,-15.660698753054838,102.46104113287714,-4.761087531008525,-9.962183370629711,39.860972815491415,27.695176081728917,-2.7050626967245233,3.0746361218642737,28.77686421863851,1.9064512769262991,-4.1726353157800675,-2.2214434739436006,0.3504682698977035,-52.29335914185056,-4.672794696529316,97.59148883243328,2.40287184715271,9.2387855052948,-32.751819491386414,-3.9391052755306384,-1.278662639045162,0
STABILIZE,2.802140474319458,29.793957819814317,-54.22573310038851,-14.773508480621977,101.44708932753353,-4.696780124812651,-9.975758774038662,39.91088075667873,26.857006327183512,-2.926619732691162,2.9948782953787423,28.80546563578794,1.9817370810400106,-4.176293622473944,-2.431263243445591,0.35081983399929995,-51.36510128842633,-4.367721580070184,94.15558595683076,2.6914548128843307,5.581818521022797,-29.251250624656677,-4.149598159823192,-2.5968336535706165,0
STABILIZE,2.838503122329712,27.503632786885245,-54.26205135448543,-13.950076027916888,100.43090711228609,-4.646232334206299,-9.985722238777209,39.947509945308646,26.02402284101136,-2.7375201825472466,2.7339554641307346,28.877086999424694,2.15221828266882,-4.188099340326081,-2.5118229768987117,0.35118623145745054,-51.25317363565105,-4.057024761680341,93.66996752048377,4.159152507781982,2.979811280965805,-29.51253354549408,-4.117840711258927,-2.956368835064564,0
STABILIZE,2.869175434112549,32.61055217776672,-54.2286280528639,-13.281090702258412,99.3500383378949,-4.599215495017403,-9.99256095109113,39.97265144878211,25.196816724415086,-2.094140695280964,2.2975838561253172,28.961135892256287,2.1496352933387817,-4.074935935053803,-2.453237490540908,0.35169355677304037,-49.861680550513015,-4.449151975919324,93.5638590763526,3.8150604814291,-3.3302750438451767,-34.72773730754852,-4.219132811941568,-3.10425609097368,0
STABILIZE,2.9029641151428223,29.59988708539167,-54.12501785927252,-12.793240995660724,98.29296489289796,-4.545879302246794,-9.996806789751924,39.988260639889695,24.375972729258223,-0.6023544362642774,1.3922412144230694,29.079663580018103,2.5504307531617245,-3.96279640897823,-2.4119589132154817,0.35216601567272054,-49.31719443496502,-4.166651272375723,93.26484649198017,3.26995849609375,-9.130579978227615,-37.337878346443176,-4.070286256818266,-1.2683149024525928,0
STABILIZE,2.9364206790924072,29.893548479060353,-54.034664291063656,-12.394133406286631,97.08043195582304,-4.520232905607727,-9.999037457513149,39.996461356441735,23.562068589713647,0.6916317321838082,0.6883677555341885,29.139369678647768,2.6587322094054024,-3.991089181867063,-2.558544655251966,0.3529632732677812,-48.59298511754621,-5.037720572309132,92.21873120733221,2.2277649492025375,-13.58625739812851,-43.191587924957275,-4.32523076040981,-2.524157879480742,0
STABILIZE,2.970264196395874,29.556501395270175,-53.916231023835735,-11.996858419843804,95.89511766588946,-4.504462866693089,-9.999877612566914,39.999550060898464,22.755674353911843,4.621503641029735,-1.6251329493173445,29.220734307135547,2.64125344400815,-3.925504140251581,-2.6095481619793865,0.3537211133760447,-47.748459967540235,-3.934312883121004,93.0694051532509,0.9449349716305733,-14.346688985824585,-45.898789167404175,-4.075103029051512,-3.391298205938051,0
STABILIZE,3.003526210784912,30.071437789472174,-53.763350614167244,-11.65183801189103,94.78095010117615,-4.436945005987261,-9.999999999999995,40.00000000000001,21.957351715589766,7.8248141235547015,-3.687588397038619,29.208241891143594,2.705844507416909,-3.8378306285937205,-2.2565604591991435,0.35435280322882723,-46.69546806882508,-4.357448239596917,93.88060774454026,-0.22352668456733227,-14.314033091068268,-44.979506731033325,-4.194814401544754,0.41923701125538265,0
STABILIZE,3.0368125438690186,30.04451193742255,-53.61353982700562,-11.339985735902475,93.70727291960587,-4.377484965103154,-10.0,40.0,21.167653345739012,10.849162977654757,-6.138113422172039,29.09140809029594,2.7424042246782925,-3.8277981813121773,-2.2659837588701057,0.3549207608522663,-46.992002187170925,-4.181923464883875,93.7787988545247,-0.22352668456733227,-14.314033091068268,-44.979506731033325,-4.220948341366719,0.41923701125538265,0
STABILIZE,3.070490598678589,29.69755158106405,-53.51354191894521,-11.04618961124105,92.60779068609693,-4.348504394674187,-10.0,40.0,20.38712222425457,12.858321178621953,-8.00180054664901,28.998018913774356,2.7641884101286274,-3.9310574391052793,-2.438472744791123,0.35555866307631523,-46.992002187170925,-4.181923464883875,93.7787988545247,-3.7140991538763046,-13.569208979606628,-48.36057722568512,-4.220948341366719,-1.1276505715907652,0
STABILIZE,3.1036298274993896,30.17984270778618,-53.42939559483675,-10.516515456806387,91.48984949327127,-4.317494691477072,-10.0,40.0,19.616290971583325,14.317810514622263,-9.646886612966078,28.97751468588598,2.2900883675963124,-3.9146281988618234,-2.403570704613291,0.3562528829566241,-46.992002187170925,-4.181923464883875,93.7787988545247,-4.652490094304085,3.015834465622902,-50.35414099693298,-4.220948341366719,-0.8501536459914871,0
STABILIZE,3.1372735500335693,29.728283057382626,-53.266411376528765,-9.729224896929493,90.49307640193948,-4.3678459126476685,-10.0,40.0,18.85568118037223,14.856228350478844,-10.598396851145969,29.077273013808597,1.7998964169005607,-3.7026189845017656,-2.920099838889467,0.3567252095568655,-46.992002187170925,-4.181923464883875,93.7787988545247,0.13637542724609375,21.612627804279327,-45.31407058238983,-4.220948341366719,-5.471435732760019,0
STABILIZE,3.1714847087860107,29.233692280885172,-53.10288512830221,-8.95975317629599,89.51909961125016,-4.421791188378583,-10.0,40.0,18.105802747117224,14.643637005014906,-11.59465251235226,29.389340941891895,1.7914435556597925,-3.6920592510525436,-2.9700560815791723,0.3571734062717341,-46.992002187170925,-4.181923464883875,93.7787988545247,0.13637542724609375,21.612627804279327,-45.31407058238983,-4.220948341366719,-5.471435732760019,0
STABILIZE,3.2050395011901855,29.80666159739051,-52.93225352855616,-7.969913648487574,88.62096789779052,-4.399408074365525,-10.0,40.0,17.36715320381154,12.558942888242893,-11.282582022948024,30.205251434479525,1.3213164360508136,-3.6214317154367683,-2.5067810112801894,0.35749237061204203,-46.992002187170925,-4.181923464883875,93.7787988545247,0.31993649899959564,37.275442481040955,-42.13883876800537,-4.220948341366719,-0.6101237230843141,0
STABILIZE,3.2426021099090576,26.6250920447909,-52.66858600528594,-6.536431342664221,88.03389762991876,-4.556666363808942,-10.0,40.0,16.640217049594213,10.444053358923899,-10.413153583118762,30.878923237601636,0.6989663534431103,-3.4151969546907996,-3.5712117806707266,0.35721263883935095,-46.992002187170925,-4.181923464883875,93.7787988545247,6.228316575288773,67.70122051239014,-25.872379541397095,-4.220948341366719,-11.332615719939307,0
STABILIZE,3.2768120765686035,29.23674891955946,-52.42473006412738,-4.895681827731974,87.39646400494826,-4.6652220252812295,-10.0,40.0,15.925465082398574,7.593169965401011,-8.716885494256204,31.7447521677383,-0.0077288332784008484,-3.3293148355529394,-3.434206016808827,0.35705800215490063,-46.992002187170925,-4.181923464883875,93.7787988545247,6.056233495473862,76.61479711532593,-23.91599714756012,-4.220948341366719,-8.248505271922578,0
STABILIZE,3.323176383972168,21.57042278872906,-52.08116499055295,-3.253825391576922,87.00446552637007,-4.831957661552085,-10.0,40.0,15.223353730600792,4.611606270035563,-6.434606384513592,32.58526158662173,-0.17774858357219334,-3.063817767397385,-3.8966997492379156,0.3564377764084614,-46.992002187170925,-4.181923464883875,93.7787988545247,11.114100366830826,82.46272206306458,-17.165793478488922,-4.220948341366719,-11.453271011627582,0
STABILIZE,3.3442256450653076,47.522139134375706,-51.67315227161478,-1.6418824238501841,86.63053130744308,-5.085516104302805,-10.0,40.0,14.534324384668366,2.2019716664723052,-4.070583570784268,33.32030946962558,-0.23072655317349675,-2.8884511995242566,-4.56595576938742,0.3558075861544506,-46.992002187170925,-4.181923464883875,93.7787988545247,15.196305513381958,83.44553709030151,-19.278596341609955,-4.220948341366719,-16.59897160777511,0
STABILIZE,3.377250909805298,30.284220710768388,-51.22110728565462,-0.10644573382887035,86.29821167154353,-5.3098495501880825,-10.0,40.0,13.858802728808627,0.5585458697320801,-2.0693421993953516,33.85543088543398,-0.1962360429184144,-2.759903311089406,-4.523949105847557,0.3551211821145302,-46.992002187170925,-4.181923464883875,93.7787988545247,18.232406675815582,80.6693434715271,-18.632522225379944,-4.220948341366719,-14.77440268422209,0
STABILIZE,3.412236213684082,28.587326794757324,-50.82862107620775,1.2919273708059773,85.96227222345395,-5.556364094253655,-10.0,40.0,13.197198072617226,-0.5490396337895975,-0.5227374824303775,34.27639593454938,0.027970933426630706,-2.904897017532618,-4.744381666102413,0.35446985169832657,-46.992002187170925,-4.181923464883875,93.7787988545247,14.539860188961029,73.26675653457642,-19.653794169425964,-4.220948341366719,-16.090122514609156,0
STABILIZE,3.4449594020843506,30.565604891308308,-50.393711944227206,2.599228855975489,85.67186846380261,-5.823872857210446,-10.0,40.0,12.549902682726753,-1.8394732500956303,1.8467213614654832,35.06230140611314,-0.05810323061224254,-2.7117709996535626,-5.131808955246463,0.3537560684378483,-46.992002187170925,-4.181923464883875,93.7787988545247,17.557473480701447,69.39153671264648,-18.303272128105164,-4.220948341366719,-17.305404413251186,0
STABILIZE,3.478562593460083,29.764568963070197,-49.96576805703741,3.828233458238052,85.4318091718782,-6.084370908502311,-10.0,40.0,11.917291114454997,-2.2476368171591297,2.86128214309082,35.565799046064384,0.03352221133188926,-2.7177408715614177,-5.212495203990208,0.3529709638851536,-46.992002187170925,-4.181923464883875,93.7787988545247,17.557473480701447,69.39153671264648,-18.303272128105164,-4.220948341366719,-17.305404413251186,0
STABILIZE,3.5116775035858154,30.200921658986175,-49.527660312812664,4.925386328471844,85.0726528275808,-6.330234298082358,-10.0,40.0,11.29971954345362,-2.3163459588885194,3.5263822722479783,36.207611431802974,0.19097046449656369,-2.6769936983835962,-5.2698695864978,0.35245413343174564,-46.992002187170925,-4.181923464883875,93.7787988545247,18.50205510854721,61.116498708724976,-25.84981620311737,-4.220948341366719,-16.42121251953094,0
STABILIZE,3.5448765754699707,30.125650915411523,-49.006286160905404,6.1805604755722126,84.23937495524052,-6.712832880109311,-10.0,40.0,10.697525097356703,-2.247346107232581,3.7913163455294874,36.790738832192815,-0.18310808916642385,-2.406615005433536,-6.332012251654561,0.3529163002842324,-43.269676027392904,2.468908174050858,83.91858746095069,13.89569640159607,54.90671992301941,-28.712385892868042,-6.872214587233778,-17.328265056403218,0
STABILIZE,3.581418514251709,27.37313919870519,-48.14559883694286,7.735949758492285,82.90272589637657,-7.302474363676219,-10.0,40.0,10.111025187429107,-1.8950741915907074,3.7835670690292846,37.68629616069196,-0.5292494053422249,-1.7243725954384654,-7.621817717566499,0.35441659858210506,-35.63131215717652,10.859069810076786,72.32661300830677,15.374800562858582,53.04160714149475,-29.236087203025818,-10.484168165748484,-20.14204344726001,0
STABILIZE,3.612027406692505,32.675843908975466,-47.26211778896284,9.257176469504167,81.5809308343067,-7.908723809981952,-10.0,40.0,9.540516840215162,-1.4503560924195344,3.49474355535201,38.351109208460564,-0.9937709993500539,-1.2168153205085708,-8.689171682962998,0.3559191720118169,-34.08720451582596,12.50582132356972,70.88857816067278,13.788129389286041,48.75132143497467,-26.562368869781494,-11.009267252783085,-20.206663866997502,0
STABILIZE,3.6578760147094727,21.813748842821333,-46.409128056914504,10.60320320629352,80.13386762959661,-8.5659062119996,-10.0,40.0,8.98627602918694,-1.0026292949189708,3.032243485563532,39.121431603432946,-0.004821970726097136,-1.9928970836346716,-8.013167239668007,0.35770481679918065,-32.28829373435242,14.400530008693003,67.1886648660464,9.606247395277023,43.037763237953186,-31.928160786628723,-12.618980746392037,-21.23936797893592,0
STABILIZE,3.6901612281799316,30.977591988064816,-45.46808426666396,12.432542477722013,78.36748314597304,-9.33316867164552,-10.0,40.0,8.44855700639286,-0.30728044572279467,2.2429935691839904,40.056371802686385,-1.6295004354473432,-0.9047677056074299,-10.0,0.36016214772083965,-31.621022055399752,15.181211452988762,66.67850516774513,7.8403860330581665,38.7306272983551,-29.96523678302765,-12.945172969775747,-20.05432332774954,0
STABILIZE,3.723423480987549,30.068635252453564,-44.562143809975026,13.704427344592078,77.08887681108537,-10.00688288545173,-10.0,40.0,7.927591634106307,0.13105437476153867,1.7061840294335355,40.71702185015587,-0.6522767551792543,-1.1112145976705532,-10.0,0.3616774296460419,-31.621022055399752,15.181211452988762,66.67850516774513,13.410605490207672,39.95034098625183,-23.889505863189697,-12.945172969775747,-22.404610204171142,0
STABILIZE,3.75740122795105,29.43577794932978,-43.66133452440419,14.900243660815738,75.81768143371582,-10.710776466755291,-10.0,40.0,7.423588716474029,0.5443292578615216,1.1414432848459597,41.49022658495799,-0.5664477672282584,-1.0875527821353805,-10.0,0.36321181456551643,-28.9341864155195,16.045086780465304,66.89796210662979,7.109247148036957,35.17275154590607,-26.629051566123962,-13.926920676105198,-22.16806026264609,0
STABILIZE,3.795440673828125,26.29146686223994,-42.79146456690729,16.116973804572794,74.4715992762544,-11.43826828158132,-10.0,40.0,6.9367333311645325,0.8924651737958351,0.5121330801354038,42.205040032545675,-0.5132221551108966,-1.2709296412479532,-10.0,0.36493026810982027,-29.014986231234747,17.373620944747167,64.55655377001185,7.109247148036957,35.17275154590607,-26.629051566123962,-14.73000027806329,-22.16806026264609,0
STABILIZE,3.8258755207061768,32.86325208220702,-42.01267439743509,17.33589848740936,73.02377935451648,-12.152452303904095,-10.0,40.0,6.467186161016798,1.0743975076228798,0.15011588527031042,42.79783556570567,-1.0266584484398655,-0.8947782982453687,-10.0,0.36688681361300063,-28.446503912432938,17.78745136673821,64.23250716294979,-1.2854402884840965,26.725932955741882,-28.232300281524658,-15.096136575178674,-18.70025881536202,0
STABILIZE,3.862032175064087,27.66216875733713,-41.268268070456095,18.23798699851249,71.94162241356582,-12.785658119512675,-10.0,40.0,6.015082825688694,1.1989995814343646,-0.16267835072189604,43.369064776561345,-0.2875120101246624,-1.3304581982429537,-10.0,0.3681469208242457,-28.20874836844034,18.06769304056149,63.83623608868987,3.4655123949050903,30.365806818008423,-22.048349678516388,-15.501591831931687,-19.989340907986037,0
STABILIZE,3.892331600189209,33.00990067840897,-40.35998787166244,19.385924782727088,70.80606377791014,-13.476762433286552,-10.0,40.0,5.580533213305387,1.494455208795722,-0.4927967078733919,44.018472332656984,-0.941167341298337,-0.4438886651651325,-10.0,0.3695489388707905,-25.713971667788957,19.1961274374526,64.08750295728208,4.990455508232117,31.3590407371521,-19.026699662208557,-16.686493744119037,-17.069059377401235,0
STABILIZE,3.9270217418670654,28.831587340867223,-39.48124120394394,20.38709114572413,69.80968878789255,-14.150363047339143,-10.0,40.0,5.163620812108007,1.5780466923963343,-0.71781632958411,44.419298569004596,-0.5606214331772672,-0.7697932334845903,-10.0,0.3707078640484309,-25.80796691039326,20.522301956103977,61.84349635921582,9.285525232553482,34.15093719959259,-16.46835505962372,-17.488611357131674,-19.588258539544547,0
STABILIZE,3.964456081390381,26.716162935125322,-38.69503299594524,21.387819666867376,68.7454667469871,-14.839110641353145,-10.0,40.0,4.764402042102148,1.9235708080250584,-0.8070103292122784,45.21665826780647,-0.575474858910564,-0.9989413976128069,-10.0,0.3720378705902301,-25.48812486891518,20.898484755010784,61.50902242868288,1.359880343079567,26.137375831604004,-16.01322442293167,-17.81590271213833,-17.786570749711075,0
STABILIZE,3.9924428462982178,35.73787309458688,-37.7974368410395,22.524944226582022,67.70269636463014,-15.556698014120808,-10.0,40.0,4.382905586706073,1.9429847669671736,-0.950692002861665,45.55437014112859,-1.2478298796519798,0.09275647081498334,-10.0,0.37336041844415185,-23.6186496198792,22.349516554355226,61.34267679757637,3.5758662968873978,28.441444039344788,-13.152030110359192,-18.954875657324756,-15.505181698994681,0
STABILIZE,4.0265233516693115,29.348447317967448,-37.04606318716922,23.338540452779394,66.88376862503361,-16.073320808991614,-10.0,40.0,4.019131724399557,2.0279452766095507,-0.991176775228152,46.011685457006784,-0.5040877890103781,-0.7788472480148496,-10.0,0.3742707261987319,-23.899081340989312,23.44660139713804,59.44967911657585,3.7846453487873077,29.049021005630493,-12.44020015001297,-19.645673530123055,-11.420228263970353,0
STABILIZE,4.061065912246704,28.95339076651204,-36.09677176068066,24.474341107339164,65.97268270559655,-16.733729738205987,-10.0,40.0,3.673051660372465,2.1684572088755223,-0.9991371472623902,46.507495719047185,-0.962690052374141,-0.16671201462038204,-10.0,0.3754007379095518,-22.170401565100185,24.7861476128381,58.55915550031591,9.66176986694336,35.0121408700943,-8.85263904929161,-20.615271426617205,-13.74764681327711,0
STABILIZE,4.094508171081543,29.90655058575228,-35.187929273685924,25.55182811048966,65.09654073750771,-17.3762948481387,-10.0,40.0,3.3446068581727957,2.126075885075593,-1.0855687088972588,46.896895048913365,-0.9926131596556542,-0.06510589209644907,-10.0,0.37649613224133016,-22.170401565100185,24.7861476128381,58.55915550031591,9.66176986694336,35.0121408700943,-8.85263904929161,-20.615271426617205,-13.74764681327711,0
STABILIZE,4.127787828445435,30.055491859665214,-34.401246329241765,26.45946316854508,64.2717479897596,-17.936295070363858,-10.0,40.0,3.0337083713553454,2.0900878317822076,-1.0508612093515448,47.26576283013449,-0.8348761928275634,-0.2771302076411959,-10.0,0.37752392076319147,-21.6848131222527,25.207724231740215,58.02949386892678,3.43012772500515,28.97035777568817,-10.253822803497314,-21.10780945274438,-10.5088197739549,0
STABILIZE,4.167422294616699,25.2320834511427,-33.67653940092508,27.311504946854175,63.50923822501042,-18.492759309439894,-10.0,40.0,2.740236175130889,2.071434798602314,-1.0362035166709915,47.471863788339626,-0.6414168471913917,-0.6982991807768749,-10.0,0.37846199590024093,-21.31720559130605,25.584361633770285,57.80230043036123,-0.12598836328834295,26.373320817947388,-8.157893270254135,-21.30322854343003,-11.595128064273222,0
STABILIZE,4.202343463897705,28.64081395745843,-32.939993422969124,28.17628271663671,62.826437432040116,-18.974491158724497,-10.0,40.0,2.4640384980134797,2.0615596257229454,-0.9683263773598743,47.754828280369495,-0.8321731935700202,-0.30458262155457383,-10.0,0.3792752021319467,-21.012438788179864,25.887263009507798,57.58868400315464,1.7261644825339317,28.36100459098816,-4.696421325206757,-21.516986602876123,-7.60105798011873,0
STABILIZE,4.232318162918091,33.36598093965284,-32.201882766797524,29.11970024132368,62.03126293489328,-19.453154275543135,-10.0,40.0,2.204931153470085,1.8689888453767827,-0.9357974947159827,48.12604223157052,-1.1278479323373038,0.06783015631115424,-10.0,0.3803473364371536,-20.691058340775463,28.220744210799776,55.190202934706605,2.4570992216467857,27.93416678905487,-6.289611756801605,-22.496687740968987,-5.60556015749156,0
STABILIZE,4.265898704528809,29.78528313141786,-31.549711651351878,29.881214015926375,61.351335832347154,-19.83690536776154,-10.0,40.0,1.9626968715682835,1.818443097641161,-0.9803372650153417,48.24698439120394,-0.8089452297237621,-0.32737864114182025,-10.0,0.38122272207844227,-20.320224998295878,28.628880891419904,55.04694502721463,0.5186105612665415,25.425082445144653,-6.3704028725624084,-22.687366235924685,-3.797586459187559,0
STABILIZE,4.300372838973999,29.010665523108635,-30.829531950088832,30.761685819272504,60.65374347625707,-20.229820282559263,-10.0,40.0,1.7370846306249348,1.7674824159134612,-1.021793631791263,48.29611735699842,-0.9743330726201987,-0.07925231318459719,-10.0,0.38216668230873574,-19.61714970398574,29.21839222647595,54.8299557509131,2.471337467432022,27.420073747634888,-4.973573982715607,-23.027810366177597,-2.4310094671274007,0
STABILIZE,4.333156585693359,30.5091324366985,-30.1219413934449,31.652118752615156,59.96888560005467,-20.617545595054477,-10.0,40.0,1.5278089888555257,1.6767121900517536,-1.0489354161707185,48.26643335486555,-1.084123313396711,0.08736462042792842,-10.0,0.38311784677760174,-19.110364669417464,29.949278212515324,54.54363685271179,2.471337467432022,27.420073747634888,-4.973573982715607,-23.2591102450734,-2.4310094671274007,0
STABILIZE,4.367202281951904,29.375785293561467,-29.417346289791663,32.460454760262486,59.34841867545793,-20.876560199128114,-10.0,40.0,1.334549416021133,1.4992495747062475,-1.0538693740724066,48.1475470821723,-0.9441890151399127,0.03979251778783427,-10.0,0.3839722614811264,-18.48428944502259,30.78038883579194,54.36582848139014,3.260450065135956,26.42071545124054,-5.371790751814842,-23.442891756098422,3.0835175022194057,0
