E-kp,E-ki,E-kd,E-I-Tot,E-P,E-I,E-D,E-PID,N-kp,N-ki,N-kd,N-I-Tot,N-P,N-I,N-D,N-PID,D-kp,D-ki,D-kd,D-I-Tot,D-P,D-I,D-D,D-PID,Y-kp,Y-ki,Y-kd,Y-I-Tot,Y-P,Y-I,Y-D,Y-PID,errorN,desiredN,actualN,errorE,desiredE,actualE,errorD,desiredD,actualD,errorY,desiredY,actualY,roll,pitch,yaw-rate,thrust,dt,Time,Mode
0.2,0.004,0.15,-0.001099348762288764,-0.006655076330636009,-4.397395049155056e-06,-0.15107821950782593,-0.1577376932335111,0.2,0.004,0.15,0.0011821642525955646,0.007156412601942091,4.728657010382258e-06,0.1624591545235445,0.169620295782497,0.002,8e-05,0,-0.02442657916922318,-0.0014787004310539648,-1.9541263335378547e-06,-0.0,-0.0014806545573875026,0.2,0.02,0,0.0002022207774923364,0.0012241744894952286,4.044415549846728e-06,0.0,0.0012282189050450752,0.03578206300971045,0.0,-0.03578206300971045,-0.033275381653180044,0.0,0.033275381653180044,-0.7393502155269823,0.0,0.7393502155269823,0.006120872447476142,0,-0.006120872447476142,-0.15775581276396108,-0.16960344379508654,-0.0012282189050450752,0.4,0.03303790092468262,0.0333561897277832,STABILIZE
0.2,0.004,0.15,-0.002069945347926775,-0.00580461140756964,-8.279781391707101e-06,-0.06600254263011435,-0.0718154338190757,0.2,0.004,0.15,0.002406878838905793,0.007324353252324974,9.627515355623171e-06,0.08311275579359959,0.09044673656128019,0.002,8e-05,0,-0.049192782373185494,-0.0014811322002066336,-3.93542258985484e-06,-0.0,-0.0014850676227964885,0.2,0.02,0,0.000450622867278268,0.0014855580839363387,9.012457345565361e-06,0.0,0.001494570541281904,0.03662176626162487,0.0,-0.03662176626162487,-0.029023057037848198,0.0,0.029023057037848198,-0.7405661001033168,0.0,0.7405661001033168,0.007427790419681693,0,-0.007427790419681693,-0.07182715867613107,-0.09043742569158825,-0.001494570541281904,0.4,0.03344225883483887,0.06673955917358398,STABILIZE
0.2,0.004,0.15,-0.0029860238848345225,-0.005478021787221808,-1.194409553933809e-05,-0.04156049465513884,-0.04705046053789999,0.2,0.004,0.15,0.003517752769529067,0.00664287105268557,1.4071011078116268e-05,0.0503145433191395,0.05697148538290319,0.002,8e-05,0,-0.07406339578164046,-0.001487227968171546,-5.925071662531238e-06,-0.0,-0.0014931530398340773,0.2,0.02,0,0.0007705434254924174,0.0019130802845714523,1.541086850984835e-05,0.0,0.0019284911530813007,0.03321435526342785,0.0,-0.03321435526342785,-0.02739010893610904,0.0,0.02739010893610904,-0.743613984085773,0.0,0.743613984085773,0.00956540142285726,0,-0.00956540142285726,-0.047059971143418936,-0.05696362962051675,-0.0019284911530813007,0.4,0.03344559669494629,0.100189208984375,STABILIZE
0.2,0.004,0.15,-0.0038769141797090185,-0.0053286911340039754,-1.5507656718836073e-05,-0.030333002603642405,-0.03567720139436521,0.2,0.004,0.15,0.004577550864334503,0.006338981066596532,1.8310203457338013e-05,0.03603185100657799,0.04238914227663186,0.002,8e-05,0,-0.09883914578213938,-0.001481914441379746,-7.907131662571151e-06,-0.0,-0.0014898215730423173,0.2,0.02,0,0.0008934609736336693,0.0007352079742725985,1.7869219472673387e-05,0.0,0.0007530771937452719,0.03169490533298266,0.0,-0.03169490533298266,-0.026643455670019876,0.0,0.026643455670019876,-0.740957220689873,0.0,0.740957220689873,0.003676039871362992,0,-0.003676039871362992,-0.03567992096587792,-0.04238685317585322,-0.0007530771937452719,0.4,0.033437490463256836,0.13363337516784668,STABILIZE
0.2,0.004,0.15,-0.004850532477541575,-0.00582168652454154,-1.9402129910166302e-05,-0.026477277198045972,-0.03231836585249768,0.2,0.004,0.15,0.005451959836735551,0.005228470893468014,2.1807839346942203e-05,0.02384531394367437,0.029095592676489326,0.002,8e-05,0,-0.12339155291144066,-0.0014680950229459748,-9.871324232915253e-06,-0.0,-0.00147796634717889,0.2,0.02,0,0.0011327035223244449,0.0014305350720201792,2.2654070446488897e-05,0.0,0.0014531891424666681,0.02614235446734007,0.0,-0.02614235446734007,-0.029108432622707698,0.0,0.029108432622707698,-0.7340475114729874,0.0,0.7340475114729874,0.007152675360100896,0,-0.007152675360100896,-0.03232199782855479,-0.02909155789817669,-0.0014531891424666681,0.4,0.033447980880737305,0.16706514358520508,STABILIZE
0.2,0.004,0.15,-0.0059119090003136796,-0.0063472454356421106,-2.364763600125472e-05,0.001381155576219485,-0.004989737495423881,0.2,0.004,0.15,0.0061428704795092074,0.004131784837606837,2.457148191803683e-05,-0.013565319628878048,-0.009408963309353174,0.002,8e-05,0,-0.14783515523689644,-0.0014617766641915196,-1.1826812418951716e-05,0.0,-0.0014736034766104713,0.2,0.02,0,0.0014897078609774112,0.002134957868769459,2.9794157219548225e-05,0.0,0.002164752025989007,0.02065892418803418,0.0,-0.02065892418803418,-0.03173622717821055,0.0,0.03173622717821055,-0.7308883320957598,0.0,0.7308883320957598,0.010674789343847295,0,-0.010674789343847295,-0.004987984422799779,0.009409892785143729,-0.002164752025989007,0.4,0.03344368934631348,0.2005167007446289,STABILIZE
0.2,0.004,0.15,-0.007026405138774935,-0.006662394155798066,-2.8105620555099737e-05,-0.003846427037960476,-0.010536926814313641,0.2,0.004,0.15,0.006758931606599721,0.0036827781731115397,2.7035726426398887e-05,-0.01633169315624128,-0.012621879256703343,0.002,8e-05,0,-0.17220200645292702,-0.001456636425506348,-1.3776160516234163e-05,0.0,-0.0014704125860225822,0.2,0.02,0,0.0017083799482088772,0.0013072092273182262,3.4167598964177545e-05,-0.0,0.0013413768262824039,0.018413890865557697,0.0,-0.018413890865557697,-0.03331197077899033,0.0,0.03331197077899033,-0.728318212753174,0.0,0.728318212753174,0.006536046136591131,0,-0.006536046136591131,-0.010535486898252528,0.012623081180034822,-0.0013413768262824039,0.4,0.03345632553100586,0.23401188850402832,STABILIZE
0.2,0.004,0.15,-0.00808149427084945,-0.006313156056944495,-3.23259770833978e-05,-0.0037438901675952586,-0.010089372201623151,0.2,0.004,0.15,0.007427943904297749,0.004003054254836518,2.9711775617190995e-05,-0.01183803099553704,-0.00780526496508333,0.002,8e-05,0,-0.19711701110966562,-0.0014907964434077861,-1.576936088877325e-05,-0.0,-0.0015065658042965593,0.2,0.02,0,0.001969555314095753,0.0015627502861596855,3.939110628191506e-05,-0.0,0.0016021413924416006,0.02001527127418259,0.0,-0.02001527127418259,-0.03156578028472247,0.0,0.03156578028472247,-0.745398221703893,0.0,0.745398221703893,0.007813751430798427,0,-0.007813751430798427,-0.010088307659413159,0.007806640837586231,-0.0016021413924416006,0.4,0.033425092697143555,0.2673935890197754,STABILIZE
0.2,0.004,0.15,-0.009118202197116555,-0.006198440794819491,-3.647280878846622e-05,-0.0038993759426190788,-0.010134289546227035,0.2,0.004,0.15,0.008163513743972995,0.004397946602085851,3.265405497589198e-05,-0.008704000056114854,-0.0042733993990531115,0.002,8e-05,0,-0.22197119954334757,-0.0014860233206104821,-1.7757695963467808e-05,-0.0,-0.00150378101657395,0.2,0.02,0,0.0021987386794261824,0.0013702794057659658,4.3974773588523646e-05,0.0,0.0014142541793544894,0.021989733010429252,0.0,-0.021989733010429252,-0.03099220397409745,0.0,0.03099220397409745,-0.743011660305241,0.0,0.743011660305241,0.006851397028829829,0,-0.006851397028829829,-0.010133778463079786,0.00427461122113045,-0.0014142541793544894,0.4,0.03345060348510742,0.3008759021759033,STABILIZE
0.2,0.004,0.15,-0.01010963145855254,-0.005927974734786457,-4.043852583421016e-05,-0.0004756185527313803,-0.006444031813352047,0.2,0.004,0.15,0.008988059236997506,0.004930139789551636,3.595223694799003e-05,-0.001337257652500873,0.0036288343739987535,0.002,8e-05,0,-0.24669246142569873,-0.0014781389005843783,-1.97353969140559e-05,-0.0,-0.0014978742974984343,0.2,0.02,0,0.0024574832324705765,0.0015470908847184733,4.914966464941153e-05,0.0,0.0015962405493678848,0.02465069894775818,0.0,-0.02465069894775818,-0.029639873673932286,0.0,0.029639873673932286,-0.7390694502921891,0.0,0.7390694502921891,0.007735454423592366,0,-0.007735454423592366,-0.006444521680461438,-0.0036279643376790098,-0.0015962405493678848,0.4,0.03344917297363281,0.3343384265899658,STABILIZE
0.2,0.004,0.15,-0.011212388225454707,-0.006365233769276582,-4.484955290181883e-05,-1.1337980786432083e-05,-0.006421421302964833,0.2,0.004,0.15,0.009860122269121028,0.005033644070581184,3.944048907648411e-05,0.004029623615706667,0.009102708175364335,0.002,8e-05,0,-0.272315703339939,-0.0014790018035349285,-2.178525626719512e-05,-0.0,-0.0015007870598021235,0.2,0.02,0,0.0026225396999124593,0.0009527241472749728,5.245079399824919e-05,-0.0,0.0010051749412732219,0.025168220352905914,0.0,-0.025168220352905914,-0.03182616884638291,0.0,0.03182616884638291,-0.7395009017674642,0.0,0.7395009017674642,0.0047636207363748635,0,-0.0047636207363748635,-0.00642217808781239,-0.00910217426137501,-0.0010051749412732219,0.4,0.03464937210083008,0.36902451515197754,STABILIZE
0.2,0.004,0.15,-0.012351042517857593,-0.00680559775597266,-4.940417007143037e-05,-0.0005723835743513438,-0.007427385500395434,0.2,0.004,0.15,0.010719958871927216,0.005139138449311233,4.2879835487708864e-05,0.006515621001500158,0.011697639286299098,0.002,8e-05,0,-0.29707912758949506,-0.0014800796486467516,-2.3766330207159605e-05,-0.0,-0.001503845978853911,0.2,0.02,0,0.0026820072503860714,0.0003554302923693774,5.364014500772143e-05,-0.0,0.0004090704373770988,0.025695692246556164,0.0,-0.025695692246556164,-0.0340279887798633,0.0,0.0340279887798633,-0.7400398243233758,0.0,0.7400398243233758,0.001777151461846887,0,-0.001777151461846887,-0.0074277483241884665,-0.011697408904384246,-0.0004090704373770988,0.4,0.0334622859954834,0.40242576599121094,STABILIZE
0.2,0.004,0.15,-0.013411046035961147,-0.006342651909861128,-5.3644184143844585e-05,-6.2073762966202e-05,-0.006458369856971174,0.2,0.004,0.15,0.011589858719959337,0.0052051449247829985,4.635943487983735e-05,0.00537455312067678,0.010626057480339617,0.002,8e-05,0,-0.3216767390804432,-0.0014718261292208557,-2.5734139126435458e-05,0.0,-0.0014975602683472912,0.2,0.02,0,0.0026663612952655077,-9.361935638155972e-05,5.332722590531016e-05,-0.0,-4.029213047624956e-05,0.026025724623914993,0.0,-0.026025724623914993,-0.031713259549305636,0.0,0.031713259549305636,-0.7359130646104278,0.0,0.7359130646104278,-0.0004680967819077986,0,0.0004680967819077986,-0.006458283043671792,-0.010626110243769202,4.029213047624956e-05,0.4,0.03342461585998535,0.43586301803588867,STABILIZE
0.2,0.004,0.15,-0.014467028426986012,-0.0063046499599370255,-5.786811370794405e-05,-0.0004063172241633856,-0.006768835297808355,0.2,0.004,0.15,0.01239615534107652,0.004813923038139096,4.958462136430608e-05,0.001851950476692716,0.006715458136196119,0.002,8e-05,0,-0.3460180122765891,-0.001453274300643939,-2.768144098212713e-05,0.0,-0.0014809557416260663,0.2,0.02,0,0.0028318785436654073,0.0009882061693098263,5.6637570873308146e-05,-0.0,0.0010448437401831343,0.02406961519069548,0.0,-0.02406961519069548,-0.03152324979968513,0.0,0.03152324979968513,-0.7266371503219695,0.0,0.7266371503219695,0.004941030846549131,0,-0.004941030846549131,-0.006769414395325432,-0.006714874385438629,-0.0010448437401831343,0.4,0.033498525619506836,0.469346284866333,STABILIZE
0.2,0.004,0.15,-0.015596060828103513,-0.006751985622209651,-6.238424331241406e-05,-0.0036256104466762785,-0.010439980312198343,0.2,0.004,0.15,0.013319297784538142,0.005520695862523493,5.3277191138152565e-05,0.0026354256415963627,0.008209398695258007,0.002,8e-05,0,-0.3703629492963296,-0.0014559074174327446,-2.9629035943706372e-05,0.0,-0.001485536453376451,0.2,0.02,0,0.0030096661618320398,0.0010632285136191325,6.01933232366408e-05,-0.0,0.0011234218368557734,0.027603479312617463,0.0,-0.027603479312617463,-0.033759928111048255,0.0,0.033759928111048255,-0.7279537087163723,0.0,0.7279537087163723,0.005316142568095662,0,-0.005316142568095662,-0.010440741969677998,-0.008208429994791775,-0.0011234218368557734,0.4,0.03344297409057617,0.5027916431427002,STABILIZE
0.2,0.004,0.15,-0.016679234310872676,-0.006262668428560292,-6.67169372434907e-05,0.00038916258518461466,-0.0059402227806191685,0.2,0.004,0.15,0.01438065915694087,0.006136555652421317,5.752263662776348e-05,0.004857920400879589,0.01105199868992867,0.002,8e-05,0,-0.395593360012492,-0.001458766293168138,-3.164746880099937e-05,0.0,-0.0014904137619691374,0.2,0.02,0,0.003270308362787999,0.001506975299011465,6.540616725575997e-05,0.0,0.0015723814662672248,0.03068277826210658,0.0,-0.03068277826210658,-0.03131334214280146,0.0,0.03131334214280146,-0.729383146584069,0.0,0.729383146584069,0.007534876495057324,0,-0.007534876495057324,-0.005941676159952476,-0.011051217405147017,-0.0015723814662672248,0.4,0.0345914363861084,0.5374114513397217,STABILIZE
0.2,0.004,0.15,-0.017640486744878694,-0.005745943533631924,-7.056194697951477e-05,0.004679729262501103,-0.0011367762181103361,0.2,0.004,0.15,0.015502376112748578,0.0067051297461247555,6.200950445099432e-05,0.006934039198393398,0.013701178448969148,0.002,8e-05,0,-0.4199322164197153,-0.0014548696017991538,-3.3594577313577224e-05,0.0,-0.001488464179112731,0.2,0.02,0,0.0035938402608180907,0.0019339311419606033,7.187680521636181e-05,0.0,0.002005807947176965,0.033525648730623775,0.0,-0.033525648730623775,-0.02872971766815962,0.0,0.02872971766815962,-0.7274348008995769,0.0,0.7274348008995769,0.009669655709803016,0,-0.009669655709803016,-0.0011390885132104647,-0.013700986403161995,-0.002005807947176965,0.4,0.03345847129821777,0.5708482265472412,STABILIZE
0.2,0.004,0.15,-0.018676809965292845,-0.0062005158643908586,-7.470723986117139e-05,0.0005623187964805228,-0.005712904307771507,0.2,0.004,0.15,0.01670670505739002,0.007205725569103901,6.682682022956008e-05,0.008884190148170504,0.016156742537503967,0.002,8e-05,0,-0.44435681268554283,-0.0014613693261363255,-3.554854501484343e-05,0.0,-0.001496917871151169,0.2,0.02,0,0.0038508818799673546,0.0015379281347249842,7.70176375993471e-05,0.0,0.0016149457723243312,0.0360286278455195,0.0,-0.0360286278455195,-0.031002579321954292,0.0,0.031002579321954292,-0.7306846630681627,0.0,0.7306846630681627,0.007689640673624921,0,-0.007689640673624921,-0.005715072645427921,-0.016155975665691807,-0.0016149457723243312,0.4,0.03342700004577637,0.6043088436126709,STABILIZE
0.2,0.004,0.15,-0.01964299813053798,-0.005683991340725471,-7.857199252215193e-05,0.0026711511089324226,-0.0030914122243151996,0.2,0.004,0.15,0.017953328916930866,0.007333767352629664,7.181331566772346e-05,0.01120095009170794,0.018606530760005326,0.002,8e-05,0,-0.4692239071238214,-0.001462907066557959,-3.753791256990571e-05,-0.0,-0.0015004449791278648,0.2,0.02,0,0.0041804430396116124,0.0019387763636932395,8.360886079223226e-05,0.0,0.0020223852244854717,0.03666883676314832,0.0,-0.03666883676314832,-0.02841995670362735,0.0,0.02841995670362735,-0.7314535332789796,0.0,0.7314535332789796,0.009693881818466197,0,-0.009693881818466197,-0.003094560221877749,-0.01860600745718548,-0.0020223852244854717,0.4,0.0339968204498291,0.6382660865783691,STABILIZE
0.2,0.004,0.15,-0.02050873235307589,-0.005177486525736833,-8.203492941230356e-05,0.006949409859301224,0.0016898884041520873,0.2,0.004,0.15,0.019272527021853007,0.007889407898176127,7.709010808741202e-05,0.010523137790191981,0.01848963579645552,0.002,8e-05,0,-0.4935772937154732,-0.0014564438791007373,-3.948618349723786e-05,-0.0,-0.0014959300625979751,0.2,0.02,0,0.0044058159856861295,0.0013478332739876543,8.811631971372259e-05,0.0,0.0014359495937013769,0.03944703949088063,0.0,-0.03944703949088063,-0.025887432628684162,0.0,0.025887432628684162,-0.7282219395503686,0.0,0.7282219395503686,0.006739166369938271,0,-0.006739166369938271,0.001687713629634989,-0.01848983443431556,-0.0014359495937013769,0.4,0.03344225883483887,0.6717231273651123,STABILIZE
0.2,0.004,0.15,-0.021446042366271855,-0.005603305427603309,-8.578416946508742e-05,0.0029183857909952995,-0.0027707038060730965,0.2,0.004,0.15,0.020564310748662565,0.0077223743113990495,8.225724299465026e-05,0.007103660500518896,0.014908292054912595,0.002,8e-05,0,-0.5179089234363774,-0.0014545620014524668,-4.1432713874910194e-05,0.0,-0.001495994715327377,0.2,0.02,0,0.004563130845576957,0.0009404393379553433,9.126261691153914e-05,-0.0,0.0010317019548668825,0.03861187155699525,0.0,-0.03861187155699525,-0.028016527138016542,0.0,0.028016527138016542,-0.7272810007262334,0.0,0.7272810007262334,0.004702196689776716,0,-0.004702196689776716,-0.0027719273025933544,-0.014908064616330836,-0.0010317019548668825,0.4,0.033455610275268555,0.7052061557769775,STABILIZE
0.2,0.004,0.15,-0.02231312995820456,-0.005181332300713344,-8.925251983281824e-05,0.0024929641805069218,-0.0027776206400392405,0.2,0.004,0.15,0.02188638086152007,0.00790010679807766,8.754552344608028e-05,0.0053511845348122675,0.013338836856336007,0.002,8e-05,0,-0.5422267335756836,-0.0014531248783823114,-4.3378138686054696e-05,0.0,-0.0014965030170683662,0.2,0.02,0,0.00475592191017293,0.0011520342115073857,9.511843820345859e-05,-0.0,0.0012471526497108442,0.0395005339903883,0.0,-0.0395005339903883,-0.02590666150356672,0.0,0.02590666150356672,-0.7265624391911557,0.0,0.7265624391911557,0.005760171057536929,0,-0.005760171057536929,-0.002778961631963508,-0.013338557543752419,-0.0012471526497108442,0.4,0.03346967697143555,0.73866868019104,STABILIZE
0.2,0.004,0.15,-0.023106347614433597,-0.004743838119561527,-9.242539045773439e-05,0.006495133138187983,0.0016588696281687222,0.2,0.004,0.15,0.023226376058198366,0.008013841149542384,9.290550423279346e-05,0.003614956839905762,0.01172170349368094,0.002,8e-05,0,-0.5663786910943761,-0.0014444077970211177,-4.531029528755009e-05,0.0,-0.0014897180923086678,0.2,0.02,0,0.004983281896938034,0.0013597263797767451,9.966563793876068e-05,-0.0,0.0014593920177155058,0.040069205747711924,0.0,-0.040069205747711924,-0.02371919059780763,0.0,0.02371919059780763,-0.7222038985105589,0.0,0.7222038985105589,0.0067986318988837256,0,-0.0067986318988837256,0.0016574787366076056,-0.011721900250161075,-0.0014593920177155058,0.4,0.033442020416259766,0.7720954418182373,STABILIZE
0.2,0.004,0.15,-0.02389191960857744,-0.004698046250499749,-9.556767843430976e-05,0.004421526124708067,-0.00037208780422599234,0.2,0.004,0.15,0.02463280731800461,0.008411042089044335,9.853122927201844e-05,0.0048315835208293184,0.013341156839145673,0.002,8e-05,0,-0.5903498469547425,-0.0014335745132141027,-4.72279877563794e-05,0.0,-0.0014808025009704821,0.2,0.02,0,0.005040164464798965,0.0003401813413028962,0.00010080328929597929,-0.0,0.0004409846305988755,0.042055210445221675,0.0,-0.042055210445221675,-0.023490231252498744,0.0,0.023490231252498744,-0.7167872566070513,0.0,0.7167872566070513,0.001700906706514481,0,-0.001700906706514481,-0.00037248385527784654,-0.013341145787311314,-0.0004409846305988755,0.4,0.03344249725341797,0.8055474758148193,STABILIZE
0.2,0.004,0.15,-0.02450447314436311,-0.0036574312715987657,-9.801789257745244e-05,0.006809651952782848,0.00305420278860663,0.2,0.004,0.15,0.026176298420422333,0.009215868157836017,0.00010470519368168933,0.005943433403496186,0.015264006755013892,0.002,8e-05,0,-0.6144283625231294,-0.001437678678983411,-4.9154269001850353e-05,0.0,-0.0014868329479852613,0.2,0.02,0,0.005102789830639796,0.0003739231888161221,0.00010205579661279591,-0.0,0.000475978985428918,0.046079340789180086,0.0,-0.046079340789180086,-0.018287156357993828,0.0,0.018287156357993828,-0.7188393394917054,0.0,0.7188393394917054,0.0018696159440806104,0,-0.0018696159440806104,0.0030537047078788414,-0.015264106408438092,-0.000475978985428918,0.4,0.03349637985229492,0.839038610458374,STABILIZE
0.2,0.004,0.15,-0.025148047935691264,-0.003847253283877305,-0.00010059219174276506,0.00786777469726863,0.003919929221648559,0.2,0.004,0.15,0.027620090780410087,0.008630908129165048,0.00011048036312164035,0.004069694143990405,0.012811082636277093,0.002,8e-05,0,-0.6384998928459632,-0.0014389823114630686,-5.107999142767706e-05,0.0,-0.0014900623028907456,0.2,0.02,0,0.005235195415321843,0.0007915130103533886,0.00010470390830643685,-0.0,0.0008962169186598254,0.04315454064582524,0.0,-0.04315454064582524,-0.019236266419386524,0.0,0.019236266419386524,-0.7194911557315342,0.0,0.7194911557315342,0.003957565051766943,0,-0.003957565051766943,0.003919044318273802,-0.012811353365185917,-0.0008962169186598254,0.4,0.03345632553100586,0.8724865913391113,STABILIZE
0.2,0.004,0.15,-0.02582539188609186,-0.004051461999416761,-0.00010330156754436744,0.00506054118251741,0.0009057776155562813,0.2,0.004,0.15,0.02918841942298139,0.009380793752150006,0.00011675367769192557,0.006637177861438052,0.016134725291279982,0.002,8e-05,0,-0.6625912599621423,-0.0014409999281380212,-5.3007300796971386e-05,0.0,-0.0014940072289349926,0.2,0.02,0,0.005271868066501828,0.00021935362762995982,0.00010543736133003657,-0.0,0.0003247909889599964,0.04690396876075002,0.0,-0.04690396876075002,-0.020257309997083806,0.0,0.020257309997083806,-0.7204999640690106,0.0,0.7204999640690106,0.001096768138149799,0,-0.001096768138149799,0.000905468761007573,-0.01613474262691389,-0.0003247909889599964,0.4,0.03343701362609863,0.9059329032897949,STABILIZE
0.2,0.004,0.15,-0.02653550263616257,-0.004251151287746596,-0.00010614201054465028,0.002201620350960229,-0.002155672947331018,0.2,0.004,0.15,0.03071329000301597,0.009128795091914051,0.00012285316001206387,0.004995574663580647,0.014247222915506761,0.002,8e-05,0,-0.686679010019182,-0.0014420380153899323,-5.493432080153456e-05,0.0,-0.0014969723361914669,0.2,0.02,0,0.005213270675780787,-0.0003507993267212754,0.00010426541351561574,-0.0,-0.0002465339132056597,0.04564397545957025,0.0,-0.04564397545957025,-0.02125575643873298,0.0,0.02125575643873298,-0.7210190076949661,0.0,0.7210190076949661,-0.001753996633606377,0,0.001753996633606377,-0.0021552367958532813,-0.014247288900481938,0.0002465339132056597,0.4,0.03340792655944824,0.9393420219421387,STABILIZE
0.2,0.004,0.15,-0.027351186514049223,-0.00444133393709781,-0.0001094047460561969,0.001219582511348583,-0.003331156171805425,0.2,0.004,0.15,0.032330848487615915,0.008807477489327736,0.00012932339395046368,0.0019018433085548937,0.010838644191833093,0.002,8e-05,0,-0.7130519411999771,-0.0014359851585823138,-5.7044155295998166e-05,-0.0,-0.001493029313878312,0.2,0.02,0,0.005047565165365608,-0.0009022533446141214,0.00010095130330731216,-0.0,-0.0008013020413068093,0.044037387446638675,0.0,-0.044037387446638675,-0.022206669685489053,0.0,0.022206669685489053,-0.7179925792911569,0.0,0.7179925792911569,-0.004511266723070607,0,0.004511266723070607,-0.0033303027650301597,-0.010838906441673306,0.0008013020413068093,0.4,0.03673148155212402,0.976081132888794,STABILIZE
0.2,0.004,0.15,-0.028021007601408167,-0.00400529385112408,-0.00011208403040563268,-0.0014848666798784075,-0.005602244561408121,0.2,0.004,0.15,0.03380555414511425,0.008818219691299032,0.000135222216580457,-0.0016540690453300992,0.007299372862549391,0.002,8e-05,0,-0.7369397504066854,-0.001428406736337671,-5.895518003253483e-05,0.0,-0.0014873619163702058,0.2,0.02,0,0.004906833943455032,-0.000841523069991897,9.813667886910065e-05,-0.0,-0.0007433863911227963,0.04409109845649516,0.0,-0.04409109845649516,-0.0200264692556204,0.0,0.0200264692556204,-0.7142033681688356,0.0,0.7142033681688356,-0.004207615349959485,0,0.004207615349959485,-0.005601708504144153,-0.007299784253452181,0.0007433863911227963,0.4,0.0334467887878418,1.0095603466033936,STABILIZE
0.2,0.004,0.15,-0.02862365277508931,-0.003601885335620206,-0.00011449461110035725,0.0011745090009325535,-0.0025418709457880094,0.2,0.004,0.15,0.03525796380202268,0.00868075158152609,0.00014103185520809072,0.0003523603375571055,0.009174143774291285,0.002,8e-05,0,-0.7609945975260987,-0.0014377083709267865,-6.08795678020879e-05,0.0,-0.0014985879387288744,0.2,0.02,0,0.004747744530833412,-0.000950844456073632,9.495489061666824e-05,-0.0,-0.0008558895654569638,0.04340375790763045,0.0,-0.04340375790763045,-0.01800942667810103,0.0,0.01800942667810103,-0.7188541854633932,0.0,0.7188541854633932,-0.00475422228036816,0,0.00475422228036816,-0.0025411096956500867,-0.009174354659107195,0.0008558895654569638,0.4,0.0334627628326416,1.0430364608764648,STABILIZE
0.2,0.004,0.15,-0.029061638143724453,-0.0026203989467414855,-0.00011624655257489781,0.006494660136241676,0.003758014636925293,0.2,0.004,0.15,0.03686798349113727,0.009632499621473478,0.00014747193396454908,0.001258959878100802,0.01103893143353883,0.002,8e-05,0,-0.7848779133149083,-0.0014289019684085738,-6.279023306519267e-05,0.0,-0.0014916922014737665,0.2,0.02,0,0.004606914756164197,-0.0008425628334641153,9.213829512328396e-05,-0.0,-0.0007504245383408313,0.048162498107367384,0.0,-0.048162498107367384,-0.013101994733707427,0.0,0.013101994733707427,-0.7144509842042869,0.0,0.7144509842042869,-0.004212814167320576,0,0.004212814167320576,0.0037588262915541643,-0.011038655086360727,0.0007504245383408313,0.4,0.03342890739440918,1.076418399810791,STABILIZE
0.2,0.004,0.15,-0.02951273315135253,-0.002693012219244309,-0.00011805093260541013,0.007066132623141028,0.004255069471291308,0.2,0.004,0.15,0.038400130914039536,0.009146835282560693,0.00015360052365615814,0.0002158799574322653,0.009516315763649117,0.002,8e-05,0,-0.8087016811344657,-0.0014222657480484652,-6.469613449075727e-05,0.0,-0.0014869618825392224,0.2,0.02,0,0.004476397599878318,-0.000779180196533426,8.952795199756636e-05,-0.0,-0.0006896522445358597,0.04573417641280346,0.0,-0.04573417641280346,-0.013465061096221545,0.0,0.013465061096221545,-0.7111328740242326,0.0,0.7111328740242326,-0.00389590098266713,0,0.00389590098266713,0.004255716535710764,-0.009516026412671937,0.0006896522445358597,0.4,0.03350114822387695,1.109922170639038,STABILIZE
0.2,0.004,0.15,-0.029878782585436515,-0.0021876301695252327,-0.00011951513034174606,0.010108025001306324,0.007800879701439346,0.2,0.004,0.15,0.04001542505953906,0.009653521837002719,0.00016006170023815625,0.0037991339978218587,0.013612717535062734,0.002,8e-05,0,-0.8325313935674418,-0.0014241409218386666,-6.660251148539535e-05,0.0,-0.0014907434333240618,0.2,0.02,0,0.004325381877602892,-0.0009025189478822336,8.650763755205784e-05,-0.0,-0.0008160113103301758,0.04826760918501359,0.0,-0.04826760918501359,-0.010938150847626163,0.0,0.010938150847626163,-0.7120704609193332,0.0,0.7120704609193332,-0.004512594739411168,0,0.004512594739411168,0.007801951809921676,-0.013612103098397128,0.0008160113103301758,0.4,0.03346538543701172,1.1434152126312256,STABILIZE
0.2,0.004,0.15,-0.03016011811829763,-0.001682443165572135,-0.00012064047247319052,0.01041834060743147,0.008615256969386144,0.2,0.004,0.15,0.0417146907662613,0.010161951267553891,0.0001668587630650452,0.006031340882428071,0.01636015091304701,0.002,8e-05,0,-0.8563742738188966,-0.0014258522739258195,-6.850994190551173e-05,0.0,-0.0014943622158313313,0.2,0.02,0,0.0041542376718625585,-0.00102347682977266,8.308475343725117e-05,-0.0,-0.0009403920763354089,0.050809756337769456,0.0,-0.050809756337769456,-0.008412215827860675,0.0,0.008412215827860675,-0.7129261369629097,0.0,0.7129261369629097,-0.0051173841488633,0,0.0051173841488633,0.008616718145212882,-0.01635938137437319,0.0009403920763354089,0.4,0.03344368934631348,1.1768312454223633,STABILIZE
0.2,0.004,0.15,-0.03049184360963458,-0.001982061405629183,-0.00012196737443853833,0.0072673584552861905,0.005163329675218469,0.2,0.004,0.15,0.0434632040507547,0.010447375281461295,0.0001738528162030188,0.00792661208060482,0.01854784017826913,0.002,8e-05,0,-0.8803058855135929,-0.0014299149493573343,-7.042447084108743e-05,0.0,-0.0015003394201984217,0.2,0.02,0,0.0038639612888483462,-0.0017344027841191525,7.727922577696692e-05,-0.0,-0.0016571235583421856,0.052236876407306475,0.0,-0.052236876407306475,-0.009910307028145913,0.0,0.009910307028145913,-0.7149574746786671,0.0,0.7149574746786671,-0.008672013920595762,0,0.008672013920595762,0.00516613692804582,-0.01854705846904807,0.0016571235583421856,0.4,0.03347277641296387,1.210312843322754,STABILIZE
0.2,0.004,0.15,-0.030832887548208673,-0.0020379423935391167,-0.0001233315501928347,0.0026128552738294317,0.0004515813300974801,0.2,0.004,0.15,0.044994904484834904,0.009152830165712384,0.00017997961793933962,-0.00214577279233243,0.007187036991319293,0.002,8e-05,0,-0.9041718425698205,-0.0014261342937400875,-7.233374740558565e-05,0.0,-0.0014984680411456732,0.2,0.02,0,0.003572763566478157,-0.0017400813097615418,7.145527132956315e-05,-0.0,-0.0016686260384319786,0.04576415082856192,0.0,-0.04576415082856192,-0.010189711967695582,0.0,0.010189711967695582,-0.7130671468700437,0.0,0.7130671468700437,-0.008700406548807708,0,0.008700406548807708,0.0004526726817762699,-0.007186968335498492,0.0016686260384319786,0.4,0.033469438552856445,1.2437925338745117,STABILIZE
0.2,0.004,0.15,-0.031283967136200866,-0.0025763979059352394,-0.00012513586854480348,0.0006313858050140576,-0.0020701479694659854,0.2,0.004,0.15,0.04657746495815945,0.00903899355685274,0.0001863098598326378,-0.0004588749843725505,0.008766428432312828,0.002,8e-05,0,-0.9291387971823312,-0.0014260190727665015,-7.43311037745865e-05,-0.0,-0.001500350176541088,0.2,0.02,0,0.00328286385818673,-0.0016557987132554384,6.56572771637346e-05,-0.0,-0.0015901414360917038,0.0451949677842637,0.0,-0.0451949677842637,-0.012881989529676195,0.0,0.012881989529676195,-0.7130095363832507,0.0,0.7130095363832507,-0.008278993566277192,0,0.008278993566277192,-0.0020688812366770823,-0.0087667274682673,0.0015901414360917038,0.4,0.03501629829406738,1.2787988185882568,STABILIZE
0.2,0.004,0.15,-0.03164191693506901,-0.002136469135425433,-0.00012656766774027603,0.00033546882453477537,-0.0019275679786309335,0.2,0.004,0.15,0.04802898796927236,0.008663600656875627,0.00019211595187708944,-0.004410402789175628,0.004445313819577088,0.002,8e-05,0,-0.9529631487980991,-0.0014219868836233497,-7.623705190384793e-05,0.0,-0.0014982239355271977,0.2,0.02,0,0.003061123786299515,-0.0013234839666680922,6.12224757259903e-05,-0.0,-0.0012622614909421018,0.04331800328437813,0.0,-0.04331800328437813,-0.010682345677127164,0.0,0.010682345677127164,-0.7109934418116748,0.0,0.7109934418116748,-0.00661741983334046,0,0.00661741983334046,-0.0019270545508597377,-0.004445536415864475,0.0012622614909421018,0.4,0.0335085391998291,1.3123555183410645,STABILIZE
0.2,0.004,0.15,-0.03204798982272697,-0.002429662106983352,-0.00012819195929090788,-0.0032460707075446537,-0.005803924773818914,0.2,0.004,0.15,0.04962392872133286,0.009543033346833606,0.00019849571488533144,-0.0027443433299229668,0.0069971857317959706,0.002,8e-05,0,-0.9767454612380237,-0.0014229707303284682,-7.813963689904191e-05,0.0,-0.00150111036722751,0.2,0.02,0,0.0029167622509567457,-0.0008637605779376879,5.8335245019134915e-05,0.0,-0.000805425332918553,0.04771516673416803,0.0,-0.04771516673416803,-0.012148310534916757,0.0,0.012148310534916757,-0.7114853651642341,0.0,0.7114853651642341,-0.004318802889688439,0,0.004318802889688439,-0.005803397328152047,-0.006997623196271411,0.000805425332918553,0.4,0.03342628479003906,1.3457748889923096,STABILIZE
0.2,0.004,0.15,-0.03251018343546614,-0.0027631441930576445,-0.00013004073374186457,-0.003398653912827562,-0.006291838839627071,0.2,0.004,0.15,0.051137963069874025,0.00905139124157958,0.0002045518522794961,-0.006227798387420984,0.003028144706438092,0.002,8e-05,0,-1.0006188228969235,-0.0014272274392891843,-8.004950583175389e-05,0.0,-0.0015072769451209382,0.2,0.02,0,0.0028241004509438105,-0.0005539624684698985,5.648200901887621e-05,0.0,-0.0004974804594510223,0.0452569562078979,0.0,-0.0452569562078979,-0.013815720965288221,0.0,0.013815720965288221,-0.7136137196445922,0.0,0.7136137196445922,-0.002769812342349492,0,0.002769812342349492,-0.006291692444658951,-0.0030284488651437114,0.0004974804594510223,0.4,0.033454179763793945,1.3792147636413574,STABILIZE
0.2,0.004,0.15,-0.0330268997868953,-0.003087162792870237,-0.0001321075991475812,-0.004600118163520986,-0.007819388555538804,0.2,0.004,0.15,0.05256292789162376,0.00851356526010358,0.00021025171156649505,-0.0028359978383814296,0.005887819133288645,0.002,8e-05,0,-1.0244620796326067,-0.001424534270139994,-8.195696637060855e-05,0.0,-0.0015064912365106025,0.2,0.02,0,0.0027831707694977773,-0.0002445376255942777,5.5663415389955545e-05,0.0,-0.00018887421020432214,0.0425678263005179,0.0,-0.0425678263005179,-0.015435813964351184,0.0,0.015435813964351184,-0.712267135069997,0.0,0.712267135069997,-0.0012226881279713882,0,0.0012226881279713882,-0.00781926290808926,-0.005887985997180238,0.00018887421020432214,0.4,0.03347516059875488,1.4127123355865479,STABILIZE
0.2,0.004,0.15,-0.033560144325045026,-0.0031877053423307795,-0.00013424057730018012,-0.0027443039889250708,-0.00606624990855603,0.2,0.004,0.15,0.05406475743640543,0.008977851099576576,0.00021625902974562171,-0.0002667480965529625,0.008927362032769236,0.002,8e-05,0,-1.048187961168987,-0.0014183196247533024,-8.385503689351898e-05,0.0,-0.0015021746616468213,0.2,0.02,0,0.0026553407616956596,-0.0007641604735322796,5.3106815233913196e-05,0.0,-0.0007110536582983665,0.04488925549788288,0.0,-0.04488925549788288,-0.015938526711653897,0.0,0.015938526711653897,-0.7091598123766512,0.0,0.7091598123766512,-0.0038208023676613977,0,0.0038208023676613977,-0.006065654568740887,-0.008927766544321068,0.0007110536582983665,0.4,0.03345632553100586,1.4461658000946045,STABILIZE
0.2,0.004,0.15,-0.03414935078267247,-0.0035214143760679568,-0.00013659740313068987,-0.006209450687505752,-0.009867462466704398,0.2,0.004,0.15,0.05556755559857825,0.008981529282474372,0.000222270222394313,0.001430174387193953,0.010633973892062639,0.002,8e-05,0,-1.0719063280245162,-0.0014175370439460783,-8.57525062419613e-05,0.0,-0.0015032895501880395,0.2,0.02,0,0.002507905267752642,-0.0008811537300595958,5.0158105355052844e-05,0.0,-0.0008309956247045429,0.04490764641237186,0.0,-0.04490764641237186,-0.017607071880339782,0.0,0.017607071880339782,-0.7087685219730391,0.0,0.7087685219730391,-0.004405768650297979,0,0.004405768650297979,-0.009866644736312827,-0.010634732620817518,0.0008309956247045429,0.4,0.03346419334411621,1.4799480438232422,STABILIZE
0.2,0.004,0.15,-0.034256693974467206,-0.0006417051783633963,-0.00013702677589786882,0.008017577455127904,0.007238845500866639,0.2,0.004,0.15,0.05657942555233656,0.006049030015789743,0.00022631770220934625,-0.015664283616278668,-0.009388935898279578,0.002,8e-05,0,-1.0957356579516282,-0.0014245341651846811,-8.765885263613026e-05,-0.0,-0.0015121930178208115,0.2,0.02,0,0.0015372210870257094,-0.005802818557128477,3.074442174051419e-05,-0.0,-0.005772074135387963,0.030245150078948714,0.0,-0.030245150078948714,-0.0032085258918169816,0.0,0.0032085258918169816,-0.7122670825923405,0.0,0.7122670825923405,-0.029014092785642386,0,0.029014092785642386,0.007234090096082726,0.009392600383769021,0.005772074135387963,0.4,0.033455610275268555,1.5131251811981201,STABILIZE
0.2,0.004,0.15,-0.03531128290836463,-0.006305305779351416,-0.00014124513163345852,-0.01588384692365117,-0.022330397834636043,0.2,0.004,0.15,0.0565657463249255,-8.178704410756605e-05,0.000226262985299702,-0.04095164719304713,-0.04080717125185499,0.002,8e-05,0,-1.1195717202430069,-0.0014251397534333317,-8.956573761944056e-05,0.0,-0.0015147054910527723,0.2,0.02,0,0.0010012441206883526,-0.003204564882884388,2.0024882413767053e-05,-0.0,-0.003184540000470621,-0.0004089352205378302,0.0,0.0004089352205378302,-0.031526528896757076,0.0,0.031526528896757076,-0.7125698767166658,0.0,0.7125698767166658,-0.01602282441442194,0,0.01602282441442194,-0.022341808729257496,0.040800924937268425,0.003184540000470621,0.4,0.03345084190368652,1.546509027481079,STABILIZE
0.2,0.004,0.15,-0.03469989355678948,0.0036562054306130674,-0.00013879957422715793,0.030246623611092205,0.03376402946747811,0.2,0.004,0.15,0.056826745551254935,0.0015608168284791685,0.00022730698220501975,-0.031174410188013636,-0.029386286377329447,0.002,8e-05,0,-1.1434462684347129,-0.0014277359022864518,-9.147570147477704e-05,-0.0,-0.0015192116037612289,0.2,0.02,0,-0.0008844835668433604,-0.01127695108534014,-1.7689671336867207e-05,-0.0,-0.011294640756677007,0.007804084142395843,0.0,-0.007804084142395843,0.018281027153065336,0.0,-0.018281027153065336,-0.7138679511432259,0.0,0.7138679511432259,-0.0563847554267007,0,0.0563847554267007,0.033735094089170144,0.029419499311272895,0.011294640756677007,0.4,0.03344392776489258,1.5799479484558105,STABILIZE
0.2,0.004,0.15,-0.035517346777935575,-0.004881123122967377,-0.0001420693871117423,-0.007535750918188843,-0.012558943428267962,0.2,0.004,0.15,0.05783656301779451,0.006029755903331026,0.00023134625207117804,-0.013242538644500647,-0.006981436489098444,0.002,8e-05,0,-1.1676640669941207,-0.0014460773225647944,-9.341312535952966e-05,-0.0,-0.001539490447924324,0.2,0.02,0,-0.000747265225559682,0.0008193491703365419,-1.4945304511193642e-05,0.0,0.0008044038658253482,0.03014877951665513,0.0,-0.03014877951665513,-0.02440561561483688,0.0,0.02440561561483688,-0.7230386612823971,0.0,0.7230386612823971,0.004096745851682709,0,-0.004096745851682709,-0.01255844421156118,0.006982334457103565,-0.0008044038658253482,0.4,0.03349447250366211,1.6134581565856934,STABILIZE
0.2,0.004,0.15,-0.03591596851879563,-0.0023805968250602307,-0.00014366387407518252,0.005160055474888125,0.0026357947757527115,0.2,0.004,0.15,0.058960342963581776,0.006711292176978179,0.0002358413718543271,-0.010206389139473955,-0.003259255590641448,0.002,8e-05,0,-1.1913458323093846,-0.0014142915336153342,-9.530766658475078e-05,0.0,-0.001509599200200085,0.2,0.02,0,-0.002785901281172557,-0.012174876641134105,-5.571802562345114e-05,-0.0,-0.012230594666757556,0.03355646088489089,0.0,-0.03355646088489089,-0.011902984125301152,0.0,0.011902984125301152,-0.707145766807667,0.0,0.707145766807667,-0.06087438320567052,0,0.06087438320567052,0.0026323304652025627,0.0032620541729068944,0.012230594666757556,0.4,0.033489227294921875,1.6469230651855469,STABILIZE
0.2,0.004,0.15,-0.035683706134889415,0.0013887283437645202,-0.00014273482453955766,0.009151707224281545,0.010397700743506507,0.2,0.004,0.15,0.06064674823949221,0.010083246224995708,0.00024258699295796884,0.01806265505899746,0.02838848827695114,0.002,8e-05,0,-1.2157422641575937,-0.0014586958001777779,-9.72593811326075e-05,-0.0,-0.0015559551813103855,0.2,0.02,0,-0.00314182679131286,-0.0021281269738464047,-6.28365358262572e-05,0.0,-0.002190963509672662,0.05041623112497854,0.0,-0.05041623112497854,0.006943641718822601,0.0,-0.006943641718822601,-0.729347900088889,0.0,0.729347900088889,-0.010640634869232023,0,0.010640634869232023,0.010402972707088178,-0.02838655678763605,0.002190963509672662,0.4,0.033449649810791016,1.6803815364837646,STABILIZE
0.2,0.004,0.15,-0.037446315602499024,-0.010527176072497568,-0.0001497852624099961,-0.018827378722965114,-0.029504340057872676,0.2,0.004,0.15,0.058614492755095934,-0.012137635535086587,0.00023445797102038374,-0.053981161093543936,-0.06588433865761013,0.002,8e-05,0,-1.2387443278862236,-0.0013737970852413964,-9.90995462308979e-05,0.0,-0.0014728966314722942,0.2,0.02,0,-0.005343413908803449,-0.013148967851736866,-0.00010686827817606898,-0.0,-0.013255836129912935,-0.06068817767543293,0.0,0.06068817767543293,-0.052635880362487834,0.0,0.052635880362487834,-0.6868985426206982,0.0,0.6868985426206982,-0.06574483925868432,0,0.06574483925868432,-0.029579920518421208,0.06585044012552335,0.013255836129912935,0.4,0.03348684310913086,1.7138891220092773,STABILIZE
0.2,0.004,0.15,-0.038117022306717305,-0.004008732124928998,-0.00015246808922686922,-0.03428598513190897,-0.03844718534606484,0.2,0.004,0.15,0.0573332400429002,-0.0076578911098224125,0.0002293329601716008,-0.041267270809916906,-0.04869582895956772,0.002,8e-05,0,-1.2612735067830385,-0.0013465415303578355,-0.00010090188054264309,0.0,-0.0014474434109004787,0.2,0.02,0,-0.009253823235616914,-0.02337203936002027,-0.0001850764647123383,-0.0,-0.02355711582473261,-0.03828945554911206,0.0,0.03828945554911206,-0.020043660624644986,0.0,0.020043660624644986,-0.6732707651789177,0.0,0.6732707651789177,-0.11686019680010135,0,0.11686019680010135,-0.03854642508701696,0.04861731103326394,0.02355711582473261,0.4,0.0334622859954834,1.7473533153533936,STABILIZE
0.2,0.004,0.15,-0.03942010591641399,-0.007792535852868977,-0.00015768042366565596,-0.013023400894634234,-0.020973617171168867,0.2,0.004,0.15,0.05571092479534434,-0.009701564532898763,0.00022284369918137737,-0.07044673605962455,-0.07992545689334193,0.002,8e-05,0,-1.2840055712175762,-0.0013593941769944867,-0.0001027204456974061,0.0,-0.0014621146226918927,0.2,0.02,0,-0.012344363737213825,-0.01848165956829384,-0.00024688727474427653,-0.0,-0.018728546843038117,-0.048507822664493806,0.0,0.048507822664493806,-0.03896267926434488,0.0,0.03896267926434488,-0.6796970884972433,0.0,0.6796970884972433,-0.0924082978414692,0,0.0924082978414692,-0.02110249593581034,0.07989152609714824,0.018728546843038117,0.4,0.03344440460205078,1.780785322189331,STABILIZE
0.2,0.004,0.15,-0.04088605067692241,-0.00876058698123458,-0.00016354420270768964,-0.028562244145502857,-0.037486375329445126,0.2,0.004,0.15,0.054080711423946416,-0.009742267527972916,0.00021632284569578566,-0.07368180559173643,-0.08320775027401356,0.002,8e-05,0,-1.3067407121131225,-0.0013586676982083523,-0.00010453925696904981,0.0,-0.0014632069551774021,0.2,0.02,0,-0.015342630357271216,-0.01791784808374039,-0.0003068526071454243,-0.0,-0.018224700690885814,-0.04871133763986458,0.0,0.04871133763986458,-0.0438029349061729,0.0,0.0438029349061729,-0.6793338491041762,0.0,0.6793338491041762,-0.08958924041870195,0,0.08958924041870195,-0.037616435353870194,0.08314903386252147,0.018224700690885814,0.4,0.03346681594848633,1.8142857551574707,STABILIZE
0.2,0.004,0.15,-0.042494301137083086,-0.009614508852049649,-0.00016997720454833235,-0.049293937610328964,-0.05907842366692695,0.2,0.004,0.15,0.05248092955697551,-0.009563881560962587,0.00020992371822790205,-0.08800300833736645,-0.09735696618010113,0.002,8e-05,0,-1.3293573402724796,-0.0013520765392470689,-0.00010634858722179839,0.0,-0.0014584251264688672,0.2,0.02,0,-0.018206094395855018,-0.01711847814036332,-0.0003641218879171004,-0.0,-0.01748260002828042,-0.04781940780481293,0.0,0.04781940780481293,-0.04807254426024824,0.0,0.04807254426024824,-0.6760382696235344,0.0,0.6760382696235344,-0.0855923907018166,0,0.0855923907018166,-0.05922379624868444,0.09726860215226997,0.01748260002828042,0.4,0.03345465660095215,1.847707986831665,STABILIZE
0.2,0.004,0.15,-0.043081419479965334,-0.0035102601656727336,-0.00017232567791986133,0.03145385951553794,0.027771273671945346,0.2,0.004,0.15,0.050719417889976616,-0.010531717005602225,0.00020287767155990647,0.007192701828289038,-0.0031361375057532793,0.002,8e-05,0,-1.3516790321015337,-0.001334568177061125,-0.0001081343225681227,0.0,-0.0014427024996292478,0.2,0.02,0,-0.02175360889106906,-0.021209861641461148,-0.0004350721778213812,-0.0,-0.02164493381928253,-0.05265858502801112,0.0,0.05265858502801112,-0.017551300828363668,0.0,0.017551300828363668,-0.6672840885305625,0.0,0.6672840885305625,-0.10604930820730574,0,0.10604930820730574,0.027765421397928414,0.003187534221390591,0.02164493381928253,0.4,0.03345155715942383,1.8811941146850586,STABILIZE
0.2,0.004,0.15,-0.046228703553822366,-0.01867164483247974,-0.00018491481421528945,-0.06522616479554404,-0.08408272444223906,0.2,0.004,0.15,0.048718338220218205,-0.011871648061763784,0.00019487335288087283,-0.01885044023606769,-0.0305272149449506,0.002,8e-05,0,-1.3745046189499175,-0.0013541556488850435,-0.0001099603695159934,-0.0,-0.0014641160184010369,0.2,0.02,0,-0.023460989408457113,-0.01012924218673925,-0.0004692197881691423,0.0,-0.010598461974908392,-0.059358240308818914,0.0,0.059358240308818914,-0.0933582241623987,0.0,0.0933582241623987,-0.6770778244425217,0.0,0.6770778244425217,-0.05064621093369624,0,0.05064621093369624,-0.08410967591154356,0.030452878681330436,0.010598461974908392,0.4,0.033711910247802734,1.9148924350738525,STABILIZE
0.2,0.004,0.15,-0.04924666587013614,-0.01802681811926136,-0.00019698666348054455,-0.0453668490250432,-0.0635906538077851,0.2,0.004,0.15,0.04688208040615469,-0.010968289913780935,0.00018752832162461877,-0.005637514702667218,-0.016418276294823536,0.002,8e-05,0,-1.3971293350520344,-0.0013514139655360184,-0.00011177034680416276,0.0,-0.0014631843123401812,0.2,0.02,0,-0.024804680716073852,-0.008026103798547575,-0.000496093614321477,0.0,-0.008522197412869052,-0.054841449568904674,0.0,0.054841449568904674,-0.09013409059630681,0.0,0.09013409059630681,-0.6757069827680092,0.0,0.6757069827680092,-0.040130518992737875,0,0.040130518992737875,-0.06360213772865345,0.01637373276135091,0.008522197412869052,0.4,0.033483028411865234,1.9483578205108643,STABILIZE
0.2,0.004,0.15,-0.052314329520299865,-0.018319518642466472,-0.00020925731808119947,-0.04233895874799756,-0.060867734708545236,0.2,0.004,0.15,0.04410230473615236,-0.01660030499294293,0.00017640921894460947,-0.030680094275798726,-0.04710399004979705,0.002,8e-05,0,-1.4191857511799295,-0.0013171682834896361,-0.00011353486009439437,0.0,-0.0014307031435840305,0.2,0.02,0,-0.025364153402383124,-0.0033410671689011436,-0.0005072830680476625,0.0,-0.003848350236948806,-0.08300152496471463,0.0,0.08300152496471463,-0.09159759321233235,0.0,0.09159759321233235,-0.658584141744818,0.0,0.658584141744818,-0.016705335844505717,0,0.016705335844505717,-0.0608814659071767,0.04708624126169452,0.003848350236948806,0.4,0.033490657806396484,1.9819056987762451,STABILIZE
0.2,0.004,0.15,-0.055692207748766986,-0.020197800522018625,-0.00022276883099506796,-0.0469335428359188,-0.0673541121889325,0.2,0.004,0.15,0.040671929147933515,-0.02051170502907338,0.00016268771659173407,-0.0490208892925656,-0.06936990660504724,0.002,8e-05,0,-1.4419621113641552,-0.0013618974649284516,-0.00011535696890913242,-0.0,-0.001477254433837584,0.2,0.02,0,-0.026236880458094993,-0.005218413983335378,-0.0005247376091618999,0.0,-0.005743151592497278,-0.1025585251453669,0.0,0.1025585251453669,-0.10098900261009312,0.0,0.10098900261009312,-0.6809487324642258,0.0,0.6809487324642258,-0.02609206991667689,0,0.02609206991667689,-0.06738569574099855,0.06933922685359173,0.005743151592497278,0.4,0.033447980880737305,2.015331506729126,STABILIZE
0.2,0.004,0.15,-0.05908499453660426,-0.020300981775786448,-0.00023633997814641707,-0.07476862540623866,-0.09530594716017152,0.2,0.004,0.15,0.03690850493022958,-0.02251871727750471,0.00014763401972091834,-0.0536878477847787,-0.07605893104256249,0.002,8e-05,0,-1.464641614953729,-0.0013570442761282728,-0.00011717132919629832,-0.0,-0.0014742156053245711,0.2,0.02,0,-0.02751981165122088,-0.007676510314353934,-0.0005503962330244177,0.0,-0.008226906547378352,-0.11259358638752355,0.0,0.11259358638752355,-0.10150490887893224,0.0,0.10150490887893224,-0.6785221380641364,0.0,0.6785221380641364,-0.03838255157176967,0,0.03838255157176967,-0.09535687779364116,0.07599506834580298,0.008226906547378352,0.4,0.03342485427856445,2.0487265586853027,STABILIZE
0.2,0.004,0.15,-0.06255351389463328,-0.020732985053775556,-0.0002502140555785331,-0.0092452754617136,-0.03022847457106769,0.2,0.004,0.15,0.03383746471685029,-0.01835706371254566,0.00013534985886740118,-0.029068737364682736,-0.04729045121836099,0.002,8e-05,0,-1.486965160803567,-0.001334384198780925,-0.00011895721286428537,0.0,-0.0014533414116452102,0.2,0.02,0,-0.029064745886181773,-0.009234804565344005,-0.0005812949177236355,0.0,-0.009816099483067641,-0.0917853185627283,0.0,0.0917853185627283,-0.10366492526887777,0.0,0.10366492526887777,-0.6671920993904624,0.0,0.6671920993904624,-0.04617402282672002,0,0.04617402282672002,-0.03026657559244312,0.04726607507755211,0.009816099483067641,0.4,0.03345894813537598,2.0821995735168457,STABILIZE
0.2,0.004,0.15,-0.06631781509028346,-0.022521073177931082,-0.0002652712603611339,-0.02015735722522198,-0.042943701663514196,0.2,0.004,0.15,0.030401706889763618,-0.02055546286648923,0.00012160682755905447,-0.04298011692497198,-0.06341397296390215,0.002,8e-05,0,-1.508738717477806,-0.001302669041922048,-0.00012069909739822449,0.0,-0.0014233681393202725,0.2,0.02,0,-0.029770578578028888,-0.004222858075977983,-0.0005954115715605777,0.0,-0.004818269647538561,-0.10277731433244615,0.0,0.10277731433244615,-0.1126053658896554,0.0,0.1126053658896554,-0.6513345209610241,0.0,0.6513345209610241,-0.021114290379889912,0,0.021114290379889912,-0.042967067676680515,0.06339814330797854,0.004818269647538561,0.4,0.03342914581298828,2.1156575679779053,STABILIZE
0.2,0.004,0.15,-0.06955434172473413,-0.019350253170144188,-0.0002782173668989365,-0.0046283330337172105,-0.024256803570760335,0.2,0.004,0.15,0.02739865537016579,-0.017954373237242693,0.00010959462148066316,-0.006091734583201396,-0.023936513198963425,0.002,8e-05,0,-1.5305658561066757,-0.0013049812535225805,-0.00012244526848853406,0.0,-0.0014274265220111145,0.2,0.02,0,-0.0316867944564365,-0.011456498451504638,-0.0006337358891287299,-0.0,-0.012090234340633369,-0.08977186618621347,0.0,0.08977186618621347,-0.09675126585072094,0.0,0.09675126585072094,-0.6524906267612902,0.0,0.6524906267612902,-0.05728249225752319,0,0.05728249225752319,-0.024280722406166935,0.02391225006203441,0.012090234340633369,0.4,0.03345203399658203,2.1491384506225586,STABILIZE
0.2,0.004,0.15,-0.07329172274207585,-0.022338029427232578,-0.0002931668909683034,-0.009598311881739825,-0.03222950819994071,0.2,0.004,0.15,0.02404702857064776,-0.02003240711325355,9.618811428259103e-05,0.0021340521643312725,-0.01780216683463969,0.002,8e-05,0,-1.5527367883784366,-0.0013251390083530567,-0.00012421894307027494,0.0,-0.0014493579514233317,0.2,0.02,0,-0.032305869134843436,-0.0037001601709168927,-0.0006461173826968687,0.0,-0.0043462775536137616,-0.10016203556626775,0.0,0.10016203556626775,-0.11169014713616288,0.0,0.11169014713616288,-0.6625695041765283,0.0,0.6625695041765283,-0.018500800854584463,0,0.018500800854584463,-0.03223525483734451,0.01779175900212926,0.0043462775536137616,0.4,0.0334620475769043,2.182560443878174,STABILIZE
0.2,0.004,0.15,-0.07759539211072894,-0.025331037956243554,-0.00031038156844291577,-0.022347715993095575,-0.04798913551778204,0.2,0.004,0.15,0.020291652023163426,-0.022103832268621577,8.116660809265371e-05,0.0019967014742285003,-0.020025964186300423,0.002,8e-05,0,-1.5755988746973972,-0.0013456432794830431,-0.0001260479099757918,0.0,-0.001471691189458835,0.2,0.02,0,-0.0316023312214965,0.004140965315889303,-0.00063204662442993,0.0,0.0035089186914593735,-0.11051916134310788,0.0,0.11051916134310788,-0.12665518978121776,0.0,0.12665518978121776,-0.6728216397415215,0.0,0.6728216397415215,0.020704826579446518,0,-0.020704826579446518,-0.04798189565406782,0.020043304587247703,-0.0035089186914593735,0.4,0.03397941589355469,2.216520309448242,STABILIZE
0.2,0.004,0.15,-0.08046443312024776,-0.017130941963682558,-0.00032185773248099105,0.016310861787745767,-0.001141937908417781,0.2,0.004,0.15,0.014848788290076406,-0.032499146027677166,5.939515316030562e-05,-0.06321296812893078,-0.09565271900344763,0.002,8e-05,0,-1.5980180632886354,-0.0013386417878138565,-0.00012784144506309083,-0.0,-0.0014664832328769473,0.2,0.02,0,-0.031497625970851054,0.0006251913326261009,-0.000629952519417021,0.0,-4.761186790920124e-06,-0.16249573013838584,0.0,0.16249573013838584,-0.08565470981841278,0.0,0.08565470981841278,-0.6693208939069282,0.0,0.6693208939069282,0.0031259566631305045,0,-0.0031259566631305045,-0.0011367192630989643,0.09565278116320555,4.761186790920124e-06,0.4,0.033495426177978516,2.2500503063201904,STABILIZE
0.2,0.004,0.15,-0.08316947999856945,-0.015870566925117954,-0.00033267791999427783,0.02988018142297529,0.013676936577863057,0.2,0.004,0.15,0.009353274883733349,-0.03224229273148967,3.74130995349334e-05,-0.05221830326793317,-0.0844231828998879,0.002,8e-05,0,-1.6210659538463978,-0.001352224586239733,-0.00012968527630771183,-0.0,-0.0014819098625474447,0.2,0.02,0,-0.031078344408618952,0.0024599337435516535,-0.000621566888172379,0.0,0.0018383668553792745,-0.16121146365744837,0.0,0.16121146365744837,-0.07935283462558977,0.0,0.07935283462558977,-0.6761122931198664,0.0,0.6761122931198664,0.012299668717758267,0,-0.012299668717758267,0.013695059363285553,0.08442024493057869,-0.0018383668553792745,0.4,0.034088850021362305,2.2841150760650635,STABILIZE
0.2,0.004,0.15,-0.08523979869201596,-0.012363031375035563,-0.00034095919476806387,0.03137121525034775,0.018667224680544124,0.2,0.004,0.15,0.0032071696860670896,-0.036701833217051144,1.2828678744268358e-05,-0.08385448180442336,-0.12054348634273024,0.002,8e-05,0,-1.6433806450298218,-0.0013325350734559622,-0.00013147045160238576,-0.0,-0.001464005525058348,0.2,0.02,0,-0.03225278130311093,-0.007013219858645331,-0.0006450556260622187,0.0,-0.00765827548470755,-0.18350916608525572,0.0,0.18350916608525572,-0.061815156875177815,0.0,0.061815156875177815,-0.6662675367279811,0.0,0.6662675367279811,-0.035066099293226655,0,0.035066099293226655,0.01859344629855839,0.1205548884603048,0.00765827548470755,0.4,0.033492088317871094,2.31760835647583,STABILIZE
0.2,0.004,0.15,-0.08765557518713424,-0.014433864937186956,-0.00035062230074853695,0.03548482526534443,0.02070033802740894,0.2,0.004,0.15,-0.003368417670032069,-0.03928804670978586,-1.3473670680128277e-05,-0.0861284476156254,-0.12542996799609138,0.002,8e-05,0,-1.665818153556613,-0.0013406040180336625,-0.00013326545228452906,-0.0,-0.0014738694703181916,0.2,0.02,0,-0.030349167722995344,0.011373776242755478,-0.0006069833544599069,0.0,0.01076679288829557,-0.1964402335489293,0.0,0.1964402335489293,-0.07216932468593477,0.0,0.07216932468593477,-0.6703020090168312,0.0,0.6703020090168312,0.05686888121377738,0,-0.05686888121377738,0.02082482322724568,0.1254093601112113,-0.01076679288829557,0.4,0.03347373008728027,2.3510873317718506,STABILIZE
0.2,0.004,0.15,-0.0907089963363438,-0.018267626915542907,-0.0003628359853453752,0.03149515920311498,0.012864696302226697,0.2,0.004,0.15,-0.009474223381330964,-0.03652905226705245,-3.789689352532386e-05,-0.06460464552833248,-0.10117159468891025,0.002,8e-05,0,-1.687820683798008,-0.0013163399151532192,-0.00013502565470384066,0.0,-0.0014513655698570598,0.2,0.02,0,-0.028510055936440317,0.011002808433897789,-0.0005702011187288064,0.0,0.010432607315168983,-0.18264526133526224,0.0,0.18264526133526224,-0.09133813457771453,0.0,0.09133813457771453,-0.6581699575766096,0.0,0.6581699575766096,0.055014042169488936,0,-0.055014042169488936,0.012961832911443451,0.10115919567899638,-0.010432607315168983,0.4,0.033429861068725586,2.3845133781433105,STABILIZE
0.2,0.004,0.15,-0.09442334691687751,-0.02214609791083463,-0.00037769338766751004,-0.02257017787199809,-0.04509396917050023,0.2,0.004,0.15,-0.015119920684583742,-0.033661379706060444,-6.047968273833497e-05,-0.005228650790460471,-0.03895051017925925,0.002,8e-05,0,-1.7094850541196829,-0.0012916962357695661,-0.00013675880432957463,0.0,-0.0014284550400991407,0.2,0.02,0,-0.026739097692282304,0.010558996470787577,-0.0005347819538456461,0.0,0.01002421451694193,-0.1683068985303022,0.0,0.1683068985303022,-0.11073048955417314,0.0,0.11073048955417314,-0.645848117884783,0.0,0.645848117884783,0.05279498235393788,0,-0.05279498235393788,-0.045058059229421986,0.03899204530737653,-0.01002421451694193,0.4,0.033544063568115234,2.4180757999420166,STABILIZE
0.2,0.004,0.15,-0.09684312406125559,-0.01446168231314049,-0.0003873724962450224,0.00632799356525389,-0.008521061244131621,0.2,0.004,0.15,-0.020833093121729828,-0.03414450168609739,-8.333237248691931e-05,-0.008524390105076626,-0.04275222416366094,0.002,8e-05,0,-1.7309863922037165,-0.0012850171818555715,-0.00013847891137629733,0.0,-0.0014234960932318688,0.2,0.02,0,-0.026857096853542303,-0.0007052163408203957,-0.000537141937070846,-0.0,-0.0012423582778912417,-0.17072250843048692,0.0,0.17072250843048692,-0.07230841156570245,0.0,0.07230841156570245,-0.6425085909277857,0.0,0.6425085909277857,-0.0035260817041019785,0,0.0035260817041019785,-0.008523692274062251,0.04275169968180502,0.0012423582778912417,0.4,0.033464670181274414,2.4515316486358643,STABILIZE
0.2,0.004,0.15,-0.09906093270158621,-0.012515187820540705,-0.00039624373080634486,-0.001142986535284598,-0.014054418086631649,0.2,0.004,0.15,-0.02699944977515902,-0.03479701101471157,-0.00010799779910063607,0.008686815318120591,-0.026218193495691614,0.002,8e-05,0,-1.753814795622432,-0.0012882164458774292,-0.00014030518364979456,0.0,-0.0014285216295272236,0.2,0.02,0,-0.02687405034207013,-9.566925174729103e-05,-0.0005374810068414026,0.0,-0.0006331502585886936,-0.17398505507355783,0.0,0.17398505507355783,-0.06257593910270352,0.0,0.06257593910270352,-0.6441082229387146,0.0,0.6441082229387146,-0.00047834625873645516,0,0.00047834625873645516,-0.014054636974424295,0.026218076158416165,0.0006331502585886936,0.4,0.03544187545776367,2.487018585205078,STABILIZE
0.2,0.004,0.15,-0.10044741443261906,-0.008292326812585389,-0.00040178965773047626,0.027078874703456237,0.018384758233140373,0.2,0.004,0.15,-0.028802139186048608,-0.010781598777755058,-0.00011520855674419443,0.12800023566322924,0.11710342832872998,0.002,8e-05,0,-1.7769117702456922,-0.0013813933330040309,-0.0001421529416196554,-0.0,-0.0015235462746236864,0.2,0.02,0,-0.02294362009387532,0.023507278460728778,-0.0004588724018775064,0.0,0.02304840605885127,-0.05390799388877529,0.0,0.05390799388877529,-0.041461634062926946,0.0,0.041461634062926946,-0.6906966665020154,0.0,0.6906966665020154,0.11753639230364388,0,-0.11753639230364388,0.018144494092146662,-0.1171408963418544,-0.02304840605885127,0.4,0.03344011306762695,2.520448684692383,STABILIZE
0.2,0.004,0.15,-0.10363413369322202,-0.018872498117312245,-0.0004145365347728881,-0.002712700898265781,-0.021999735550350914,0.2,0.004,0.15,-0.03719671251461964,-0.04971463012060884,-0.00014878685005847856,-0.057307290298888716,-0.10717070726955603,0.002,8e-05,0,-1.7989682275577366,-0.001306235080831601,-0.00014391745820461894,0.0,-0.0014501525390362199,0.2,0.02,0,-0.020795175140064556,0.012723594402310412,-0.00041590350280129113,0.0,0.012307690899509121,-0.2485731506030442,0.0,0.2485731506030442,-0.09436249058656122,0.0,0.09436249058656122,-0.6531175404158005,0.0,0.6531175404158005,0.06361797201155206,0,-0.06361797201155206,-0.021880725760822888,0.10719506845523215,-0.012307690899509121,0.4,0.03377103805541992,2.554194211959839,STABILIZE
0.2,0.004,0.15,-0.1094054659085479,-0.029564559001032206,-0.0004376218636341916,-0.026448050700230704,-0.056450231564897105,0.2,0.004,0.15,-0.05457336289733661,-0.0890146306455758,-0.00021829345158934645,-0.2211210837401168,-0.31035400783728195,0.002,8e-05,0,-1.8231334601068752,-0.0012379021286895917,-0.00014585067680855004,0.0,-0.0013837528054981417,0.2,0.02,0,-0.02038109245899117,0.002121203805144062,-0.00040762184917982346,-0.0,0.0017135819559642386,-0.445073153227879,0.0,0.445073153227879,-0.14782279500516102,0.0,0.14782279500516102,-0.6189510643447959,0.0,0.6189510643447959,0.010606019025720309,0,-0.010606019025720309,-0.05639278098241437,0.3103644520196596,-0.0017135819559642386,0.4,0.03904223442077637,2.5932295322418213,STABILIZE
0.2,0.004,0.15,-0.10868444123999556,0.004313933285890398,-0.0004347377649599822,0.091130561765432,0.0950097572863624,0.2,0.004,0.15,-0.06278158537381007,-0.04911028110917151,-0.0002511263414952403,-0.039893002597871825,-0.08925441004853857,0.002,8e-05,0,-1.843388261788584,-0.0012118567780665303,-0.00014747106094308672,0.0,-0.001359327839009617,0.2,0.02,0,-0.02057872760984603,-0.0011824628101096005,-0.0004115745521969206,0.0,-0.0015940373623065211,-0.24555140554585755,0.0,0.24555140554585755,0.02156966642945199,0.0,-0.02156966642945199,-0.6059283890332652,0.0,0.6059283890332652,-0.005912314050548002,0,0.005912314050548002,0.09500054667629129,0.08926421356810327,0.0015940373623065211,0.4,0.03342771530151367,2.626680612564087,STABILIZE
0.2,0.004,0.15,-0.1138668765430865,-0.030665833063867,-0.000455467506172346,-0.07234591108168073,-0.10346721165172007,0.2,0.004,0.15,-0.07123745986233493,-0.05003563388807926,-0.00028494983944933974,-0.041238066197447916,-0.09155864992497652,0.002,8e-05,0,-1.8655879468670755,-0.0013136137681861876,-0.00014924703574936606,-0.0,-0.0014628608039355536,0.2,0.02,0,-0.020052701435720133,0.00311263525727923,-0.0004010540287144027,0.0,0.002711581228564827,-0.2501781694403963,0.0,0.2501781694403963,-0.153329165319335,0.0,0.153329165319335,-0.6568068840930937,0.0,0.6568068840930937,0.015563176286396148,0,-0.015563176286396148,-0.10344233788086277,0.0915867512078448,-0.002711581228564827,0.4,0.03379940986633301,2.6604487895965576,STABILIZE
