E-kp,E-ki,E-kd,E-I-Tot,E-P,E-I,E-D,E-PID,N-kp,N-ki,N-kd,N-I-Tot,N-P,N-I,N-D,N-PID,Y-kp,Y-ki,Y-kd,Y-I-Tot,Y-P,Y-I,Y-D,Y-PID,D-kp,D-ki,D-kd,D-I-Tot,D-P,D-I,D-D,D-PID,errorN,desiredN,actualN,errorE,desiredE,actualE,errorD,desiredD,actualD,errorY,desiredY,actualY,roll,pitch,yaw-rate,thrust,dt,Time,Mode
0.03,0.0,0.006,-0.0029870625302027597,-0.002670935955716851,-0.0,-0.01592177109877206,-0.018592707054488913,0.03,0.0,0.006,-0.0029509530838524693,-0.002638648041546044,-0.0,-0.01572929895147701,-0.018367946993023056,0.25,0,0,-0.0027602057348251486,-0.020567398762098427,-0.0,-0.0,-0.020567398762098427,0.002,8e-05,0.0,-0.003976733568743914,-0.00023705788027908746,-3.181386854995131e-07,-0.0,-0.00023737601896458698,-0.08795493471820147,0.0,0.08795493471820147,-0.08903119852389503,0.0,0.08903119852389503,-0.11852894013954372,0.0,0.11852894013954372,-0.0822695950483937,0,0.0822695950483937,-0.018619061960328743,0.01834123125828759,0.020567398762098427,0.4,0.03355073928833008,0.033794403076171875,STABILIZE
0.03,0.0,0.006,-0.00652980345562271,-0.0031817336376284955,-0.0,-0.003058314077102679,-0.006240047714731175,0.03,0.0,0.006,-0.006460989052153778,-0.003152361333987849,-0.0,-0.0030757707983124663,-0.006228132132300316,0.25,0,0,-0.00600310197404595,-0.024270360776392098,-0.0,-0.0,-0.024270360776392098,0.002,8e-05,0.0,-0.008968477738658123,-0.0002988721759074965,-7.174782190926499e-07,-0.0,-0.00029958965412658917,-0.1050787111329283,0.0,0.1050787111329283,-0.10605778792094986,0.0,0.10605778792094986,-0.14943608795374824,0.0,0.14943608795374824,-0.09708144310556839,0,0.09708144310556839,-0.006250591642159789,0.006217550117407628,0.024270360776392098,0.4,0.033403873443603516,0.06715774536132812,STABILIZE
0.03,0.0,0.006,-0.011256725968484746,-0.00423934612085173,-0.0,-0.006323473487477848,-0.010562819608329579,0.03,0.0,0.006,-0.01113024978592195,-0.0041876320851640635,-0.0,-0.00618989209305907,-0.010377524178223133,0.25,0,0,-0.010277649162665853,-0.03194693974279801,-0.0,-0.0,-0.03194693974279801,0.002,8e-05,0.0,-0.01610726190937003,-0.00042682847595318114,-1.2885809527496023e-06,-0.0,-0.00042811705690593075,-0.13958773617213546,0.0,0.13958773617213546,-0.14131153736172436,0.0,0.14131153736172436,-0.21341423797659057,0.0,0.21341423797659057,-0.12778775897119204,0,0.12778775897119204,-0.010585938487780904,0.010353939949634463,0.03194693974279801,0.4,0.03345036506652832,0.10060691833496094,STABILIZE
0.03,0.0,0.006,-0.016857842386583652,-0.004698838929715365,-0.0,-0.0025698242243707664,-0.007268663154086131,0.03,0.0,0.006,-0.01674057631615656,-0.004706565395337546,-0.0,-0.0029022595470313264,-0.007608824942368872,0.25,0,0,-0.015369841887736274,-0.03559914314114475,-0.0,-0.0,-0.03559914314114475,0.002,8e-05,0.0,-0.02570207584912649,-0.0005366130832753469,-2.0561660679301194e-06,-0.0,-0.000538669249343277,-0.1568855131779182,0.0,0.1568855131779182,-0.15662796432384551,0.0,0.15662796432384551,-0.2683065416376735,0.0,0.2683065416376735,-0.142396572564579,0,0.142396572564579,-0.00728755081579157,0.007590736733574657,0.03559914314114475,0.4,0.03576064109802246,0.13636398315429688,STABILIZE
0.03,0.0,0.006,-0.022336180275599932,-0.004882456019984817,-0.0,-0.0010909663793655497,-0.005973422399350367,0.03,0.0,0.006,-0.022214115292458866,-0.004878179087684474,-0.0,-0.0010196478351472379,-0.005897826922831712,0.25,0,0,-0.020227432291763155,-0.03607689654422457,-0.0,-0.0,-0.03607689654422457,0.002,8e-05,0.0,-0.03562160526863345,-0.0005893717779716931,-2.849728421490676e-06,-0.0,-0.0005922215063931838,-0.16260596958948248,0.0,0.16260596958948248,-0.1627485339994939,0.0,0.1627485339994939,-0.2946858889858466,0.0,0.2946858889858466,-0.1443075861768983,0,0.1443075861768983,-0.0059882579549036296,0.00588276331652674,0.03607689654422457,0.4,0.0336613655090332,0.1700131893157959,STABILIZE
0.03,0.0,0.006,-0.027851900268512517,-0.004947273752197969,-0.0,-0.00038758441408334575,-0.005334858166281315,0.03,0.0,0.006,-0.02770845839320206,-0.004928099947568821,-0.0,-0.00029850700677376557,-0.005226606954342587,0.25,0,0,-0.024985515053662352,-0.03556431736469676,-0.0,0.0,-0.03556431736469676,0.002,8e-05,0.0,-0.04614972153550473,-0.0006295397317014873,-3.6919777228403785e-06,-0.0,-0.0006332317094243277,-0.16426999825229405,0.0,0.16426999825229405,-0.16490912507326563,0.0,0.16490912507326563,-0.3147698658507436,0.0,0.3147698658507436,-0.14225726945878703,0,0.14225726945878703,-0.005347818630884724,0.005213345164161199,0.03556431736469676,0.4,0.0334470272064209,0.203477144241333,STABILIZE
0.03,0.0,0.006,-0.0334402357335976,-0.005010441163988303,-0.0,-0.00037756812350094314,-0.005388009287489246,0.03,0.0,0.006,-0.03326839946033064,-0.004984983053744783,-0.0,-0.00034000518699499923,-0.005324988240739782,0.25,0,0,-0.029779825667168004,-0.03582105888377892,-0.0,-0.0,-0.03582105888377892,0.002,8e-05,0.0,-0.05742878669046118,-0.0006741791921975524,-4.594302935236894e-06,-0.0,-0.0006787734951327893,-0.16616610179149277,0.0,0.16616610179149277,-0.16701470546627678,0.0,0.16701470546627678,-0.3370895960987762,0.0,0.3370895960987762,-0.14328423553511568,0,0.14328423553511568,-0.005401309058576901,0.005311497368899135,0.03582105888377892,0.4,0.033460140228271484,0.23694229125976562,STABILIZE
0.03,0.0,0.006,-0.039790185188782204,-0.005588527568074798,-0.0,-0.0033917874242068136,-0.008980314992281612,0.03,0.0,0.006,-0.03952467177758219,-0.005506083247607056,-0.0,-0.0030574340994695593,-0.008563517347076615,0.25,0,0,-0.03528212568102261,-0.040354330813003894,-0.0,-0.0,-0.040354330813003894,0.002,8e-05,0.0,-0.07115992299291966,-0.0008056424628139139,-5.6927938394335734e-06,-0.0,-0.0008113352566533475,-0.18353610825356853,0.0,0.18353610825356853,-0.18628425226915996,0.0,0.18628425226915996,-0.4028212314069569,0.0,0.4028212314069569,-0.16141732325201558,0,0.16141732325201558,-0.009004405009207172,0.008538183480368923,0.040354330813003894,0.4,0.034087419509887695,0.27100610733032227,STABILIZE
0.03,0.0,0.006,-0.045914122728471514,-0.005485535807977838,-0.0,0.0006150345637122031,-0.004870501244265635,0.03,0.0,0.006,-0.04566258129976252,-0.005498051254088486,-0.0,4.796455196787008e-05,-0.005450086702120616,0.25,0,0,-0.04039263765794416,-0.038147972967847825,-0.0,0.0,-0.038147972967847825,0.002,8e-05,0.0,-0.08615047654220394,-0.0008951889503887182,-6.892038123376315e-06,-0.0,-0.0009020809885120945,-0.18326837513628286,0.0,0.18326837513628286,-0.18285119359926127,0.0,0.18285119359926127,-0.44759447519435913,0.0,0.44759447519435913,-0.1525918918713913,0,0.1525918918713913,-0.004884998793823333,0.005437096119747163,0.038147972967847825,0.4,0.03349137306213379,0.30451011657714844,STABILIZE
0.03,0.0,0.006,-0.051955427529370386,-0.005418305927773798,-0.0,0.000401979451391442,-0.005016326476382356,0.03,0.0,0.006,-0.051664047287883874,-0.0053825754221062455,-0.0,0.0006904506069074008,-0.004692124815198845,0.25,0,0,-0.04551583948237269,-0.03829067247519173,-0.0,-0.0,-0.03829067247519173,0.002,8e-05,0.0,-0.101885280915152,-0.000940812033338896,-8.150822473212161e-06,-0.0,-0.0009489628558121082,-0.17941918073687485,0.0,0.17941918073687485,-0.18061019759245994,0.0,0.18061019759245994,-0.470406016669448,0.0,0.470406016669448,-0.15316268990076692,0,0.15316268990076692,-0.0050288514945053585,0.0046786984563306315,0.03829067247519173,0.4,0.033449411392211914,0.3379807472229004,STABILIZE
0.03,0.0,0.006,-0.05817721461237417,-0.005583917558695128,-0.0,-0.000990885396203874,-0.006574802954899002,0.03,0.0,0.006,-0.05798173835482889,-0.0056699892825799215,-0.0,-0.001719650941335325,-0.007389640223915247,0.25,0,0,-0.050714403014853714,-0.03887997371407756,-0.0,-0.0,-0.03887997371407756,0.002,8e-05,0.0,-0.11949258626091991,-0.0010534780459901098,-9.559406900873594e-06,-0.0,-0.0010630374528909834,-0.18899964275266407,0.0,0.18899964275266407,-0.1861305852898376,0.0,0.1861305852898376,-0.5267390229950549,0.0,0.5267390229950549,-0.15551989485631024,0,0.15551989485631024,-0.006594836663306726,0.007371766811216986,0.03887997371407756,0.4,0.03342700004577637,0.3713798522949219,STABILIZE
0.03,0.0,0.006,-0.06422857665471114,-0.005430306379893476,-0.0,0.0009189730162494441,-0.004511333363644033,0.03,0.0,0.006,-0.06414502883880784,-0.005530747524628759,-0.0,0.000833008504267001,-0.004697739020361758,0.25,0,0,-0.05588399359435095,-0.038658597999478655,-0.0,0.0,-0.038658597999478655,0.002,8e-05,0.0,-0.13759325668084194,-0.0010828657016825087,-1.1007460534467356e-05,-0.0,-0.001093873162216976,-0.18435825082095864,0.0,0.18435825082095864,-0.18101021266311587,0.0,0.18101021266311587,-0.5414328508412544,0.0,0.5414328508412544,-0.15463439199791462,0,0.15463439199791462,-0.004523995548592063,0.004685546381978992,0.038658597999478655,0.4,0.033431053161621094,0.4048190116882324,STABILIZE
0.03,0.0,0.006,-0.07010563515683042,-0.005269983035761428,-0.0,0.000958417439050232,-0.004311565596711196,0.03,0.0,0.006,-0.07018085563666383,-0.005412351233193452,-0.0,0.000707776344391945,-0.004704574888801507,0.25,0,0,-0.06099593452723834,-0.03819915749011804,-0.0,0.0,-0.03819915749011804,0.002,8e-05,0.0,-0.1564004915524734,-0.001124301765215121,-1.2512039324197873e-05,-0.0,-0.0011368138045393188,-0.18041170777311505,0.0,0.18041170777311505,-0.17566610119204762,0.0,0.17566610119204762,-0.5621508826075604,0.0,0.5621508826075604,-0.15279662996047216,0,0.15279662996047216,-0.0043240964306991685,0.004693060071754887,0.03819915749011804,0.4,0.033455848693847656,0.43829798698425293,STABILIZE
0.03,0.0,0.006,-0.07581243986338078,-0.005109523504227252,-0.0,0.0009577709302137818,-0.00415175257401347,0.03,0.0,0.006,-0.07603351305801055,-0.005240111094433729,-0.0,0.0010280884927357143,-0.0042120226016980145,0.25,0,0,-0.06594587447411904,-0.0369322761796836,-0.0,0.0,-0.0369322761796836,0.002,8e-05,0.0,-0.17593513790746676,-0.0011660084154511104,-1.4074811032597343e-05,-0.0,-0.0011800832264837078,-0.17467036981445763,0.0,0.17467036981445763,-0.1703174501409084,0.0,0.1703174501409084,-0.5830042077255552,0.0,0.5830042077255552,-0.1477291047187344,0,0.1477291047187344,-0.004162598869250128,0.004201303903166247,0.0369322761796836,0.4,0.03350687026977539,0.47181224822998047,STABILIZE
0.03,0.0,0.006,-0.08129889728324119,-0.004917136348512846,-0.0,0.0011494896177460562,-0.00376764673076679,0.03,0.0,0.006,-0.08164889450363315,-0.005032682130564672,-0.0,0.0012393625733583696,-0.0037933195572063027,0.25,0,0,-0.07068931900579037,-0.035426872841791156,-0.0,0.0,-0.035426872841791156,0.002,8e-05,0.0,-0.1959308640651018,-0.001194720070170134,-1.5674469125208145e-05,-0.0,-0.0012103945392953422,-0.1677560710188224,0.0,0.1677560710188224,-0.16390454495042822,0.0,0.16390454495042822,-0.597360035085067,0.0,0.597360035085067,-0.14170749136716462,0,0.14170749136716462,-0.0037770170720598166,0.0037839895861788773,0.035426872841791156,0.4,0.03347349166870117,0.5052626132965088,STABILIZE
0.03,0.0,0.006,-0.08667946063974938,-0.004769641640156621,-0.0,0.0008716521004288256,-0.0038979895397277956,0.03,0.0,0.006,-0.08723117386541684,-0.004948454339589729,-0.0,0.0004977624738948127,-0.0044506918656949165,0.25,0,0,-0.07514703553963295,-0.032929808322816584,-0.0,0.0,-0.032929808322816584,0.002,8e-05,0.0,-0.21650030145338175,-0.0012155956985813227,-1.732002411627054e-05,-0.0,-0.0012329157226975932,-0.1649484779863243,0.0,0.1649484779863243,-0.15898805467188737,0.0,0.15898805467188737,-0.6077978492906613,0.0,0.6077978492906613,-0.13171923329126634,0,0.13171923329126634,-0.00390821107831882,0.004441718890530585,0.032929808322816584,0.4,0.03384256362915039,0.5391240119934082,STABILIZE
0.03,0.0,0.006,-0.09174805438203429,-0.004535881501128802,-0.0,0.0013946120551109654,-0.0031412694460178367,0.03,0.0,0.006,-0.09268800533762062,-0.004883315212867817,-0.0,0.00038861976966469855,-0.004494695443203118,0.25,0,0,-0.07918122383434044,-0.030084939052189473,-0.0,0.0,-0.030084939052189473,0.002,8e-05,0.0,-0.23808135958896376,-0.0012875250657834129,-1.9046508767117103e-05,-0.0,-0.00130657157455053,-0.16277717376226059,0.0,0.16277717376226059,-0.15119605003762673,0.0,0.15119605003762673,-0.6437625328917064,0.0,0.6437625328917064,-0.12033975620875789,0,0.12033975620875789,-0.003150702831494536,0.004488087847541355,0.030084939052189473,0.4,0.0335233211517334,0.5726339817047119,STABILIZE
0.03,0.0,0.006,-0.09664420167467938,-0.004385208237055411,-0.0,0.000899664708087524,-0.0034855435289678867,0.03,0.0,0.006,-0.09791877893268698,-0.004684914502003252,-0.0,0.0011846435976682855,-0.003500270904334967,0.25,0,0,-0.08307749812798866,-0.029080644271738076,-0.0,0.0,-0.029080644271738076,0.002,8e-05,0.0,-0.26000753610520383,-0.0013092042119264248,-2.0800602888416308e-05,-0.0,-0.0013300048148148411,-0.15616381673344176,0.0,0.15616381673344176,-0.14617360790184702,0.0,0.14617360790184702,-0.6546021059632123,0.0,0.6546021059632123,-0.1163225770869523,0,0.1163225770869523,-0.0034926426326698104,0.0034931873033837066,0.029080644271738076,0.4,0.033495426177978516,0.6061232089996338,STABILIZE
0.03,0.0,0.006,-0.10130610586016622,-0.004178205227956106,-0.0,0.0012368351649295548,-0.0029413700630265514,0.03,0.0,0.006,-0.10292168731694562,-0.004483828310150474,-0.0,0.0012014824052435642,-0.00328234590490691,0.25,0,0,-0.08685787863902067,-0.028234538553348353,-0.0,0.0,-0.028234538553348353,0.002,8e-05,0.0,-0.28226422092026054,-0.0013298285157202709,-2.2581137673620845e-05,-0.0,-0.0013524096533938917,-0.14946094367168247,0.0,0.14946094367168247,-0.13927350759853688,0.0,0.13927350759853688,-0.6649142578601355,0.0,0.6649142578601355,-0.11293815421339341,0,0.11293815421339341,-0.0029478343166136076,0.0032765416720870757,0.028234538553348353,0.4,0.03347301483154297,0.6396064758300781,STABILIZE
0.03,0.0,0.006,-0.10576268337005147,-0.003999766235953291,-0.0,0.0010676567445269281,-0.0029321094914263627,0.03,0.0,0.006,-0.10785539423619481,-0.004427988587639351,-0.0,0.000334106664033228,-0.004093881923606123,0.25,0,0,-0.09057502288720036,-0.027801057397855003,-0.0,0.0,-0.027801057397855003,0.002,8e-05,0.0,-0.3048384424632612,-0.001350686843290923,-2.4387075397060898e-05,-0.0,-0.0013750739186879839,-0.14759961958797838,0.0,0.14759961958797838,-0.13332554119844303,0.0,0.13332554119844303,-0.6753434216454615,0.0,0.6753434216454615,-0.11120422959142001,0,0.11120422959142001,-0.0029400496971264114,0.004088183343805464,0.027801057397855003,0.4,0.03342628479003906,0.6730246543884277,STABILIZE
0.03,0.0,0.006,-0.11009452044360142,-0.0038828822675074878,-0.0,0.0006984668486345522,-0.003184415418872936,0.03,0.0,0.006,-0.11273775929849765,-0.00437635312732987,-0.0,0.0003085594861273111,-0.004067793641202559,0.25,0,0,-0.09417657855705037,-0.02690239808280967,-0.0,0.0,-0.02690239808280967,0.002,8e-05,0.0,-0.3278827931619839,-0.0013770678071073146,-2.623062345295871e-05,-0.0,-0.0014032984305602733,-0.14587843757766233,0.0,0.14587843757766233,-0.12942940891691626,0.0,0.12942940891691626,-0.6885339035536573,0.0,0.6885339035536573,-0.10760959233123868,0,0.10760959233123868,-0.0031920496908394687,0.004061805686954426,0.02690239808280967,0.4,0.03346872329711914,0.7065017223358154,STABILIZE
0.03,0.0,0.006,-0.11430444526686638,-0.0037515572316281173,-0.0,0.0007801776496094094,-0.002971379582018708,0.03,0.0,0.006,-0.11750985681196278,-0.004252521764222472,-0.0,0.0007356591313312198,-0.0035168626328912524,0.25,0,0,-0.0976564728579111,-0.02584175723192378,-0.0,0.0,-0.02584175723192378,0.002,8e-05,0.0,-0.3513071367689158,-0.0013915967520226752,-2.8104570941513265e-05,-0.0,-0.0014197013229641884,-0.1417507254740824,0.0,0.1417507254740824,-0.12505190772093724,0.0,0.12505190772093724,-0.6957983760113375,0.0,0.6957983760113375,-0.10336702892769511,0,0.10336702892769511,-0.0029777194972827473,0.0035114962615054347,0.02584175723192378,0.4,0.03366541862487793,0.7401695251464844,STABILIZE
0.03,0.0,0.006,-0.11835492777321563,-0.0036333016057466376,-0.0,0.0007071723014566806,-0.002926129304289957,0.03,0.0,0.006,-0.12211390356152979,-0.004129851300903764,-0.0,0.0007335731659210129,-0.003396278134982751,0.25,0,0,-0.10106007718828675,-0.0254420739987879,-0.0,0.0,-0.0254420739987879,0.002,8e-05,0.0,-0.37499011351458744,-0.001416249336616517,-2.9999209081166997e-05,-0.0,-0.0014462485456976841,-0.13766171003012548,0.0,0.13766171003012548,-0.12111005352488792,0.0,0.12111005352488792,-0.7081246683082585,0.0,0.7081246683082585,-0.1017682959951516,0,0.1017682959951516,-0.00293215712686605,0.0033910754133393986,0.0254420739987879,0.4,0.03344464302062988,0.7736155986785889,STABILIZE
0.03,0.0,0.006,-0.12218146444657975,-0.003432274347263276,-0.0,0.0012020978085239067,-0.0022301765387393695,0.03,0.0,0.006,-0.12665184914265878,-0.0040703841454869695,-0.0,0.0003556002193184955,-0.003714783926168474,0.25,0,0,-0.10430666209072714,-0.02426730972862959,-0.0,0.0,-0.02426730972862959,0.002,8e-05,0.0,-0.3993525509624177,-0.0014568189850114991,-3.1948204076993416e-05,-0.0,-0.0014887671890884925,-0.13567947151623233,0.0,0.13567947151623233,-0.11440914490877588,0.0,0.11440914490877588,-0.7284094925057496,0.0,0.7284094925057496,-0.09706923891451837,0,0.09706923891451837,-0.002236466839699464,0.0037110002811894085,0.02426730972862959,0.4,0.03344607353210449,0.8070571422576904,STABILIZE
0.03,0.0,0.006,-0.12583862940867688,-0.0032798392706996637,-0.0,0.0009113845570308486,-0.002368454713668815,0.03,0.0,0.006,-0.1310701348795896,-0.0039624318890029275,-0.0,0.00064542900278685,-0.0033170028862160774,0.25,0,0,-0.10732928645588462,-0.02258972500138534,-0.0,0.0,-0.02258972500138534,0.002,8e-05,0.0,-0.42407180385617516,-0.0014779239697701222,-3.3925744308494014e-05,-0.0,-0.0015118497140786161,-0.13208106296676425,0.0,0.13208106296676425,-0.1093279756899888,0.0,0.1093279756899888,-0.738961984885061,0.0,0.738961984885061,-0.09035890000554136,0,0.09035890000554136,-0.002373682879798262,0.003313263566940977,0.02258972500138534,0.4,0.03345131874084473,0.8405106067657471,STABILIZE
0.03,0.0,0.006,-0.1294329506431959,-0.003222652524471407,-0.0,0.0003418225585568886,-0.0028808299659145186,0.03,0.0,0.006,-0.13549834093000585,-0.003970309962894316,-0.0,-4.708964142331607e-05,-0.004017399604317632,0.25,0,0,-0.11027405371396434,-0.022002210846496763,-0.0,0.0,-0.022002210846496763,0.002,8e-05,0.0,-0.45032900233902307,-0.0015694725365417517,-3.602632018712185e-05,-0.0,-0.0016054988567288735,-0.13234366542981055,0.0,0.13234366542981055,-0.10742175081571358,0.0,0.10742175081571358,-0.7847362682708758,0.0,0.7847362682708758,-0.08800884338598705,0,0.08800884338598705,-0.0028869974678393277,0.004012969784831655,0.022002210846496763,0.4,0.03345990180969238,0.8739781379699707,STABILIZE
0.03,0.0,0.006,-0.1328922727329385,-0.003102121284146524,-0.0,0.0007205699388811404,-0.0023815513452653835,0.03,0.0,0.006,-0.13991304068613697,-0.003958849081216904,-0.0,6.85164011218727e-05,-0.0038903326800950318,0.25,0,0,-0.1131723427092048,-0.021658492007249716,-0.0,0.0,-0.021658492007249716,0.002,8e-05,0.0,-0.4766209985629769,-0.001571810101770473,-3.8129679885038155e-05,-0.0,-0.001609939781655511,-0.1319616360405635,0.0,0.1319616360405635,-0.10340404280488413,0.0,0.10340404280488413,-0.7859050508852364,0.0,0.7859050508852364,-0.08663396802899886,0,0.08663396802899886,-0.0023874309902614634,0.003886727214339839,0.021658492007249716,0.4,0.03345441818237305,0.9074287414550781,STABILIZE
0.03,0.0,0.006,-0.13624487586817427,-0.0030065289902999515,-0.0,0.0005714982082199844,-0.002435030782079967,0.03,0.0,0.006,-0.1440996555475478,-0.0037544494365471955,-0.0,0.0012220025902614008,-0.0025324468462857947,0.25,0,0,-0.11602944199992923,-0.02135144816140103,-0.0,0.0,-0.02135144816140103,0.002,8e-05,0.0,-0.5029971146857249,-0.0015768952179499634,-4.0239769174858e-05,-0.0,-0.0016171349871248214,-0.1251483145515732,0.0,0.1251483145515732,-0.10021763300999839,0.0,0.10021763300999839,-0.7884476089749817,0.0,0.7884476089749817,-0.08540579264560412,0,0.08540579264560412,-0.0024388029718271278,0.0025288143473863427,0.02135144816140103,0.4,0.03345322608947754,0.9409127235412598,STABILIZE
0.03,0.0,0.006,-0.13949744521781632,-0.00291495152528386,-0.0,0.0005471446163213795,-0.0023678069089624804,0.03,0.0,0.006,-0.14806311675441905,-0.003552052561659971,-0.0,0.0012092533947664714,-0.0023427991668934995,0.25,0,0,-0.11885108637829724,-0.02107297262659346,-0.0,0.0,-0.02107297262659346,0.002,8e-05,0.0,-0.5294632945326433,-0.001581265414508935,-4.235706356261147e-05,-0.0,-0.0016236224780715465,-0.11840175205533238,0.0,0.11840175205533238,-0.09716505084279534,0.0,0.09716505084279534,-0.7906327072544675,0.0,0.7906327072544675,-0.08429189050637384,0,0.08429189050637384,-0.0023712510035899595,0.0023393131839283387,0.02107297262659346,0.4,0.03347468376159668,0.9743626117706299,STABILIZE
0.03,0.0,0.006,-0.14251849305149708,-0.0027093531263316065,-0.0,0.0012292394242814342,-0.0014801137020501723,0.03,0.0,0.006,-0.15178092479308583,-0.003334225536041953,-0.0,0.0013023523963618631,-0.00203187313968009,0.25,0,0,-0.12165970784963241,-0.020990364334319903,-0.0,0.0,-0.020990364334319903,0.002,8e-05,0.0,-0.5557775565459259,-0.00157328697365538,-4.4462204523674074e-05,0.0,-0.0016177491781790541,-0.11114085120139844,0.0,0.11114085120139844,-0.09031177087772022,0.0,0.09031177087772022,-0.7866434868276899,0.0,0.7866434868276899,-0.08396145733727961,0,0.08396145733727961,-0.0014830896265534365,0.002029701994471031,0.020990364334319903,0.4,0.03345131874084473,1.0078439712524414,STABILIZE
0.03,0.0,0.006,-0.14537262369014406,-0.0025591832640399327,-0.0,0.0008976748602795054,-0.0016615084037604273,0.03,0.0,0.006,-0.15526800611420533,-0.003126724487140417,-0.0,0.0012403852027163043,-0.0018863392844241126,0.25,0,0,-0.12440042792019984,-0.020479105035347188,-0.0,0.0,-0.020479105035347188,0.002,8e-05,0.0,-0.5822628424908549,-0.0015832188294811521,-4.6581027399268394e-05,-0.0,-0.0016297998568804205,-0.10422414957134724,0.0,0.10422414957134724,-0.08530610880133109,0.0,0.08530610880133109,-0.791609414740576,0.0,0.791609414740576,-0.08191642014138875,0,0.08191642014138875,-0.0016642036252015621,0.0018839618800798956,0.020479105035347188,0.4,0.03345751762390137,1.041297435760498,STABILIZE
0.03,0.0,0.006,-0.14814360978640026,-0.0024826141338185983,-0.0,0.00045733804573158687,-0.0020252760880870115,0.03,0.0,0.006,-0.15859449449320684,-0.0029803062082664985,-0.0,0.0008745384638171412,-0.0021057677444493573,0.25,0,0,-0.12709074175233812,-0.02008614416211482,-0.0,0.0,-0.02008614416211482,0.002,8e-05,0.0,-0.6088952919772345,-0.0015907236200721933,-4.8711623358178764e-05,-0.0,-0.001639435243430372,-0.09934354027554995,0.0,0.09934354027554995,-0.08275380446061995,0.0,0.08275380446061995,-0.7953618100360966,0.0,0.7953618100360966,-0.08034457664845927,0,0.08034457664845927,-0.002028226966401288,0.0021029256761243348,0.02008614416211482,0.4,0.033484697341918945,1.0747582912445068,STABILIZE
0.03,0.0,0.006,-0.15088062925205714,-0.002453912122799903,-0.0,0.00017155452898373616,-0.002282357593816167,0.03,0.0,0.006,-0.1618766392323587,-0.0029426516198545745,-0.0,0.0002250648978873444,-0.00271758672196723,0.25,0,0,-0.12974195433225577,-0.019808173244693385,-0.0,0.0,-0.019808173244693385,0.002,8e-05,0.0,-0.6354507848729423,-0.0015872459503575272,-5.083606278983538e-05,0.0,-0.0016380820131473627,-0.09808838732848582,0.0,0.09808838732848582,-0.08179707075999677,0.0,0.08179707075999677,-0.7936229751787636,0.0,0.7936229751787636,-0.07923269297877354,0,0.07923269297877354,-0.0022861134831716648,0.00271442791754057,0.019808173244693385,0.4,0.03346109390258789,1.1082494258880615,STABILIZE
0.03,0.0,0.006,-0.15359126179077415,-0.002432230211293624,-0.0,0.00012970010861776486,-0.0023025301026758592,0.03,0.0,0.006,-0.16512443499994506,-0.0029142227407090685,-0.0,0.00017006013109064003,-0.0027441626096184283,0.25,0,0,-0.13236464201495285,-0.019610982939498537,-0.0,0.0,-0.019610982939498537,0.002,8e-05,0.0,-0.6620905567650516,-0.0015935778111438447,-5.296724454120413e-05,-0.0,-0.0016465450556850487,-0.09714075802363561,0.0,0.09714075802363561,-0.08107434037645414,0.0,0.08107434037645414,-0.7967889055719223,0.0,0.7967889055719223,-0.07844393175799415,0,0.07844393175799415,-0.0023062849899563825,0.002741007633491416,0.019610982939498537,0.4,0.03343391418457031,1.1416921615600586,STABILIZE
0.03,0.0,0.006,-0.15621132140273306,-0.0023507083596820584,-0.0,0.00048760747581309675,-0.0018631008838689617,0.03,0.0,0.006,-0.16821099348539525,-0.0027692495244299896,-0.0,0.0008671297652458948,-0.0019021197591840948,0.25,0,0,-0.13486924427254768,-0.018726003528487228,-0.0,0.0,-0.018726003528487228,0.002,8e-05,0.0,-0.6889970099378305,-0.001609358405789777,-5.511976079502645e-05,-0.0,-0.0016644781665848035,-0.09230831748099966,0.0,0.09230831748099966,-0.07835694532273528,0.0,0.07835694532273528,-0.8046792028948885,0.0,0.8046792028948885,-0.07490401411394891,0,0.07490401411394891,-0.0018655859734360532,0.001899682462273766,0.018726003528487228,0.4,0.033437490463256836,1.1751012802124023,STABILIZE
0.03,0.0,0.006,-0.1586350914594611,-0.002174272487812167,-0.0,0.0010551596702417824,-0.0011191128175703847,0.03,0.0,0.006,-0.17105430658433626,-0.0025506286902516715,-0.0,0.0013074432362013533,-0.0012431854540503181,0.25,0,0,-0.1370933979056082,-0.016626701171614806,-0.0,0.0,-0.016626701171614806,0.002,8e-05,0.0,-0.7162345791713066,-0.0016289195766139915,-5.7298766333704535e-05,-0.0,-0.001686218342947696,-0.08502095634172238,0.0,0.08502095634172238,-0.07247574959373891,0.0,0.07247574959373891,-0.8144597883069957,0.0,0.8144597883069957,-0.06650680468645923,0,0.06650680468645923,-0.0011205551066419304,0.0012418855923921946,0.016626701171614806,0.4,0.03344249725341797,1.2085504531860352,STABILIZE
0.03,0.0,0.006,-0.16098852495562221,-0.0021106946956555715,-0.0,0.0003801348367121566,-0.0017305598589434149,0.03,0.0,0.006,-0.17389583563600813,-0.002548446899688568,-0.0,1.3045036188150537e-05,-0.002535401863500417,0.25,0,0,-0.13913498261884777,-0.015258422895722703,-0.0,0.0,-0.015258422895722703,0.002,8e-05,0.0,-0.7444692200127369,-0.0016881634642875898,-5.955753760101895e-05,-0.0,-0.0017477210018886089,-0.08494822998961893,0.0,0.08494822998961893,-0.07035648985518572,0.0,0.07035648985518572,-0.8440817321437949,0.0,0.8440817321437949,-0.06103369158289081,0,0.06103369158289081,-0.0017332596851933832,0.002533556965712627,0.015258422895722703,0.4,0.03345012664794922,1.242018699645996,STABILIZE
0.03,0.0,0.006,-0.16323358380009867,-0.002011347659300024,-0.0,0.0005933665674250189,-0.001417981091875005,0.03,0.0,0.006,-0.17660770294235043,-0.00242956124395744,-0.0,0.0007100641956222026,-0.0017194970483352372,0.25,0,0,-0.14105117036901896,-0.014305934398885722,-0.0,0.0,-0.014305934398885722,0.002,8e-05,0.0,-0.7726291854537413,-0.0016819004014106988,-6.18103348362993e-05,0.0,-0.0017437107362469981,-0.08098537479858134,0.0,0.08098537479858134,-0.06704492197666746,0.0,0.06704492197666746,-0.8409502007053494,0.0,0.8409502007053494,-0.05722373759554289,0,0.05722373759554289,-0.0014196977193874536,0.001718079992816018,0.014305934398885722,0.4,0.03348588943481445,1.275498390197754,STABILIZE
0.03,0.0,0.006,-0.16539725374682662,-0.0019417909617010986,-0.0,0.0004161588721903506,-0.001525632089510748,0.03,0.0,0.006,-0.17923219979300983,-0.0023553612099342113,-0.0,0.0004439400308169549,-0.0019114211791172564,0.25,0,0,-0.1428797822654857,-0.013675769026863845,-0.0,0.0,-0.013675769026863845,0.002,8e-05,0.0,-0.8006688641473587,-0.0016776186139544295,-6.405350913178871e-05,0.0,-0.0017416721230862182,-0.07851204033114038,0.0,0.07851204033114038,-0.06472636539003662,0.0,0.06472636539003662,-0.8388093069772147,0.0,0.8388093069772147,-0.05470307610745538,0,0.05470307610745538,-0.0015274563209483234,0.001909963712775179,0.013675769026863845,0.4,0.03342795372009277,1.3089208602905273,STABILIZE
0.03,0.0,0.006,-0.16742768331909855,-0.0018217592896632385,-0.0,0.000717972251044743,-0.0011037870386184955,0.03,0.0,0.006,-0.18180085385661088,-0.0023046696453797276,-0.0,0.0003032127778798491,-0.0020014568674998783,0.25,0,0,-0.14470520239720946,-0.013648491465055868,-0.0,0.0,-0.013648491465055868,0.002,8e-05,0.0,-0.8285305302889135,-0.0016665520706234623,-6.628244242311309e-05,0.0,-0.0017328345130465754,-0.0768223215126576,0.0,0.0768223215126576,-0.06072530965544129,0.0,0.06072530965544129,-0.8332760353117311,0.0,0.8332760353117311,-0.05459396586022347,0,0.05459396586022347,-0.0011056936143389855,0.0020004042217248506,0.013648491465055868,0.4,0.03343629837036133,1.3423898220062256,STABILIZE
0.03,0.0,0.006,-0.1693840975692564,-0.001754349877088565,-0.0,0.00040298109890053333,-0.0013513687781880317,0.03,0.0,0.006,-0.18427473865233987,-0.002218374501702924,-0.0,0.0005158821372332113,-0.0017024923644697126,0.25,0,0,-0.14642284371073697,-0.012835317754688602,-0.0,0.0,-0.012835317754688602,0.002,8e-05,0.0,-0.8564766753470017,-0.0016706521857117083,-6.851813402776013e-05,-0.0,-0.0017391703197394684,-0.0739458167234308,0.0,0.0739458167234308,-0.05847832923628551,0.0,0.05847832923628551,-0.8353260928558541,0.0,0.8353260928558541,-0.05134127101875441,0,0.05134127101875441,-0.0013528937949637918,0.001701280754398743,0.012835317754688602,0.4,0.03345537185668945,1.3758642673492432,STABILIZE
0.03,0.0,0.006,-0.17120300957891438,-0.0016159860024902437,-0.0,0.000819515854950559,-0.0007964701475396848,0.03,0.0,0.006,-0.1866651185793481,-0.002123698387919988,-0.0,0.0005607574705136238,-0.0015629409174063643,0.25,0,0,-0.14797883798430528,-0.011520004599316354,-0.0,0.0,-0.011520004599316354,0.002,8e-05,0.0,-0.8848513057211874,-0.001680601930056748,-7.0788104457695e-05,-0.0,-0.0017513900345144432,-0.0707899462639996,0.0,0.0707899462639996,-0.053866200083008124,0.0,0.053866200083008124,-0.840300965028374,0.0,0.840300965028374,-0.046080018397265415,0,0.046080018397265415,-0.0007977268819899117,0.0015622998524532953,0.011520004599316354,0.4,0.0337672233581543,1.4095792770385742,STABILIZE
0.03,0.0,0.006,-0.17299030455292516,-0.001601077527054623,-0.0,8.903445459836716e-05,-0.0015120430724562559,0.03,0.0,0.006,-0.18891577456604605,-0.002016161167480177,-0.0,0.000642219777081075,-0.001373941390399102,0.25,0,0,-0.14950100826829119,-0.011363133811516123,-0.0,0.0,-0.011363133811516123,0.002,8e-05,0.0,-0.9128069514837742,-0.0016695306533289797,-7.302455611870195e-05,0.0,-0.0017425552094476817,-0.06720537224933924,0.0,0.06720537224933924,-0.05336925090182077,0.0,0.05336925090182077,-0.8347653266644899,0.0,0.8347653266644899,-0.04545253524606449,0,0.04545253524606449,-0.001513132539312894,0.0013727414598850305,0.011363133811516123,0.4,0.033489227294921875,1.4430999755859375,STABILIZE
0.03,0.0,0.006,-0.17476053896577898,-0.0015886672731125616,-0.0,7.424916589430779e-05,-0.0015144181072182538,0.03,0.0,0.006,-0.1911626155686032,-0.0020163898875378544,-0.0,-1.3684066083666093e-06,-0.002017758294146221,0.25,0,0,-0.15106168089382796,-0.011671662927001232,-0.0,-0.0,-0.011671662927001232,0.002,8e-05,0.0,-0.940625865320602,-0.0016643746035441395,-7.525006922564816e-05,0.0,-0.0017396246727697877,-0.06721299625126181,0.0,0.06721299625126181,-0.05295557577041872,0.0,0.05295557577041872,-0.8321873017720698,0.0,0.8321873017720698,-0.04668665170800493,0,0.04668665170800493,-0.0015160617459535105,0.002016523622356748,0.011671662927001232,0.4,0.03342866897583008,1.4765095710754395,STABILIZE
0.03,0.0,0.006,-0.17645754203123018,-0.0015216121821882756,-0.0,0.00040083150233244657,-0.001120780679855829,0.03,0.0,0.006,-0.1932596724652988,-0.00188031912594427,-0.0,0.0008133826535954006,-0.0010669364723488693,0.25,0,0,-0.15266771087161451,-0.012000345535173528,-0.0,-0.0,-0.012000345535173528,0.002,8e-05,0.0,-0.9685483205498772,-0.0016691051378930077,-7.748386564399018e-05,-0.0,-0.001746589003536998,-0.06267730419814234,0.0,0.06267730419814234,-0.05072040607294252,0.0,0.05072040607294252,-0.8345525689465039,0.0,0.8345525689465039,-0.04800138214069411,0,0.04800138214069411,-0.0011216741467716116,0.0010659971279654186,0.012000345535173528,0.4,0.03345799446105957,1.509964942932129,STABILIZE
0.03,0.0,0.006,-0.17808100430479937,-0.0014561597681622596,-0.0,0.0003913823502829584,-0.001064777417879301,0.03,0.0,0.006,-0.1952063604395984,-0.0017460761210719871,-0.0,0.0008027258205492147,-0.0009433503005227724,0.25,0,0,-0.15431571109012926,-0.012318075054740344,-0.0,-0.0,-0.012318075054740344,0.002,8e-05,0.0,-0.9963944561401327,-0.001665100692738418,-7.971155649121063e-05,0.0,-0.0017448122492296286,-0.05820253736906624,0.0,0.05820253736906624,-0.048538658938741985,0.0,0.048538658938741985,-0.832550346369209,0.0,0.832550346369209,-0.049272300218961375,0,0.049272300218961375,-0.0010655882712318503,0.0009424342817062812,0.012318075054740344,0.4,0.0334467887878418,1.543431282043457,STABILIZE
0.03,0.0,0.006,-0.1796717287624022,-0.0014264397963429788,-0.0,0.00017767062190477087,-0.0012487691744382079,0.03,0.0,0.006,-0.19705901239635235,-0.0016613163060741163,-0.0,0.0005067073796293215,-0.0011546089264447947,0.25,0,0,-0.15581059083105137,-0.011170779991712943,-0.0,0.0,-0.011170779991712943,0.002,8e-05,0.0,-1.024050082068755,-0.0016532964054549804,-8.19240065655004e-05,0.0,-0.0017352204120204809,-0.05537721020247054,0.0,0.05537721020247054,-0.047547993211432625,0.0,0.047547993211432625,-0.8266482027274902,0.0,0.8266482027274902,-0.04468311996685177,0,0.04468311996685177,-0.0012496692366506029,0.0011536347008573315,0.011170779991712943,0.4,0.03345513343811035,1.5768725872039795,STABILIZE
0.03,0.0,0.006,-0.18121478423452744,-0.0013831419119136575,-0.0,0.00025873824038616014,-0.0011244036715274974,0.03,0.0,0.006,-0.1988689473247813,-0.0016223634876188916,-0.0,0.000232773121320476,-0.0013895903662984157,0.25,0,0,-0.15700087491460832,-0.008891081325286977,-0.0,0.0,-0.008891081325286977,0.002,8e-05,0.0,-1.0518857261040704,-0.00166339433268839,-8.415085808832564e-05,-0.0,-0.0017475451907767157,-0.054078782920629724,0.0,0.054078782920629724,-0.046104730397121915,0.0,0.046104730397121915,-0.831697166344195,0.0,0.831697166344195,-0.035564325301147906,0,0.035564325301147906,-0.0011252659938538157,0.0013888921649034046,0.008891081325286977,0.4,0.03346848487854004,1.6103365421295166,STABILIZE
0.03,0.0,0.006,-0.1827261184911847,-0.0013536473804767403,-0.0,0.00017611456032798353,-0.0011775328201487569,0.03,0.0,0.006,-0.2006853766956042,-0.0016269100292041364,-0.0,-2.714781802893919e-05,-0.0016540578472330756,0.25,0,0,-0.15821421970397234,-0.009056241686790797,-0.0,-0.0,-0.009056241686790797,0.002,8e-05,0.0,-1.0796005836207085,-0.001654879636428506,-8.63680466896567e-05,0.0,-0.0017412476831181628,-0.054230334306804545,0.0,0.054230334306804545,-0.04512157934922468,0.0,0.04512157934922468,-0.8274398182142529,0.0,0.8274398182142529,-0.03622496674716319,0,0.03622496674716319,-0.0011785783544356427,0.00165331302752279,0.009056241686790797,0.4,0.03349471092224121,1.6439430713653564,STABILIZE
0.03,0.0,0.006,-0.18421592892833472,-0.001336833843978402,-0.0,0.00010058060214668396,-0.0012362532418317182,0.03,0.0,0.006,-0.20264101697708953,-0.0017548313864267496,-0.0,-0.0007652409793824858,-0.0025200723658092353,0.25,0,0,-0.1594165598869825,-0.008990679890892377,-0.0,0.0,-0.008990679890892377,0.002,8e-05,0.0,-1.107292240016062,-0.0016565482669032906,-8.858337920128497e-05,-0.0,-0.0017451316461045755,-0.058494379547558324,0.0,0.058494379547558324,-0.044561128132613405,0.0,0.044561128132613405,-0.8282741334516452,0.0,0.8282741334516452,-0.03596271956356951,0,0.03596271956356951,-0.0012378347666462761,0.002519295913015489,0.008990679890892377,0.4,0.033432960510253906,1.6772668361663818,STABILIZE
0.03,0.0,0.006,-0.18569024990283717,-0.0013218037365633063,-0.0,8.983503812176313e-05,-0.0012319686984415433,0.03,0.0,0.006,-0.20474470554033047,-0.0018860637890577281,-0.0,-0.0007843768223055877,-0.002670440611363316,0.25,0,0,-0.16061352856848204,-0.00894286083287302,-0.0,0.0,-0.00894286083287302,0.002,8e-05,0.0,-1.1350314461345943,-0.0016579739387776746,-9.080251569076754e-05,-0.0,-0.0017487764544684421,-0.06286879296859094,0.0,0.06286879296859094,-0.04406012455211021,0.0,0.04406012455211021,-0.8289869693888373,0.0,0.8289869693888373,-0.03577144333149208,0,0.03577144333149208,-0.0012336356929867804,0.002669670936603846,0.00894286083287302,0.4,0.033461570739746094,1.7107326984405518,STABILIZE
0.03,0.0,0.006,-0.18714894391004933,-0.001308837839618786,-0.0,7.755913377162646e-05,-0.0012312787058471595,0.03,0.0,0.006,-0.2068108662795748,-0.0018538976268409162,-0.0,0.00019241088286976686,-0.0016614867439711492,0.25,0,0,-0.16181036286654363,-0.008948998266666362,-0.0,-0.0,-0.008948998266666362,0.002,8e-05,0.0,-1.1626896712177281,-0.001654453978993826,-9.301517369741825e-05,0.0,-0.0017474691526912444,-0.06179658756136387,0.0,0.06179658756136387,-0.04362792798729287,0.0,0.04362792798729287,-0.827226989496913,0.0,0.827226989496913,-0.03579599306666545,0,0.03579599306666545,-0.0012323164925139949,0.0016607171686179776,0.008948998266666362,0.4,0.03343486785888672,1.7441718578338623,STABILIZE
0.03,0.0,0.006,-0.18857993375065202,-0.0012830557327859278,-0.0,0.0001541118790019522,-0.0011289438537839757,0.03,0.0,0.006,-0.20886467263588276,-0.0018414861830068877,-0.0,7.418908558518498e-05,-0.0017672970974217028,0.25,0,0,-0.16289846805986333,-0.008130150930904913,-0.0,0.0,-0.008130150930904913,0.002,8e-05,0.0,-1.1902222989848612,-0.0016457557276298865,-9.52177839187889e-05,0.0,-0.0017409735115486754,-0.06138287276689626,0.0,0.06138287276689626,-0.04276852442619759,0.0,0.04276852442619759,-0.8228778638149432,0.0,0.8228778638149432,-0.03252060372361965,0,0.03252060372361965,-0.0011299467748840794,0.0017666560337204463,0.008130150930904913,0.4,0.03345894813537598,1.777641773223877,STABILIZE
0.03,0.0,0.006,-0.19001211289682565,-0.0012729200805623973,-0.0,6.005708284655543e-05,-0.001212862997715842,0.03,0.0,0.006,-0.21095223923066214,-0.0018554281041624542,-0.0,-8.261048183323908e-05,-0.0019380385859956932,0.25,0,0,-0.1637948156008057,-0.006638943569994004,-0.0,0.0,-0.006638943569994004,0.002,8e-05,0.0,-1.2180965542164162,-0.0016516415705751357,-9.74477243373133e-05,-0.0,-0.001749089294912449,-0.061847603472081805,0.0,0.061847603472081805,-0.04243066935207991,0.0,0.04243066935207991,-0.8258207852875679,0.0,0.8258207852875679,-0.026555774279976015,0,0.026555774279976015,-0.0012137611205747531,0.0019374762332006977,0.006638943569994004,0.4,0.033753395080566406,1.8113868236541748,STABILIZE
0.03,0.0,0.006,-0.19141338334437796,-0.0012557197095554111,-0.0,0.00010275839291820816,-0.001152961316637203,0.03,0.0,0.006,-0.2127529932343606,-0.0016137086873235747,-0.0,0.0014440792469767672,-0.00016962944034680755,0.25,0,0,-0.1646083798113688,-0.006075490375998346,-0.0,0.0,-0.006075490375998346,0.002,8e-05,0.0,-1.2457394831222934,-0.001651442837347231,-9.965915864978348e-05,0.0,-0.0017511019959970144,-0.053790289577452494,0.0,0.053790289577452494,-0.041857323651847037,0.0,0.041857323651847037,-0.8257214186736155,0.0,0.8257214186736155,-0.024301961503993386,0,0.024301961503993386,-0.0011530331611233925,0.00016914039743349567,0.006075490375998346,0.4,0.0334773063659668,1.8448872566223145,STABILIZE
0.03,0.0,0.006,-0.19279958222984547,-0.0012432141317835132,-0.0,7.47709494172984e-05,-0.001168443182366215,0.03,0.0,0.006,-0.21428996159440558,-0.0013784319157547427,-0.0,0.0014067216970630842,2.828978130834151e-05,0.25,0,0,-0.1653459184371192,-0.005512186670336389,-0.0,0.0,-0.005512186670336389,0.002,8e-05,0.0,-1.2735059369156123,-0.001660158490832319,-0.00010188047495324899,-0.0,-0.001762038965785568,-0.04594773052515809,0.0,0.04594773052515809,-0.041440471059450444,0.0,0.041440471059450444,-0.8300792454161594,0.0,0.8300792454161594,-0.022048746681345557,0,0.022048746681345557,-0.0011684322092848506,-2.8739423276826106e-05,0.005512186670336389,0.4,0.03345036506652832,1.8783206939697266,STABILIZE
0.03,0.0,0.006,-0.19415287662414585,-0.001213989240138519,-0.0,0.00017477696969539098,-0.001039212270443128,0.03,0.0,0.006,-0.2157246549677146,-0.001287009186937174,-0.0,0.000546745825377767,-0.0007402633615594071,0.25,0,0,-0.166084665163634,-0.005522514668363134,-0.0,-0.0,-0.005522514668363134,0.002,8e-05,0.0,-1.3011869965990774,-0.001655442144389265,-0.00010409495972792621,0.0,-0.001759537104117191,-0.04290030623123914,0.0,0.04290030623123914,-0.040466308004617306,0.0,0.040466308004617306,-0.8277210721946324,0.0,0.8277210721946324,-0.022090058673452536,0,0.022090058673452536,-0.0010394975974863663,0.0007398626442299051,0.005522514668363134,0.4,0.03344249725341797,1.9117980003356934,STABILIZE
0.03,0.0,0.006,-0.195445393880102,-0.001152582518828217,-0.0,0.0003650567046315331,-0.0007875258141966839,0.03,0.0,0.006,-0.21713854594370138,-0.0012608156795909287,-0.0,0.00015571773367027174,-0.0011050979459206569,0.25,0,0,-0.1667959775752454,-0.005285849810198324,-0.0,0.0,-0.005285849810198324,0.002,8e-05,0.0,-1.3290552383126166,-0.0016567385893167478,-0.00010632441906500935,-0.0,-0.0017630630083817571,-0.04202718931969762,0.0,0.04202718931969762,-0.0384194172942739,0.0,0.0384194172942739,-0.8283692946583738,0.0,0.8283692946583738,-0.021143399240793295,0,0.021143399240793295,-0.0007879335659447532,0.0011048072563853797,0.005285849810198324,0.4,0.03364229202270508,1.9454138278961182,STABILIZE
0.03,0.0,0.006,-0.19667000380367328,-0.001097065236770026,-0.0,0.00033156724174599996,-0.000765497995024026,0.03,0.0,0.006,-0.2185254389318273,-0.0012424463129907565,-0.0,0.00010970782413044272,-0.0011327384888603137,0.25,0,0,-0.16751856918397348,-0.005394439752194076,-0.0,-0.0,-0.005394439752194076,0.002,8e-05,0.0,-1.3566628599060142,-0.0016488168374841456,-0.00010853302879248115,0.0,-0.0017573498662766267,-0.04141487709969188,0.0,0.04141487709969188,-0.03656884122566754,0.0,0.03656884122566754,-0.8244084187420728,0.0,0.8244084187420728,-0.021577759008776305,0,0.021577759008776305,-0.0007659245333737872,0.0011324501197436897,0.005394439752194076,0.4,0.033487796783447266,1.9789047241210938,STABILIZE
0.03,0.0,0.006,-0.19792685234270452,-0.0010558343334752269,-0.0,0.0002309108957679195,-0.0008249234377073074,0.03,0.0,0.006,-0.21999245036010345,-0.001232384798544116,-0.0,5.634883371445946e-05,-0.0011760359648296565,0.25,0,0,-0.16830104302539023,-0.005477740032295763,-0.0,-0.0,-0.005477740032295763,0.002,8e-05,0.0,-1.387116856194766,-0.0017055555422758844,-0.00011096934849558128,-0.0,-0.0018165248907714656,-0.04107949328480387,0.0,0.04107949328480387,-0.03519447778250757,0.0,0.03519447778250757,-0.8527777711379422,0.0,0.8527777711379422,-0.021910960129183053,0,0.021910960129183053,-0.0008253731151642935,0.001175720412945039,0.005477740032295763,0.4,0.03571152687072754,2.0146167278289795,STABILIZE
0.03,0.0,0.006,-0.19900099116868172,-0.0009546265996422266,-0.0,0.0005996468517843922,-0.0003549797478578344,0.03,0.0,0.006,-0.22153498319215903,-0.0013709055446925562,-0.0,-0.0008207231422827578,-0.002191628686975314,0.25,0,0,-0.16888381826236462,-0.004316114526462898,-0.0,0.0,-0.004316114526462898,0.002,8e-05,0.0,-1.4163809391010271,-0.0017338709721583614,-0.00011331047512808218,-0.0,-0.0018471814472864436,-0.045696851489751875,0.0,0.045696851489751875,-0.031820886654740886,0.0,0.031820886654740886,-0.8669354860791807,0.0,0.8669354860791807,-0.01726445810585159,0,0.01726445810585159,-0.00035564011687749087,0.002191521624403856,0.004316114526462898,0.4,0.03375577926635742,2.0483765602111816,STABILIZE
0.03,0.0,0.006,-0.19994614053809406,-0.0008470003092494006,-0.0,0.0006429989036390448,-0.00020400140561035584,0.03,0.0,0.006,-0.22315904087398258,-0.001455407370793366,-0.0,-0.0005048448788860208,-0.0019602522496793865,0.25,0,0,-0.16948446149413493,-0.004485578501508258,-0.0,-0.0,-0.004485578501508258,0.002,8e-05,0.0,-1.445224592199917,-0.0017232255475719107,-0.00011561796737599337,0.0,-0.001838843514947904,-0.048513579026445534,0.0,0.048513579026445534,-0.028233343641646688,0.0,0.028233343641646688,-0.8616127737859554,0.0,0.8616127737859554,-0.017942314006033033,0,0.017942314006033033,-0.00020461525340175613,0.0019601882700239362,0.004485578501508258,0.4,0.03347635269165039,2.0818428993225098,STABILIZE
0.03,0.0,0.006,-0.20082680509834666,-0.0007892344104366597,-0.0,0.00034512448250626675,-0.00044410992793039294,0.03,0.0,0.006,-0.22470136515327732,-0.00138220095165656,-0.0,0.00043737443786046455,-0.0009448265137960955,0.25,0,0,-0.1703224020158833,-0.00625788300024808,-0.0,-0.0,-0.00625788300024808,0.002,8e-05,0.0,-1.4739417189895612,-0.0017157152794369402,-0.0001179153375191649,0.0,-0.001833630616956105,-0.04607336505521867,0.0,0.04607336505521867,-0.02630781368122199,0.0,0.02630781368122199,-0.8578576397184701,0.0,0.8578576397184701,-0.02503153200099232,0,0.02503153200099232,-0.00044452266384578014,0.0009446323997121175,0.00625788300024808,0.4,0.033475399017333984,2.1153392791748047,STABILIZE
0.03,0.0,0.006,-0.2008467903826654,-1.7928043023184812e-05,-0.0,0.0046127318876262695,0.004594803844603084,0.03,0.0,0.006,-0.2262546083545425,-0.001393355755847241,-0.0,-6.671035423074339e-05,-0.0014600661100779844,0.25,0,0,-0.17254572795422746,-0.016620513724621033,-0.0,-0.0,-0.016620513724621033,0.002,8e-05,0.0,-1.502237396285139,-0.0016921988260123677,-0.00012017899170281113,0.0,-0.0018123778177151788,-0.0464451918615747,0.0,0.0464451918615747,-0.0005976014341061604,0.0,0.0005976014341061604,-0.8460994130061839,0.0,0.8460994130061839,-0.06648205489848413,0,0.06648205489848413,0.0045931065922297145,0.0014653966181868584,0.016620513724621033,0.4,0.03344249725341797,2.148799180984497,STABILIZE
0.03,0.0,0.006,-0.19981109162802532,0.0008805596216263458,-0.0,0.005092677476439121,0.0059732370980654665,0.03,0.0,0.006,-0.22795004547207587,-0.0014414746179986224,-0.0,-0.0002727403559466863,-0.0017142149739453087,0.25,0,0,-0.1766222023203689,-0.028882101007791455,-0.0,-0.0,-0.028882101007791455,0.002,8e-05,0.0,-1.532465715667891,-0.0017133577602447857,-0.0001225972572534313,-0.0,-0.001835955017498217,-0.04804915393328742,0.0,0.04804915393328742,0.02935198738754486,0.0,-0.02935198738754486,-0.8566788801223928,0.0,0.8566788801223928,-0.11552840403116582,0,0.11552840403116582,0.005969768498673658,0.0017262556238424043,0.028882101007791455,0.4,0.03528547286987305,2.1840624809265137,STABILIZE
0.03,0.0,0.006,-0.1999256446210431,-0.00010280513454862549,-0.0,-0.005883445638314086,-0.005986250772862712,0.03,0.0,0.006,-0.22856893941364953,-0.0005554239418688364,-0.0,0.005301218040473962,0.004745794098605125,0.25,0,0,-0.1779451058990198,-0.009893621925192934,-0.0,0.0,-0.009893621925192934,0.002,8e-05,0.0,-1.5616431097480865,-0.0017456758630055437,-0.00012493144877984694,-0.0,-0.0018706073117853907,-0.01851413139562788,0.0,0.01851413139562788,-0.003426837818287516,0.0,0.003426837818287516,-0.8728379315027718,0.0,0.8728379315027718,-0.03957448770077174,0,0.03957448770077174,-0.0059829714009467395,-0.004749927700229557,0.009893621925192934,0.4,0.033428192138671875,2.2174947261810303,STABILIZE
0.03,0.0,0.006,-0.1995697604562104,0.0003192638867464731,-0.0,0.0025242557275585937,0.002843519614305067,0.03,0.0,0.006,-0.2294375343748147,-0.0007792170338355838,-0.0,-0.0013384327341810277,-0.0021176497680166113,0.25,0,0,-0.1805830382728501,-0.019720755278133044,-0.0,-0.0,-0.019720755278133044,0.002,8e-05,0.0,-1.5905820071151422,-0.001730740086156354,-0.00012724656056921138,0.0,-0.0018579866467255653,-0.025973901127852795,0.0,0.025973901127852795,0.01064212955821577,0.0,-0.01064212955821577,-0.8653700430781769,0.0,0.8653700430781769,-0.07888302111253218,0,0.07888302111253218,0.0028406014069206195,0.0021215626278568924,0.019720755278133044,0.4,0.03344106674194336,2.250929355621338,STABILIZE
0.03,0.0,0.006,-0.19870012509088128,0.0007139764112450502,-0.0,0.0021604106958730543,0.0028743871071181043,0.03,0.0,0.006,-0.23065413159416495,-0.0009988343979935566,-0.0,-0.001202048764804377,-0.002200883162797934,0.25,0,0,-0.18481825015853762,-0.028976142411339147,-0.0,-0.0,-0.028976142411339147,0.002,8e-05,0.0,-1.6218160019310581,-0.0017095544804632055,-0.00012974528015448467,0.0,-0.0018392997606176901,-0.033294479933118556,0.0,0.033294479933118556,0.023799213708168343,0.0,-0.023799213708168343,-0.8547772402316027,0.0,0.8547772402316027,-0.11590456964535659,0,0.11590456964535659,0.0028699290263337206,0.0022066933003164267,0.028976142411339147,0.4,0.03654050827026367,2.2874815464019775,STABILIZE
0.03,0.0,0.006,-0.19883274084306707,-0.00011604984592689961,-0.0,-0.004842281437031996,-0.004958331282958896,0.03,0.0,0.006,-0.2306349446621747,1.6790166059302766e-05,-0.0,0.005925041444186583,0.005941831610245886,0.25,0,0,-0.18694736761334804,-0.015526294860563589,-0.0,0.0,-0.015526294860563589,0.002,8e-05,0.0,-1.6510441404054998,-0.0017051372911504115,-0.00013208353123244,0.0,-0.0018372208223828516,0.0005596722019767589,0.0,-0.0005596722019767589,-0.0038683281975633206,0.0,0.0038683281975633206,-0.8525686455752057,0.0,0.8525686455752057,-0.062105179442254355,0,0.062105179442254355,-0.004951887783238747,-0.005947202651524234,0.015526294860563589,0.4,0.03428244590759277,2.3217546939849854,STABILIZE
0.03,0.0,0.006,-0.20058457850366668,-0.0015708913807152647,-0.0,-0.008697145398443563,-0.010268036779158827,0.03,0.0,0.006,-0.22888813768266597,0.0015663803157104856,-0.0,0.009263559306802956,0.01082993962251344,0.25,0,0,-0.18860627195667207,-0.012396309091918875,-0.0,0.0,-0.012396309091918875,0.002,8e-05,0.0,-1.6793232277340908,-0.001690543803918935,-0.00013434585821872727,0.0,-0.0018248896621376623,0.05221267719034952,0.0,-0.05221267719034952,-0.05236304602384216,0.0,0.05236304602384216,-0.8452719019594674,0.0,0.8452719019594674,-0.0495852363676755,0,0.0495852363676755,-0.010258660427771965,-0.010838821788050143,0.012396309091918875,0.4,0.033455610275268555,2.3552186489105225,STABILIZE
0.03,0.0,0.006,-0.2023423883328217,-0.001569201534766376,-0.0,1.005686664747501e-05,-0.001559144668118901,0.03,0.0,0.006,-0.22714351797248128,0.0015574266802919805,-0.0,-5.328622853061333e-05,0.0015041404517613672,0.25,0,0,-0.19087845022139416,-0.016903163438232748,-0.0,-0.0,-0.016903163438232748,0.002,8e-05,0.0,-1.7059288679132083,-0.0015833950753206135,-0.0001364743094330567,0.0,-0.00171986938475367,0.05191422267639935,0.0,-0.05191422267639935,-0.05230671782554587,0.0,0.05230671782554587,-0.7916975376603067,0.0,0.7916975376603067,-0.06761265375293099,0,0.06761265375293099,-0.0015573686018060956,-0.001505979293634881,0.016903163438232748,0.4,0.03360581398010254,2.3888282775878906,STABILIZE
0.03,0.0,0.006,-0.20457787489197846,-0.0020040703233175075,-0.0,-0.0025990095388185508,-0.004603079862136058,0.03,0.0,0.006,-0.2262920057159748,0.0007633642153721771,-0.0,-0.004745743946398864,-0.0039823797310266865,0.25,0,0,-0.19112654113744837,-0.0018534057694373912,-0.0,0.0,-0.0018534057694373912,0.002,8e-05,0.0,-1.7324058949893217,-0.00158240940122758,-0.00013859247159914574,0.0,-0.0017210018728267256,0.02544547384573924,0.0,-0.02544547384573924,-0.06680234411058358,0.0,0.06680234411058358,-0.7912047006137899,0.0,0.7912047006137899,-0.007413623077749565,0,0.007413623077749565,-0.004603595112206156,0.003981784095373115,0.0018534057694373912,0.4,0.03346419334411621,2.4222946166992188,STABILIZE
0.03,0.0,0.006,-0.20697168892873574,-0.0021476756769256105,-0.0,-0.0008589297811905605,-0.003006605458116171,0.03,0.0,0.006,-0.22466921290312622,0.0014559329168132673,-0.0,0.0041423795718063035,0.005598312488619571,0.25,0,0,-0.18836947464611817,0.020613146190467488,-0.0,0.0,0.020613146190467488,0.002,8e-05,0.0,-1.7581282474811366,-0.0015385007621508597,-0.00014065025979849094,0.0,-0.0016791510219493506,0.04853109722710891,0.0,-0.04853109722710891,-0.07158918923085368,0.0,0.07158918923085368,-0.7692503810754299,0.0,0.7692503810754299,0.08245258476186995,0,-0.08245258476186995,-0.0030146587005240584,-0.005593979980332643,-0.020613146190467488,0.4,0.03343820571899414,2.4557671546936035,STABILIZE
0.03,0.0,0.006,-0.20908424865327227,-0.0018955569340236528,-0.0,0.0015081401825928831,-0.0003874167514307696,0.03,0.0,0.006,-0.2244164333402701,0.00022681396771233623,-0.0,-0.007352423128042888,-0.007125609160330552,0.25,0,0,-0.18696266292842512,0.010519196512199057,-0.0,-0.0,0.010519196512199057,0.002,8e-05,0.0,-1.7837791067367408,-0.001534399668828063,-0.00014270232853893928,0.0,-0.0016771019973670022,0.007560465590411208,0.0,-0.007560465590411208,-0.06318523113412176,0.0,0.06318523113412176,-0.7671998344140314,0.0,0.7671998344140314,0.04207678604879623,0,-0.04207678604879623,-0.00038218375358435347,0.007125891749358253,-0.010519196512199057,0.4,0.033434391021728516,2.4891676902770996,STABILIZE
0.03,0.0,0.006,-0.21126220498318016,-0.0016728134019675645,-0.0,0.00114054434275021,-0.0005322690592173545,0.03,0.0,0.006,-0.22566760029850436,-0.000960978338772208,-0.0,-0.006082016312743215,-0.007042994651515423,0.25,0,0,-0.186805967281172,0.001002937842675057,-0.0,-0.0,0.001002937842675057,0.002,8e-05,0.0,-1.8138152413380326,-0.0015379815109046976,-0.00014510521930704263,-0.0,-0.0016830867302117401,-0.032032611292406935,0.0,0.032032611292406935,-0.05576044673225215,0.0,0.05576044673225215,-0.7689907554523487,0.0,0.7689907554523487,0.004011751370700228,0,-0.004011751370700228,-0.0005317759196105601,0.007043031902809849,-0.001002937842675057,0.4,0.03905916213989258,2.528221845626831,STABILIZE
0.03,0.0,0.006,-0.21427534830363654,-0.0024996615996288464,-0.0,-0.004572944748173429,-0.007072606347802275,0.03,0.0,0.006,-0.22688328231896004,-0.0010085128189096727,-0.0,-0.00026289293720008834,-0.0012714057561097611,0.25,0,0,-0.18479146146500403,0.013926715656916552,-0.0,0.0,0.013926715656916552,0.002,8e-05,0.0,-1.8424307499004662,-0.001582601739557738,-0.00014739445999203732,-0.0,-0.0017299961995497753,-0.03361709396365576,0.0,0.03361709396365576,-0.08332205332096156,0.0,0.08332205332096156,-0.791300869778869,0.0,0.791300869778869,0.05570686262766621,0,-0.05570686262766621,-0.00707136685776453,0.0012782816241155405,-0.013926715656916552,0.4,0.036162614822387695,2.564396381378174,STABILIZE
0.03,0.0,0.006,-0.21628791720219714,-0.0016867021456466996,-0.0,0.004542189690453693,0.0028554875448069932,0.03,0.0,0.006,-0.22680050475588537,6.937456568533063e-05,-0.0,0.006022402398785607,0.006091776964470937,0.25,0,0,-0.18533450055878087,-0.003792603925669876,-0.0,-0.0,-0.003792603925669876,0.002,8e-05,0.0,-1.8706786868636078,-0.0015782765969701807,-0.00014965429494908863,0.0,-0.0017279308919192693,0.002312485522844354,0.0,-0.002312485522844354,-0.05622340485488999,0.0,0.05622340485488999,-0.7891382984850903,0.0,0.7891382984850903,-0.015170415702679504,0,0.015170415702679504,0.002857100387040181,-0.006091020692936568,0.003792603925669876,0.4,0.03579592704772949,2.6001996994018555,STABILIZE
0.03,0.0,0.006,-0.21727942256067945,-0.0008875374138900786,-0.0,0.0047691024778802205,0.003881565063990142,0.03,0.0,0.006,-0.22553995664937174,0.0011283686940952572,-0.0,0.006319662669246091,0.007448031363341348,0.25,0,0,-0.18817884796310652,-0.021217440714796077,-0.0,-0.0,-0.021217440714796077,0.002,8e-05,0.0,-1.8970721750534667,-0.0015750601212027983,-0.00015176577400427736,0.0,-0.0017268258952070758,0.03761228980317524,0.0,-0.03761228980317524,-0.029584580463002618,0.0,0.029584580463002618,-0.7875300606013992,0.0,0.7875300606013992,-0.08486976285918431,0,0.08486976285918431,0.0038925932487267325,-0.00744227359986666,0.021217440714796077,0.4,0.03351426124572754,2.633708953857422,STABILIZE
0.03,0.0,0.006,-0.22033551246208768,-0.002389666312049995,-0.0,-0.007830456433094372,-0.010220122745144368,0.03,0.0,0.006,-0.22444659156295507,0.0008549413787132395,-0.0,-0.0014253508359632844,-0.0005704094572500449,0.25,0,0,-0.18877842486919494,-0.003906922407895655,-0.0,0.0,-0.003906922407895655,0.002,8e-05,0.0,-1.9275751832879098,-0.0015900930828953257,-0.0001542060146630328,-0.0,-0.0017442990975583585,0.028498045957107983,0.0,-0.028498045957107983,-0.07965554373499985,0.0,0.07965554373499985,-0.7950465414476628,0.0,0.7950465414476628,-0.01562768963158262,0,0.01562768963158262,-0.01022027794680429,0.000567621850181479,0.003906922407895655,0.4,0.03836631774902344,2.672083616256714,STABILIZE
0.03,0.0,0.006,-0.224726945096327,-0.003830164027404655,-0.0,-0.008375918886382163,-0.012206082913786819,0.03,0.0,0.006,-0.22379444553131325,0.0005687953064642293,-0.0,-0.0016638251246545491,-0.0010950298181903197,0.25,0,0,-0.18699014803254457,0.012997644469095754,-0.0,0.0,0.012997644469095754,0.002,8e-05,0.0,-1.9550539898848651,-0.0015977828544768984,-0.0001564043191907892,-0.0,-0.0017541871736676876,0.018959843548807642,0.0,-0.018959843548807642,-0.12767213424682183,0.0,0.12767213424682183,-0.7988914272384492,0.0,0.7988914272384492,0.05199057787638302,0,-0.05199057787638302,-0.012205084251294549,0.0011061052480511118,-0.012997644469095754,0.4,0.03439617156982422,2.7064754962921143,STABILIZE
0.03,0.0,0.006,-0.2292827298996505,-0.004078738581756633,-0.0,-0.0014836384494994073,-0.00556237703125604,0.03,0.0,0.006,-0.2225769279285348,0.0010900286635131505,-0.0,0.0031110257914187794,0.00420105445493193,0.25,0,0,-0.18476576834242164,0.016595500106373264,-0.0,0.0,0.016595500106373264,0.002,8e-05,0.0,-1.9813475573009773,-0.0015693540191491647,-0.0001585078045840782,0.0,-0.0017278618237332429,0.036334288783771686,0.0,-0.036334288783771686,-0.1359579527252211,0.0,0.1359579527252211,-0.7846770095745823,0.0,0.7846770095745823,0.06638200042549305,0,-0.06638200042549305,-0.005567240573383556,-0.004194607153145584,-0.016595500106373264,0.4,0.0335087776184082,2.7399935722351074,STABILIZE
0.03,0.0,0.006,-0.23423969736755018,-0.00445165906099723,-0.0,-0.002232702206464478,-0.006684361267461708,0.03,0.0,0.006,-0.2220827245921186,0.0004438247325162287,-0.0,-0.003868870236091289,-0.00342504550357506,0.25,0,0,-0.17861715804733563,0.04601522488280892,-0.0,0.0,0.04601522488280892,0.002,8e-05,0.0,-2.0064306006211137,-0.0015017401640090905,-0.0001605144480496891,0.0,-0.0016622546120587797,0.014794157750540958,0.0,-0.014794157750540958,-0.14838863536657435,0.0,0.14838863536657435,-0.7508700820045452,0.0,0.7508700820045452,0.18406089953123567,0,-0.18406089953123567,-0.006673323943713248,0.0034465010949897407,-0.04601522488280892,0.4,0.033405303955078125,2.7734017372131348,STABILIZE
0.03,0.0,0.006,-0.23799530806800379,-0.003368704168780232,-0.0,0.006475919099871435,0.003107214931091203,0.03,0.0,0.006,-0.22190407597775458,0.00016024406679910315,-0.0,-0.0016957727996521307,-0.0015355287328530276,0.25,0,0,-0.1738470399327953,0.035655800657767356,-0.0,-0.0,0.035655800657767356,0.002,8e-05,0.0,-2.03231861722899,-0.0015480672594361858,-0.00016258548937831923,-0.0,-0.001710652748814505,0.005341468893303438,0.0,-0.005341468893303438,-0.11229013895934108,0.0,0.11229013895934108,-0.7740336297180929,0.0,0.7740336297180929,0.14262320263106942,0,-0.14262320263106942,0.003111027606887181,0.001527789365913755,-0.035655800657767356,0.4,0.03344559669494629,2.806847333908081,STABILIZE
0.03,0.0,0.006,-0.24050248296873541,-0.0022492682108211995,-0.0,0.0066952162333593366,0.004445948022538137,0.03,0.0,0.006,-0.22201791045805266,-0.00010212461753471104,-0.0,-0.0015691965779619614,-0.0016713211954966724,0.25,0,0,-0.17066266666791297,0.0238067075482667,-0.0,-0.0,0.0238067075482667,0.002,8e-05,0.0,-2.0586246620766606,-0.0015733339388232024,-0.00016468997296613285,-0.0,-0.0017380239117893352,-0.0034041539178237016,0.0,0.0034041539178237016,-0.07497560702737333,0.0,0.07497560702737333,-0.7866669694116012,0.0,0.7866669694116012,0.0952268301930668,0,-0.0952268301930668,0.004448719652836766,0.0016639296283470417,-0.0238067075482667,0.4,0.03343987464904785,2.8402891159057617,STABILIZE
0.03,0.0,0.006,-0.2429892990129455,-0.002215852838522811,-0.0,0.00019849624644887345,-0.0020173565920739377,0.03,0.0,0.006,-0.22227888298131548,-0.0002325369855139776,-0.0,-0.0007746843369942635,-0.001007221322508241,0.25,0,0,-0.1665102673979756,0.030832952476163175,-0.0,0.0,0.030832952476163175,0.002,8e-05,0.0,-2.084407204618858,-0.0015315519674103419,-0.00016675257636950864,0.0,-0.0016983045437798504,-0.00775123285046592,0.0,0.00775123285046592,-0.0738617612840937,0.0,0.0738617612840937,-0.7657759837051709,0.0,0.7657759837051709,0.1233318099046527,0,-0.1233318099046527,-0.002015183829699308,0.0010115614388745019,-0.030832952476163175,0.4,0.03366851806640625,2.8739519119262695,STABILIZE
