Mode,Time,Freq,North-Vision,East-Vision,Down-Vision,Yaw-Vision,North-Desired,East-Desired,Down-Desired,Roll-UAV,Pitch-UAV,Yaw-UAV,Roll-Control,Pitch-Control,Yaw-Control,Thrust-Control,northVraw,eastVraw,downVraw,yawVraw,zGyro
GUIDED_NOGPS,0.0027577877044677734,365.5485445354715,18.939913540093674,2.114927005348316,49.32642882486544,1.6982512828235545,17.995341938233008,2.0454056558119103,47.02180005283485,0.9147416223304202,0.4798636913191199,4.0542581380074685,0.15307843631933993,2.310937491683233,-10.0,0.4965430568419541,18.939913540093674,2.114927005348316,49.32642882486544,3.2875632007590947,5.385803274229739
GUIDED_NOGPS,0.028824806213378906,38.37844960105409,18.99955739367533,1.9885392916475157,49.63108111309623,3.663160421443811,17.995335966833423,2.0453576372107576,47.02178255016114,1.0033910744548389,0.3180148884162631,4.095646096169983,-0.019408996297077825,0.04945820985781921,-10.0,0.49608605215559737,19.059201247256993,1.862151577946716,49.93573340132702,3.5585421828864128,4.583662361046586
GUIDED_NOGPS,0.056577444076538086,36.04004158825905,18.967739386699794,1.778408879838879,49.94260750983698,3.7793617204831436,17.995294648919387,2.0450253820324225,47.021660734597226,1.1431861570230766,0.32173413986274657,4.310391939430239,-0.037362989184899664,0.03445886399227736,-4.809513305913242,0.49561857983714036,18.904103372748715,1.3581480562216057,50.565660303318474,3.8256172516021887,4.640958140559668
GUIDED_NOGPS,0.10390734672546387,21.132337085218513,18.90468439443297,1.6081454822232397,50.23438312520551,3.8962172791773844,17.995183954351894,2.044135239242722,47.02133222054594,1.3747063045546484,0.19672097404059163,4.5978724671619595,-0.028597600483862666,0.031368725966595776,-4.006103055720452,0.4951804236430106,18.715519417632496,1.0973552893763212,51.10970997131109,4.0516618248393454,4.18259190445501
GUIDED_NOGPS,0.15434741973876953,19.830662014316378,18.887542125155896,1.5132364854630076,50.48278421309364,4.044709172805969,17.994971271254016,2.042424962664945,47.020696712032546,1.2182377697270577,0.2834626689524611,4.771931727310095,-0.025924333619781914,0.034674800249610345,-4.393431299282817,0.49480686874840835,18.818973048047607,1.1336004984220789,51.47638856464614,4.1812859892243655,0.5156620156177409
GUIDED_NOGPS,0.19370174407958984,25.413247376457186,18.868861852848294,1.4602868779774312,50.923381944409435,4.1014681077853234,17.994625386448664,2.0396435536714743,47.019655988537835,0.9038661469027616,0.2704313083463114,4.778917303283726,-0.025636603488660634,0.03349056734624928,-3.684365762784238,0.4941444110661926,18.84651217855566,1.8501789679204326,51.52941748144444,4.151052535694063,-0.8021409131831525
GUIDED_NOGPS,0.24058914184570312,21.333224826940782,18.80887800023866,1.5380774046058805,51.2827403087183,4.071269767821778,17.994116465896365,2.035551103875408,47.01811389083118,0.7052600940120993,0.23987987218884438,4.69751041300046,-0.011768341921449845,0.027892886560003886,-2.638047002984588,0.4936030603731693,18.759281984208823,2.251104211088963,51.73252522287136,4.085179862530553,-2.119943841984046
GUIDED_NOGPS,0.2843000888824463,22.883680328226617,19.07282584144314,1.680952754437969,51.577254569709524,4.014279648941865,17.99341603513302,2.029918637822179,47.01597630680362,0.5346152347578825,0.08982573876554176,4.601086498053274,-0.0004551381675408084,0.06809136668536185,-2.2864506710720978,0.49315808260564115,20.22384257877111,2.0725248053820486,52.03823160827456,4.221201610642768,-1.8907607239317168
GUIDED_NOGPS,0.3299746513366699,21.897110876760674,19.035340959271938,1.8045198100465782,52.03240916632814,3.8847559021687386,17.992496959707665,2.0225279556811775,47.01315115730092,0.5048889708295177,-0.22847708481291965,4.381891640322402,0.0023586389858672053,0.039119899013752034,-1.4444893201514037,0.4924711129864592,18.52809500677647,1.7151905674193666,53.38548295440416,3.962189985062004,-5.156620156177409
GUIDED_NOGPS,0.3755795955657959,21.933409681585953,19.122448354201754,1.4109370988433456,52.62348729334584,3.7133698372108674,17.991333425620244,2.0131714759373716,47.0095483819566,0.4946814131974923,-0.5297490451393658,4.161684633933898,-0.053504214465465896,0.054030409602002345,-0.8171716628048649,0.49157909163291613,19.254510022696696,-0.8343130575940839,54.43177919973463,4.300686462724363,-4.755549699585833
GUIDED_NOGPS,0.4162476062774658,24.595118861927826,19.198373776938812,0.7577086418766898,53.29533299593326,3.5235916714993674,17.989900919759364,2.001652078082928,47.00507992502508,0.47865480119688053,-0.736289269885497,3.9088263351049717,-0.10103262165296638,0.056662951616618426,-0.3669048754114992,0.49056462039363774,19.226139292240944,-1.4159633169128463,54.88864599438155,4.248219917132904,-5.614986392282068
GUIDED_NOGPS,0.4634099006652832,21.209812240522268,19.291745238545236,0.024295136276327955,53.9265571502353,3.3007624142951557,17.988176210340065,1.987782945308834,46.99965972121469,0.50045249615933,-0.9794536092914713,3.631796423690193,-0.15050155794350983,0.06472042853803261,0.8824618182135939,0.4896096538564691,19.226139292240944,-1.4159633169128463,54.88864599438155,4.248219917132904,-6.932789321082962
GUIDED_NOGPS,0.4941823482513428,32.500127852466,19.085927591449877,-0.7207766172117201,54.549632617633904,3.1097445702210993,17.98613732734158,1.9713874071965176,46.99320368152077,0.4149329782220697,-0.859636296436992,3.3794631956537113,-0.15760705997578153,0.02659415664627607,-0.23288549880431608,0.48866535659583027,19.194754343294317,-1.6528339620581922,55.15360894526762,4.069300243548951,-7.047380880109126
GUIDED_NOGPS,0.5449836254119873,19.689072277223076,19.12428452777637,-1.4958696477052444,55.00927643199585,2.7949263312015704,17.983763542945113,1.9522987824094689,46.98562967905869,0.23234099753158993,-0.8229111163217739,2.9334373286998927,-0.18043139703923836,0.04998813072469663,0.957268787695496,0.48796452987059424,18.719879688408934,-2.1602745850482554,55.68370202621389,3.5104692164278735,-8.995437383553925
GUIDED_NOGPS,0.5896899700164795,22.374394537501335,19.112824151429624,-1.2623988095519647,55.108982067894104,2.4135603112193036,17.981035351971578,1.9303602213848614,46.97685753489698,0.11139845103199068,-0.5418407211261098,2.518446133787319,-0.09615022806029867,0.04565194087329681,2.397814963961248,0.4878018132005043,19.197208140962953,0.33304113317231565,54.93030737922587,2.997027294757408,-7.964113352318443
GUIDED_NOGPS,0.6324350833892822,23.399446576809783,19.006260311191944,-0.9102593283632665,55.131485947995785,2.0715371748881735,17.97793445231939,1.905424549025173,46.96680900389037,-0.001597290430217728,-0.18484967837628632,2.178423308648217,-0.07127304134925294,0.03251805566164389,2.352281924590146,0.48775298458384186,18.693320091052545,0.34473408903064384,55.00116539488995,2.568950150287495,-8.250592249883855
GUIDED_NOGPS,0.679896354675293,21.07521003336415,19.01673454702007,-0.6518105561693168,55.187265233069716,1.7384475509312134,17.97444372540221,1.877354107389807,46.95540776051284,-0.050346104774637516,-0.07881931580488934,1.841262546214762,-0.07092635907011458,0.04411820710285132,2.107748704067035,0.4876522137911647,19.278510471381587,-0.12371945594309781,55.16754241975122,2.1842689470434307,-8.250592249883855
GUIDED_NOGPS,0.7144784927368164,28.924838111263593,19.083487412881645,-0.19921630016061642,55.21495751584264,1.3933874298029945,17.970547216586727,1.846020598386713,46.94257938469073,-0.06155682643068869,0.15244448618939552,1.548846673199178,-0.024713433797637067,0.0540571546394306,3.803653626767617,0.4875914328032721,19.52851867260217,0.6101373179853096,55.29207035913217,1.938337422857561,-7.16197243913529
GUIDED_NOGPS,0.7539410591125488,25.346749095040398,19.0060218636814,-0.06650483820840432,55.30724371030878,1.157974864361092,17.966230115630403,1.8113049264640078,46.92825134763576,-0.03873062103909036,0.10764954429151315,1.4529871026321646,-0.05396071806841393,0.03539107248053648,1.9634196889463733,0.48743151145599045,18.332551942407715,-1.496717275287195,56.145132998544604,1.5320554439987597,-7.047380880109126
GUIDED_NOGPS,0.7843596935272217,32.880255246427254,18.853305320046648,-0.7093051840925259,55.711269900987475,0.8992749349507108,17.96147873711925,1.7730970413015974,46.912352997678134,-0.02041473506797392,0.1902132978654504,1.2665790739080576,-0.1636195343381432,0.01738663081427569,3.3981856968111437,0.486801624645036,18.4336254227892,-2.880960596248292,56.95043833261935,1.4450442185096657,-6.589014644004467
GUIDED_NOGPS,0.8296937942504883,22.061350725857352,18.80136638639398,-1.3544441211483131,56.10112448853336,0.7313339294516985,17.956280500905596,1.7312957805027969,46.8948155460996,0.165286829314393,-0.2521547893444151,0.7607222972896607,-0.1624101155778158,0.03094991918675707,1.1128447493066083,0.48619053658634936,18.4336254227892,-2.880960596248292,56.95043833261935,1.4450442185096657,-5.443099053742821
GUIDED_NOGPS,0.871239185333252,24.076552606956092,18.570365780863302,-2.1208203132014534,56.57190532637495,0.4866990887399776,17.950623912545833,1.6858087122859524,46.87557205296651,0.20774467257736742,-0.537467799231715,0.5471903600718165,-0.20399285209329843,0.0039424436892929945,2.403915971826917,0.48545550008988736,18.123507443728194,-3.9556004162088008,57.52144660895918,0.903824219579751,-4.8128454790989155
GUIDED_NOGPS,0.9084806442260742,26.85746851167645,18.289363535088505,-3.0339678600402755,57.01778057634035,0.2811757985680501,17.944498543738202,1.6365519781760616,46.85455741296289,0.16535406398903532,-0.744441207381613,0.355480930613016,-0.2568645863779082,-0.015023561481818206,2.3473517294325315,0.4847551652549338,18.123507443728194,-3.9556004162088008,57.52144660895918,0.903824219579751,-5.271211715203574
GUIDED_NOGPS,0.954658031463623,21.660206257972227,18.244361463570034,-3.623123654814937,57.31079929398926,0.12856878257086155,17.937895012760553,1.5834501356963955,46.83170834122352,0.058769202114824344,-0.6726469545814934,0.16577334689062417,-0.23462341172892406,0.009984764953026276,1.33883983137651,0.4842813635708514,18.10754158481537,-4.4424962491605005,57.610226586789146,0.6567353802981539,-3.495042550298022
GUIDED_NOGPS,0.99605393409729,24.163103529723532,18.201909262736915,-3.832765780121119,57.365711277466744,-0.04099903460225237,17.930804964908095,1.5264360010601186,46.80696335916698,0.012346313976738518,-0.5224110740932449,0.052890760452023865,-0.21139780607416414,0.008473007445458227,1.8594538375937772,0.48416187812255035,18.22136441862362,-3.9291712227792046,57.224998250006756,-0.01179623213984769,-2.9220847551671985
GUIDED_NOGPS,1.039186954498291,23.190246869211844,18.1594570619038,-4.042407905427301,57.420623260944225,-0.12982464839261607,17.923221052931172,1.46545049186191,46.780262780328734,-0.06307715050071816,-0.1922348204163626,-0.041030310381068615,-0.21618373180199119,0.007257416753651895,0.8872742389395852,0.48403945927907677,18.22136441862362,-3.9291712227792046,57.224998250006756,-0.01179623213984769,-1.3750987083139758
GUIDED_NOGPS,1.0849699974060059,22.24681889304373,18.133318925965398,-4.051046971086963,57.37130538451531,-0.1984675147456374,17.91513691747303,1.4004424697695856,46.75154869619421,-0.13790213299236567,0.05928198657089098,-0.08346090959358901,-0.19714078409832583,0.008177518730392772,0.6703697976876817,0.4840703649675184,17.99281676403618,-3.9987957445071136,57.274857226814596,-0.2033433815592385,-0.7448451336700702
GUIDED_NOGPS,1.124180793762207,25.000023841880648,18.326793546347613,-4.2519038224902355,57.32019429557333,-0.2380964260381893,17.90654716750758,1.3313685832157183,46.720764962031836,-0.2191371346282578,0.20211831758878263,-0.09481060959099408,-0.21875060922382197,0.03846652919218385,0.42158738234895554,0.4841008559996878,19.090880545639266,-4.959884673225159,57.265891164249325,-0.33777660813334565,-0.17188733853924698
GUIDED_NOGPS,1.1642208099365234,24.98260159986658,18.41112808678765,-4.443721322391092,57.282439964887615,-0.25152499416298657,17.897447360777146,1.2581931100892592,46.68785718272614,-0.2714631471586594,0.19735191276517156,-0.11433640621066142,-0.2221843310339883,0.03137779971390461,0.10245957006069797,0.4841081258267578,18.52921428701555,-5.401583748664783,57.42145493336057,-0.44777278724491976,0.2864788975654116
GUIDED_NOGPS,1.2089848518371582,22.343762152602054,18.472698060466037,-4.738203827568208,57.32173130155837,-0.23650241937529523,17.88783398423026,1.1808878004271577,46.65277269861079,-0.31518086683881025,0.1773573877436055,-0.041736981496113705,-0.23721438200125403,0.031227810389371186,-0.24813155846444981,0.4839965620955786,18.52921428701555,-5.401583748664783,57.42145493336057,-0.44777278724491976,1.2032113697747289
GUIDED_NOGPS,1.2530717849731445,22.689329106665657,18.974494269528268,-5.357013189779379,57.272427339835545,-0.19650270895509023,17.877704434459396,1.099431719105985,46.615460571301675,-0.16611121447091504,0.04733064962724961,0.0211191049962381,-0.2840494295603425,0.0928690165225331,-0.5670099099368148,0.4840145498471992,20.73034546393478,-7.02321803383506,56.97847844139262,-0.565814664492943,1.7188733853924698
GUIDED_NOGPS,1.2946226596832275,24.07144004958564,19.578874547569693,-6.135500640863674,57.18937344239697,-0.1357345282486548,17.867056998138754,1.0138110885335527,46.57587156952999,-0.10363806213417359,-0.021302292804211954,0.11155932066324299,-0.32638450272675523,0.1312174589533891,-0.8957865852607716,0.4840797471906995,21.014718154243315,-7.891232999928586,56.85958773962178,-0.43464717990433255,1.948056503444799
GUIDED_NOGPS,1.333993673324585,25.405858551595475,19.963642069290504,-6.721770306204358,57.10811275747146,-0.08112272663743854,17.855890832462016,0.9240191313405353,46.533958154975274,-0.008156679941916663,-0.1114571613103837,0.16461260159790547,-0.3292372238857665,0.1274463002874602,-0.8864696840911265,0.4841387680962557,21.014718154243315,-7.891232999928586,56.85958773962178,-0.43464717990433255,1.432394487827058
GUIDED_NOGPS,1.3819169998168945,20.889112451379308,20.100326394551598,-7.522014679278823,57.07449956386305,-0.03938885640468053,17.844205945580114,0.8300559130720901,46.48967446809851,0.015229174074799583,-0.10480199573785252,0.19116648278063741,-0.36469224168127007,0.10585625966521302,-0.6681735020496409,0.4841227623563532,19.21263591332102,-9.402805614037105,57.25338896531848,0.025089890768953477,0.5729577951308232
GUIDED_NOGPS,1.422607421875,24.58041679364261,20.237010719812695,-8.322259052353287,57.04088637025463,-0.0010978476820958588,17.832003177038995,0.731928184879481,46.44297631397514,0.028949516673261035,0.03101268736985446,0.22692521780872515,-0.39741293643674247,0.11370801302645438,-0.7112779957411153,0.48410313491558077,19.21263591332102,-9.402805614037105,57.25338896531848,0.025089890768953477,0.7448451336700702
GUIDED_NOGPS,1.4651238918304443,23.52728945331344,20.476052661474785,-8.775105072048488,56.81470665969461,0.022431166473137865,17.81928417821738,0.6296492262116953,46.393821148128204,0.057504123014491045,0.1170024211427878,0.2233377409884553,-0.3788093276372052,0.13345412739385237,-0.540431544042105,0.4843686717326504,21.92555517224524,-9.287448132311063,55.84757988859245,-0.21432177488021095,0.40107045659157625
GUIDED_NOGPS,1.5032179355621338,26.258547182450496,20.627551949683784,-9.099840213250587,56.607776932597424,0.035305652632726045,17.80605139276453,0.5232386875070669,46.34216806236136,0.017554800126336034,0.31286513922548503,0.2771977312971198,-0.3779836876188742,0.1338470122996256,-0.44144482038588906,0.4846015866946459,21.772214595288304,-9.514908705939076,55.824939104135865,-0.2358477855110754,0.11459155902616465
GUIDED_NOGPS,1.5484018325805664,22.13469840097103,20.918830369167328,-9.614065420328865,56.37375711876017,0.0390862832582185,17.792308037038016,0.4127224328848993,46.28797777059196,-0.07297224698853529,0.1900931292247405,0.257080476313905,-0.40466850679505917,0.15611702049611478,-0.3147344394240804,0.4848713309777477,22.471110251661024,-10.462359035319968,55.68948867043549,0.005927712410155654,-0.11459155902616465
GUIDED_NOGPS,1.5891001224517822,24.577824135385047,21.55940203590418,-9.830068273459034,56.02626536036921,0.03655467004151615,17.778058080541477,0.2981323828370861,46.23121259468412,-0.20189929796809267,0.3334624284413047,0.2725209460259386,-0.385102434047889,0.22081794449196845,-0.2389658780143838,0.4853074208514724,22.415494247005295,-10.482819879687954,55.515930173363685,-0.1479248264079004,-0.17188733853924698
GUIDED_NOGPS,1.6331090927124023,22.72571818684236,22.19997370264104,-10.046071126589203,55.67877360197825,0.05509449592872121,17.763306226362392,0.17950635691972483,46.17183645028182,-0.21727792245162594,0.5377965020855218,0.3130933369128722,-0.38783880949959376,0.24228629803024765,-0.4965404134059983,0.48573959427245533,22.415494247005295,-10.482819879687954,55.515930173363685,-0.1479248264079004,1.2032113697747289
GUIDED_NOGPS,1.6754672527313232,23.614715056245565,22.620785054196826,-10.571090837813532,55.5236149810955,0.07545590239449884,17.74805789160983,0.056887916444750664,46.1098148326419,-0.18093221804174023,0.5689799441846266,0.31292239542063677,-0.42961913886054776,0.24188893434223843,-0.5429873687602196,0.4858792997773196,24.029611930024203,-11.91254668843271,55.07178678417868,-0.05457144790615167,0.34377467707849396
GUIDED_NOGPS,1.720398187637329,22.259806288974392,23.291527849231723,-11.190327707011296,55.28642375094671,0.09895294373787675,17.732319187852234,-0.06967379282845165,46.045114802467204,-0.13519799173084887,0.5887783147109663,0.31118984856855425,-0.4531675909020829,0.2899659776638126,-0.5805136053601962,0.4861380365772807,25.125928570462786,-12.611093051927886,54.638982953391896,0.03277523110693401,0.7448451336700702
GUIDED_NOGPS,1.7630095481872559,23.47159717286804,24.09505985860094,-11.735208641827068,54.94131647439724,0.11080390751107527,17.71609690155517,-0.20012419800142522,45.9777049717396,-0.16053763336583918,0.585765560956756,0.3155545795720304,-0.4640433254727131,0.33941275481717786,-0.4652500314499068,0.48655458274601354,26.48877029850711,-13.186763709398834,53.963952287688116,0.08652024632688905,-0.17188733853924698
GUIDED_NOGPS,1.8125700950622559,20.183165553481032,24.664881567598833,-12.277084038044526,54.68374657356536,0.11364817989369404,17.699398474519096,-0.33440345634502,45.90755548955306,-0.27885258474739333,0.6787786501871665,0.30636071806237014,-0.474060020037356,0.33379589052175895,-0.35616617852222027,0.48683571337398157,25.26460279199479,-13.192196860775253,54.22808066920431,0.10504977329856514,-0.057295779513082325
GUIDED_NOGPS,1.8515400886535645,25.665165459173682,25.074518707842564,-12.858329038093448,54.462165539639145,0.09599822810501446,17.682231984317127,-0.47244661260776466,45.834638027946745,-0.2814602762673102,0.6781246595741378,0.2849318266346749,-0.5015835898141573,0.3471388190645053,-0.08675184106454728,0.4870587087324614,24.46367994822394,-13.389044879932557,54.40802500373263,0.1628852924814669,-1.088619810748564
GUIDED_NOGPS,1.897378921508789,21.818287747479687,25.195984896321256,-13.15548559083608,54.29652092641212,0.059992391335456974,17.6646061247328,-0.614183756324258,45.75892576773806,-0.3351974032121937,0.7579435308753762,0.24780371871927898,-0.4788478783639202,0.32126348101940416,0.10783204166346938,0.4871936072619889,24.636942872417656,-13.398329452145877,54.243563718043575,0.11366141669353834,-1.3178029288008934
GUIDED_NOGPS,1.9334359169006348,27.749282170029772,24.99624327680332,-13.395437164571476,54.222495086584765,0.013175321111349166,17.646530186197843,-0.7595401791235394,45.6803933843557,-0.34659757590632684,0.7593364625792357,0.1888014630794544,-0.47997570846193593,0.28139496478183484,0.4041718246285044,0.4871868474466564,24.127220472873116,-13.810850920604864,54.26885375425511,0.1282125375544492,-1.2032113697747289
GUIDED_NOGPS,1.9776930809020996,22.599716581084213,24.46593290305824,-13.36979120002334,54.22431429563246,-0.025361519130976246,17.628014036229924,-0.9084365320374683,45.59901703367278,-0.41436697965545777,0.858616677259956,0.15456081763568133,-0.45019062333044496,0.23467530234285716,0.21190266717825834,0.4870620541070605,23.837218429781686,-13.058533886658152,53.973048332926645,0.007926254066403888,-1.1459155902616465
GUIDED_NOGPS,2.0350348949432373,17.44174654329972,24.00490379369108,-13.502954157388993,54.20878237166661,-0.05065622486799342,17.609068099870434,-1.0607889828091062,45.51477433783982,-0.34357366973386233,0.8186718100030174,0.11636254447534868,-0.4633416852603747,0.23275296578097987,0.012763855460627221,0.4869589879492598,22.95945724515902,-13.85801164760352,54.150421049375055,-0.029503417137035703,0.17188733853924698
GUIDED_NOGPS,2.082231283187866,21.191166440152177,23.908318996575762,-13.927683909133687,54.06910364563305,-0.06645667461882518,17.589703340122238,-1.2165093732010939,45.42764437111787,-0.2538564669431003,0.7500388675715558,0.1266403516702047,-0.49562226990689734,0.25452911993282756,-0.029932377548877037,0.48703781108822725,23.980755962647343,-15.512693638656037,53.709631373564825,0.20906861231101315,-0.17188733853924698
GUIDED_NOGPS,2.122976064682007,24.546754842862995,24.01359376793298,-14.176751011471847,53.8437379983488,-0.0561634126907167,17.569931238387444,-1.3755053763040292,45.337607645711586,-0.11837801056945779,0.681820645688761,0.1442804624600998,-0.4866009624175702,0.27884456609092323,-0.33394552102095265,0.4872408044710442,25.163316729203753,-14.643664963836668,53.11673548162232,-0.1599171757020953,0.9740282517223995
GUIDED_NOGPS,2.172912836074829,20.028383424538482,24.220813019199106,-14.343313820118208,53.61331434382223,-0.041277198691679666,17.549763774905177,-1.5376806538448484,45.244646097602256,0.034448205821304756,0.41683129056365725,0.1383847952469755,-0.47951396538311286,0.2943629072274658,-0.36739557477830065,0.48744699763067,25.163316729203753,-14.643664963836668,53.11673548162232,-0.1599171757020953,0.34377467707849396
GUIDED_NOGPS,2.22070050239563,20.93122738727949,24.686996633487134,-14.749107629820466,53.29558821410478,-0.00894422016614724,17.52921340918932,-1.7029350134952037,45.14874307238089,0.11737297224547422,0.42320577804998316,0.1824891276465329,-0.5067601332434526,0.33722993476644436,-0.5826030856952849,0.48777973228741417,26.168136501221824,-15.087502935169443,52.384417684339375,-0.10061011821881476,1.1459155902616465
GUIDED_NOGPS,2.263742685317993,23.237527493531747,25.328732484699692,-14.995005887333651,52.94238754109765,0.028190330985892274,17.508293060466304,-1.8711645661798415,45.04988331108129,0.1496798203804874,0.27767451051769837,0.21575645779336594,-0.49810383008789594,0.3852735410559217,-0.7022987468789363,0.48816124365497543,26.168136501221824,-15.087502935169443,52.384417684339375,-0.10061011821881476,0.8021409131831525
GUIDED_NOGPS,2.2997312545776367,27.79525513585156,25.79926749027039,-15.118317800591953,52.60449327169781,0.04789230742929421,17.487016088112856,-2.0422618833849846,44.948052936013106,0.14260881368137882,0.14470972384117922,0.2061234498046282,-0.48522454108885155,0.3981369382219481,-0.5556186581747267,0.48851533949647297,26.333430990500805,-16.129253204947545,52.02016002656565,0.05144133955151642,0.057295779513082325
GUIDED_NOGPS,2.3440074920654297,22.591317462027362,26.05746721848282,-15.42840204643311,52.34306771829913,0.06016604821562258,17.465396272093766,-2.2161161544667065,44.84323943659494,-0.023366637439568974,0.1511012868004302,0.23086402248442756,-0.5066408647115188,0.38024307651423733,-0.4288767227607768,0.4887502575774437,26.454315370265927,-16.19408619304245,51.80960771462891,0.013430627094912087,0.34377467707849396
GUIDED_NOGPS,2.3883116245269775,22.57660363546326,25.634757071529435,-15.772113736758829,52.23459595216129,0.0661208140347112,17.443447793399663,-2.39261334395931,44.73543165518736,-0.026967454473061515,0.1479745542644453,0.21052454622934938,-0.5157921305847885,0.30219430037078165,-0.3609796509015777,0.4887512535545391,23.049765994436818,-16.362223415465262,52.57437665093315,-0.04970960191395071,-0.11459155902616465
GUIDED_NOGPS,2.4323363304138184,22.718701758757224,24.692655347237764,-15.999342122947875,52.33771354570346,0.06585314178958053,17.42118521448476,-2.571636348883719,44.62461977292601,-0.07088148873099737,0.10427884593611186,0.18294956510591376,-0.5084865845866162,0.21751473719462944,-0.29012489937755875,0.48843035934083384,21.457627879763454,-16.22364486611466,52.900005652050176,0.0002901166013519361,-0.11459155902616465
GUIDED_NOGPS,2.476987361907959,22.40259795752681,23.6091938884758,-16.235245698936744,52.428487665605005,0.052294973235306644,17.39862345970463,-2.7530651560558326,44.51079529555465,-0.1731743904648619,0.19399850332610685,0.17129627520609353,-0.5116481708026429,0.16285454729391757,-0.12962903360460082,0.48812346144492447,20.75082920741201,-16.267020815113792,52.83828828384716,0.003573870911332088,-0.6875493541569879
GUIDED_NOGPS,2.5176150798797607,24.620239492838696,22.457327378118514,-16.34778961757142,52.56340024649029,0.014419966388350754,17.375777795753976,-2.9367769993949295,44.39395103925825,-0.30191586573827855,0.23658323869725542,0.13076977465264597,-0.4989012008636384,0.10163426145371476,0.21406495877863946,0.48774582618915197,20.574098438714365,-16.69197279812091,52.694722930992064,0.04526917222255682,-1.5469860468532228
GUIDED_NOGPS,2.565211296081543,21.01428406807854,21.256262673726532,-16.415055265479836,52.71120461911498,-0.049641257219890544,17.352663812104385,-3.1226465172320346,44.27408111649604,-0.44061390253193583,0.1929425987691052,0.003031194723023184,-0.49255152672896907,0.0653518159020017,0.4764855485383691,0.4873443147460716,20.448991848306008,-16.530414432584543,52.548629577752365,-0.07745018070207042,-2.291831180523293
GUIDED_NOGPS,2.6113102436065674,21.696957783491023,20.670242109757528,-16.462812972144285,52.7057916896016,-0.15200502217362277,17.32929740144209,-3.3105459096182956,44.151180921834595,-0.4651654443903698,0.20939567070601967,-0.08584612637759118,-0.48612674491921903,0.09434043741265566,0.9903124122550955,0.4871680838483495,20.11966317459181,-16.601011948787505,52.54731200336617,-0.15119737581767204,-3.0939720937064457
GUIDED_NOGPS,2.655806303024292,22.479681855698836,20.35906315252746,-16.602429778265588,52.62853319628488,-0.2622648443058672,17.305694740105746,-3.500345095633369,44.025247117780864,-0.5194779347315476,0.3266785564916011,-0.20845599942682722,-0.4919496093646094,0.1066906720773353,1.1766295597599439,0.48709507088224396,19.901733093613135,-16.92172889672118,52.51371318546659,-0.17104707766604377,-2.864788975654116
GUIDED_NOGPS,2.703397750854492,21.020287065993102,20.236869533422254,-16.7937476257244,52.52802528740388,-0.39815065972761277,17.281872268524193,-3.691911870693791,43.8962776206153,-0.5827836497755166,0.1288760646846203,-0.38385684479812815,-0.49656059233176203,0.1202677453390264,1.4842513181553374,0.48705237849981714,20.13986111188596,-17.223610052407867,52.33574873944218,-0.25541432107403755,-3.8388172273765155
GUIDED_NOGPS,2.750136613845825,21.399401023464165,20.34615476633803,-17.07647957363997,52.36668057593907,-0.5488883178842785,17.257846671654203,-3.885112063861367,43.76427158622488,-0.6467828424636534,-0.0020469223168881963,-0.5218140195102506,-0.5073863446952603,0.14576397207561906,1.7861849602329063,0.4870963865154287,21.12052460329325,-18.10563253769875,51.88799937366805,-0.3401493051461406,-3.380450991271857
GUIDED_NOGPS,2.7927660942077637,23.46424395674478,20.24044503524801,-17.343676819520674,52.27095891778346,-0.6804334240491158,17.23363485941827,-4.079809695151541,43.62922939593618,-0.6815428490886118,0.02448921638225759,-0.6528660330540489,-0.5097585067382923,0.12328855954174826,1.8035833371496772,0.4870374057172291,19.920443192855885,-17.86640066198806,52.070021286974296,-0.4507575414840727,-2.3491269600363753
GUIDED_NOGPS,2.8379135131835938,22.17600998218223,19.84712847057367,-17.681897386825923,52.17576649458039,-0.7872636865029984,17.20925394714235,-4.275867132841782,43.49115264234845,-0.6707047262579768,0.144725945540458,-0.7585196680040374,-0.520917848564518,0.08279874130296004,1.5329150832471328,0.4869730792216521,18.153080351220108,-18.292114785313746,52.07134988735084,-0.6389401644130933,-2.4064227395494577
GUIDED_NOGPS,2.885413885116577,21.034940345140598,19.497397922095065,-17.955974564544437,52.08729383495724,-0.8751417972774973,17.184721235993656,-4.473145250779954,43.35004411516671,-0.5526933047478783,0.1523042538679987,-0.8260484143066312,-0.5186024810217363,0.07568407651294076,1.3180951107524546,0.4868941254203142,18.153080351220108,-18.292114785313746,52.07134988735084,-0.6389401644130933,-1.432394487827058
GUIDED_NOGPS,2.9342751502990723,20.471303694231455,19.06686168871548,-18.214755035767823,51.957345176594174,-0.946221321520194,17.16005419341838,-4.671503585692697,43.20590778703476,-0.5001559165389633,0.07827631576587332,-0.899444239745413,-0.5201106023871627,0.052995238784815504,1.185576157347601,0.4868728439156609,17.987179944988046,-18.51751240852479,51.68600544762687,-0.7893482100618398,-0.9740282517223995
GUIDED_NOGPS,2.9863851070404053,19.194142412593813,18.363143907499328,-18.305022161501633,51.904744176749475,-0.9878841209924921,17.135270433579496,-4.870800494493826,43.05874879936829,-0.46676509603832794,0.009747320275842884,-0.8885355205064035,-0.5038874228989534,0.001404876680400291,0.9246524979789246,0.48673100693392823,17.6019356972125,-18.5569681663678,51.62499437444457,-0.8702555574029359,-0.17188733853924698
GUIDED_NOGPS,3.0310823917388916,22.378333964690253,17.918758380294427,-18.46906403078848,51.79328426648861,-0.9906129877789572,17.110387697794508,-5.0708933115926715,42.90857344818794,-0.26087133802496787,-0.27625959414244794,-0.8832207261976345,-0.5089065924033169,0.007856732228474848,0.5152515408635981,0.486672933772549,17.69851555683138,-18.686610008422306,51.51272173566996,-0.938031312875999,0.7448451336700702
GUIDED_NOGPS,3.0763800144195557,22.078305452325054,17.788309458513403,-18.540878252335375,51.67510653667961,-0.971319998820135,17.085423834973213,-5.2716385062025,42.75538916995235,-0.05501754062031633,-0.40547012465298726,-0.8518954509515462,-0.4971175441535824,0.028742994721182445,0.2632550150436851,0.4866204239499091,17.500835742314973,-18.651185893048225,51.48046123830581,-1.0381732281561644,0.8021409131831525
GUIDED_NOGPS,3.1185805797576904,23.707883967532613,17.700515652982443,-18.664072253009827,51.51571671010597,-0.9207798534219868,17.060396782055467,-5.472891839648852,42.59920452739127,0.1842310259880845,-0.5196836941802943,-0.7705317829591213,-0.4983237762471166,0.029559967252302755,-0.16376909069666673,0.486625231725928,17.714111323565323,-18.908084788685994,51.27440075448263,-1.0746455192369488,2.0053522829578814
GUIDED_NOGPS,3.1577260494232178,25.552120964745015,17.514800160751264,-18.772976889415837,51.41404627172928,-0.850184938497402,17.035324544448954,-5.674508522677961,42.44002919533858,0.3162893585163357,-0.5673801858149626,-0.698145544857032,-0.4936065843434377,0.012518486659415448,-0.513024671638182,0.48653897438541394,17.058602483832153,-19.062035590554853,51.17765325574346,-0.9477060769165331,2.177239621497128
GUIDED_NOGPS,3.203401803970337,21.897911130370318,17.291897941408806,-18.8996332989472,51.29650723610855,-0.749228699468109,17.010225176466946,-5.876343372765103,42.2778739465654,0.4766034499292024,-0.6544649910109195,-0.5514792919837614,-0.4940543038098625,0.0035485130086373023,-0.7900587310189486,0.4864720500656853,16.4874246005002,-19.190250214024598,51.03729919634091,-0.8507890231028848,3.552338329811104
GUIDED_NOGPS,3.247263193130493,22.803929777251003,16.893894994597638,-19.100457151088314,51.1785881896926,-0.6146245413047905,16.985116761766065,-6.078250971422976,42.112750637613104,0.5565015620969835,-0.6983162995862823,-0.44118977285633254,-0.500494128759263,-0.02838274066104942,-1.3130233048003666,0.48640124367188076,15.708500822775552,-19.690729269127893,50.923126503590176,-0.7211734221673078,3.7815214478634336
GUIDED_NOGPS,3.2974963188171387,19.911529715590536,16.452089278938264,-19.247355398227445,51.067943390595396,-0.45074729381230266,16.960017393784057,-6.280085821510111,41.944672194626456,0.6540645711708275,-0.5233839491631487,-0.16849352308843465,-0.4952134805686649,-0.044639809631586314,-1.5331481381588667,0.4863150932060466,15.29180716401809,-19.385677128743872,50.92723724281977,-0.7611773519904805,4.698253920072751
GUIDED_NOGPS,3.343341827392578,21.814316102624915,15.827746399333828,-19.419310874790213,50.98513842421724,-0.22874531643308615,16.93494515617754,-6.481702504539225,41.77365259918663,0.47768603491264944,-0.4136699801949991,0.08241871210567366,-0.49639078127204733,-0.08803205400530498,-2.474989861793123,0.48618277126245407,14.592396925543142,-19.767862171499843,50.86037592259184,-0.5394010180622119,5.500394833255903
GUIDED_NOGPS,3.3885700702667236,22.116490724824146,15.193820441152235,-19.6853260842831,50.90108038432565,0.0007637248515106262,16.909918103259795,-6.682955837985578,41.59970687414429,0.33716577835362677,-0.38746638633106834,0.31650522984670515,-0.5069529250839447,-0.11486782580648877,-2.7774838834507753,0.48604793973472793,13.88897269292418,-20.392111638019294,50.757363056285506,-0.3058478755005403,5.958761069360562
GUIDED_NOGPS,3.437382698059082,20.48850352929683,14.424382313135652,-19.815201037696053,50.88783739048086,0.2541216062762482,16.8849542404385,-6.883701032595402,41.42285106945266,0.28493895030853583,-0.37621343623006076,0.6813605684151371,-0.49452936776739337,-0.1521110185329949,-3.0015605112377655,0.4858025205184577,12.640233960417293,-19.839624981089365,50.971084227116926,-0.22385932928808971,6.41712730546522
GUIDED_NOGPS,3.48282790184021,22.01329939381216,13.831251479532659,-19.903501542436537,50.8862641048985,0.5547590649852606,16.86007150465351,-7.0837938496942545,41.24310224800061,0.23125867935240735,-0.2681831088923194,0.8836771749332617,-0.4874092186689816,-0.16437956020023176,-3.949474655060349,0.4855352572146532,12.742846654760578,-20.13223179283031,50.9152600756784,0.08274209852370419,6.932789321082962
GUIDED_NOGPS,3.530348062515259,21.045494914624907,13.259317411561279,-20.1324047712612,50.875366498495,0.848774102282165,16.83528774481463,-7.283090758495378,41.06047847144568,0.1401340974068657,0.06867883276494759,1.320075783530242,-0.5004454613708431,-0.18293133653660562,-3.9561140560369354,0.485277667959426,12.432136824161185,-20.530193272867198,50.872749210802226,0.3579537410552862,7.104676659622208
GUIDED_NOGPS,3.575904607772827,21.953844784900365,12.842440103183199,-20.533416949692473,50.81058260239227,1.1525856523435103,16.810620702239355,-7.481449093408129,40.87499878604718,0.2776242979551282,0.13437500729671523,1.6014711463200104,-0.522366216365639,-0.18691623079330988,-4.392595919540677,0.48509662427548234,12.508010383652742,-21.77292306365619,50.53645644207826,0.6892639551783273,6.359831525952138
GUIDED_NOGPS,3.6204216480255127,22.471010532857587,12.438781252715597,-20.846301230078648,50.75338332688533,1.434039528473183,16.786087991090657,-7.678727211346301,40.686683208499275,0.4409295319767845,0.2740237744063266,1.905846680572287,-0.5205929254972496,-0.20252332966321715,-4.458039376025895,0.4848999498224209,11.870678440586156,-21.95653303995017,50.47136667875076,1.169816173224908,6.474423084978302
GUIDED_NOGPS,3.671936511993408,19.415557242579666,12.313870853911968,-21.32798146919111,50.62848833873687,1.6917452687799706,16.76170707881474,-7.874784649036529,40.49555271176401,0.607821789251461,0.42984087994182746,2.201131126317571,-0.5424364514425244,-0.18002557762021426,-3.9639655057247962,0.4848005965595407,12.015681966399153,-22.24802617665168,50.34660928637463,1.3559513468008857,5.500394833255903
GUIDED_NOGPS,3.703951597213745,31.24877256505964,12.158048657117119,-21.949194971543363,50.458209368154684,1.9535625231350264,16.737495266578808,-8.069482280326708,40.30162921090441,0.6247937421218849,0.410717204039438,2.3461285718775367,-0.5869707691835603,-0.1943270415406515,-5.776658616184477,0.4847651297641246,11.963735670786336,-23.238299304591568,50.063865222767475,1.6441126660333285,4.755549699585833
GUIDED_NOGPS,3.750142812728882,21.653161524800726,12.089693713271911,-22.46627467927779,50.30169138604331,2.0911899425610514,16.713469669708818,-8.262682473494293,40.104935548917524,0.5797253258529376,0.4094388914475878,2.5483045191874414,-0.5762695665955072,-0.18352472288456922,-3.236921086391514,0.4847048662443113,12.090362104935142,-23.11559181153932,50.090159300245375,1.8257414563617433,4.18259190445501
GUIDED_NOGPS,3.799196720123291,20.387222211420685,11.94826919203939,-22.781407145033004,50.205695561091225,2.2575440101891537,16.68964719812726,-8.454249248554712,39.90549548256752,0.466620541487847,0.48549155375179887,2.744382815115817,-0.5650744210639337,-0.19436675570130857,-3.5695823772496684,0.4845496998822144,11.800887777490136,-23.348585392432266,50.05647731731785,2.0188990612927973,2.2345354010102105
GUIDED_NOGPS,3.8381640911102295,25.67364877272449,11.66709486627327,-23.176625467492833,50.149818159578274,2.3912458215774435,16.66604453679092,-8.64404843456978,39.70333366821873,0.4106212612259405,0.7698600765429329,2.8488977294651177,-0.5834431187066046,-0.22238837707790757,-3.7130952933696606,0.4843302732629607,10.464806811755553,-23.932624652249306,50.191979671186004,2.4439936234792894,1.8334649444186344
GUIDED_NOGPS,3.8778157234191895,25.225861550490166,11.35691983534455,-23.51354516261236,50.118892236540546,2.449358537264015,16.642678126128626,-8.831947826956037,39.49847564766874,0.43737484540061594,0.8242550627626797,2.9128919062330825,-0.5839038463658718,-0.23663896659721415,-2.7551608789151047,0.4840693751166923,10.464806811755553,-23.932624652249306,50.191979671186004,2.4439936234792894,0.6875493541569879
GUIDED_NOGPS,3.917349338531494,25.30286431311986,11.032386623227373,-23.69197277301091,50.134536837641534,2.4621508852520417,16.61956414247903,-9.01781734479315,39.29094783398143,0.5452535211944419,0.8988155421766545,2.9008154914502655,-0.5699367488922343,-0.25085018432065836,-2.1960320592087297,0.48373461649450983,10.341069610200444,-24.130437356584306,50.142088228272435,2.5662804882940957,-0.9740282517223995
GUIDED_NOGPS,3.962054967880249,22.373320388970978,10.73130826054788,-24.04863242471524,50.1415581518491,2.442777846347762,16.596718478528377,-9.20152918813225,39.08077749732007,0.7531807545897617,0.8500524738144063,2.8401794198764194,-0.5919106769730748,-0.25680832041732926,-1.8090789839926984,0.4834088290182065,10.584970291537672,-24.898890070060965,50.12526587128316,2.707345871913069,-1.3750987083139758
GUIDED_NOGPS,4.006763696670532,22.373917125421414,10.524993248675681,-24.409140818308263,50.16782481838068,2.389209034343261,16.574156723748253,-9.382957995304361,38.86799275078036,0.8852694094226681,0.7867203985091094,2.804307906685747,-0.5997633136534399,-0.2560130213675105,-1.39458543894657,0.4830502518985995,10.769312718129148,-25.151127360397368,50.18781064997574,2.766933423835443,-2.2345354010102105
GUIDED_NOGPS,4.067079544067383,16.58083261846688,10.795120440753342,-24.807557147840157,50.17542841521562,2.28553742314698,16.551894144833348,-9.561981000228771,38.65262253622355,1.0205854353601111,0.42237889827358854,2.5906326955778916,-0.607575148751854,-0.20802424655766563,-1.0649523389593682,0.48271579118151187,11.815442772143854,-25.92470629990878,50.229997655360705,2.5486724022024627,-3.666929888837269
GUIDED_NOGPS,4.112097263336182,22.216416922237585,10.998488231929713,-25.274433727018522,50.20348564607573,2.0889653433839097,16.52994566613924,-9.738478189721372,38.43469661010943,0.8894126662062213,0.17556296898259618,2.3369829485788896,-0.6291289052927004,-0.19880556692311085,0.3901794722399714,0.48234681644605054,11.481645767637398,-26.267007548141123,50.33226582548656,2.330458163449811,-5.213915935690491
GUIDED_NOGPS,4.151758909225464,25.21782315133806,11.096671363797586,-25.708131828346588,50.26580335607175,1.8829377809389358,16.50832585012015,-9.912332460803098,38.21424552932946,0.5604009064219733,0.09661131826253785,2.1315490010348888,-0.6400391701380737,-0.20215199042265097,0.9678412884623095,0.4819226632598866,10.831985269539821,-26.298927863224637,50.45367677825252,2.0789816188059107,-5.156620156177409
GUIDED_NOGPS,4.1961164474487305,22.561544875070602,10.842609544035252,-26.74368095614983,50.12380876329813,1.7074093263982446,16.487048877766703,-10.083429778008233,37.99130063703982,0.22124136650115062,0.08598055570623614,1.916027077530191,-0.720563835243232,-0.24578002300553126,0.4749679616408775,0.4818012378106125,9.314661192725994,-30.07663570907717,49.415292907415065,2.4366677779948342,-4.640958140559668
GUIDED_NOGPS,4.2290167808532715,30.389323209123383,10.838454791101908,-27.68637176860229,49.96972070429079,1.4889652690105473,16.466128529043687,-10.251659330692876,37.765894048494474,0.06577489512999468,0.004928194929575763,1.7663979099393101,-0.7626370266960119,-0.22169074627828725,1.9290745664594984,0.4816942600163055,10.748538953462432,-29.864581422659658,49.41737035493907,1.691763935891843,-5.729577951308232
GUIDED_NOGPS,4.26522421836853,27.62973307686227,11.063286561458558,-28.262493836836533,50.066935731828536,1.3083413369372796,16.445578163327834,-10.41691369034323,37.53805863687825,-0.08074468209889246,0.1519424672853996,1.5977813500643228,-0.735338597048221,-0.18624079733815732,1.273768690221852,0.4812066843575746,12.939601623927103,-28.80531664108003,50.71607279304942,1.464455310751931,-5.901465289847479
GUIDED_NOGPS,4.300106763839722,28.674296183874098,10.613904120677379,-28.96878526940814,49.97250783306474,1.1233277328610616,16.425410699845564,-10.579088967884042,37.307828019139876,-0.04877580159576927,0.29054109281012147,1.3511865481477094,-0.7711589051677258,-0.28177423003820024,1.536514993936604,0.4810029802791127,9.234733563731513,-29.798464710999166,49.86012633166759,1.7147172797088817,-5.385803274229739
GUIDED_NOGPS,4.3344080448150635,29.163768347714836,10.084581856190164,-29.31207256980981,50.02287080515442,0.9578488823050808,16.405638598110773,-10.738084970986984,37.07523654182509,-0.05803068791081671,0.42880482562210115,1.221319252259791,-0.7415882527143052,-0.31376257751861725,1.4288653543742416,0.480578548605006,8.185373947103741,-28.01536436523299,50.70549163870087,1.3873078764177709,-4.5263665815335035
GUIDED_NOGPS,4.372408151626587,26.322982301995733,10.088614209615447,-29.571798529466037,50.0789653676155,0.7849387765334361,16.386273838362577,-10.893805361378975,36.84031926690969,-0.04802229966220596,0.48397140977464786,1.0444033722130035,-0.736575173021014,-0.24977659953764483,1.3917510512506441,0.4801420308489413,9.334822959852405,-31.37526550735831,49.69576571972045,1.175446566931724,-5.614986392282068
GUIDED_NOGPS,4.415273427963257,23.332929088390568,9.54128129257911,-30.46679398728485,49.894289235459574,0.5921329424486158,16.367327902003083,-11.046157812150605,36.60311195763259,-0.1023880441345687,0.5226751035933482,0.776340431961394,-0.8182167740163446,-0.32441639086857343,1.5048844607458274,0.4800632340832595,8.011874368280761,-34.33955871175372,48.49398969415946,1.225993287825633,-5.443099053742821
GUIDED_NOGPS,4.454479217529297,25.51403961263322,8.553528730903476,-31.236895579575368,49.62757337973877,0.3834020132081983,16.348811752035168,-11.195054165064528,36.363651064328906,-0.26811710151729357,0.4872452048211996,0.5791604478642364,-0.8362879405537823,-0.4148027283792334,2.0735667212593523,0.4801041165268852,8.000838815548923,-32.655824602532626,49.38249351444538,0.9339677475015753,-4.755549699585833
GUIDED_NOGPS,4.492485523223877,26.319183248307322,8.25829049911792,-32.23148883567481,49.42245529882729,0.19924609548962297,16.33073581350021,-11.340410587863817,36.12197371026301,-0.43031723227558294,0.4287422867025132,0.42608216814463123,-0.8922556566341173,-0.3554300483579324,1.9652019571364163,0.4800492776171536,7.75854240480373,-34.771430991496366,48.834535927110146,0.7755002741028579,-4.870141258611998
GUIDED_NOGPS,4.534058094024658,24.062049658084355,8.030045068172132,-33.42681743692786,49.09427809284823,0.057448334951661253,16.313109953915884,-11.482147731580314,35.87811767746163,-0.6144499008715766,0.14015996408030448,0.22945689679369916,-0.9426298340945121,-0.3552213041653373,1.332308109790568,0.4801757593769201,7.044146792374812,-33.992007371498225,49.064605608805536,0.5024235895716477,-2.9220847551671985
GUIDED_NOGPS,4.570329189300537,27.57795764322206,8.598736603654705,-33.83209767391439,49.23434936678609,-0.08148067701990495,16.295943463713915,-11.620190887843053,35.632121392546864,-0.6730360085599196,0.12264799937862647,0.16103621049482367,-0.8875966579142689,-0.24521884486313558,1.6438670688716401,0.47959665803864115,12.178280637265267,-33.40166669229098,50.39612208940975,-1.5972958170893399,-2.3491269600363753
GUIDED_NOGPS,4.612878799438477,23.507773705036374,9.519565000349782,-35.10317548089782,48.84520327479715,-0.15945951502376216,16.279245036677843,-11.754470146186643,35.38402391256929,-0.6975829080241521,0.09285193945468052,0.08968933508533984,-1.0009192698003477,-0.18337837231986504,0.6799687472379801,0.4798082309566582,12.616016351756148,-40.69494774667082,46.54825923421477,0.007873346573132147,-1.4896902673401404
GUIDED_NOGPS,4.65453028678894,28.5470508963696,8.827587117348024,-35.99640910565181,48.79983509374388,-0.224249285732185,16.263022750380777,-11.88492055135963,35.13386491084103,-0.6100805007934725,0.09427752800050913,0.049403055086446435,-1.0124409044712421,-0.38008123939175986,0.7421700655047301,0.4795010447256457,4.540949400540129,-37.121992726302594,49.155652609179036,0.5260219335979821,-0.9167324722093172
GUIDED_NOGPS,4.6863319873809814,26.039932452567797,8.674990500696405,-36.92061170832339,48.55350380429279,-0.24998482726412197,16.24728404662318,-12.011482260632826,34.8816846627688,-0.5333823322518424,0.24276455989611695,0.019426275293972832,-1.038599783229207,-0.3214358181751261,0.15573892414241208,0.479492271287714,6.995559321545638,-39.3924440048543,47.60287947985471,-0.11904383584554679,-0.2864788975654116
GUIDED_NOGPS,4.72193169593811,28.09632711025368,8.557742569670726,-37.9504427063887,48.29276104837855,-0.2606500532717954,16.232035711870616,-12.134100701107814,34.62752403168699,-0.5274999919117276,0.3668204320174123,0.03459090608214778,-1.0896229486130269,-0.3229676577186857,-0.025514435566290045,0.47950214447496264,6.457907137246413,-39.14116236182476,47.76089182923438,-0.2226340261813415,0.40107045659157625
GUIDED_NOGPS,4.770747900009155,20.4877028961084,7.352169858500524,-39.13518842967257,47.735280399300585,-0.26406606335860155,16.217283857691534,-12.252726727025172,34.37142445469073,-0.6170377421542181,0.35242282013384857,0.029868677374623603,-1.1165062918350204,-0.45966722638481217,-0.1381308452042288,0.4799542160830852,6.1504170814142585,-39.32539530871027,47.6087188440199,-0.14703177486058483,0.0
GUIDED_NOGPS,4.817410469055176,21.435272112146286,6.035032185578148,-39.11762646194976,47.82444318667179,-0.2591370848214428,16.203033901194996,-12.367316777072974,34.11342792846898,-0.8265371463582574,0.4196410596334712,0.07143606140498406,-1.0227652385252965,-0.5283282475706655,-0.23019756913121855,0.4794334771126958,6.030327987144268,-40.60713790805679,46.9940731710708,-0.2893110437298557,0.5156620156177409
GUIDED_NOGPS,4.8574440479278564,24.987810835607135,6.1711432094284735,-39.344157477471484,47.837049178246396,-0.23181024545393425,16.18929054546848,-12.47783303169515,33.85357699513753,-1.0885428293939763,0.31511611344382734,0.12627637729263708,-1.0495470340327342,-0.3931882133738042,-0.5445241689602625,0.4790247917253367,5.221504519791755,-38.254647803911226,49.21868256705206,-0.19816272963600276,1.1459155902616465
GUIDED_NOGPS,4.886371374130249,34.57337861452735,5.816332249077697,-39.116598237282865,48.160209795685866,-0.189583075809019,16.176057760015627,-12.584243570399794,33.591914728072155,-1.194400943132242,0.0913505784977471,0.13794375445762044,-0.9860209046686582,-0.4710566644377761,-0.9649201539514091,0.47814755739857945,5.221504519791755,-38.254647803911226,49.21868256705206,-0.19816272963600276,1.4896902673401404
GUIDED_NOGPS,4.924623250961304,26.149027431421448,5.569051725586766,-38.93929532570016,48.4517679432494,-0.13940955090250323,16.163338761194012,-12.686522529067561,33.32848471774164,-1.2823810367179993,-0.12170906181116127,0.23023967382517962,-0.9924721415418032,-0.45882316395686956,-0.9372447983922436,0.4773150751617384,5.221504519791755,-38.254647803911226,49.21868256705206,-0.19816272963600276,2.177239621497128
GUIDED_NOGPS,4.9560558795928955,31.82856015419873,5.383269213262265,-38.72514582474035,48.77376068785583,-0.06189499298477376,16.15113599265289,-12.78465025726017,33.063331057540836,-1.281893318522578,-0.2272145670335251,0.3038913645535725,-0.9734315307437831,-0.4637699158336237,-1.568329813835779,0.4764343555545275,5.221504519791755,-38.254647803911226,49.21868256705206,-0.19816272963600276,2.7501974166279517
GUIDED_NOGPS,4.9917285442352295,28.0384782506969,5.221504519791762,-38.25464780391124,49.21868256705208,0.023690749067413162,16.139451105770995,-12.878613475528605,32.79649832962374,-1.172721175654681,-0.6755747578579017,0.41499375623351226,-0.930613685375712,-0.46611106298601135,-1.645123290566499,0.4753667236438575,5.221504519791755,-38.254647803911226,49.21868256705206,-0.19816272963600276,3.380450991271857
GUIDED_NOGPS,5.036998987197876,22.09784727563934,6.37780777691985,-39.59143930846917,48.500380393978965,0.09816307224196949,16.128284940094254,-12.96840543272162,32.52803159073659,-0.9938576244773819,-0.8772910547810056,0.581763336907393,-1.1387022376008504,-0.2951141551800073,-1.2727988426768195,0.4760414767951364,11.003020805432191,-44.93860532670089,45.62717170168653,-2.897445680429385,2.9220847551671985
GUIDED_NOGPS,5.071376800537109,29.1775639821636,6.40290077289077,-41.700850946962056,47.572184315849775,0.22173841460542487,16.11763750377361,-13.054026063294069,32.25797635805088,-0.7621554630765998,-1.0697605562283816,0.6809164993973805,-1.324743248009281,-0.39498661806012425,-2.3269041501999057,0.4770286880633017,5.346969499646361,-48.80170599637567,44.57770217640614,-1.640312526695785,3.495042550298022
GUIDED_NOGPS,5.105950355529785,29.231654876816393,6.4279937688616915,-43.81026258545495,46.643988237720585,0.3262885627656704,16.10750795400275,-13.135482144615233,31.986378594996502,-0.4924430321404322,-1.1821340301046048,0.8042667276000489,-1.409542937524042,-0.39336281027466447,-2.194855790639121,0.4780135855359139,5.346969499646361,-48.80170599637567,44.57770217640614,-1.640312526695785,4.010704565915763
GUIDED_NOGPS,5.144025564193726,26.10427259996888,6.823984517614697,-45.59006448604151,45.97365028463634,0.4083826769835326,16.09789457745586,-13.212787454277327,31.713284697094718,-0.25013940329158535,-1.333474160082574,0.90869637130643,-1.406890322357632,-0.3395199140426748,-1.7111060724356686,0.47860945161868756,7.20145826355679,-47.15365730684404,45.866992801630886,-1.7751143975056278,2.5783100780887045
GUIDED_NOGPS,5.179107666015625,28.51173287652609,6.203109064201542,-47.652544773454,45.088758531594564,0.4928220148985285,16.08879477072543,-13.28596292740381,31.438741477791304,-0.32734567387444097,-1.1876501549113305,0.9502275499981041,-1.530716622334054,-0.47743776638848917,-1.945443123978914,0.4795249744192951,2.117127252725981,-48.56704924097362,44.794223801843174,-0.24918226919597025,1.3178029288008934
GUIDED_NOGPS,5.219170808792114,24.96535222166007,4.275256691953393,-48.75158447466013,44.6450850528888,0.5078599117972562,16.080205020759976,-13.355036813957662,31.162796154289612,-0.7809310127747302,-0.8959548668531828,0.93069694423157,-1.4554091158691218,-0.6801293827878581,-0.9207292973512252,0.4797765666521012,1.3637589441914462,-50.43380383273157,43.40880430815771,0.07544366459439485,-1.0313240312354819
GUIDED_NOGPS,5.257819890975952,25.882457482783305,3.47861458086241,-49.0780040419313,44.41130547923912,0.4843106704129947,16.072120885301835,-13.420044836050005,30.885496333383582,-1.138356999836466,-0.8105675771093858,0.8603443949548519,-1.3970181603824807,-0.6012155885181777,-0.40272205094983937,0.4797112862812167,1.3637589441914462,-50.43380383273157,43.40880430815771,0.07544366459439485,-1.948056503444799
GUIDED_NOGPS,5.291789293289185,29.445903918113466,2.6819724697714267,-49.40442360920248,44.17752590558943,0.4172832239304527,16.064536973324913,-13.48103034524821,30.606889997290885,-1.5180355831315446,-0.5680357772535781,0.7813402371555491,-1.4116501944812267,-0.6448173836945,0.3347733261187298,0.4796440461375522,1.3637589441914462,-50.43380383273157,43.40880430815771,0.07544366459439485,-2.864788975654116
GUIDED_NOGPS,5.331506729125977,25.190561131030673,1.514432605898358,-50.060452914379994,43.68588820689479,0.3249397596124119,16.057446925472455,-13.538044479884471,30.32702548948592,-1.6968250694450313,-0.5500016232455115,0.6310026508816909,-1.4619225394870268,-0.7186274098016462,0.5953190117770542,0.4799617059238867,1.3637589441914462,-50.43380383273157,43.40880430815771,0.07544366459439485,-3.552338329811104
GUIDED_NOGPS,5.363095045089722,31.672574323967165,1.363758944191451,-50.43380383273158,43.40880430815769,0.21204749656213126,16.050843394494805,-13.591146322364134,30.045951500532958,-1.7390555954746914,-0.4696209688850395,0.5042338062777254,-1.4564768867598787,-0.6233130749508153,1.323296223706547,0.4799557207885629,1.3637589441914462,-50.43380383273157,43.40880430815771,0.07544366459439485,-3.495042550298022
GUIDED_NOGPS,5.395677089691162,30.699613537885,1.363758944191451,-50.433803832731584,43.4088043081577,0.11580973702989504,16.044718025687178,-13.640403056474023,29.763717053919116,-1.7468502286998508,-0.6479954144847422,0.40929660473335466,-1.4132471250257541,-0.6042108654079896,1.0145013427607625,0.4795323691186421,1.3637589441914462,-50.43380383273157,43.40880430815771,0.07544366459439485,-3.2658594322456924
GUIDED_NOGPS,5.4324634075164795,27.192655792121574,1.363758944191451,-50.433803832731584,43.4088043081577,0.02262017250291635,16.039061437327412,-13.685890124690866,29.48037149188753,-1.7253713114725706,-0.6574590684666181,0.33079171775412397,-1.4142748375058793,-0.6049023191891243,0.905303605030477,0.47910735077559474,1.3637589441914462,-50.43380383273157,43.40880430815771,0.07544366459439485,-2.6929016371148693
GUIDED_NOGPS,5.467726469039917,28.364231468895607,1.363758944191451,-50.433803832731584,43.4088043081577,-0.07029477251494788,16.03386320111376,-13.727691385489672,29.195964461270364,-1.5747876249451804,-0.9799195562589131,0.2268798877641945,-1.4146341126268218,-0.6054820275504061,1.0417045579137858,0.478680740229669,1.3637589441914462,-50.43380383273157,43.40880430815771,0.07544366459439485,-2.521014298575622
GUIDED_NOGPS,5.500322341918945,30.689505301129007,1.363758944191451,-50.433803832731584,43.4088043081577,-0.1568855381115527,16.0291118226026,-13.765899270652108,28.910545899321836,-1.49867904046714,-1.0401819951408182,0.14694886529039303,-1.4150989455797742,-0.6060590089884118,1.0796973393845202,0.4782526123867462,1.3637589441914462,-50.43380383273157,43.40880430815771,0.07544366459439485,-2.5783100780887045
GUIDED_NOGPS,5.537482500076294,26.918486666880597,1.363758944191451,-50.433803832731584,43.4088043081577,-0.2682367295420336,16.02479472164628,-13.800614942574791,28.624166019551392,-1.4458293845471086,-1.2533935004370536,-0.025089819461969143,-1.4164888004844571,-0.6068074204352925,1.3521304177183575,0.4778230425670905,1.3637589441914462,-50.43380383273157,43.40880430815771,0.07544366459439485,-4.354479242994256
GUIDED_NOGPS,5.571903228759766,29.05829944367851,1.363758944191451,-50.433803832731584,43.4088043081577,-0.40234461428319984,16.020898212830794,-13.83194845157791,28.33687529755668,-1.4163614938684406,-1.3014487904465593,-0.17261450171590598,-1.4171870738438068,-0.6074334186685795,1.9069644401168322,0.47739210648409847,1.3637589441914462,-50.43380383273157,43.40880430815771,0.07544366459439485,-4.239887683968092
GUIDED_NOGPS,5.610152006149292,26.152125251744284,1.363758944191451,-50.433803832731584,43.4088043081577,-0.5431615766559641,16.01740748591362,-13.860018893213274,28.048724456856693,-1.4688543791260447,-1.2116763058122024,-0.3699896664727247,-1.418678014556376,-0.6082081153445942,1.9072464470200985,0.47695988022304847,1.3637589441914462,-50.43380383273157,43.40880430815771,0.07544366459439485,-4.8128454790989155
GUIDED_NOGPS,5.639496326446533,34.09088618500727,1.363758944191451,-50.433803832731584,43.4088043081577,-0.7373781717455838,16.01430658626143,-13.884954565572935,27.759764454724753,-1.491933908496635,-1.1131684361162224,-0.5265120690813087,-1.4189274244226682,-0.6087207989129277,3.547935945419238,0.4765264402198506,1.3637589441914462,-50.43380383273157,43.40880430815771,0.07544366459439485,-6.64631042351755
GUIDED_NOGPS,5.678179502487183,25.857884418578845,1.363758944191451,-50.433803832731584,43.4088043081577,-0.9163167084333089,16.0115783952879,-13.906893126597561,27.470046468021664,-1.5538927956136421,-0.9428427281231452,-0.8146624889602199,-1.4210619976608807,-0.6095909597029661,2.663625646455225,0.47609186323979596,1.3637589441914462,-50.43380383273157,43.40880430815771,0.07544366459439485,-7.333859777674538
GUIDED_NOGPS,5.707784414291382,33.842226292390485,1.363758944191451,-50.433803832731584,43.4088043081577,-1.1604956871972947,16.00920461089143,-13.925981751384592,27.17962187902873,-1.6298496218260614,-0.8514815841765256,-1.0312270835304027,-1.421666317917265,-0.6101560254203053,4.706784937567819,0.47565622635630656,1.3637589441914462,-50.43380383273157,43.40880430815771,0.07544366459439485,-7.276563998161455
GUIDED_NOGPS,5.7402143478393555,30.8266439317659,1.363758944191451,-50.433803832731584,43.4088043081577,-1.3457442954893146,16.00716572789294,-13.94237728949694,26.888542261280833,-1.6352966976891465,-0.7308739970907348,-1.2449602445244978,-1.423284060908321,-0.6108924318678758,3.5311152286770704,0.4752196069296847,1.3637589441914462,-50.43380383273157,43.40880430815771,0.07544366459439485,-7.047380880109126
GUIDED_NOGPS,5.777726888656616,26.663513556466736,1.363758944191451,-50.433803832731584,43.4088043081577,-1.5541496798865,16.005441018473647,-13.956246422271017,26.596859365399496,-1.5958774348331817,-0.8503385947076063,-1.550656246442408,-1.4250844909415656,-0.6116985802463587,3.674515701082056,0.4747820825858627,1.3637589441914462,-50.43380383273157,43.40880430815771,0.07544366459439485,-7.104676659622208
GUIDED_NOGPS,5.802636623382568,40.1607077883529,1.363758944191451,-50.433803832731584,43.4088043081577,-1.785462080092085,16.004008512612764,-13.96776582012543,26.30462510492597,-1.6256586604400238,-0.9379146399152751,-1.6187307141875154,-1.4258676896262965,-0.6122499800694676,5.562111759427468,0.4743437311951524,1.3637589441914462,-50.43380383273157,43.40880430815771,0.07544366459439485,-6.760901982543714
GUIDED_NOGPS,5.838383913040161,27.981800472333784,1.363758944191451,-50.433803832731584,43.4088043081577,-1.9273275541141974,16.002844978525346,-13.977122299869245,26.011891542154302,-1.7311231845273678,-1.0351992654195883,-1.8198586543466462,-1.4280069656016068,-0.6130903875575235,3.1024409314205323,0.4739046308509949,1.3637589441914462,-50.43380383273157,43.40880430815771,0.07544366459439485,-6.016056848873644
GUIDED_NOGPS,5.875299453735352,27.094637020193538,1.363758944191451,-50.433803832731584,43.4088043081577,-2.1129830003973686,16.001925903099988,-13.984512982010267,25.718710873964362,-1.8672503487896028,-1.3811055514767157,-2.09302716100284,-1.4298525453225248,-0.6139117067231762,3.7352335973474777,0.47346485984871,1.3637589441914462,-50.43380383273157,43.40880430815771,0.07544366459439485,-5.156620156177409
