Mode,Time,Freq,North-Vision,East-Vision,Down-Vision,Yaw-Vision,North-Desired,East-Desired,Down-Desired,Roll-UAV,Pitch-UAV,Yaw-UAV,Roll-Control,Pitch-Control,Yaw-Control,Thrust-Control
GUIDED_NOGPS,0.0015583038330078125,649.7759876065065,299.8756886911491,-94.0920265026529,-75.75656678149272,19.738456990534203,300,0,30,-0.13056948469132065,-1.254514505234582,92.47824102216892,-10.0,0.024862328485602023,-15.0,0.5105767918273031
GUIDED_NOGPS,0.002598285675048828,967.0979940050727,299.1753409693438,-94.0132221770848,-75.6822385600602,17.332809426499523,300,0,30,-0.13056948469132065,-1.254514505234582,92.47824102216892,-10.0,0.16493296208841524,-15.0,0.5105721507894541
GUIDED_NOGPS,0.004540920257568359,517.2405968676779,298.8235524713591,-93.99946729951496,-75.78251674000215,17.459139563535953,300,0,30,-0.13056948469132065,-1.254514505234582,92.47824102216892,-10.0,0.23529218388801718,-15.0,0.5105849160423999
GUIDED_NOGPS,0.006208181381225586,603.6706966033391,299.0603411217267,-94.30724176287798,-76.09280398209272,16.313006006786225,300,0,30,-0.13056948469132065,-1.254514505234582,92.47824102216892,-10.0,0.18793603212088533,-15.0,0.5106195087610359
GUIDED_NOGPS,0.00898432731628418,366.8594419662381,298.9630166715312,-94.4342918246361,-76.25441559373752,17.56481601466123,300,0,30,-0.13056948469132065,-1.254514505234582,92.47824102216892,-10.0,0.20740261646892494,-15.0,0.510639142066852
GUIDED_NOGPS,0.011178016662597656,452.70415542363736,298.51806633614416,-94.48771793537173,-76.17439697126872,17.429581176078567,300,0,30,-0.13056948469132065,-1.254514505234582,92.47824102216892,-10.0,0.2963981727339065,-15.0,0.5106390057547958
GUIDED_NOGPS,0.013074159622192383,529.7845143362384,297.27723604502734,-94.31178333428318,-75.86604206813114,17.767602985922014,300,0,30,-0.13056948469132065,-1.254514505234582,92.47824102216892,-10.0,0.5445696676514454,-15.0,0.510612398036729
GUIDED_NOGPS,0.014213085174560547,883.9418335089568,296.8649032077281,-94.48792738268425,-75.6541846254443,17.331774035586744,300,0,30,-0.13056948469132065,-1.254514505234582,92.47824102216892,-10.0,0.6270399051660256,-15.0,0.5105936859426607
GUIDED_NOGPS,0.015364646911621094,877.1024675867837,296.94475890423723,-94.84377423083372,-75.56533799094154,17.357296994916904,300,0,30,-0.13056948469132065,-1.254514505234582,92.47824102216892,-10.0,0.6110722324446803,-15.0,0.5105871968396825
GUIDED_NOGPS,0.031014204025268555,63.929764662846,297.5652740108417,-95.40583418874212,-75.55621140262326,16.937156128218618,300,0,30,-0.17605697041844529,-1.2151922524091723,92.64319692081389,-10.0,0.48700692110009125,-15.0,0.5106189820881142
GUIDED_NOGPS,0.0328829288482666,537.1115379690101,297.694897868473,-95.83301902526165,-75.42462830943408,16.997353448211523,300,0,30,-0.17605697041844529,-1.2151922524091723,92.64319692081389,-10.0,0.4610869188219077,-15.0,0.5106101862423862
GUIDED_NOGPS,0.034058570861816406,858.2574176386331,299.10423665716917,-96.7324594425222,-75.49679203510955,17.082774234980306,300,0,30,-0.17605697041844529,-1.2151922524091723,92.64319692081389,-10.0,0.17922023147858923,-15.0,0.5106199238910543
GUIDED_NOGPS,0.056704044342041016,44.17335257132626,298.7233587146805,-97.07421720558943,-75.07511973576047,17.627976370990968,300,0,30,-0.20673826021142191,-1.202155875882851,92.7999907434007,-10.0,0.2553972185794534,-15.0,0.510580058927122
GUIDED_NOGPS,0.05832529067993164,620.0005912786401,298.7750239977493,-97.58185089144543,-74.72932980585286,18.316124302436304,300,0,30,-0.20673826021142191,-1.202155875882851,92.7999907434007,-10.0,0.24509238752606036,-15.0,0.5105937428228
GUIDED_NOGPS,0.0599217414855957,629.7753753753753,297.66829939238215,-97.77352254056167,-74.07685073205165,18.41612107610166,300,0,30,-0.20673826021142191,-1.202155875882851,92.7999907434007,-10.0,0.4664409337586759,-15.0,0.5105317311383719
GUIDED_NOGPS,0.06184196472167969,522.0042314872433,297.2519274851684,-98.21298293052496,-73.43087278904785,18.37155263329419,300,0,30,-0.2755429578881255,-1.1957797875709384,92.87242489954869,-10.0,0.5497206844961356,-15.0,0.5104711750921304
GUIDED_NOGPS,0.06596899032592773,244.53731343283582,297.5123166680469,-98.96784653999858,-73.03388090890576,17.879837923203922,300,0,30,-0.30162825074119753,-1.1930090786454404,92.92771528087994,-10.0,0.49764630753063,-15.0,0.5104343416793549
GUIDED_NOGPS,0.06783151626586914,537.4556637621732,296.3846847164996,-99.25428085121678,-72.2543712030295,17.48774746925358,300,0,30,-0.30162825074119753,-1.1930090786454404,92.92771528087994,-10.0,0.7231880381125406,-15.0,0.5103650682917192
GUIDED_NOGPS,0.07264518737792969,207.60797901301788,296.39997587999426,-99.91894164235752,-71.84900644029874,17.866201068622768,300,0,30,-0.36299216434847303,-1.200722710095912,92.98448098307192,-10.0,0.720144144384492,-15.0,0.5103326451496327
GUIDED_NOGPS,0.07422518730163574,636.3683811257775,296.52767048847784,-100.63033781222539,-71.29989412439274,17.576054110875173,300,0,30,-0.36299216434847303,-1.200722710095912,92.98448098307192,-10.0,0.6946143805621352,-15.0,0.5102830772571458
GUIDED_NOGPS,0.07576775550842285,651.998134618374,296.7707413428152,-101.42007904882132,-70.7848819677295,18.196208572050665,300,0,30,-0.36299216434847303,-1.200722710095912,92.98448098307192,-10.0,0.64600507555911,-15.0,0.5102346133056074
GUIDED_NOGPS,0.07687830924987793,906.0928926333982,296.45600473053645,-102.10933317587553,-70.14703367753037,18.184701872435166,300,0,30,-0.36299216434847303,-1.200722710095912,92.98448098307192,-10.0,0.7089570883562709,-15.0,0.510173479291521
GUIDED_NOGPS,0.09789681434631348,47.59655931549443,294.75408102948586,-102.31176500613545,-69.21632097855367,18.794224809465643,300,0,30,-0.5344453871631314,-1.174184223519239,93.13286684279045,-10.0,1.0494466780558909,-15.0,0.510120068491651
GUIDED_NOGPS,0.10039734840393066,400.8701137341107,294.8032961787291,-103.14541059880237,-68.58448306606753,19.531009619325502,300,0,30,-0.5344453871631314,-1.174184223519239,93.13286684279045,-10.0,1.0396189212461056,-15.0,0.5100626794683675
GUIDED_NOGPS,0.10373044013977051,301.35824112659867,294.3928256985998,-103.7915184892421,-67.84462352101417,19.769127085008318,300,0,30,-0.5344453871631314,-1.174184223519239,93.13286684279045,-10.0,1.1217257882432947,-15.0,0.5099931505569782
GUIDED_NOGPS,0.11989951133728027,61.8738419779312,294.6305253778803,-104.80602288846137,-67.35872458014563,19.651894018253753,300,0,30,-0.704256803256048,-1.1850302437561018,93.19995296081831,-10.0,1.0742037967054314,-15.0,0.5099510679510729
GUIDED_NOGPS,0.12184596061706543,515.4607349145876,293.2143161646149,-105.1978277902748,-66.46284297171115,19.633212246093038,300,0,30,-0.704256803256048,-1.1850302437561018,93.19995296081831,-10.0,1.357553372482359,-15.0,0.5098921096977246
GUIDED_NOGPS,0.1246938705444336,352.28489837056946,292.2899753390015,-105.84011072199519,-65.63108597049825,20.15519595148721,300,0,30,-0.704256803256048,-1.1850302437561018,93.19995296081831,-10.0,1.5424442009346508,-15.0,0.5098145560777335
GUIDED_NOGPS,0.1266193389892578,521.0962852528264,291.3597978111065,-106.42282874142244,-64.836822137017,20.59460437462073,300,0,30,-0.9472401960098698,-1.1944720197882923,93.26613749387573,-10.0,1.7284990868499837,-15.0,0.5097393841538747
GUIDED_NOGPS,0.12891030311584473,437.77309257906273,291.47245499138154,-107.44877648000829,-64.41133957017588,19.76541889250596,300,0,30,-0.9472401960098698,-1.1944720197882923,93.26613749387573,-10.0,1.7059881345310028,-15.0,0.5097013715448029
GUIDED_NOGPS,0.13153719902038574,381.8905581353,292.28019022488576,-108.76505099192507,-64.14841465518637,18.95837583452513,300,0,30,-0.9472401960098698,-1.1944720197882923,93.26613749387573,-10.0,1.5444551845725671,-15.0,0.5096785174435964
GUIDED_NOGPS,0.1347496509552002,315.1005934941026,292.0279967080954,-109.72759960136608,-63.53032920698495,18.915044103348706,300,0,30,-1.29175931333525,-1.1938587968668721,93.3431547069568,-10.0,1.5949154168616149,-15.0,0.5096217605976465
GUIDED_NOGPS,0.13806748390197754,301.0122003731879,292.31395917733784,-110.91675344044472,-63.07666694808777,19.584570851880326,300,0,30,-1.29175931333525,-1.1938587968668721,93.3431547069568,-10.0,1.5377453765735223,-15.0,0.5095818325488661
GUIDED_NOGPS,0.14106392860412598,334.76765903104797,290.2965098603893,-111.22118688580126,-62.208793087723556,20.38324146263622,300,0,30,-1.6660884711280335,-1.1640879232654906,93.4198440709577,-10.0,1.9412723668881682,-15.0,0.5095021012403647
GUIDED_NOGPS,0.14293146133422852,537.4556637621732,289.9209396583378,-112.18134803869089,-61.727020596475576,20.640327019209575,300,0,30,-1.6660884711280335,-1.1640879232654906,93.4198440709577,-10.0,2.016410531369297,-15.0,0.5094583149345753
GUIDED_NOGPS,0.14490389823913574,515.397394937331,287.90722439056657,-112.53033628773198,-60.91813931020571,20.35815881718487,300,0,30,-1.6660884711280335,-1.1640879232654906,93.4198440709577,-10.0,2.419179599517217,-15.0,0.5093813385604181
GUIDED_NOGPS,0.14832758903503418,292.51021689099656,288.1767390363725,-113.76314743982813,-60.602852041097314,20.4803369467285,300,0,30,-1.6660884711280335,-1.1640879232654906,93.4198440709577,-10.0,2.3652926421588876,-15.0,0.5093522577045232
GUIDED_NOGPS,0.15529990196228027,143.67499057993354,287.98471839644617,-114.78963062465995,-60.21240918906349,20.742342004125575,300,0,30,-2.5162884343398297,-1.1097708438909644,93.51121834167414,-10.0,2.4038051089615053,-15.0,0.509329481878178
GUIDED_NOGPS,0.15733599662780762,493.38948359016587,288.31130826372555,-116.03634545338393,-59.98397272151666,21.543046546547217,300,0,30,-2.5162884343398297,-1.1097708438909644,93.51121834167414,-10.0,2.3385049905414004,-15.0,0.5093093873278799
GUIDED_NOGPS,0.16689395904541016,104.6770321195937,287.5145027299778,-116.8905560613178,-59.49795839364651,21.67027767619152,300,0,30,-2.989807306806831,-1.0844011734360097,93.55599023168357,-10.0,2.4979891571495494,-15.0,0.5092784281337097
GUIDED_NOGPS,0.1690354347229004,468.323358642251,285.5283710206166,-117.35957519282204,-58.86792709334289,21.304025185845884,300,0,30,-3.5044441315207204,-1.0415944569168358,93.6076401221872,-10.0,2.895236752901933,-15.0,0.5092180353363157
GUIDED_NOGPS,0.17237472534179688,300.1505653356233,284.7650754415572,-118.37615097160749,-58.52679520059064,21.45417411179344,300,0,30,-3.5044441315207204,-1.0415944569168358,93.6076401221872,-10.0,3.0479296199438117,-15.0,0.509187844566498
GUIDED_NOGPS,0.17351174354553223,884.1281618887015,283.9768738818722,-119.37693186293545,-58.31688741653968,21.317510000992794,300,0,30,-3.5044441315207204,-1.0415944569168358,93.6076401221872,-10.0,3.2056242705615285,-15.0,0.5091728439090122
GUIDED_NOGPS,0.17471027374267578,837.353563585546,285.4332873289393,-121.25709766297628,-58.6690685563913,22.87849734435584,300,0,30,-3.5044441315207204,-1.0415944569168358,93.6076401221872,-10.0,2.9143559071697323,-15.0,0.5092098061021475
GUIDED_NOGPS,0.17589521408081055,853.3680569684639,285.2901521039323,-122.49500746550802,-58.786908927657514,23.262907690849275,300,0,30,-3.5044441315207204,-1.0415944569168358,93.6076401221872,-10.0,2.9430006104248334,-15.0,0.5092237218020551
GUIDED_NOGPS,0.17998576164245605,245.22357343311506,285.57314580782275,-123.93136100721726,-59.11471080703543,24.709704067889945,300,0,30,-4.049680203716267,-0.9979906359771802,93.653149672627,-10.0,2.886460818027012,-15.0,0.5092637844755439
GUIDED_NOGPS,0.18111634254455566,890.3213755041393,284.60942309250663,-124.89731153809005,-59.20796539729904,24.864225233935485,300,0,30,-4.049680203716267,-0.9979906359771802,93.653149672627,-10.0,3.0792243318855372,-15.0,0.5092753091322493
GUIDED_NOGPS,0.1821153163909912,1006.5524358051356,284.19073900616314,-126.0554169514041,-59.45704069184711,25.966716460268454,300,0,30,-4.049680203716267,-0.9979906359771802,93.653149672627,-10.0,3.1629789813413542,-15.0,0.5093022347379309
GUIDED_NOGPS,0.1835308074951172,740.2583833392164,284.0821141039946,-127.4252412455621,-59.65740360326485,24.808674920304217,300,0,30,-4.049680203716267,-0.9979906359771802,93.653149672627,-10.0,3.1847191043028102,-15.0,0.5093239768331363
GUIDED_NOGPS,0.20020461082458496,59.98890128436168,283.6123856768464,-128.5949057849342,-59.87212905250558,24.678610948662666,300,0,30,-5.122556073258115,-0.8652340099877877,93.69889144949857,-10.0,3.278689814783039,-15.0,0.5093481942004985
GUIDED_NOGPS,0.20146679878234863,795.8831119544592,283.4648857341701,-129.99100240093279,-60.20686685142883,24.024079940699277,300,0,30,-5.122556073258115,-0.8652340099877877,93.69889144949857,-10.0,3.308466551265385,-15.0,0.5094118637985908
GUIDED_NOGPS,0.20269489288330078,819.2,283.2587032455272,-131.3500631890815,-60.589054849921325,25.22750542705512,300,0,30,-5.122556073258115,-0.8652340099877877,93.69889144949857,-10.0,3.3497230061748806,-15.0,0.509452242409814
GUIDED_NOGPS,0.20467185974121094,507.6620672960542,282.5468359666578,-132.4985913251318,-60.804433172205755,25.10063983875773,300,0,30,-5.122556073258115,-0.8652340099877877,93.69889144949857,-10.0,3.4921217701151854,-15.0,0.5094764136828352
GUIDED_NOGPS,0.2064220905303955,574.6409097136594,281.8683516162754,-133.6055571964406,-61.07607445291396,25.031410603832526,300,0,30,-5.122556073258115,-0.8652340099877877,93.69889144949857,-10.0,3.6278506211674713,-15.0,0.5095067906481197
GUIDED_NOGPS,0.20797181129455566,646.8698334361505,280.62929941151543,-134.46703379114624,-61.312279333583085,25.11214707782789,300,0,30,-5.122556073258115,-0.8652340099877877,93.69889144949857,-10.0,3.875693251913789,-15.0,0.5095334459500053
GUIDED_NOGPS,0.20961236953735352,612.217778426507,281.1346196873037,-136.1483546513555,-62.03025606596655,26.938400011409303,300,0,30,-5.662298112040032,-0.7728760319483166,93.73273503683599,-10.0,3.7746699383463644,-15.0,0.5096092185857616
GUIDED_NOGPS,0.2118206024169922,454.3715740439822,281.57504749732067,-137.8479158290763,-62.80652850156008,29.35042158972625,300,0,30,-5.662298112040032,-0.7728760319483166,93.73273503683599,-10.0,3.686611686697613,-15.0,0.5096895970757146
GUIDED_NOGPS,0.21374845504760742,520.643495531281,280.8577237432064,-138.95612809983194,-63.41120547838944,29.935025854599413,300,0,30,-5.662298112040032,-0.7728760319483166,93.73273503683599,-10.0,3.8301154038792893,-15.0,0.5097538677637024
GUIDED_NOGPS,0.21613550186157227,421.32636865896535,279.4473301466074,-139.68460238699103,-63.824616460563504,29.056777548477942,300,0,30,-5.662298112040032,-0.7728760319483166,93.73273503683599,-10.0,4.11225328746945,-15.0,0.5098006106564447
GUIDED_NOGPS,0.21817898750305176,491.9427633122214,278.81030231447994,-140.56952105617958,-64.33548064066159,27.44875984637778,300,0,30,-5.662298112040032,-0.7728760319483166,93.73273503683599,-10.0,4.239686948164889,-15.0,0.5098541985603164
GUIDED_NOGPS,0.22021842002868652,492.2314282361225,278.7236981779832,-141.65477521095696,-64.92871189475021,26.91683948231365,300,0,30,-6.241046507398247,-0.6336748556727526,93.76756217141389,-10.0,4.257047656761572,-15.0,0.5099170804622609
GUIDED_NOGPS,0.23456263542175293,69.75857366197651,279.45186543697156,-143.04460451129017,-65.80113560833753,27.817440748292828,300,0,30,-6.241046507398247,-0.6336748556727526,93.76756217141389,-10.0,4.111707668279049,-15.0,0.5100316869904629
GUIDED_NOGPS,0.2363872528076172,550.6503872915846,279.5870238923811,-144.33348330374358,-66.6814774347478,27.416145841205672,300,0,30,-6.241046507398247,-0.6336748556727526,93.76756217141389,-10.0,4.084720065835097,-15.0,0.5101238974917688
GUIDED_NOGPS,0.23936128616333008,337.0814112352327,280.6056715062138,-145.95296313871077,-67.85195993281393,28.954396792943744,300,0,30,-6.78005045886298,-0.4889204687977039,93.76771243557562,-10.0,3.88103999640891,-15.0,0.5102459359698063
GUIDED_NOGPS,0.24162912368774414,442.99788762146176,280.05239870402994,-146.8861606509214,-68.70178476836956,27.92602850656519,300,0,30,-6.78005045886298,-0.4889204687977039,93.76771243557562,-10.0,3.9917430953442827,-15.0,0.5103357218744555
GUIDED_NOGPS,0.24402928352355957,417.4682989947248,279.9034531469395,-147.8841434052118,-69.6145169828806,28.808025675129944,300,0,30,-6.78005045886298,-0.4889204687977039,93.76771243557562,-10.0,4.021575300525337,-15.0,0.5104312672371999
GUIDED_NOGPS,0.24578475952148438,571.8205862304022,278.8978616480803,-148.5969436986611,-70.32971332844855,27.865808034344752,300,0,30,-6.78005045886298,-0.4889204687977039,93.76771243557562,-10.0,4.222741355895539,-15.0,0.5105073279333436
GUIDED_NOGPS,0.24909234046936035,306.39959091241144,279.23444937828555,-149.9346975742649,-71.35758532184558,28.205343283400065,300,0,30,-7.27618771620989,-0.3416794661779474,93.74705111333633,-10.0,4.15548566136166,-15.0,0.5106161531323773
GUIDED_NOGPS,0.25106191635131836,504.547576085649,278.15114695261417,-150.43245051969805,-72.13231486519074,27.919703210731495,300,0,30,-7.27618771620989,-0.3416794661779474,93.74705111333633,-10.0,4.372209693191246,-15.0,0.5106995670586063
GUIDED_NOGPS,0.2549927234649658,254.77154832047623,278.31523685330274,-151.41284584408564,-73.64801584125048,28.220910277385528,300,0,30,-7.27618771620989,-0.3416794661779474,93.74705111333633,-10.0,4.339477199837187,-15.0,0.5108593092865201
GUIDED_NOGPS,0.259326696395874,231.33329656389608,277.8825562575707,-152.04127960185062,-75.65252019536683,26.370202820823227,300,0,30,-7.27618771620989,-0.3416794661779474,93.74705111333633,-10.0,4.426035983238074,-15.0,0.5110619250133928
GUIDED_NOGPS,0.2666168212890625,137.2975874824053,276.51430153168627,-151.8665165070911,-77.78377009829718,23.944885701725898,300,0,30,-7.27618771620989,-0.3416794661779474,93.74705111333633,-10.0,4.699928353303367,-15.0,0.5112972096040941
GUIDED_NOGPS,0.2697865962982178,329.32663316582915,276.068363588882,-151.57942005854227,-79.80462592192873,20.926561866126,300,0,30,-7.27618771620989,-0.3416794661779474,93.74705111333633,-10.0,4.789178870545114,-15.0,0.5115050698523818
GUIDED_NOGPS,0.2782440185546875,116.81996434937611,275.5951294686028,-150.4561916260274,-80.79069959151077,21.263336400482405,300,0,30,-7.27618771620989,-0.3416794661779474,93.74705111333633,-10.0,4.8839315693835585,-15.0,0.5116132900064425
GUIDED_NOGPS,0.28061485290527344,422.8555297913096,277.00004075525084,-150.3831068523748,-81.47787211742447,22.395422417745063,300,0,30,-7.27618771620989,-0.3416794661779474,93.74705111333633,-10.0,4.603092774457671,-15.0,0.5116959141388897
GUIDED_NOGPS,0.2825937271118164,507.35502600701585,276.8042687013154,-148.22131674654716,-81.20652883210889,22.02599503314603,300,0,30,-7.27618771620989,-0.3416794661779474,93.74705111333633,-10.0,4.642312940432069,-15.0,0.5116750847688343
GUIDED_NOGPS,0.2843770980834961,563.3719274680994,276.91126421417454,-145.67958476948536,-81.54472484602816,25.882929864289377,300,0,30,-7.27618771620989,-0.3416794661779474,93.74705111333633,-10.0,4.620944290322997,-15.0,0.5117118467674289
GUIDED_NOGPS,0.2896409034729004,190.3992010531572,276.7885712003331,-142.40742469088278,-82.54746885131566,23.401997107233978,300,0,30,-7.27618771620989,-0.3416794661779474,93.74705111333633,-10.0,4.645598880949158,-15.0,0.5118233691957575
GUIDED_NOGPS,0.2971935272216797,132.54658071040325,278.90608596966774,-140.98030142308718,-84.61778586137952,27.39017651699062,300,0,30,-7.27618771620989,-0.3416794661779474,93.74705111333633,-10.0,4.222155447439489,-15.0,0.5120368691999468
GUIDED_NOGPS,0.2984433174133301,807.684190256114,280.95784570995613,-139.72055231116244,-86.05800892140218,23.918376023339665,300,0,30,-7.27618771620989,-0.3416794661779474,93.74705111333633,-10.0,3.8119330801579645,-15.0,0.5121966868688539
GUIDED_NOGPS,0.30848264694213867,99.63900700795818,285.02102105002723,-138.93579045743863,-86.76774843040164,28.865992023838544,300,0,30,-7.27618771620989,-0.3416794661779474,93.74705111333633,-10.0,2.999317982668125,-15.0,0.5122707744006922
GUIDED_NOGPS,0.31153416633605957,328.6556965992791,287.07715697685325,-136.84667153052266,-85.7757139725095,28.431544553544654,300,0,30,-7.27618771620989,-0.3416794661779474,93.74705111333633,-10.0,2.5882415559584615,-15.0,0.5121985838822464
GUIDED_NOGPS,0.31293153762817383,718.0797808594418,288.8083662655608,-135.43212260017356,-84.8461104428124,29.91471069506359,300,0,30,-7.27618771620989,-0.3416794661779474,93.74705111333633,-10.0,2.242016246972701,-15.0,0.5121090199238965
GUIDED_NOGPS,0.3149714469909668,492.11592162384136,287.50089881889835,-132.9490840291754,-83.27540962107992,25.25879848431678,300,0,30,-7.27618771620989,-0.3416794661779474,93.74705111333633,-10.0,2.5035245916946356,-15.0,0.5119546424358554
GUIDED_NOGPS,0.31710171699523926,471.3230700078661,286.1874144027657,-131.0685159243271,-82.78942340649841,20.965491873519568,300,0,30,-7.27618771620989,-0.3416794661779474,93.74705111333633,-10.0,2.7662498456412985,-15.0,0.5119106771499049
GUIDED_NOGPS,0.3221738338470459,197.66737358028183,285.75680794644796,-128.94267260965822,-82.73045826491231,16.55201535487446,300,0,30,-7.27618771620989,-0.3416794661779474,93.74705111333633,-10.0,2.852446494026038,-15.0,0.5119167092017222
GUIDED_NOGPS,0.33762621879577637,64.7389022658517,286.2222395514995,-127.39310679736865,-83.57120325828811,15.961026240730027,300,0,30,-7.27618771620989,-0.3416794661779474,93.74705111333633,-10.0,2.7595836561381613,-15.0,0.512037627493224
GUIDED_NOGPS,0.340850830078125,311.6124814264487,287.12355087861056,-126.1302363127196,-84.8772992794655,16.36667029526798,300,0,30,-7.27618771620989,-0.3416794661779474,93.74705111333633,-10.0,2.5793381405524936,-15.0,0.5121712257701964
GUIDED_NOGPS,0.34273672103881836,533.0161392807219,286.1530068737717,-124.46838933724604,-85.88214002349308,17.085265896868055,300,0,30,-7.27618771620989,-0.3416794661779474,93.74705111333633,-10.0,2.7734989019467924,-15.0,0.5122804067297168
GUIDED_NOGPS,0.3446309566497803,529.9183828174353,286.01258378215886,-123.61764617861907,-87.17150760973465,18.702209770754347,300,0,30,-7.27618771620989,-0.3416794661779474,93.74705111333633,-10.0,2.8016107694096015,-15.0,0.5124139087672939
GUIDED_NOGPS,0.345963716506958,755.0502250225022,285.15908264932773,-122.96806897214033,-87.72442854965612,20.078062642645463,300,0,30,-7.27618771620989,-0.3416794661779474,93.74705111333633,-10.0,2.9723295263170146,-15.0,0.5124721406712394
GUIDED_NOGPS,0.34874701499938965,360.1188288829741,285.29455888863157,-122.96274346630668,-88.15158369373201,21.261133875322354,300,0,30,-7.27618771620989,-0.3416794661779474,93.74705111333633,-10.0,2.945265370110971,-15.0,0.5125198523339671
GUIDED_NOGPS,0.35047006607055664,582.5422222222222,286.2928612996039,-124.23578097386915,-88.14206078399992,20.799023722241117,300,0,30,-7.27618771620989,-0.3416794661779474,93.74705111333633,-10.0,2.745632731587764,-15.0,0.5125236997444836
GUIDED_NOGPS,0.3532602787017822,359.0706275147676,287.6248967835798,-125.5775948225023,-88.18258685567746,19.817148566955222,300,0,30,-7.27618771620989,-0.3416794661779474,93.74705111333633,-10.0,2.4792666756150252,-15.0,0.5125355911720286
GUIDED_NOGPS,0.35795140266418457,213.559266802444,288.512661645085,-127.53579358500433,-86.62735526325633,18.072182163236945,300,0,30,-7.27618771620989,-0.3416794661779474,93.74705111333633,-10.0,2.3017550289900504,-15.0,0.5123884593461928
GUIDED_NOGPS,0.3739790916442871,62.42452745944337,287.7763454235564,-128.78754223379735,-84.22863441566643,21.131234974893506,300,0,30,-7.27618771620989,-0.3416794661779474,93.74705111333633,-10.0,2.449047285613745,-15.0,0.51215400959637
GUIDED_NOGPS,0.37631893157958984,432.9827604005368,287.0400292020277,-130.0392908825904,-81.82991356807652,24.19028778655007,300,0,30,-7.987793536208607,-0.10829427679656534,93.7591746991131,-10.0,2.5965195058890367,-15.0,0.5119502020444366
GUIDED_NOGPS,0.37943267822265625,320.27367135003055,285.56464810884034,-131.24053670260864,-80.45528181260566,26.20841905147927,300,0,30,-7.987793536208607,-0.10829427679656534,93.7591746991131,-10.0,2.891633837426014,-15.0,0.5118185714541804
GUIDED_NOGPS,0.3830859661102295,274.82007600576594,284.26546601060977,-132.76718019986563,-79.54440077395456,23.672514675399828,300,0,30,-8.162078619486175,-0.007059400713604859,93.72755775344511,-10.0,3.151527859899536,-15.0,0.5117355040101144
GUIDED_NOGPS,0.3958761692047119,78.22275270421484,283.1174706416748,-135.0593274383826,-78.21530313595875,23.32611209444711,300,0,30,-9.846295693331893,1.1959794638824555,93.54363441947501,-10.0,3.3813552056489278,-15.0,0.5116318582494555
GUIDED_NOGPS,0.39754462242126465,604.6279371486233,283.84829002923317,-137.80091444899463,-77.63969775155138,24.419131955384312,300,0,30,-9.846295693331893,1.1959794638824555,93.54363441947501,-10.0,3.2352224816572805,-15.0,0.5115784500335684
GUIDED_NOGPS,0.40908098220825195,86.70754346432928,284.3500140007949,-139.81066473384752,-77.49188265936873,26.246352131191355,300,0,30,-9.846295693331893,1.1959794638824555,93.54363441947501,-10.0,3.1349064478000885,-15.0,0.5115676193463771
GUIDED_NOGPS,0.4131953716278076,244.53731343283582,284.5221224152461,-141.28761713347455,-78.20520987224178,26.020972096599337,300,0,30,-10.048065457829594,1.5379821901072148,93.46279913064791,-10.0,3.1006621793081948,-15.0,0.5116637580038818
GUIDED_NOGPS,0.417604923248291,226.60889297098709,282.88113864964834,-141.36025469669787,-78.82529304996493,24.92762041521048,300,0,30,-10.188595746228959,1.8416405544966399,93.36851519934505,-10.0,3.42893292511817,-15.0,0.5117351738120873
GUIDED_NOGPS,0.43462085723876953,58.792335403204326,281.22513688403683,-140.940306061316,-79.46114919227757,24.254293753479473,300,0,30,-10.188595746228959,1.8416405544966399,93.36851519934505,-10.0,3.7604818682485286,-15.0,0.5118394063941747
GUIDED_NOGPS,0.43665528297424316,498.4318478906714,279.02767043344437,-139.95759135136834,-79.50523517714684,22.888905793091016,300,0,30,-10.188595746228959,1.8416405544966399,93.36851519934505,-10.0,4.200036165722006,-15.0,0.5118501858869716
GUIDED_NOGPS,0.44042491912841797,265.16019724364645,278.95388427846547,-139.92377019991625,-79.63937486098641,22.595749330929337,300,0,30,-10.258902298450487,2.148932045915983,93.27832255135503,-10.0,4.214858532584947,-15.0,0.5118703863387629
GUIDED_NOGPS,0.4417610168457031,752.206599713056,279.01493580206363,-140.05888736378856,-79.35638339524654,22.61859357887785,300,0,30,-10.258902298450487,2.148932045915983,93.27832255135503,-10.0,4.202694527748224,-15.0,0.5118469127078022
GUIDED_NOGPS,0.44301319122314453,801.97017208413,279.5017404061482,-140.43267710785392,-78.83597794907826,22.686858496483538,300,0,30,-10.258902298450487,2.148932045915983,93.27832255135503,-10.0,4.105358682979679,-15.0,0.5117975350002275
GUIDED_NOGPS,0.4442596435546875,810.1804133668147,279.9665007977434,-140.74894417561154,-77.78311489517965,24.561172193814098,300,0,30,-10.258902298450487,2.148932045915983,93.27832255135503,-10.0,4.012431183801044,-15.0,0.5116948934812396
GUIDED_NOGPS,0.465240478515625,47.743927148548664,281.0959261650248,-141.47317617345584,-76.76614825525958,24.696851613774026,300,0,30,-10.079358823285652,4.524190947716801,92.25261255312671,-10.0,3.7869399076572967,-15.0,0.5116376784698484
GUIDED_NOGPS,0.4672703742980957,490.1605702933271,281.1673008636735,-141.716707911333,-75.33107898726703,24.650652589081243,300,0,30,-10.079358823285652,4.524190947716801,92.25261255312671,-10.0,3.772703402887114,-15.0,0.5114984708691644
GUIDED_NOGPS,0.46851539611816406,807.0625360785068,281.15075668088105,-141.9148150682948,-73.96564954499395,25.023731716960345,300,0,30,-10.079358823285652,4.524190947716801,92.25261255312671,-10.0,3.7760396124593565,-15.0,0.5113649475189932
GUIDED_NOGPS,0.46993064880371094,709.5760446624937,280.5359518091057,-141.8402112222516,-72.64183653075087,24.998771522205896,300,0,30,-10.079358823285652,4.524190947716801,92.25261255312671,-10.0,3.89902678758959,-15.0,0.5112353295642841
GUIDED_NOGPS,0.4782693386077881,120.00526451317559,280.8377881104857,-142.14548697123607,-71.85892300476921,25.387709836272222,300,0,30,-9.946922309052752,4.63377791785507,92.14901224379597,-10.0,3.8388097940351433,-15.0,0.5111730134096523
GUIDED_NOGPS,0.4795827865600586,766.3628722821122,279.8764124445505,-141.8156694208351,-71.19571203201383,25.262149562977203,300,0,30,-9.946922309052752,4.63377791785507,92.14901224379597,-10.0,4.031121601889365,-15.0,0.5111103808386389
GUIDED_NOGPS,0.48937416076660156,102.20537063209709,279.2729929948791,-141.6428615570511,-71.01682631083803,25.026251433787227,300,0,30,-9.72103685414303,4.888725400796375,91.74905002637836,-10.0,4.151831569193333,-15.0,0.5110950341222974
GUIDED_NOGPS,0.49188756942749023,399.4194838586801,278.272311305509,-141.29095673323812,-71.07491169790212,25.06066876949726,300,0,30,-9.72103685414303,4.888725400796375,91.74905002637836,-10.0,4.3521865979647965,-15.0,0.5111211891998919
GUIDED_NOGPS,0.4945998191833496,369.77025478268536,277.99737430806834,-141.3275206151095,-71.5629608039445,23.421051971694478,300,0,30,-9.72103685414303,4.888725400796375,91.74905002637836,-10.0,4.407236249773952,-15.0,0.5111757411791676
GUIDED_NOGPS,0.49730968475341797,370.1945278022948,277.76753279795224,-141.3951301049021,-71.89229079459163,23.41306563861629,300,0,30,-9.72103685414303,4.888725400796375,91.74905002637836,-10.0,4.45325766414224,-15.0,0.511213542498477
GUIDED_NOGPS,0.4999237060546875,383.77747277884527,278.39730996498577,-141.95271376039233,-72.25502762371731,23.409697298252993,300,0,30,-9.72103685414303,4.888725400796375,91.74905002637836,-10.0,4.32736401592556,-15.0,0.5112556653106438
GUIDED_NOGPS,0.5039877891540527,246.44832246312944,278.1341036229564,-142.15531742671882,-72.13743895285842,23.63465321846998,300,0,30,-9.72103685414303,4.888725400796375,91.74905002637836,-10.0,4.380091688503987,-15.0,0.5112519784665357
GUIDED_NOGPS,0.5076124668121338,276.66912928759893,277.0811209260348,-141.97923468732532,-71.54709647350563,23.672261706787783,300,0,30,-9.72103685414303,4.888725400796375,91.74905002637836,-10.0,4.590769061079728,-15.0,0.5112001072005785
GUIDED_NOGPS,0.5100948810577393,403.5312680392534,275.98729220301357,-141.78153151726005,-70.57062020669767,23.611435345624653,300,0,30,-9.72103685414303,4.888725400796375,91.74905002637836,-10.0,4.809604205051293,-15.0,0.511108272777033
GUIDED_NOGPS,0.5115673542022705,744.8595276149885,275.4412711672219,-141.89001668548175,-69.35766129329886,23.504293759930007,300,0,30,-9.72103685414303,4.888725400796375,91.74905002637836,-10.0,4.918856589266141,-15.0,0.5109908751002104
GUIDED_NOGPS,0.513756513595581,435.9983367983368,276.08072373723525,-142.61060274617083,-68.14282178911341,23.376197958791465,300,0,30,-9.72103685414303,4.888725400796375,91.74905002637836,-10.0,4.791009216944407,-15.0,0.5108729314294036
GUIDED_NOGPS,0.5150506496429443,779.6104089219331,276.9186746108266,-143.42826176996851,-66.86059880673402,23.911332866936192,300,0,30,-9.72103685414303,4.888725400796375,91.74905002637836,-10.0,4.623461789660662,-15.0,0.51074829691656
GUIDED_NOGPS,0.5163922309875488,748.3147190008921,276.91909251322255,-143.78848936588798,-65.48945187575849,24.022245866712044,300,0,30,-9.72103685414303,4.888725400796375,91.74905002637836,-10.0,4.623407798367081,-15.0,0.51061363052851
GUIDED_NOGPS,0.5195717811584473,316.1217968043413,276.0409447843446,-143.63844101042125,-64.12263362930643,24.367210102437806,300,0,30,-9.72103685414303,4.888725400796375,91.74905002637836,-10.0,4.799090451246096,-15.0,0.5104811213061601
GUIDED_NOGPS,0.522087574005127,398.35729888878336,274.8634415826471,-143.33859494531984,-63.06983259411072,23.988193032281718,300,0,30,-9.72103685414303,4.888725400796375,91.74905002637836,-10.0,5.034661407719076,-15.0,0.5103810482088366
GUIDED_NOGPS,0.5341355800628662,83.09172312690677,274.5356075944297,-143.4515133929364,-62.563008112486415,23.973366999122362,300,0,30,-9.72103685414303,4.888725400796375,91.74905002637836,-10.0,5.100534836594546,-15.0,0.5103526578372034
GUIDED_NOGPS,0.5375549793243408,292.98016205644035,273.7019168233069,-143.32181612592933,-62.326983994316954,24.119609179585392,300,0,30,-9.72103685414303,4.888725400796375,91.74905002637836,-10.0,5.267352142688409,-15.0,0.510334613133392
GUIDED_NOGPS,0.5422594547271729,212.96288398070575,274.0750490952514,-143.81881750039912,-62.660136099373204,25.165499140921366,300,0,30,-9.72103685414303,4.888725400796375,91.74905002637836,-10.0,5.192793499940331,-15.0,0.5103727757481542
GUIDED_NOGPS,0.5455210208892822,307.02759680843275,273.80492549614945,-144.11481326972083,-63.052834123500446,25.288402397517526,300,0,30,-9.72103685414303,4.888725400796375,91.74905002637836,-10.0,5.246994333582214,-15.0,0.5104245577426706
GUIDED_NOGPS,0.5489664077758789,290.76630849220106,274.91108267443354,-145.16461380828085,-63.868799437396234,25.272383666691795,300,0,30,-9.72103685414303,4.888725400796375,91.74905002637836,-10.0,5.025826506940584,-15.0,0.5105109140664511
GUIDED_NOGPS,0.5508716106414795,529.1161851898574,274.8608880650518,-145.7144843950818,-64.41693275799938,24.797982874213762,300,0,30,-9.72103685414303,4.888725400796375,91.74905002637836,-10.0,5.035920768015158,-15.0,0.510569884233782
GUIDED_NOGPS,0.5528345108032227,511.00194931773876,274.0589916264244,-145.84889275315697,-64.63422275756365,25.1934039575842,300,0,30,-9.72103685414303,4.888725400796375,91.74905002637836,-10.0,5.196363041930787,-15.0,0.5105962087753328
GUIDED_NOGPS,0.5577704906463623,202.9272824035996,273.581265409153,-146.21523815117197,-64.60428378151794,27.561087394262803,300,0,30,-9.72103685414303,4.888725400796375,91.74905002637836,-10.0,5.292030253744213,-15.0,0.510601950140366
GUIDED_NOGPS,0.5763144493103027,53.9404820082821,273.1757924260575,-146.7029304677272,-64.35207704847765,26.941490919230393,300,0,30,-9.612441968981704,4.9252652053086505,91.62532797975274,-10.0,5.37359788534437,-15.0,0.5106100067468152
GUIDED_NOGPS,0.5786256790161133,433.87855591186513,273.76100972160737,-147.71701648299734,-64.08685689701552,26.427147120556324,300,0,30,-9.612441968981704,4.9252652053086505,91.62532797975274,-10.0,5.256628095274487,-15.0,0.5105887679291998
GUIDED_NOGPS,0.5808079242706299,459.49868536371605,273.4644826012781,-148.28229036408987,-63.570788069486866,23.814411143040434,300,0,30,-9.497428413547858,4.917732360427773,91.54736137037705,-10.0,5.315995911878547,-15.0,0.5105415612764348
GUIDED_NOGPS,0.5838768482208252,326.93927819783306,272.588270447886,-148.37146856133919,-62.831156894935084,23.854257241705024,300,0,30,-9.497428413547858,4.917732360427773,91.54736137037705,-10.0,5.491294501812967,-15.0,0.5104714018800794
GUIDED_NOGPS,0.5976567268371582,72.60852404528616,272.24268100600653,-148.72015831647465,-62.27514400181323,24.032851206131372,300,0,30,-9.497428413547858,4.917732360427773,91.54736137037705,-10.0,5.560816807647323,-15.0,0.510442689123644
GUIDED_NOGPS,0.6004962921142578,353.7109124641592,272.5413160190347,-149.39519559451165,-61.95943386517056,24.52197533387529,300,0,30,-9.497428413547858,4.917732360427773,91.54736137037705,-10.0,5.501151664435988,-15.0,0.5104152614657813
GUIDED_NOGPS,0.6108202934265137,96.91314494327503,273.0794387331696,-150.28477972119592,-61.92122530620187,24.28777446696726,300,0,30,-9.398199425285913,4.996450290612169,91.23417670636445,-10.0,5.393837975715741,-15.0,0.5104326690605834
GUIDED_NOGPS,0.6133081912994385,403.5700952564226,273.34551493235045,-150.99623324308928,-62.1007024921031,24.429311337142718,300,0,30,-9.28953111559101,5.012342006376674,91.09809884753028,-10.0,5.340665155000314,-15.0,0.5104535482414096
GUIDED_NOGPS,0.6157650947570801,408.08561977038335,273.03281950911156,-151.4154784720071,-62.475614959828306,24.61201584716677,300,0,30,-9.28953111559101,5.012342006376674,91.09809884753028,-10.0,5.403298997277981,-15.0,0.5104975383285775
GUIDED_NOGPS,0.6168756484985352,907.2688730261735,272.74316318822804,-151.86121364005737,-63.11078692961988,25.788349556297394,300,0,30,-9.28953111559101,5.012342006376674,91.09809884753028,-10.0,5.461260999531402,-15.0,0.5105631555832643
GUIDED_NOGPS,0.6179249286651611,963.7647058823529,273.07659704708897,-152.7117298324834,-64.14111958364737,26.638990326771136,300,0,30,-9.28953111559101,5.012342006376674,91.09809884753028,-10.0,5.394603716826571,-15.0,0.510668251094529
GUIDED_NOGPS,0.6191504001617432,822.5738380074524,274.22633842464876,-154.13649819774363,-65.46595494298337,26.872744807596145,300,0,30,-9.28953111559101,5.012342006376674,91.09809884753028,-10.0,5.164682829222032,-15.0,0.5108027635332849
GUIDED_NOGPS,0.632904052734375,72.90131052942608,274.9024045684584,-155.3707542820998,-66.7008641174923,27.036992810795464,300,0,30,-9.28953111559101,5.012342006376674,91.09809884753028,-10.0,5.029503270925931,-15.0,0.5109288490922419
GUIDED_NOGPS,0.6362354755401611,299.1230922835544,274.7306897315444,-156.28780755904114,-67.60626040296455,26.533050296600702,300,0,30,-9.28953111559101,5.012342006376674,91.09809884753028,-10.0,5.0642203223076985,-15.0,0.5110482877606344
GUIDED_NOGPS,0.637904167175293,600.5589919816724,273.4103368503268,-156.5516869374419,-68.17368661440446,26.05000635896324,300,0,30,-9.28953111559101,5.012342006376674,91.09809884753028,-10.0,5.328352911243884,-15.0,0.5111096096159133
GUIDED_NOGPS,0.6404156684875488,399.95270334700103,273.18227269427507,-157.38268927491552,-68.79465953501388,25.781977182460384,300,0,30,-9.28953111559101,5.012342006376674,91.09809884753028,-10.0,5.3740044188192435,-15.0,0.5111745565292488
GUIDED_NOGPS,0.6433112621307373,345.77938994229186,273.2148554301891,-158.28558927214368,-69.28837126307867,25.401612484238,300,0,30,-9.194094589865715,5.033389661190891,90.9781743860832,-10.0,5.367578885993145,-15.0,0.5112306752237764
GUIDED_NOGPS,0.6456937789916992,420.9458048976315,273.3576180172807,-159.25371314710833,-69.63416070215948,24.843182993714773,300,0,30,-9.194094589865715,5.033389661190891,90.9781743860832,-10.0,5.339108633830057,-15.0,0.5112714070932486
GUIDED_NOGPS,0.6470422744750977,747.7810661436977,273.19109753865735,-159.78784590651705,-69.75563809088828,23.92434410010703,300,0,30,-9.194094589865715,5.033389661190891,90.9781743860832,-10.0,5.372450581441565,-15.0,0.5112863717614082
GUIDED_NOGPS,0.6500434875488281,333.8882343575864,272.6729544898199,-160.02907412348262,-69.79959712357918,23.58816256154731,300,0,30,-9.145961393010989,5.07306281498491,90.8744238125907,-10.0,5.476163622662462,-15.0,0.51129693461385
GUIDED_NOGPS,0.6663174629211426,61.544276679725904,272.97714782891813,-160.91389536939406,-70.06787652319039,23.01956818846399,300,0,30,-9.145961393010989,5.07306281498491,90.8744238125907,-10.0,5.415742470814978,-15.0,0.5113546844835053
GUIDED_NOGPS,0.6697559356689453,290.5648770349844,272.56438478715717,-161.62487305773,-70.30912471188745,22.896311849006548,300,0,30,-9.145961393010989,5.07306281498491,90.8744238125907,-10.0,5.49838710675278,-15.0,0.5113855386623621
GUIDED_NOGPS,0.6727583408355713,333.75539110368425,272.587382020648,-162.36110243153732,-70.56678515403497,22.731601807700002,300,0,30,-9.107566338365409,5.140289805664406,90.76074214404501,-10.0,5.49389730911482,-15.0,0.5114193499458086
GUIDED_NOGPS,0.6745362281799316,566.7978378378378,272.187787270084,-162.58426051691248,-70.7165661626679,23.149193040861622,300,0,30,-9.107566338365409,5.140289805664406,90.76074214404501,-10.0,5.573845660852121,-15.0,0.5114364574929608
GUIDED_NOGPS,0.6757915019989014,800.2869681358519,272.8894961270186,-163.54974936908835,-71.24425103974067,23.087956444952102,300,0,30,-9.107566338365409,5.140289805664406,90.76074214404501,-10.0,5.433553497962159,-15.0,0.511492931242026
GUIDED_NOGPS,0.6767892837524414,1010.6756626506024,273.7282898047414,-164.87760790438026,-72.0372316971288,23.64671247798655,300,0,30,-9.107566338365409,5.140289805664406,90.76074214404501,-10.0,5.265825253933056,-15.0,0.5115745978401549
GUIDED_NOGPS,0.6777126789093018,1088.8639667705088,274.2454182481005,-166.16806576219406,-72.97736894804136,24.36029353835311,300,0,30,-9.107566338365409,5.140289805664406,90.76074214404501,-10.0,5.162425029378883,-15.0,0.5116706478847358
GUIDED_NOGPS,0.6786863803863525,1036.6544735541274,273.7068470707431,-166.90697757005913,-73.68172628843071,23.764048778339085,300,0,30,-9.107566338365409,5.140289805664406,90.76074214404501,-10.0,5.270162835448736,-15.0,0.5117429425364443
GUIDED_NOGPS,0.6798465251922607,868.7456503728251,273.17249900965174,-167.78328704307054,-74.4918257830238,22.621191165166923,300,0,30,-9.107566338365409,5.140289805664406,90.76074214404501,-10.0,5.377061044963941,-15.0,0.5118261801878207
GUIDED_NOGPS,0.6819286346435547,482.32566697332106,272.5551444758427,-168.62812199460336,-75.25633127275977,21.76001710762398,300,0,30,-9.107566338365409,5.140289805664406,90.76074214404501,-10.0,5.5005640796403235,-15.0,0.5119050950721717
GUIDED_NOGPS,0.6843106746673584,421.114859437751,272.46974153277137,-169.76499711705128,-76.10644602443894,21.317761038625438,300,0,30,-9.102827040855066,5.211757063158012,90.61543669964216,-10.0,5.517703748344274,-15.0,0.5119946606479516
GUIDED_NOGPS,0.6883847713470459,246.0723965972426,271.97607211804524,-170.5861340809008,-76.74444480215284,21.483203125811027,300,0,30,-9.038543861707845,5.279787454838631,90.45899804689219,-10.0,5.616529961902493,-15.0,0.5120654943577139
GUIDED_NOGPS,0.6994411945343018,90.53301387899587,271.1024319433163,-171.11875012013593,-77.10250543006539,20.976970979374045,300,0,30,-8.968622361400778,5.375717888618284,90.31023652676932,-10.0,5.791617240478126,-15.0,0.5121279295767995
GUIDED_NOGPS,0.7084264755249023,111.34335014600478,270.27987329629286,-171.62486477380426,-77.35600845159354,20.74206281511522,300,0,30,-8.780004979923584,5.872032730883614,89.81646849129075,-10.0,5.956182956824469,-15.0,0.5121571801466888
GUIDED_NOGPS,0.7098278999328613,726.0349662454561,269.7283382685334,-172.15338449598866,-77.47155595328893,19.799163371059933,300,0,30,-8.780004979923584,5.872032730883614,89.81646849129075,-10.0,6.066769171872326,-15.0,0.5121885600912821
GUIDED_NOGPS,0.7214291095733643,86.24931112482007,269.08443690871553,-172.59269520728398,-77.43355750738314,18.620983520993473,300,0,30,-8.834783097067085,6.929480483750873,88.99689360221342,-10.0,6.195904040429084,-15.0,0.5122094051631523
GUIDED_NOGPS,0.7324821949005127,90.5623353629572,269.20483039770346,-173.40506363239126,-77.44650344838774,19.005796206875072,300,0,30,-8.834783097067085,6.929480483750873,88.99689360221342,-10.0,6.171871054798747,-15.0,0.5122138896163114
GUIDED_NOGPS,0.7348976135253906,414.70278821435636,268.8038383861478,-173.93605480527626,-77.16580640244597,18.835510194403813,300,0,30,-8.834783097067085,6.929480483750873,88.99689360221342,-10.0,6.2524251449285755,-15.0,0.5122102572590997
GUIDED_NOGPS,0.7373743057250977,404.7383962173116,268.9996527904968,-174.8458748651532,-76.95152660320935,19.1100349412248,300,0,30,-8.834783097067085,6.929480483750873,88.99689360221342,-10.0,6.213315605329655,-15.0,0.5121925098381794
GUIDED_NOGPS,0.7398371696472168,407.3721833721834,268.7661901707041,-175.55557636392783,-76.56587136982084,19.435235575131532,300,0,30,-8.901181927309718,7.234618331147546,88.73736690432044,-10.0,6.260093617640218,-15.0,0.5121597778271626
GUIDED_NOGPS,0.7413656711578369,657.0025062656641,269.0500479667916,-176.34022085674474,-76.45289268265766,20.34244825521762,300,0,30,-8.901181927309718,7.234618331147546,88.73736690432044,-10.0,6.203405065284019,-15.0,0.5121541900290076
GUIDED_NOGPS,0.7432441711425781,533.8981670061099,268.9161841926381,-177.36194774306978,-76.16687485290207,20.680350533928117,300,0,30,-8.901181927309718,7.234618331147546,88.73736690432044,-10.0,6.230230037733227,-15.0,0.5121291552349782
GUIDED_NOGPS,0.7462737560272217,331.0160208349775,268.5356218694544,-177.92825553206038,-75.90514366782666,20.057658034708094,300,0,30,-8.980970489646515,7.531044272257868,88.49144594325413,-10.0,6.306385367039921,-15.0,0.5121058676583432
GUIDED_NOGPS,0.7609999179840088,67.94045517129668,268.1550595462707,-178.494563321051,-75.64341248275126,19.43496553548807,300,0,30,-9.81083932757671,8.913630800845713,87.3772713348958,-10.0,6.383023235110543,-15.0,0.5121145543391598
GUIDED_NOGPS,0.7621066570281982,908.2511909917713,268.1550595462707,-178.494563321051,-75.64341248275126,19.43496553548807,300,0,30,-9.81083932757671,8.913630800845713,87.3772713348958,-10.0,6.383061531304535,-15.0,0.5121170952392593
GUIDED_NOGPS,0.7631282806396484,984.5784037558685,268.1550595462707,-178.494563321051,-75.64341248275126,19.43496553548807,300,0,30,-9.81083932757671,8.913630800845713,87.3772713348958,-10.0,6.383095477038743,-15.0,0.5121193474923016
GUIDED_NOGPS,0.7641196250915527,1015.5699757869249,268.1550595462707,-178.494563321051,-75.64341248275126,19.43496553548807,300,0,30,-9.81083932757671,8.913630800845713,87.3772713348958,-10.0,6.383124890094954,-15.0,0.5121212990083575
GUIDED_NOGPS,0.7650303840637207,1107.5532083443359,268.1550595462707,-178.494563321051,-75.64341248275126,19.43496553548807,300,0,30,-9.81083932757671,8.913630800845713,87.3772713348958,-10.0,6.383155776081703,-15.0,0.5121233482513402
GUIDED_NOGPS,0.7661073207855225,935.3933987511151,268.1550595462707,-178.494563321051,-75.64341248275126,19.43496553548807,300,0,30,-9.81083932757671,8.913630800845713,87.3772713348958,-10.0,6.3831872315003615,-15.0,0.5121254352753515
GUIDED_NOGPS,0.7676732540130615,643.2981595092025,268.1550595462707,-178.494563321051,-75.64341248275126,19.43496553548807,300,0,30,-9.81083932757671,8.913630800845713,87.3772713348958,-10.0,6.383221025386059,-15.0,0.5121276774534528
GUIDED_NOGPS,0.7713055610656738,277.43775631697315,268.1550595462707,-178.494563321051,-75.64341248275126,19.43496553548807,300,0,30,-9.81083932757671,8.913630800845713,87.3772713348958,-10.0,6.383278947999852,-15.0,0.512131520539666
GUIDED_NOGPS,0.7749233245849609,275.68713027474695,268.1550595462707,-178.494563321051,-75.64341248275126,19.43496553548807,300,0,30,-9.81083932757671,8.913630800845713,87.3772713348958,-10.0,6.383419688790503,-15.0,0.5121408584986561
GUIDED_NOGPS,0.7762131690979004,779.3206986250465,268.1550595462707,-178.494563321051,-75.64341248275126,19.43496553548807,300,0,30,-9.81083932757671,8.913630800845713,87.3772713348958,-10.0,6.383501519952052,-15.0,0.5121462878843169
GUIDED_NOGPS,0.7773902416229248,854.237067209776,268.1550595462707,-178.494563321051,-75.64341248275126,19.43496553548807,300,0,30,-9.81083932757671,8.913630800845713,87.3772713348958,-10.0,6.383542010357002,-15.0,0.5121489743673128
GUIDED_NOGPS,0.7785782814025879,846.1375832156547,268.1550595462707,-178.494563321051,-75.64341248275126,19.43496553548807,300,0,30,-9.81083932757671,8.913630800845713,87.3772713348958,-10.0,6.383579478976619,-15.0,0.5121514603589844
GUIDED_NOGPS,0.7804534435272217,535.6026050312859,268.1550595462707,-178.494563321051,-75.64341248275126,19.43496553548807,300,0,30,-9.81083932757671,8.913630800845713,87.3772713348958,-10.0,6.383619680869401,-15.0,0.5121541276995925
GUIDED_NOGPS,0.7827799320220947,431.2908997429306,268.1550595462707,-178.494563321051,-75.64341248275126,19.43496553548807,300,0,30,-9.81083932757671,8.913630800845713,87.3772713348958,-10.0,6.383687040868034,-15.0,0.5121585969433838
GUIDED_NOGPS,0.7841525077819824,731.4795953958842,268.1550595462707,-178.494563321051,-75.64341248275126,19.43496553548807,300,0,30,-9.81083932757671,8.913630800845713,87.3772713348958,-10.0,6.383751447413165,-15.0,0.5121628702295743
GUIDED_NOGPS,0.7861552238464355,500.8722235490805,268.1550595462707,-178.494563321051,-75.64341248275126,19.43496553548807,300,0,30,-9.81083932757671,8.913630800845713,87.3772713348958,-10.0,6.383806287502224,-15.0,0.5121665087944869
GUIDED_NOGPS,0.788538932800293,424.61064992913543,268.1550595462707,-178.494563321051,-75.64341248275126,19.43496553548807,300,0,30,-9.81083932757671,8.913630800845713,87.3772713348958,-10.0,6.3838685302061,-15.0,0.5121706385127692
GUIDED_NOGPS,0.7901091575622559,634.8273043741486,268.1550595462707,-178.494563321051,-75.64341248275126,19.43496553548807,300,0,30,-9.81083932757671,8.913630800845713,87.3772713348958,-10.0,6.383938539961217,-15.0,0.5121752835642797
GUIDED_NOGPS,0.7917230129241943,622.300296735905,268.1550595462707,-178.494563321051,-75.64341248275126,19.43496553548807,300,0,30,-9.81083932757671,8.913630800845713,87.3772713348958,-10.0,6.383992074153096,-15.0,0.5121788354847003
GUIDED_NOGPS,0.8053255081176758,73.56492151188284,268.1550595462707,-178.494563321051,-75.64341248275126,19.43496553548807,300,0,30,-11.488140834887789,10.553852064926438,85.71412710218686,-10.0,6.384406863540529,-15.0,0.5122063561933126
GUIDED_NOGPS,0.8081707954406738,353.26404447064766,268.1550595462707,-178.494563321051,-75.64341248275126,19.43496553548807,300,0,30,-11.844597308613354,10.770027552157343,85.35821960491585,-10.0,6.384502383845173,-15.0,0.5122126938348972
GUIDED_NOGPS,0.8133223056793213,194.49589612798516,268.1550595462707,-178.494563321051,-75.64341248275126,19.43496553548807,300,0,30,-11.844597308613354,10.770027552157343,85.35821960491585,-10.0,6.384560989777257,-15.0,0.5122165822583445
GUIDED_NOGPS,0.8173818588256836,246.59321535657594,268.1550595462707,-178.494563321051,-75.64341248275126,19.43496553548807,300,0,30,-11.844597308613354,10.770027552157343,85.35821960491585,-10.0,6.3847277801796425,-15.0,0.5122276485734492
GUIDED_NOGPS,0.8197298049926758,427.51034553052693,268.1550595462707,-178.494563321051,-75.64341248275126,19.43496553548807,300,0,30,-11.844597308613354,10.770027552157343,85.35821960491585,-10.0,6.384864671610588,-15.0,0.512236731132687
GUIDED_NOGPS,0.8215718269348145,545.1395892903561,268.1550595462707,-178.494563321051,-75.64341248275126,19.43496553548807,300,0,30,-12.246573578062467,11.011794050660992,85.0085344099787,-10.0,6.384929822213413,-15.0,0.512241053786088
GUIDED_NOGPS,0.8294034004211426,127.78162320253473,268.1550595462707,-178.494563321051,-75.64341248275126,19.43496553548807,300,0,30,-12.246573578062467,11.011794050660992,85.0085344099787,-10.0,6.38516928731225,-15.0,0.5122569419679159
GUIDED_NOGPS,0.8311972618103027,561.1859780572652,268.1550595462707,-178.494563321051,-75.64341248275126,19.43496553548807,300,0,30,-12.246573578062467,11.011794050660992,85.0085344099787,-10.0,6.385238803559712,-15.0,0.5122615542758684
GUIDED_NOGPS,0.8345510959625244,298.86732221747184,268.1550595462707,-178.494563321051,-75.64341248275126,19.43496553548807,300,0,30,-12.246573578062467,11.011794050660992,85.0085344099787,-10.0,6.385316474072112,-15.0,0.512266707608148
GUIDED_NOGPS,0.8430519104003906,117.7513756316676,268.1550595462707,-178.494563321051,-75.64341248275126,19.43496553548807,300,0,30,-12.246573578062467,11.011794050660992,85.0085344099787,-10.0,6.385619624435662,-15.0,0.5122868212201972
GUIDED_NOGPS,0.8452882766723633,449.2132376566349,268.1550595462707,-178.494563321051,-75.64341248275126,19.43496553548807,300,0,30,-12.246573578062467,11.011794050660992,85.0085344099787,-10.0,6.385679080719396,-15.0,0.5122907660633137
GUIDED_NOGPS,0.8491346836090088,260.66148778820457,268.1550595462707,-178.494563321051,-75.64341248275126,19.43496553548807,300,0,30,-12.246573578062467,11.011794050660992,85.0085344099787,-10.0,6.385762756840331,-15.0,0.5122963178595067
GUIDED_NOGPS,0.8530154228210449,257.99987697607185,268.1550595462707,-178.494563321051,-75.64341248275126,19.43496553548807,300,0,30,-12.616407831051148,11.19364783731258,84.64150053454972,-10.0,6.38589688462841,-15.0,0.5123052170548198
GUIDED_NOGPS,0.8556249141693115,384.5515723847071,268.1550595462707,-178.494563321051,-75.64341248275126,19.43496553548807,300,0,30,-12.616407831051148,11.19364783731258,84.64150053454972,-10.0,6.386012312272596,-15.0,0.5123128755211588
GUIDED_NOGPS,0.8585095405578613,347.29684524302394,268.1550595462707,-178.494563321051,-75.64341248275126,19.43496553548807,300,0,30,-13.031837011844248,11.365322080779912,84.28425432020137,-10.0,6.386098858330353,-15.0,0.5123186177337351
GUIDED_NOGPS,0.8623876571655273,258.65219536260486,268.1550595462707,-178.494563321051,-75.64341248275126,19.43496553548807,300,0,30,-13.41432333649673,11.498558580919351,83.91765074669011,-10.0,6.386169817138651,-15.0,0.5123233257536262
GUIDED_NOGPS,0.8648254871368408,411.6906164114645,268.1550595462707,-178.494563321051,-75.64341248275126,19.43496553548807,300,0,30,-13.41432333649673,11.498558580919351,83.91765074669011,-10.0,6.386299123736568,-15.0,0.5123319050695652
GUIDED_NOGPS,0.8823583126068115,57.06147881096524,268.1550595462707,-178.494563321051,-75.64341248275126,19.43496553548807,300,0,30,-14.569199895892814,11.793018281322356,82.72527047233514,-10.0,6.386365124691044,-15.0,0.5123362841426352
GUIDED_NOGPS,0.8845949172973633,447.8701548318206,268.1550595462707,-178.494563321051,-75.64341248275126,19.43496553548807,300,0,30,-14.85903555822772,11.826366679944943,82.32127161311806,-10.0,6.386937168394492,-15.0,0.5123742384600624
GUIDED_NOGPS,0.8867630958557129,462.2331937403571,268.1550595462707,-178.494563321051,-75.64341248275126,19.43496553548807,300,0,30,-14.85903555822772,11.826366679944943,82.32127161311806,-10.0,6.387028247130244,-15.0,0.5123802814096251
GUIDED_NOGPS,0.8912549018859863,223.18437716170914,268.1550595462707,-178.494563321051,-75.64341248275126,19.43496553548807,300,0,30,-14.85903555822772,11.826366679944943,82.32127161311806,-10.0,6.387141283160412,-15.0,0.5123877811956447
GUIDED_NOGPS,0.9053380489349365,71.10315482547594,268.1550595462707,-178.494563321051,-75.64341248275126,19.43496553548807,300,0,30,-15.469096102062212,11.893083967757628,81.48387676049614,-10.0,6.387600192132162,-15.0,0.5124182291783407
GUIDED_NOGPS,0.9080667495727539,366.98783795607665,268.1550595462707,-178.494563321051,-75.64341248275126,19.43496553548807,300,0,30,-15.469096102062212,11.893083967757628,81.48387676049614,-10.0,6.387660453212994,-15.0,0.5124222274186441
GUIDED_NOGPS,0.9104902744293213,417.13615116857284,268.1550595462707,-178.494563321051,-75.64341248275126,19.43496553548807,300,0,30,-15.737565225126025,11.918031233701099,81.06336933405514,-10.0,6.387765213499416,-15.0,0.5124291781203836
GUIDED_NOGPS,0.9125869274139404,475.97639582387654,268.1550595462707,-178.494563321051,-75.64341248275126,19.43496553548807,300,0,30,-15.737565225126025,11.918031233701099,81.06336933405514,-10.0,6.387815202028609,-15.0,0.5124324947909339
GUIDED_NOGPS,0.9158589839935303,315.8361445783133,268.1550595462707,-178.494563321051,-75.64341248275126,19.43496553548807,300,0,30,-15.737565225126025,11.918031233701099,81.06336933405514,-10.0,6.387940499825885,-15.0,0.5124408081284325
GUIDED_NOGPS,0.918644905090332,347.5270527798492,268.1550595462707,-178.494563321051,-75.64341248275126,19.43496553548807,300,0,30,-15.968411958694116,11.915017412729831,80.62954303873262,-10.0,6.388000411655147,-15.0,0.5124447831963719
GUIDED_NOGPS,0.9230446815490723,228.01326447404185,268.1550595462707,-178.494563321051,-75.64341248275126,19.43496553548807,300,0,30,-15.968411958694116,11.915017412729831,80.62954303873262,-10.0,6.388157423013547,-15.0,0.5124552006852813
GUIDED_NOGPS,0.926234245300293,314.3684605006746,268.1550595462707,-178.494563321051,-75.64341248275126,19.43496553548807,300,0,30,-15.968411958694116,11.915017412729831,80.62954303873262,-10.0,6.388225610586555,-15.0,0.5124597248375006
GUIDED_NOGPS,0.9430301189422607,59.58241352368776,268.1550595462707,-178.494563321051,-75.64341248275126,19.43496553548807,300,0,30,-15.968411958694116,11.915017412729831,80.62954303873262,-10.0,6.388726057717966,-15.0,0.5124929288202849
GUIDED_NOGPS,0.9455294609069824,400.44911208707276,268.1550595462707,-178.494563321051,-75.64341248275126,19.43496553548807,300,0,30,-16.17052750151855,11.93124850351872,80.1606368918329,-10.0,6.38888020673197,-15.0,0.512503156396558
GUIDED_NOGPS,0.9519588947296143,155.82360589961735,268.1550595462707,-178.494563321051,-75.64341248275126,19.43496553548807,300,0,30,-16.562245680607948,11.921326799975631,79.17730138721534,-10.0,6.388935927542381,-15.0,0.5125068533961279
GUIDED_NOGPS,0.9534378051757812,680.7829897743873,268.1550595462707,-178.494563321051,-75.64341248275126,19.43496553548807,300,0,30,-16.562245680607948,11.921326799975631,79.17730138721534,-10.0,6.389143177980014,-15.0,0.5125206041792402
GUIDED_NOGPS,0.9700727462768555,60.54483515214504,268.1550595462707,-178.494563321051,-75.64341248275126,19.43496553548807,300,0,30,-16.901332129500524,11.86006597953614,78.1486339170764,-10.0,6.389187737925006,-15.0,0.5125235606706526
GUIDED_NOGPS,0.972541093826294,401.48406241026134,268.1550595462707,-178.494563321051,-75.64341248275126,19.43496553548807,300,0,30,-16.901332129500524,11.86006597953614,78.1486339170764,-10.0,6.389736457697458,-15.0,0.5125599674771547
GUIDED_NOGPS,0.973797082901001,798.0030441400304,268.1550595462707,-178.494563321051,-75.64341248275126,19.43496553548807,300,0,30,-16.901332129500524,11.86006597953614,78.1486339170764,-10.0,6.389795929166043,-15.0,0.5125639133277654
GUIDED_NOGPS,0.974989652633667,842.7373920032148,268.1550595462707,-178.494563321051,-75.64341248275126,19.43496553548807,300,0,30,-16.901332129500524,11.86006597953614,78.1486339170764,-10.0,6.389835022564709,-15.0,0.5125665071213048
GUIDED_NOGPS,0.9764041900634766,710.8989830508475,268.1550595462707,-178.494563321051,-75.64341248275126,19.43496553548807,300,0,30,-16.901332129500524,11.86006597953614,78.1486339170764,-10.0,6.3898774338532975,-15.0,0.5125693210523032
GUIDED_NOGPS,0.9812626838684082,206.28062755127132,268.1550595462707,-178.494563321051,-75.64341248275126,19.43496553548807,300,0,30,-17.051119885546196,11.827500491347164,77.62441689827791,-10.0,6.389918493690156,-15.0,0.5125720453163275
GUIDED_NOGPS,1.004612684249878,42.837049217162175,268.1550595462707,-178.494563321051,-75.64341248275126,19.43496553548807,300,0,30,-17.224623765937444,11.796655357055387,77.043857649016,-10.0,6.390074905246945,-15.0,0.5125824230092203
GUIDED_NOGPS,1.0062038898468018,633.4849720586014,268.1550595462707,-178.494563321051,-75.64341248275126,19.43496553548807,300,0,30,-17.224623765937444,11.796655357055387,77.043857649016,-10.0,6.390816533365346,-15.0,0.512631629020665
GUIDED_NOGPS,1.0089948177337646,359.3167137839459,268.1550595462707,-178.494563321051,-75.64341248275126,19.43496553548807,300,0,30,-17.224623765937444,11.796655357055387,77.043857649016,-10.0,6.3908649123003425,-15.0,0.5126348388968416
GUIDED_NOGPS,1.0114235877990723,413.3133622388648,268.1550595462707,-178.494563321051,-75.64341248275126,19.43496553548807,300,0,30,-17.224623765937444,11.796655357055387,77.043857649016,-10.0,6.390985191504393,-15.0,0.5126428192575428
GUIDED_NOGPS,1.0207083225250244,107.85044998714322,268.1550595462707,-178.494563321051,-75.64341248275126,19.43496553548807,300,0,30,-17.224623765937444,11.796655357055387,77.043857649016,-10.0,6.391029554046324,-15.0,0.5126457626515322
GUIDED_NOGPS,1.0262212753295898,181.50874156136402,268.1550595462707,-178.494563321051,-75.64341248275126,19.43496553548807,300,0,30,-17.224623765937444,11.796655357055387,77.043857649016,-10.0,6.391439765201208,-15.0,0.5126729796006757
GUIDED_NOGPS,1.0285866260528564,423.8811520970187,268.1550595462707,-178.494563321051,-75.64341248275126,19.43496553548807,300,0,30,-17.224623765937444,11.796655357055387,77.043857649016,-10.0,6.3915315044779755,-15.0,0.5126790663762314
GUIDED_NOGPS,1.030777931213379,461.06452676706607,268.1550595462707,-178.494563321051,-75.64341248275126,19.43496553548807,300,0,30,-17.224623765937444,11.796655357055387,77.043857649016,-10.0,6.391577226064063,-15.0,0.5126820999409419
GUIDED_NOGPS,1.0342750549316406,285.7739320024528,268.1550595462707,-178.494563321051,-75.64341248275126,19.43496553548807,300,0,30,-17.224623765937444,11.796655357055387,77.043857649016,-10.0,6.391693458505347,-15.0,0.5126898118044678
GUIDED_NOGPS,1.0365521907806396,440.43935734537433,268.1550595462707,-178.494563321051,-75.64341248275126,19.43496553548807,300,0,30,-17.224623765937444,11.796655357055387,77.043857649016,-10.0,6.391766725410983,-15.0,0.5126946729634608
GUIDED_NOGPS,1.0421431064605713,179.28206881812352,268.1550595462707,-178.494563321051,-75.64341248275126,19.43496553548807,300,0,30,-17.224623765937444,11.796655357055387,77.043857649016,-10.0,6.39196334645298,-15.0,0.5127077185007088
