Mode,Time,Freq,time2delay,actualDelay,North-Desired,East-Desired,Down-Desired,Roll-UAV,Pitch-UAV,Yaw-UAV,Roll-Control,Pitch-Control,Yaw-Control,Thrust-Control,North-Pos,East-Pos,Down-Pos,Yaw-Ang,North-Vel,East-Vel,Down-Vel,Yaw-Vel,North-Acc,East-Acc,Down-Acc,North-Avg,East-Avg,Down-Avg,Yaw-Avg,North-Dif,East-Dif,Down-Dif,Yaw-Dif,North-One,East-One,Down-One,Yaw-One,North-Two,East-Two,Down-Two,Yaw-Two,Landing-State,Q-Size,Kalman-Time,Kalman-Dt
STABILIZE,0.03447270393371582,29.018694045856453,0.0333135445912679,0.03345131874084473,0.0,0.0,0.0,-1.1526108575823422,-1.087746898912258,-5.435132423547755,-0.014760762857446088,0.01690221468285746,0.01642300036071801,0.4,0.08107352499352602,0.0847112357321806,0.11774023218063548,0.08211500180359005,0.02660161699168384,0.2004730748012662,1.703832857310772,-0.15773913677619833,0.49230256117880344,1.2588920071721077,19.337476789951324,0.0,0.0,0.0,0.0,0.0,0.0,0.0,0.0,0.0,0.0,0.0,0.0,0.0,0.0,0.0,0.0,False,0,0.14470648765563965,0.034926025390625
STABILIZE,0.06771373748779297,30.081142914518082,0.03218081792195638,0.03229665756225586,0.0,0.0,0.0,-1.1524911158284552,-1.0879512709788297,-5.434913003720669,-0.005185053531740475,0.005927126178980632,0.019606366736661975,0.4,0.09773408241230681,0.10214342895512557,0.15069086349524388,0.09803183368330987,0.11183905880898237,0.09443981107324362,1.730278879404068,-0.08463743635855016,2.3081492632627487,1.1727483943104744,24.82956498861313,0.0,0.0,0.0,0.0,0.0,0.0,0.0,0.0,0.0,0.0,0.0,0.0,0.0,0.0,0.0,0.0,False,0,0.17352533340454102,0.02993701171875
STABILIZE,0.10114741325378418,29.9110293383538,0.032433541615804036,0.032625436782836914,0.0,0.0,0.0,-1.151755376388798,-1.087999402468137,-5.435572970749221,-0.007342220700297487,0.008538797420846626,0.024859484932565578,0.4,0.12452932581813496,0.12939938933946157,0.21763831486140364,0.12429742466282788,0.052127300295978785,0.06947325891815126,1.8546104431152344,-0.035602504455983605,-2.79955230653286,1.1411561630666256,29.015550017356873,0.0,0.0,0.0,0.0,0.0,0.0,0.0,0.0,0.0,0.0,0.0,0.0,0.0,0.0,0.0,0.0,False,0,0.2308332920074463,0.024947998046875
STABILIZE,0.1347506046295166,29.758655920081736,0.03250840504964193,0.03274703025817871,0.0,0.0,0.0,-1.1517425697841042,-1.0882755982426995,-5.435275857520326,-0.004031792398746661,0.0046046807275850156,0.025536254989536007,0.4,0.12859517174557958,0.13374700913136228,0.2386601807454879,0.12768127494768003,0.052127300295978785,0.06947325891815126,1.8546104431152344,-0.035602504455983605,-2.79955230653286,1.1411561630666256,29.015550017356873,0.0,0.0,0.0,0.0,0.0,0.0,0.0,0.0,0.0,0.0,0.0,0.0,0.0,0.0,0.0,0.0,False,0,0.25956130027770996,0.024947998046875
STABILIZE,0.16827130317687988,29.832950431387054,0.03247264226277669,0.03260493278503418,0.0,0.0,0.0,-1.1513663757712247,-1.0880774160350632,-5.435350562714373,-0.004025275304586989,0.004646055562706437,0.02642124819711668,0.4,0.13222650408442843,0.13736952365730282,0.25991541519140055,0.13210624098558338,0.08734961738809943,0.06856729160062969,1.8732290714979172,0.20270496680546327,2.846677787601948,1.128526870161295,28.748518228530884,0.0,0.0,0.0,0.0,0.0,0.0,0.0,0.0,0.0,0.0,0.0,0.0,0.0,0.0,0.0,0.0,False,0,0.28830766677856445,0.034926025390625
STABILIZE,0.2016284465789795,29.977729176494133,0.03240159352620443,0.03253531455993652,0.0,0.0,0.0,-1.1518118321711563,-1.0879290728640272,-5.435509364612575,-0.00520713173460035,0.005263562433382644,0.027694878406393803,0.4,0.13825193975453523,0.14717007258019849,0.2902218438732142,0.138474392031969,-0.20743750501424074,0.20412069279700518,1.4587498269975185,-0.16174737726172478,1.3688712380826473,1.2639224529266357,22.830937802791595,0.0,0.0,0.0,0.0,0.0,0.0,0.0,0.0,0.0,0.0,0.0,0.0,0.0,0.0,0.0,0.0,False,0,0.31697893142700195,0.0349267578125
STABILIZE,0.23510503768920898,29.870556061987237,0.03249195416768392,0.03261852264404297,0.0,0.0,0.0,-1.1525104324572018,-1.0877716583479995,-5.434854947112724,-0.004954660113198619,0.005916915497213921,0.029630446366607967,0.4,0.14649096094641864,0.15405002655622557,0.3239828187232063,0.14815223183303983,0.23625800386071205,0.023982537095434964,1.9470883533358574,0.39248420081307406,1.8529925495386124,1.1506371200084686,28.923529386520386,0.0,0.0,0.0,0.0,0.0,0.0,0.0,0.0,0.0,0.0,0.0,0.0,0.0,0.0,0.0,0.0,False,0,0.34569692611694336,0.034926025390625
STABILIZE,0.26856160163879395,29.890139961802685,0.032466920216878255,0.03258538246154785,0.0,0.0,0.0,-1.1518473704991816,-1.0883459278468095,-5.43465644473997,-0.004839344952103335,0.005757763692707379,0.031168059289353418,0.4,0.1527415613116607,0.15921964556756815,0.35472990097745005,0.15584029644676708,0.13581992825493217,-0.004122348764212802,1.6712261363863945,0.267871508191864,5.643975734710693,-2.9126571491360664,22.465401887893677,0.0,0.0,0.0,0.0,0.0,0.0,0.0,0.0,0.0,0.0,0.0,0.0,0.0,0.0,0.0,0.0,False,0,0.37428760528564453,0.02993701171875
STABILIZE,0.30208349227905273,29.83316262660749,0.03245499928792318,0.03258562088012695,0.0,0.0,0.0,-1.1507208161729525,-1.0881657816074504,-5.435228473082959,-0.005011706236649856,0.004572571282034652,0.030873702939690308,0.4,0.15239068306986342,0.1645951228083249,0.413605856318135,0.15436851469845153,-0.21355929784476757,0.038090310408733785,1.9294226542115211,-0.2775629062938774,-3.6655139178037643,-0.9316752664744854,22.898079454898834,0.0,0.0,0.0,0.0,0.0,0.0,0.0,0.0,0.0,0.0,0.0,0.0,0.0,0.0,0.0,0.0,False,0,0.43192195892333984,0.034927001953125
STABILIZE,0.33796238899230957,27.869870295556026,0.032372506459554036,0.03505301475524902,0.0,0.0,0.0,-1.1497723803736728,-1.088919450293679,-5.434548442373719,-0.004730381016406624,0.005497526494946615,0.03140438267761899,0.4,0.1567129523256028,0.16768919509174568,0.4440952774400151,0.15702191338809493,0.2326796529814601,0.09554524440318346,1.8007535487413406,0.08545521810952696,2.1647321060299873,1.0916279628872871,26.11444592475891,0.0,0.0,0.0,0.0,0.0,0.0,0.0,0.0,0.0,0.0,0.0,0.0,0.0,0.0,0.0,0.0,False,0,0.4605231285095215,0.03492626953125
STABILIZE,0.3714563846588135,29.856097491529283,0.0325048287709554,0.03263592720031738,0.0,0.0,0.0,-1.1496786787159967,-1.0888458123166898,-5.433811208830181,-0.004702867579259406,0.005545906591797865,0.03161214920738566,0.4,0.1603344341700673,0.1699286403432651,0.4719302679152501,0.15806074603692832,0.2228709403425455,0.09519459563307464,1.6511516645550728,0.01715892929895297,3.917345404624939,-0.9168230928480625,20.346947014331818,0.0,0.0,0.0,0.0,0.0,0.0,0.0,0.0,0.0,0.0,0.0,0.0,0.0,0.0,0.0,0.0,False,0,0.4893069267272949,0.029936767578125
STABILIZE,0.4048619270324707,29.935365992919948,0.032421382268269856,0.03254103660583496,0.0,0.0,0.0,-1.149313690482224,-1.089541531116679,-5.434403300853856,-0.004311144433650057,0.0044309637999579154,0.03131551439984837,0.4,0.15805638849908954,0.16955542731483017,0.4924383420957961,0.15657757199924185,-0.06323391571640968,0.09386453893966973,1.6690822318196297,0.008957766416045277,-2.8174100443720818,1.0677365586161613,22.402477264404297,0.0,0.0,0.0,0.0,0.0,0.0,0.0,0.0,0.0,0.0,0.0,0.0,0.0,0.0,0.0,0.0,False,0,0.5180397033691406,0.034926025390625
STABILIZE,0.4383094310760498,29.896105377202485,0.03249648412068685,0.03262042999267578,0.0,0.0,0.0,-1.1497814517186642,-1.0892146425318705,-5.43447074897191,-0.004554356418569384,0.004610243729442594,0.03125416376164397,0.4,0.15691318891372658,0.1705613400401414,0.5188511322338665,0.15627081880821986,-0.06323391571640968,0.09386453893966973,1.6690822318196297,0.008957766416045277,-2.8174100443720818,1.0677365586161613,22.402477264404297,0.0,0.0,0.0,0.0,0.0,0.0,0.0,0.0,0.0,0.0,0.0,0.0,0.0,0.0,0.0,0.0,False,0,0.5468935966491699,0.034926025390625
STABILIZE,0.4718194007873535,29.84335154826958,0.03249219258626302,0.032629966735839844,0.0,0.0,0.0,-1.1494482665532146,-1.0900804757308753,-5.435009907029518,-0.004508856077145524,0.004211129580590574,0.03174999082512955,0.4,0.15397837581411197,0.17110205274840123,0.5446672093625421,0.15874995412564774,-0.1425964292138815,0.10530136059969664,1.7039241269230843,0.26043943528167035,-4.8660509288311005,1.0458935052156448,22.34700471162796,0.0,0.0,0.0,0.0,0.0,0.0,0.0,0.0,0.0,0.0,0.0,0.0,0.0,0.0,0.0,0.0,False,0,0.57558274269104,0.064864013671875
STABILIZE,0.5052142143249512,29.944128334915863,0.03243974049886068,0.03257179260253906,0.0,0.0,0.0,-1.1489532912818003,-1.0897022540055858,-5.435340744317441,-0.005475325147815604,0.005409624811458449,0.03265389340529925,0.4,0.15715313872721742,0.17701513083836362,0.6347817068488237,0.16326946702649625,0.01791589893400669,0.06118858582340181,1.8970655277371407,0.03689296664702636,1.0016603395342827,1.022925041615963,26.04556679725647,0.0,0.0,0.0,0.0,0.0,0.0,0.0,0.0,0.0,0.0,0.0,0.0,0.0,0.0,0.0,0.0,False,0,0.6328420639038086,0.034926025390625
STABILIZE,0.5387418270111084,29.82764653173847,0.03250006039937337,0.032630205154418945,0.0,0.0,0.0,-1.148871435733466,-1.0891432457107026,-5.436430159490058,-0.004620266727340055,0.0041326695078341535,0.03182627326015002,0.4,0.1537111371232496,0.17713491124317318,0.6561129481121863,0.15913136630075012,0.01145463902503252,0.24313796311616898,1.7875432968139648,-0.03377108994865452,-3.6535941064357758,1.1609459295868874,23.46280962228775,0.0,0.0,0.0,0.0,0.0,0.0,0.0,0.0,0.0,0.0,0.0,0.0,0.0,0.0,0.0,0.0,False,0,0.661468505859375,0.034927001953125
STABILIZE,0.5722436904907227,29.85078535894498,0.03241613705952962,0.032541513442993164,0.0,0.0,0.0,-1.1491338644079825,-1.0893440959609832,-5.436600487332485,-0.00407564347160505,0.0036742441172638203,0.03116591952185741,0.4,0.14851540419360373,0.17405653164407775,0.6765138420628434,0.15582959760928705,-0.07949479622766376,0.05947959725745022,1.7890427261590958,0.037519363029003966,-2.0822949707508087,1.0148334316909313,25.397783517837524,0.0,0.0,0.0,0.0,0.0,0.0,0.0,0.0,0.0,0.0,0.0,0.0,0.0,0.0,0.0,0.0,False,0,0.6903364658355713,0.029874267578125
STABILIZE,0.6153466701507568,23.197942534775034,0.03234127362569173,0.042290687561035156,0.0,0.0,0.0,-1.1481192611511182,-1.0893947887712294,-5.437149463787025,-0.003996102696612146,0.0037261319144229316,0.030273008723515422,0.4,0.14322838235778995,0.1701184022590257,0.6878193703661601,0.1513650436175771,-0.021545161143876612,0.09047457133419812,1.6875093802809715,0.03495754183225334,-2.220088802278042,0.8679073303937912,22.43402451276779,0.0,0.0,0.0,0.0,0.0,0.0,0.0,0.0,0.0,0.0,0.0,0.0,0.0,0.0,0.0,0.0,False,0,0.7188315391540527,0.034926025390625
STABILIZE,0.6488704681396484,29.830404324170548,0.03253606160481771,0.03265523910522461,0.0,0.0,0.0,-1.1476772198457714,-1.0899467534335312,-5.4368988812218495,-0.0034730592368760545,0.0019967035949341847,0.02970167041399967,0.4,0.13140980513757916,0.16447147534897744,0.7288378604851107,0.14850835206999835,-0.06016553961671889,0.0484147050883621,1.6953516751527786,0.263681533981605,-4.200491309165955,0.9459364227950573,25.451460480690002,0.0,0.0,0.0,0.0,0.0,0.0,0.0,0.0,0.0,0.0,0.0,0.0,0.0,0.0,0.0,0.0,False,0,0.7766168117523193,0.024947998046875
STABILIZE,0.6883687973022461,25.319971989471906,0.03244736989339193,0.03858327865600586,0.0,0.0,0.0,-1.1472454238241796,-1.0911863260461827,-5.437637822312681,-0.0035497122859916032,0.0028327714377288267,0.029019339540461243,0.4,0.12430901775692205,0.15931969370104906,0.736426224811308,0.1450966977023062,-0.09734969935379922,0.08318787440657616,2.0011944696307182,0.15247167354394336,-2.771962806582451,1.1020348407328129,32.19535946846008,0.0,0.0,0.0,0.0,0.0,0.0,0.0,0.0,0.0,0.0,0.0,0.0,0.0,0.0,0.0,0.0,False,0,0.8052775859832764,0.034926025390625
STABILIZE,0.7283279895782471,25.022694189237562,0.03238824208577474,0.039104461669921875,0.0,0.0,0.0,-1.147559719247706,-1.0909596491431028,-5.437671119484884,-0.003722572954830094,0.0028472663846291902,0.028671019964505925,0.4,0.11833542266976085,0.15603431697297232,0.756658005420338,0.1433550998225296,-0.09734969935379922,0.08318787440657616,2.0011944696307182,0.15247167354394336,-2.771962806582451,1.1020348407328129,32.19535946846008,0.0,0.0,0.0,0.0,0.0,0.0,0.0,0.0,0.0,0.0,0.0,0.0,0.0,0.0,0.0,0.0,False,0,0.8338925838470459,0.034926025390625
STABILIZE,0.7618889808654785,29.800308354707383,0.03248265584309896,0.03261995315551758,0.0,0.0,0.0,-1.1474056131045576,-1.0914634823160971,-5.436812650083579,-0.0030742394012499485,0.0012880069011169477,0.027933832061823156,0.4,0.10657113712539608,0.1499329820557388,0.7866010401819564,0.13966916030911578,-0.0987892271950841,0.11230637319386005,1.8188312649726868,0.09022006212819099,-1.7249813303351402,-1.0300170630216599,19.716572761535645,0.0,0.0,0.0,0.0,0.0,0.0,0.0,0.0,0.0,0.0,0.0,0.0,0.0,0.0,0.0,0.0,False,0,0.8912615776062012,0.06486328125
STABILIZE,0.7952468395233154,29.975158297957492,0.032352479298909505,0.032491445541381836,0.0,0.0,0.0,-1.1466399915872816,-1.0907595459447628,-5.437169100580888,-0.00392868907900466,0.002049470059307582,0.027640355896023174,0.4,0.10010351753281405,0.149534280930004,0.8313393728017647,0.13820177948011586,-0.17309363465756178,0.052344059804454446,1.4962214976549149,-0.024121706848185948,-4.7085389494895935,-1.0537462309002876,22.862930595874786,0.0,0.0,0.0,0.0,0.0,0.0,0.0,0.0,0.0,0.0,0.0,0.0,0.0,0.0,0.0,0.0,False,0,0.9200048446655273,0.034927001953125
STABILIZE,0.828681230545044,29.909322988718856,0.032477410634358723,0.03261590003967285,0.0,0.0,0.0,-1.1462093695044533,-1.089903424420984,-5.4377044166570885,-0.0027440067249376743,0.0022846289133556835,0.02668475003737569,0.4,0.09564105371159896,0.14234490065872138,0.8409445247068168,0.13342375018687844,0.01360916648991406,-0.07799501181580126,1.7985939979553223,0.02806524396452909,-1.7426416277885437,-1.1910957284271717,19.654548168182373,0.0,0.0,0.0,0.0,0.0,0.0,0.0,0.0,0.0,0.0,0.0,0.0,0.0,0.0,0.0,0.0,False,0,0.9486985206604004,0.02993701171875
STABILIZE,0.8622410297393799,29.798614614045682,0.03250244458516439,0.03262948989868164,0.0,0.0,0.0,-1.1463681714026561,-1.0902089686646361,-5.437728322319184,-0.0025123570409426844,0.002175349792166412,0.02565356399940264,0.4,0.09126268877433094,0.13480782531546537,0.8441353874432781,0.1282678199970132,0.01360916648991406,-0.07799501181580126,1.7985939979553223,0.02806524396452909,-1.7426416277885437,-1.1910957284271717,19.654548168182373,0.0,0.0,0.0,0.0,0.0,0.0,0.0,0.0,0.0,0.0,0.0,0.0,0.0,0.0,0.0,0.0,False,0,0.9772274494171143,0.02993701171875
STABILIZE,0.8955714702606201,30.000886943335765,0.032381804784139,0.03249955177307129,0.0,0.0,0.0,-1.1459503559245219,-1.090386873748174,-5.437722345903659,-0.002682079010605064,0.001904539842205486,0.024668018930775387,0.4,0.08619752346811645,0.12928580672041318,0.8456378665012158,0.12334009465387692,-0.03673235769383609,0.01793159026419744,1.700771413743496,0.02836644263372409,-0.6942972540855408,-1.0201942175626755,26.04479491710663,0.0,0.0,0.0,0.0,0.0,0.0,0.0,0.0,0.0,0.0,0.0,0.0,0.0,0.0,0.0,0.0,False,0,1.0059833526611328,0.03492578125
STABILIZE,0.929034948348999,29.88438985115888,0.03249934514363607,0.03261828422546387,0.0,0.0,0.0,-1.1454130121359123,-1.0913275188629317,-5.437560128910872,-0.003165119196770278,0.0027242744188138096,0.022958374399023207,0.4,0.08574393394783857,0.12726197952343402,0.8570876573472399,0.11479187199511603,0.20818645134568214,0.18341511022299528,1.9327107816934586,-0.2035162385323874,6.496389210224152,2.9927363619208336,29.44677770137787,0.0,0.0,0.0,0.0,0.0,0.0,0.0,0.0,0.0,0.0,0.0,0.0,0.0,0.0,0.0,0.0,False,0,1.034712553024292,0.03492724609375
STABILIZE,0.962587833404541,29.80687341880099,0.03247693379720052,0.03260660171508789,0.0,0.0,0.0,-1.1446353310658828,-1.092225795460494,-5.436994076983407,-0.0021859918332408613,0.0003081139625894593,0.02044651413774952,0.4,0.07378023538567116,0.11989841829419212,0.8789732031324783,0.10223257068874758,-0.09196978062391281,0.005669362144544721,1.8600910902023315,-0.148123524425503,-3.1928911805152893,-1.01994127035141,30.52453100681305,0.0,0.0,0.0,0.0,0.0,0.0,0.0,0.0,0.0,0.0,0.0,0.0,0.0,0.0,0.0,0.0,False,0,1.092275619506836,0.02494677734375
STABILIZE,0.9960346221923828,29.89567919713752,0.0323520024617513,0.03249239921569824,0.0,0.0,0.0,-1.1439729094380973,-1.0915750064986387,-5.4375490298534706,-0.0023416175201509105,0.001343313995144986,0.018943962191859644,0.4,0.0684505297946404,0.11442593233955367,0.8755989160291511,0.09471981095929821,-0.09196978062391281,0.005669362144544721,1.8600910902023315,-0.148123524425503,-3.1928911805152893,-1.01994127035141,30.52453100681305,0.0,0.0,0.0,0.0,0.0,0.0,0.0,0.0,0.0,0.0,0.0,0.0,0.0,0.0,0.0,0.0,False,0,1.1207261085510254,0.02494677734375
STABILIZE,1.0294010639190674,29.96830477714743,0.03239110310872396,0.03253030776977539,0.0,0.0,0.0,-1.1436705668456184,-1.0922271828426693,-5.43724167134082,-0.0024872768740235225,0.0023908224563466553,0.018128493861810868,0.4,0.06886823932160514,0.11052314416043207,0.8682171928309017,0.09064246930905434,0.2250522142276168,0.0771274499129504,1.588176004588604,0.02639640330069151,7.9608142375946045,-1.0130099952220917,26.77789330482483,0.0,0.0,0.0,0.0,0.0,0.0,0.0,0.0,0.0,0.0,0.0,0.0,0.0,0.0,0.0,0.0,False,0,1.1494958400726318,0.03492724609375
STABILIZE,1.0635628700256348,29.272865587683118,0.03247264226277669,0.03329658508300781,0.0,0.0,0.0,-1.1428732489817253,-1.092349806082612,-5.437034204344781,-0.0025813376653950866,0.0015547814223175077,0.018044437297307116,0.4,0.06514886781499414,0.10763522799203726,0.879500633357657,0.09022218648653557,-0.01704046007944271,0.09872345253825188,1.9911406561732292,0.22322891152898466,1.4967864379286766,0.8076171390712261,20.61241865158081,0.0,0.0,0.0,0.0,0.0,0.0,0.0,0.0,0.0,0.0,0.0,0.0,0.0,0.0,0.0,0.0,False,0,1.1781668663024902,0.034940673828125
STABILIZE,1.097020149230957,29.889287953936492,0.032471688588460286,0.03265047073364258,0.0,0.0,0.0,-1.1424318480066131,-1.0925957996144382,-5.436845947255782,-0.0025252423019310713,0.0014588503172273553,0.017992188927951104,0.4,0.061541878076830196,0.10484513582161721,0.890277528476433,0.08996094463975551,-0.01704046007944271,0.09872345253825188,1.9911406561732292,0.22322891152898466,1.4967864379286766,0.8076171390712261,20.61241865158081,0.0,0.0,0.0,0.0,0.0,0.0,0.0,0.0,0.0,0.0,0.0,0.0,0.0,0.0,0.0,0.0,False,0,1.2068135738372803,0.034940673828125
STABILIZE,1.1305296421051025,29.843563891478052,0.03251221974690755,0.03264617919921875,0.0,0.0,0.0,-1.142743475387495,-1.092439238872057,-5.436522793930676,-0.0021687182986493444,0.001683274444636048,0.01773773204684725,0.4,0.059507228596424405,0.10037522378712671,0.8990798071363625,0.08868866023423624,0.06740664248354733,-0.0042259704059688374,1.9064886495471,0.15645316690195832,4.9455370754003525,0.8297882974147797,21.81919366121292,0.0,0.0,0.0,0.0,0.0,0.0,0.0,0.0,0.0,0.0,0.0,0.0,0.0,0.0,0.0,0.0,False,0,1.2355773448944092,0.064863037109375
STABILIZE,1.1640753746032715,29.808779946982025,0.03245142300923665,0.03259086608886719,0.0,0.0,0.0,-1.14256727785125,-1.0922093603178036,-5.436335817502147,-0.001640242373879445,0.00036879359340748875,0.015567974671017566,0.4,0.051461743229014555,0.09349126689643336,0.9356906480525129,0.07783987335508782,0.04598248051479459,0.06169868865981698,1.6824815422296524,-0.2751914165892814,1.618163101375103,0.9254069067537785,22.528067231178284,0.0,0.0,0.0,0.0,0.0,0.0,0.0,0.0,0.0,0.0,0.0,0.0,0.0,0.0,0.0,0.0,False,0,1.2929277420043945,0.02993701171875
STABILIZE,1.1973648071289062,30.03827202933425,0.032370599110921223,0.03249478340148926,0.0,0.0,0.0,-1.1424720820896928,-1.0926019894733736,-5.436450650057568,-0.0021681738366162643,0.0017649258858304679,0.015286056790950546,0.4,0.051226618383214025,0.09057737423583673,0.9333567102669053,0.07643028395475272,0.14179779682308435,0.08727673557586968,1.8404306843876839,0.13862629312694572,8.253821730613708,0.8997099474072456,20.79654037952423,0.0,0.0,0.0,0.0,0.0,0.0,0.0,0.0,0.0,0.0,0.0,0.0,0.0,0.0,0.0,0.0,False,0,1.3217711448669434,0.034927001953125
STABILIZE,1.231130599975586,29.61744435656988,0.032535584767659505,0.03295135498046875,0.0,0.0,0.0,-1.1421666445677463,-1.0917870625280266,-5.437431209090287,-0.002227162669259331,0.0017648478830131198,0.015072671320388293,0.4,0.051006815220667724,0.08836747187830944,0.9359433431629215,0.07536335660194146,0.14024957781657577,0.11079871328547597,1.797783188521862,0.14808271671325482,3.3285096287727356,-0.9102922864258289,25.954538583755493,0.0,0.0,0.0,0.0,0.0,0.0,0.0,0.0,0.0,0.0,0.0,0.0,0.0,0.0,0.0,0.0,False,0,1.3510034084320068,0.034926025390625
STABILIZE,1.2645752429962158,29.899088977915913,0.032499106725056966,0.03261137008666992,0.0,0.0,0.0,-1.1418657960791485,-1.0919775607728464,-5.4367968552711226,-0.001810862421896893,0.0014261123006645404,0.014679780421821848,0.4,0.04918463238480152,0.08407762354948213,0.9300949881425976,0.07339890210910924,0.0457275309599936,-0.010510708671063185,1.3461864553391933,0.09148181951543184,-3.257272392511368,0.9154428727924824,20.712028443813324,0.0,0.0,0.0,0.0,0.0,0.0,0.0,0.0,0.0,0.0,0.0,0.0,0.0,0.0,0.0,0.0,False,0,1.3793492317199707,0.02993701171875
STABILIZE,1.2981452941894531,29.79120676184388,0.03249243100484212,0.032622575759887695,0.0,0.0,0.0,-1.1415781810820673,-1.0920391391970823,-5.436538588743132,-0.0017220925119051619,0.0014018686114487093,0.014299061227568077,0.4,0.04749014301187751,0.0798596057106894,0.9190947643217094,0.07149530613784039,0.0457275309599936,-0.010510708671063185,1.3461864553391933,0.09148181951543184,-3.257272392511368,0.9154428727924824,20.712028443813324,0.0,0.0,0.0,0.0,0.0,0.0,0.0,0.0,0.0,0.0,0.0,0.0,0.0,0.0,0.0,0.0,False,0,1.4080870151519775,0.02993701171875
STABILIZE,1.3364355564117432,26.114024219406655,0.032367738087972005,0.03744196891784668,0.0,0.0,0.0,-1.1426094329250336,-1.093050540802773,-5.43628843306478,-0.001677479817234806,0.001243320704362626,0.013585125789557477,0.4,0.044989362025369226,0.07547804679432146,0.9147245203952379,0.06792562894778738,0.16107475385069847,0.11057733790948987,1.6874222084879875,0.15180180807717963,2.72696316242218,0.9984132833778858,18.074341118335724,0.0,0.0,0.0,0.0,0.0,0.0,0.0,0.0,0.0,0.0,0.0,0.0,0.0,0.0,0.0,0.0,False,0,1.465449571609497,0.03492578125
STABILIZE,1.3699030876159668,29.881196301098555,0.032463820775349934,0.03260040283203125,0.0,0.0,0.0,-1.1427583097045986,-1.0939276865025909,-5.437149036900202,-0.0019790654577480898,0.0017661808653604157,0.013499613805422759,0.4,0.04560653192494173,0.07390303854570154,0.91544553812067,0.06749806902711379,0.16107475385069847,0.11057733790948987,1.6874222084879875,0.15180180807717963,2.72696316242218,0.9984132833778858,18.074341118335724,0.0,0.0,0.0,0.0,0.0,0.0,0.0,0.0,0.0,0.0,0.0,0.0,0.0,0.0,0.0,0.0,False,0,1.4941377639770508,0.03492578125
STABILIZE,1.4033043384552002,29.937502676621317,0.03246262868245443,0.032590389251708984,0.0,0.0,0.0,-1.1433166776692472,-1.0940139176408623,-5.441817898084729,-0.0018864061408866701,0.0008717312680233046,0.012787321978501949,0.4,0.04184988470495408,0.07200215610521361,0.912179253699307,0.06393660989250974,-0.09209885611198843,0.08575563551858068,1.4705659821629524,-0.03154015940067927,-1.9822310656309128,-0.8737531490623951,21.414005756378174,0.0,0.0,0.0,0.0,0.0,0.0,0.0,0.0,0.0,0.0,0.0,0.0,0.0,0.0,0.0,0.0,False,0,1.522923231124878,0.029937255859375
STABILIZE,1.436760425567627,29.889500951349348,0.03251674969991048,0.03264737129211426,0.0,0.0,0.0,-1.144136193647943,-1.0955841140980247,-5.436428878829588,-0.0019836460093365232,0.00038984184022485793,0.01250967224335304,0.4,0.03631682951274548,0.07090619515539082,0.9050910795430276,0.0625483612167652,-0.19991686567664146,0.13024690560996532,1.5254905447363853,0.09151859181318016,-4.162760451436043,1.0579430498182774,23.49773198366165,0.0,0.0,0.0,0.0,0.0,0.0,0.0,0.0,0.0,0.0,0.0,0.0,0.0,0.0,0.0,0.0,False,0,1.5515248775482178,0.0349267578125
STABILIZE,1.4702122211456299,29.89312237189081,0.032517464955647786,0.03262758255004883,0.0,0.0,0.0,-1.1450015999601246,-1.0938293958115661,-5.437130253879984,-0.0013355516934813261,0.000899907863058391,0.012074261053037917,0.4,0.03399712676456027,0.06622100603940191,0.9113622276860684,0.060371305265189586,-0.017987756291404366,-0.08751270943321288,2.005046233534813,0.03629952059170878,-0.1855313777923584,-2.7979617938399315,29.38498556613922,0.0,0.0,0.0,0.0,0.0,0.0,0.0,0.0,0.0,0.0,0.0,0.0,0.0,0.0,0.0,0.0,False,0,1.5803322792053223,0.034926025390625
STABILIZE,1.5037636756896973,29.80687341880099,0.032501967748006184,0.03263974189758301,0.0,0.0,0.0,-1.1411081786898059,-1.0913916586081063,-5.457287422781161,-0.0012335344388183108,0.0008490200330053847,0.01165408760533744,0.4,0.03176000954357166,0.06160774941836719,0.9175307102155524,0.058270438026687195,-0.017987756291404366,-0.08751270943321288,2.005046233534813,0.03629952059170878,-0.1855313777923584,-2.7979617938399315,29.38498556613922,0.0,0.0,0.0,0.0,0.0,0.0,0.0,0.0,0.0,0.0,0.0,0.0,0.0,0.0,0.0,0.0,False,0,1.608839750289917,0.034926025390625
STABILIZE,1.5370841026306152,30.013123528612013,0.03239587148030599,0.03251528739929199,0.0,0.0,0.0,-1.1440906234795742,-1.0912911267612602,-5.449354158060191,0.001466098541549944,-0.0032262100600586843,0.012105643476914967,0.4,0.010373693316614523,0.04219830227808996,0.9440867244032659,0.06052821738457483,-0.8276188746094704,-0.5917999893426895,1.5533956699073315,0.20364162319646736,-17.31952428817749,4.598653316497803,16.665944457054138,0.0,0.0,0.0,0.0,0.0,0.0,0.0,0.0,0.0,0.0,0.0,0.0,0.0,0.0,0.0,0.0,False,0,1.666299819946289,0.034944091796875
STABILIZE,1.5705406665802002,29.88737111381888,0.03252151807149251,0.032653093338012695,0.0,0.0,0.0,-1.146931768730888,-1.089836936798282,-5.437019690192795,-0.0034851044262576994,-0.0004439701760019845,0.010102257325704985,0.4,0.005345964647991241,0.05390006562591766,0.9379801493942413,0.05051128662852492,-0.17749778926372528,0.7848273031413555,1.5201299451291561,-0.3914647950794497,4.959147050976753,22.4331334233284,23.753266036510468,0.0,0.0,0.0,0.0,0.0,0.0,0.0,0.0,0.0,0.0,0.0,0.0,0.0,0.0,0.0,0.0,True,0,1.694962978363037,0.02993701171875
STABILIZE,1.6040775775909424,29.818740224655198,0.032517226537068684,0.03265643119812012,0.0,0.0,0.0,-1.154385426106076,-1.0925371026762585,-5.440737447535397,-0.0037724665642584307,-0.00046639203963735724,0.008143457347881822,0.4,0.0009292563257682397,0.06554734352923931,0.9275949097791456,0.04071728673940911,-0.17749778926372528,0.7848273031413555,1.5201299451291561,-0.3914647950794497,4.959147050976753,22.4331334233284,23.753266036510468,0.0,0.0,0.0,0.0,0.0,0.0,0.0,0.0,0.0,0.0,0.0,0.0,0.0,0.0,0.0,0.0,True,0,1.723634958267212,0.02993701171875
STABILIZE,1.6375205516815186,29.90164682398232,0.03243687947591146,0.03256368637084961,0.0,0.0,0.0,-1.1612523275428777,-1.0898740759518941,-5.455953401458893,-0.0019036893054591387,0.0035324680701255906,0.004209864267117654,0.4,0.016229739323114452,0.06477738111871822,0.9186337804143994,0.021049321335588272,0.9055653586983681,0.11217496357858181,1.5550035052001476,-0.9587552546202766,33.64683389663696,-10.595624148845673,32.5780987739563,0.0,0.0,0.0,0.0,0.0,0.0,0.0,0.0,0.0,0.0,0.0,0.0,0.0,0.0,0.0,0.0,True,0,1.7555837631225586,0.034927001953125
STABILIZE,1.6709585189819336,29.906124107836774,0.032440932591756184,0.03258943557739258,0.0,0.0,0.0,-1.1627050234019747,-1.0894118642441546,-5.443016596284066,0.0008444580534176271,0.006736210188194829,0.004058131057900589,0.4,0.044637829473895246,0.04833301151411827,0.9099973814852864,0.020290655289502947,1.6487093642354012,-0.7753390353173018,1.291488390415907,0.09442788554374197,8.804987370967865,-32.51606822013855,26.55681073665619,0.0,0.0,0.0,0.0,0.0,0.0,0.0,0.0,0.0,0.0,0.0,0.0,0.0,0.0,0.0,0.0,True,0,1.7880713939666748,0.03492578125
STABILIZE,1.704371452331543,29.928103549155882,0.03247717221577962,0.032586097717285156,0.0,0.0,0.0,-1.1591007112326177,-1.0877531954928992,-5.426294585648582,0.0037377825568090804,-0.000899320663949014,0.007716882339930628,0.4,0.03247704692150581,0.01769897098525929,0.9003023094169608,0.03858441169965314,-0.615694560110569,-1.5654131770133972,1.2282400391995907,1.143317744886305,-73.39103817939758,-30.721184611320496,27.53516435623169,0.0,0.0,0.0,0.0,0.0,0.0,0.0,0.0,0.0,0.0,0.0,0.0,0.0,0.0,0.0,0.0,True,0,1.8131673336029053,0.029937255859375
STABILIZE,1.7378015518188477,29.912735882696943,0.03249481519063314,0.03262448310852051,0.0,0.0,0.0,-1.1447213487607426,-1.0964416230039786,-5.441210865022244,-0.005171695947266674,-0.005395147864282737,0.005877844963702728,0.4,0.0006102911418017568,0.04249153317419869,0.8923053349122867,0.029389224818513637,-1.7280908301472664,1.5155891887843609,1.546560600399971,-0.40794348022575166,-27.880442142486572,90.55635929107666,10.129999369382858,0.0,0.0,0.0,0.0,0.0,0.0,0.0,0.0,0.0,0.0,0.0,0.0,0.0,0.0,0.0,0.0,True,0,1.8417792320251465,0.0349267578125
STABILIZE,1.7712609767913818,29.88779705704208,0.03251818021138509,0.03264284133911133,0.0,0.0,0.0,-1.1581821575109568,-1.098828347232075,-5.375573600872067,-0.0018685541205184207,0.00707401020927126,0.005347042419663316,0.4,0.03283895634027821,0.04475344275949528,0.8849011533716414,0.02673521209831658,0.5406669806689024,-1.5851065516471863,1.1984046548604965,0.2706899484002728,-32.11259841918945,-71.65101766586304,9.645513445138931,0.0,0.0,0.0,0.0,0.0,0.0,0.0,0.0,0.0,0.0,0.0,0.0,0.0,0.0,0.0,0.0,True,0,1.899618148803711,0.02993701171875
STABILIZE,1.8048100471496582,29.80666159739051,0.03247264226277669,0.0326235294342041,0.0,0.0,0.0,-1.1624183689002456,-1.1005981132790488,-5.369464850433137,-0.008745565712155625,-0.0022212543706943556,-0.0028424742122716016,0.4,0.01599874854915127,0.08617533872808815,0.8775174259274234,-0.014212371061358007,-0.9019531309604645,2.5053896009922028,1.5324362553656101,-2.2616271790134315,-26.588666439056396,99.22466278076172,19.565384089946747,0.0,0.0,0.0,0.0,0.0,0.0,0.0,0.0,0.0,0.0,0.0,0.0,0.0,0.0,0.0,0.0,True,0,1.9284214973449707,0.034927001953125
STABILIZE,1.8387844562530518,29.43391883451814,0.03241852124532064,0.03322196006774902,0.0,0.0,0.0,-1.168645260267476,-1.1238462629447739,-5.439151989874308,-0.009754956222169202,-0.002650357697701074,-0.011078968950637032,0.4,-0.000724312632580524,0.12791601334948757,0.8746990028471713,-0.05539484475318516,-0.9019531309604645,2.5053896009922028,1.5324362553656101,-2.2616271790134315,-26.588666439056396,99.22466278076172,19.565384089946747,0.0,0.0,0.0,0.0,0.0,0.0,0.0,0.0,0.0,0.0,0.0,0.0,0.0,0.0,0.0,0.0,True,0,1.9569315910339355,0.034927001953125
STABILIZE,1.8722667694091797,29.86587675700309,0.032579930623372395,0.03266167640686035,0.0,0.0,0.0,-1.1849836063706753,-1.121272348844737,-5.3455557732435075,0.0005437188264066177,0.012477982009480663,-0.007126822205166617,0.4,0.05743028609384064,0.10407289197162599,0.8629989421172201,-0.03563411102583308,3.402339294552803,-1.2690456584095955,1.0184863582253456,1.2371084084650392,86.26188635826111,-98.80289435386658,24.439364671707153,0.0,0.0,0.0,0.0,0.0,0.0,0.0,0.0,0.0,0.0,0.0,0.0,0.0,0.0,0.0,0.0,True,0,1.9860098361968994,0.034926025390625
STABILIZE,1.9057092666625977,29.902925911138993,0.03249791463216146,0.032625436782836914,0.0,0.0,0.0,-1.176409371084782,-1.1239939657855753,-5.367572034259397,0.007787803639569486,0.001534487452898463,-0.005904020515114796,0.4,0.055033713843256005,0.04205406715688406,0.8564915991415698,-0.029520102575573977,-0.10109951253980398,-3.439014032483101,1.3157496228814125,0.4230622106752807,-53.64508628845215,-37.16000318527222,13.042517006397247,0.0,0.0,0.0,0.0,0.0,0.0,0.0,0.0,0.0,0.0,0.0,0.0,0.0,0.0,0.0,0.0,True,0,2.015188694000244,0.034927001953125
STABILIZE,1.9391651153564453,29.8905659839512,0.032503398259480794,0.03262734413146973,0.0,0.0,0.0,-1.1628548606768918,-1.1185097507688782,-5.371679966158337,-0.006945804230926274,0.008817418110496713,-0.02373245659445858,0.4,0.0876473737630909,0.07343319089675593,0.8453805292959911,-0.11866228297229288,1.919318363070488,1.9533345475792885,1.0461381636559963,-5.0673993075025,40.58235287666321,101.25513076782227,-16.21217578649521,0.0,0.0,0.0,0.0,0.0,0.0,0.0,0.0,0.0,0.0,0.0,0.0,0.0,0.0,0.0,0.0,True,0,2.043926954269409,0.02993701171875
STABILIZE,1.9726221561431885,29.88694518273609,0.032492669423421223,0.0326695442199707,0.0,0.0,0.0,-1.1626558246956094,-1.1142113206251187,-5.296692173034413,-0.0020510660675189664,-0.00025030256774820835,-0.017963064964627268,0.4,0.0722964987399656,0.07212821421480549,0.8332828858498658,-0.08981532482313634,-0.6578510627150536,0.9358006529510021,1.3879614882171154,1.9095620900373624,-43.890926241874695,95.9096372127533,15.094248950481415,0.0,0.0,0.0,0.0,0.0,0.0,0.0,0.0,0.0,0.0,0.0,0.0,0.0,0.0,0.0,0.0,True,0,2.1012818813323975,0.034927001953125
STABILIZE,2.006115198135376,29.858435428872454,0.032500298817952473,0.03263235092163086,0.0,0.0,0.0,-1.1500729086971535,-1.098434757581153,-5.476161796778845,-0.0019044743934933587,-0.0006471320630807517,-0.0236666290118364,0.4,0.057235469461015036,0.07013800783099869,0.8561694405258424,-0.118333145059182,-0.8075444959104061,0.013074412709102035,2.973485365509987,-1.6518573451054888,42.36325025558472,-67.59232878684998,48.5826849937439,0.0,0.0,0.0,0.0,0.0,0.0,0.0,0.0,0.0,0.0,0.0,0.0,0.0,0.0,0.0,0.0,True,0,2.131153106689453,0.034926025390625
STABILIZE,2.039654493331909,29.816196542311193,0.03249958356221517,0.032631874084472656,0.0,0.0,0.0,-1.1497694988876168,-1.0996717688728657,-5.4758066269420045,0.004348723630826802,-0.009440778409568267,-0.011818306380701249,0.4,0.0023733637477747066,0.03252981590894737,0.8639143605632384,-0.059091531903506245,-3.103826567530632,-2.052977681159973,2.0767023786902428,3.4337732313956564,-33.97733271121979,-61.89873814582825,23.689621686935425,0.0,0.0,0.0,0.0,0.0,0.0,0.0,0.0,0.0,0.0,0.0,0.0,0.0,0.0,0.0,0.0,True,0,2.158642053604126,0.02992626953125
STABILIZE,2.0730197429656982,29.97194531981335,0.03241160710652669,0.032524824142456055,0.0,0.0,0.0,-1.1581294369883008,-1.104281292788978,-5.338902315218268,-0.0017360178029480824,0.004354987479643213,-0.0034029810947860508,0.4,0.02122428339786955,0.03523604934361094,0.8630432748669532,-0.017014905473930253,1.185437384992838,0.2893067430704832,1.8137147650122643,2.389883404030873,123.61854314804077,97.83155918121338,-31.921085715293884,0.0,0.0,0.0,0.0,0.0,0.0,0.0,0.0,0.0,0.0,0.0,0.0,0.0,0.0,0.0,0.0,True,0,2.187288522720337,0.034926025390625
STABILIZE,2.1064202785491943,29.93771636176758,0.03246572812398275,0.032602548599243164,0.0,0.0,0.0,-1.1501896622432783,-1.1057540523287621,-5.438956902596139,-0.006479601389650852,0.005875338951126073,-0.026940258534965757,0.4,0.04456752288568174,0.06479413035990406,0.8877501746818939,-0.13470129267482878,1.457907259464264,1.869780570268631,3.047053702175617,-6.977880911756875,-54.273420572280884,-0.7775822188705206,36.179351806640625,0.0,0.0,0.0,0.0,0.0,0.0,0.0,0.0,0.0,0.0,0.0,0.0,0.0,0.0,0.0,0.0,True,0,2.216036081314087,0.029936767578125
STABILIZE,2.1399636268615723,29.813017549595912,0.03254726727803548,0.032678842544555664,0.0,0.0,0.0,-1.1484467900661615,-1.0973022268394002,-5.482189011834558,-0.007148974271383452,0.006536740176610389,-0.050036298754536926,0.4,0.06763114758727232,0.09400698848484967,0.9077633654322839,-0.2501814937726846,1.457907259464264,1.869780570268631,3.047053702175617,-6.977880911756875,-54.273420572280884,-0.7775822188705206,36.179351806640625,0.0,0.0,0.0,0.0,0.0,0.0,0.0,0.0,0.0,0.0,0.0,0.0,0.0,0.0,0.0,0.0,True,0,2.2447457313537598,0.029936767578125
STABILIZE,2.1734185218811035,29.893335423957122,0.032442839940389,0.032575130462646484,0.0,0.0,0.0,-1.156816760007189,-1.105246804061183,-5.350169139141028,0.0015023642952189,-0.010372959058271581,-0.03617609225007753,0.4,0.0067903298947063154,0.06906383323909818,0.9142790987706408,-0.18088046125038765,-0.8606118150055408,0.7090510334819555,1.2294072657823563,-0.37489203474950133,13.442768156528473,88.65039944648743,1.2275278568267822,0.0,0.0,0.0,0.0,0.0,0.0,0.0,0.0,0.0,0.0,0.0,0.0,0.0,0.0,0.0,0.0,True,0,2.3023319244384766,0.03492578125
STABILIZE,2.20693039894104,29.841015972395148,0.03244212468465169,0.03257608413696289,0.0,0.0,0.0,-1.1522429878625133,-1.1068858360185743,-5.417066146306248,-0.003945209446689702,-0.0027810588195162746,-0.037158348511242355,0.4,-0.009163014397090817,0.07902746765872823,0.9086596385314888,-0.18579174255621175,-0.8606118150055408,0.7090510334819555,1.2294072657823563,-0.37489203474950133,13.442768156528473,88.65039944648743,1.2275278568267822,0.0,0.0,0.0,0.0,0.0,0.0,0.0,0.0,0.0,0.0,0.0,0.0,0.0,0.0,0.0,0.0,True,0,2.3309574127197266,0.03492578125
STABILIZE,2.240324020385742,29.942418206868982,0.032379897435506184,0.032579660415649414,0.0,0.0,0.0,-1.154978798790221,-1.0990674038530255,-5.410661990185715,-0.006141147891228027,0.006957549245419121,-0.04815244043499678,0.4,0.023652074923964712,0.10034448607843438,0.9157005323574714,-0.24076220217498387,2.038223296403885,1.378329936414957,2.004357799887657,-3.3769548086810244,77.19414830207825,-12.055519968271255,39.793190360069275,0.0,0.0,0.0,0.0,0.0,0.0,0.0,0.0,0.0,0.0,0.0,0.0,0.0,0.0,0.0,0.0,True,0,2.359687566757202,0.034927001953125
STABILIZE,2.273763656616211,29.903991900697996,0.032518895467122395,0.032633304595947266,0.0,0.0,0.0,-1.1561190134947898,-1.1012764364409957,-5.378733417136845,0.003949163040799512,0.0009547568690125395,-0.036321751860495285,0.4,0.02324005171608648,0.06059163041706679,0.9130788488223195,-0.1816087593024764,0.035419329651631415,-2.247704192996025,1.4422914013266563,3.3886997458456842,-36.274659633636475,-61.771321296691895,26.932841539382935,0.0,0.0,0.0,0.0,0.0,0.0,0.0,0.0,0.0,0.0,0.0,0.0,0.0,0.0,0.0,0.0,True,0,2.388385057449341,0.02993701171875
STABILIZE,2.3072385787963867,29.873960113960113,0.03251818021138509,0.03264188766479492,0.0,0.0,0.0,-1.1518627384248141,-1.10480871145895,-5.410097645805543,-0.006074147828239267,-0.006298109764169851,-0.03949507517157212,0.4,-0.011905429366186663,0.08379614304130883,0.8995325843821065,-0.1974753758578606,-2.0427612587809563,1.5348384156823158,1.081139501184225,-1.2249432012230117,-41.06459319591522,71.61381840705872,8.974972367286682,0.0,0.0,0.0,0.0,0.0,0.0,0.0,0.0,0.0,0.0,0.0,0.0,0.0,0.0,0.0,0.0,True,0,2.416966676712036,0.034926025390625
STABILIZE,2.3407175540924072,29.869492454832255,0.03248194058736165,0.03261065483093262,0.0,0.0,0.0,-1.1540476519072778,-1.1025274282761657,-5.41205150679499,-0.006759561349498691,-0.007425414414354678,-0.04299273363252544,0.4,-0.04742205917641846,0.1075388413559284,0.8908065380417945,-0.2149636681626272,-2.0427612587809563,1.5348384156823158,1.081139501184225,-1.2249432012230117,-41.06459319591522,71.61381840705872,8.974972367286682,0.0,0.0,0.0,0.0,0.0,0.0,0.0,0.0,0.0,0.0,0.0,0.0,0.0,0.0,0.0,0.0,True,0,2.445760488510132,0.034926025390625
STABILIZE,2.374206781387329,29.861411515104052,0.032454522450764973,0.03259086608886719,0.0,0.0,0.0,-1.1557589344594832,-1.1001320595899011,-5.399274357292011,-0.0012614206324542995,-0.0012690803433118053,-0.039626397037011256,0.4,-0.04831764579491379,0.09646005035375031,0.9143195785120799,-0.19813198518505626,-0.8949130773544312,1.5452932566404343,1.5770215541124344,-0.9520474752467951,-48.47820699214935,50.3014862537384,23.701822757720947,0.0,0.0,0.0,0.0,0.0,0.0,0.0,0.0,0.0,0.0,0.0,0.0,0.0,0.0,0.0,0.0,True,0,2.5030641555786133,0.034926025390625
STABILIZE,2.4076008796691895,29.944769683296684,0.03242090543111165,0.03254866600036621,0.0,0.0,0.0,-1.1512272106668855,-1.1046204543699516,-5.4176283562523055,-0.001236728827408996,-0.0039800554163188255,-0.038380299919968226,0.4,-0.06200888538530776,0.08674192351468614,0.9095601614050666,-0.19190149959984112,-0.7362994831055403,-0.3918399568647146,1.5274333767592907,0.04350227523660457,26.60903036594391,-61.2104058265686,14.334170520305634,0.0,0.0,0.0,0.0,0.0,0.0,0.0,0.0,0.0,0.0,0.0,0.0,0.0,0.0,0.0,0.0,True,0,2.5319180488586426,0.034927001953125
STABILIZE,2.4409677982330322,29.968090655120427,0.032480510075887044,0.03259158134460449,0.0,0.0,0.0,-1.152294534446406,-1.1040914348743929,-5.400464944641709,-0.0009770066886903035,-0.004360054836527635,-0.03709712598767747,0.4,-0.07552142564785506,0.07689605201682273,0.9049819376674945,-0.18548562993838733,-0.7362994831055403,-0.3918399568647146,1.5274333767592907,0.04350227523660457,26.60903036594391,-61.2104058265686,14.334170520305634,0.0,0.0,0.0,0.0,0.0,0.0,0.0,0.0,0.0,0.0,0.0,0.0,0.0,0.0,0.0,0.0,True,0,2.560486078262329,0.034927001953125
STABILIZE,2.4744293689727783,29.886732221747184,0.032552512486775716,0.0326535701751709,0.0,0.0,0.0,-1.1526506647785986,-1.1017243474401603,-5.405071907236883,-5.373297553876495e-05,-0.00032790401689066883,-0.034839631982767155,0.4,-0.06781607152051919,0.06322589171770587,0.8951232588347164,-0.17419815991383578,0.4175604786723852,-0.5988386459648609,1.2283128686249256,0.3042003772526627,38.496220111846924,15.293194353580475,17.860327661037445,0.0,0.0,0.0,0.0,0.0,0.0,0.0,0.0,0.0,0.0,0.0,0.0,0.0,0.0,0.0,0.0,True,0,2.5890448093414307,0.02993701171875
STABILIZE,2.50793719291687,29.843563891478052,0.032477649052937825,0.03262662887573242,0.0,0.0,0.0,-1.150592750126015,-1.1022502720062513,-5.412241044544458,-0.0004188691075477101,-0.007340641123099346,-0.031422977957686456,0.4,-0.09469612151465306,0.05345981400836545,0.8910440194567405,-0.15711488978843227,-1.573764905333519,-0.38377968594431877,1.7621370032429695,0.5818685645092936,-36.0797643661499,-47.38399386405945,21.37150466442108,0.0,0.0,0.0,0.0,0.0,0.0,0.0,0.0,0.0,0.0,0.0,0.0,0.0,0.0,0.0,0.0,True,0,2.6244235038757324,0.02993701171875
STABILIZE,2.541563034057617,29.7434617348386,0.03246620496114095,0.03260469436645508,0.0,0.0,0.0,-1.1514328633939264,-1.1033934749185823,-5.39691964957565,5.817515525104055e-05,-0.0013415896028284168,-0.02857435598620471,0.4,-0.08901448007303722,0.04243736947639922,0.8804699482926449,-0.14287177993102354,0.2293057506904006,-0.4725364502519369,1.3632921501994133,0.4498627257200736,38.434576988220215,17.435088753700256,17.61367619037628,0.0,0.0,0.0,0.0,0.0,0.0,0.0,0.0,0.0,0.0,0.0,0.0,0.0,0.0,0.0,0.0,True,0,2.65317964553833,0.0349755859375
STABILIZE,2.5749168395996094,29.97751491977272,0.03226497968037923,0.03241682052612305,0.0,0.0,0.0,-1.1515314742500684,-1.1023273250778256,-5.410089534955904,-0.004143111881452398,-0.00012376794929083287,-0.03103238910405988,0.4,-0.07836409845050318,0.05707698822566166,0.877054620096629,-0.15516194552029938,0.5714285653084517,0.9795251302421093,1.506571564823389,-1.0148868164364993,3.2494131475687027,23.29597771167755,25.452059507369995,0.0,0.0,0.0,0.0,0.0,0.0,0.0,0.0,0.0,0.0,0.0,0.0,0.0,0.0,0.0,0.0,True,0,2.682255268096924,0.034927001953125
STABILIZE,2.608346700668335,29.916789706060673,0.03241589864095052,0.032525062561035156,0.0,0.0,0.0,-1.151298287322936,-1.100237607356919,-5.411833367628373,-0.00455310540851339,0.0002677456103076288,-0.03352204805556617,0.4,-0.06736749904184937,0.07193528254886525,0.8736691274838764,-0.16761024027783084,0.5714285653084517,0.9795251302421093,1.506571564823389,-1.0148868164364993,3.2494131475687027,23.29597771167755,25.452059507369995,0.0,0.0,0.0,0.0,0.0,0.0,0.0,0.0,0.0,0.0,0.0,0.0,0.0,0.0,0.0,0.0,True,1,2.7110238075256348,0.034927001953125
STABILIZE,2.641711950302124,29.968090655120427,0.0323973019917806,0.03253316879272461,0.0,0.0,0.0,-1.1514500455885572,-1.1007350372275664,-5.396265658962621,0.0002771356857689375,-0.008858667023403597,-0.028222944037831012,0.4,-0.10143047263634292,0.05684038413699192,0.8612753009011614,-0.14111472018915505,-0.9184255264699459,0.014756424934603274,1.4249601401388645,-0.13951955380433645,8.687719702720642,19.560949504375458,28.14915180206299,0.0,0.0,0.0,0.0,0.0,0.0,0.0,0.0,0.0,0.0,0.0,0.0,0.0,0.0,0.0,0.0,True,0,2.768098831176758,0.029936767578125
STABILIZE,2.6752114295959473,29.85078535894498,0.032507928212483723,0.0326383113861084,0.0,0.0,0.0,-1.1484908661306492,-1.0993899168478969,-5.424771026576846,-0.003018992121306187,0.0003932976272056689,-0.029667744537186264,0.4,-0.08642933774063298,0.06290966962502667,0.8512813134646037,-0.14833872268593132,0.7272106129676104,0.48988601192831993,1.3313451781868935,-0.7507255150265537,25.50957202911377,11.69370710849762,23.226377367973328,0.0,0.0,0.0,0.0,0.0,0.0,0.0,0.0,0.0,0.0,0.0,0.0,0.0,0.0,0.0,0.0,True,0,2.796715259552002,0.034927001953125
STABILIZE,2.708646059036255,29.91081603400201,0.032463820775349934,0.0325925350189209,0.0,0.0,0.0,-1.1505672436383332,-1.098849264686408,-5.411873494989746,-0.003218566913921656,0.000660022402269158,-0.031241228467757766,0.4,-0.07229201165842335,0.06922822688358457,0.8455862225660852,-0.15620614233878882,0.7272106129676104,0.48988601192831993,1.3313451781868935,-0.7507255150265537,25.50957202911377,11.69370710849762,23.226377367973328,0.0,0.0,0.0,0.0,0.0,0.0,0.0,0.0,0.0,0.0,0.0,0.0,0.0,0.0,0.0,0.0,True,0,2.825385093688965,0.034927001953125
STABILIZE,2.7421488761901855,29.848661035162504,0.03247502644856771,0.03260302543640137,0.0,0.0,0.0,-1.1516690385288209,-1.0987617528876674,-5.396848786363011,-0.0008876442929493951,-0.004038781673246141,-0.027058008374301654,0.4,-0.08256114087615826,0.06119519059913578,0.8535438764308863,-0.13529004187150825,-0.6893712561577559,-0.33796015195548534,2.1121831610798836,0.9083246596051933,-49.93242919445038,-4.083208739757538,24.104365706443787,0.0,0.0,0.0,0.0,0.0,0.0,0.0,0.0,0.0,0.0,0.0,0.0,0.0,0.0,0.0,0.0,True,0,2.854646921157837,0.039916259765625
STABILIZE,2.775559186935425,29.929171334584453,0.03241017659505208,0.032540082931518555,0.0,0.0,0.0,-1.1477935465050733,-1.1009475201437773,-5.425289694066944,-0.0034431642328342183,-0.0055089847513001096,-0.0268277903836897,0.4,-0.09837782021576504,0.06891343593147191,0.8512025444428731,-0.1341389519184485,-0.9603230282664299,0.5513343494385481,1.2950784526765347,-0.21106547853531588,-14.58813101053238,25.26230216026306,18.853041529655457,0.0,0.0,0.0,0.0,0.0,0.0,0.0,0.0,0.0,0.0,0.0,0.0,0.0,0.0,0.0,0.0,True,0,2.8829948902130127,0.02494677734375
STABILIZE,2.8092048168182373,29.720278332837324,0.0324588139851888,0.032845258712768555,0.0,0.0,0.0,-1.1498156026645143,-1.1000414528616926,-5.409685273134404,-0.003157035903687346,-0.0009506170431468435,-0.027222542688770796,0.4,-0.09007393789670148,0.07394991106331578,0.833455872427722,-0.13611271344385398,0.27760176453739405,0.46043586917221546,1.0745893232524395,-0.46291052146891354,29.247376322746277,3.824171796441078,17.65815168619156,0.0,0.0,0.0,0.0,0.0,0.0,0.0,0.0,0.0,0.0,0.0,0.0,0.0,0.0,0.0,0.0,True,1,2.9115281105041504,0.034927001953125
STABILIZE,2.842716932296753,29.840166762711743,0.0325351079305013,0.03267526626586914,0.0,0.0,0.0,-1.149052969355,-1.1007810342827582,-5.411970398298596,0.002318706202032392,-0.0007397291636742962,-0.02017367396467944,0.4,-0.0819186076450864,0.04682320644113658,0.830258604176325,-0.1008683698233972,0.1257447525858879,-0.6666739471256733,1.5234528109431267,0.7370444860364594,-14.961160719394684,-0.25352020747959614,18.144892156124115,0.0,0.0,0.0,0.0,0.0,0.0,0.0,0.0,0.0,0.0,0.0,0.0,0.0,0.0,0.0,0.0,True,0,2.968824625015259,0.034927001953125
STABILIZE,2.8761870861053467,29.878641952442692,0.03247955640157064,0.032610416412353516,0.0,0.0,0.0,-1.1481288661046385,-1.101674188238443,-5.425677307302342,-0.003512824676468221,-0.004952331483571234,-0.020744589051577313,0.4,-0.09508465583302488,0.05696144107207826,0.8293577870790422,-0.10372294525788656,-0.8878477849066257,0.7189192809164524,1.5568568371236324,-0.4545120568324424,-26.35873258113861,23.478740453720093,23.53002578020096,0.0,0.0,0.0,0.0,0.0,0.0,0.0,0.0,0.0,0.0,0.0,0.0,0.0,0.0,0.0,0.0,True,0,2.997544050216675,0.02993701171875
STABILIZE,2.909616470336914,29.913589227894505,0.032442363103230794,0.032562255859375,0.0,0.0,0.0,-1.148934294818171,-1.1015443079225071,-5.413022674317601,-0.0025119703162049586,-0.0031058454940843597,-0.019678796579769384,0.4,-0.09749296224601621,0.05989897083215862,0.8232735150328722,-0.0983939828988469,-0.3054351545870304,0.3060514573007822,1.463579572737217,0.03075442084186335,18.185101449489594,-19.435951113700867,24.6083602309227,0.0,0.0,0.0,0.0,0.0,0.0,0.0,0.0,0.0,0.0,0.0,0.0,0.0,0.0,0.0,0.0,True,0,3.0261998176574707,0.034926025390625
STABILIZE,2.943075656890869,29.886732221747184,0.03246668179829915,0.032602548599243164,0.0,0.0,0.0,-1.1489667382167288,-1.100342087906879,-5.408992008933647,-0.00026495334867693884,-0.0012319931688324535,-0.017159763181831943,0.4,-0.09056084952777715,0.049540631284918396,0.8153533887487365,-0.08579881590915972,0.2841298934072256,-0.4904363304376602,1.113747712224722,0.4702909677539355,5.567662417888641,2.0268116146326065,22.770145535469055,0.0,0.0,0.0,0.0,0.0,0.0,0.0,0.0,0.0,0.0,0.0,0.0,0.0,0.0,0.0,0.0,True,0,3.055150270462036,0.034927001953125
STABILIZE,2.9765446186065674,29.87821627012395,0.03246930440266927,0.032585859298706055,0.0,0.0,0.0,-1.1465182221209849,-1.1011570148522263,-5.423426759970823,-0.003616733055373463,-0.0034030593054983206,-0.018652759286027668,0.4,-0.09498709754332817,0.0598323722132791,0.8154567972988513,-0.09326379643013834,-0.39204354397952557,0.7237579673528671,1.5845919027924538,-0.7010611818589811,-22.282710671424866,19.567357003688812,21.277184784412384,0.0,0.0,0.0,0.0,0.0,0.0,0.0,0.0,0.0,0.0,0.0,0.0,0.0,0.0,0.0,0.0,True,0,3.084960460662842,0.02993701171875
STABILIZE,3.009904623031616,29.975800976251225,0.032436641057332356,0.03255105018615723,0.0,0.0,0.0,-1.1479578979319767,-1.1024533634123534,-5.402420940065272,-0.0014965160695717106,-0.0044106741884309955,-0.017046862414361357,0.4,-0.10353577731844396,0.05647278028573123,0.8099168850932067,-0.08523431207180679,-0.6798816379159689,-0.0692710978910327,1.4589658938348293,0.22118472395580713,-8.177647739648819,-17.606918513774872,18.0368110537529,0.0,0.0,0.0,0.0,0.0,0.0,0.0,0.0,0.0,0.0,0.0,0.0,0.0,0.0,0.0,0.0,True,0,3.113530397415161,0.034927001953125
STABILIZE,3.043567419052124,29.711436019494503,0.032515796025594075,0.032646894454956055,0.0,0.0,0.0,-1.1481650447628984,-1.1020188993481173,-5.40947311038331,-0.001966762481503697,-0.0008320866681146269,-0.017020931230573917,0.4,-0.09374420082250562,0.05629644924088978,0.8006519342333723,-0.08510465615286958,0.1161174033768475,0.3185719018802047,1.1218033730983734,-0.8716736510754932,-8.979121595621109,11.654345691204071,13.846828043460846,0.0,0.0,0.0,0.0,0.0,0.0,0.0,0.0,0.0,0.0,0.0,0.0,0.0,0.0,0.0,0.0,True,0,3.171722888946533,0.029915771484375
STABILIZE,3.076857805252075,30.03504550760131,0.03227189381917318,0.03242325782775879,0.0,0.0,0.0,-1.1470839538833324,-1.1010410083580418,-5.419331207789754,-0.0013387023261763739,-0.005495009741734079,-0.015512369953335265,0.4,-0.10759362580235066,0.05248884958185688,0.7959980452658674,-0.07756184976667632,-1.0077321901917458,-0.10195045033469796,1.4787237159907818,0.22083124832604573,-19.320450723171234,-15.525850653648376,25.501200556755066,0.0,0.0,0.0,0.0,0.0,0.0,0.0,0.0,0.0,0.0,0.0,0.0,0.0,0.0,0.0,0.0,True,0,3.2009780406951904,0.0349267578125
STABILIZE,3.1118640899658203,28.565520904986005,0.03248313268025716,0.034180402755737305,0.0,0.0,0.0,-1.1473017728848323,-1.1033051093461952,-5.408422968798421,-0.0020321202000731613,-0.0031088704966489495,-0.013816439260716951,0.4,-0.10804154601019426,0.05323035257749616,0.7941747963101776,-0.06908219630358475,-0.16845132922753692,0.15457794070243835,1.4130293391644955,0.2855563887373344,12.960651516914368,6.066510081291199,19.83635723590851,0.0,0.0,0.0,0.0,0.0,0.0,0.0,0.0,0.0,0.0,0.0,0.0,0.0,0.0,0.0,0.0,True,0,3.2292473316192627,0.034926025390625
STABILIZE,3.145354747772217,29.858647986787403,0.03250077565511068,0.032628536224365234,0.0,0.0,0.0,-1.1484732570491953,-1.1036830109063673,-5.4093604122620045,-0.0025598547247141735,-0.0013754134329062972,-0.015259766717056037,0.4,-0.10009914766116762,0.056852275065289885,0.7919957361724275,-0.07629883358528018,0.3210900817066431,0.3231469774618745,1.390379760414362,-0.6405074460811455,6.022010371088982,9.92782935500145,21.769943833351135,0.0,0.0,0.0,0.0,0.0,0.0,0.0,0.0,0.0,0.0,0.0,0.0,0.0,0.0,0.0,0.0,True,0,3.258167028427124,0.02993701171875
STABILIZE,3.178781747817993,29.91486933698505,0.03245428403218587,0.0325927734375,0.0,0.0,0.0,-1.1488305613201515,-1.1031677585108544,-5.4144804928185755,-0.002609557709492557,-0.001001421341665858,-0.016713577016243653,0.4,-0.09148330536851473,0.06021815046017443,0.7863855148787396,-0.08356788508121826,0.3210900817066431,0.3231469774618745,1.390379760414362,-0.6405074460811455,6.022010371088982,9.92782935500145,21.769943833351135,0.0,0.0,0.0,0.0,0.0,0.0,0.0,0.0,0.0,0.0,0.0,0.0,0.0,0.0,0.0,0.0,True,0,3.287031412124634,0.02993701171875
STABILIZE,3.2122437953948975,29.88438985115888,0.032497676213582356,0.03264307975769043,0.0,0.0,0.0,-1.148504633230695,-1.1023711876989017,-5.4127737992997185,-0.0012431179437999513,-0.0033132528533144287,-0.015463545033648452,0.4,-0.0951047183205081,0.05522973758665965,0.776978911094865,-0.07731772516824226,-0.4093210678547621,-0.17968147294595838,1.1356695555150509,0.17430357281309575,-17.580026388168335,-11.663050949573517,20.028628408908844,0.0,0.0,0.0,0.0,0.0,0.0,0.0,0.0,0.0,0.0,0.0,0.0,0.0,0.0,0.0,0.0,True,0,3.315735340118408,0.034927001953125
STABILIZE,3.2456986904144287,29.89163109245494,0.03250315984090169,0.03271126747131348,0.0,0.0,0.0,-1.1483634404139462,-1.1023219889925364,-5.411597299215184,-0.002505783102754836,-0.00375846231805584,-0.015506979664665506,0.4,-0.10031711647608815,0.058173861865707235,0.7796996717695636,-0.07753489832332752,-0.472680339589715,0.28157883789390326,1.6378767788410187,-0.20054285174739722,-2.724068984389305,8.08653011918068,24.017001688480377,0.0,0.0,0.0,0.0,0.0,0.0,0.0,0.0,0.0,0.0,0.0,0.0,0.0,0.0,0.0,0.0,True,0,3.350651741027832,0.03492724609375
STABILIZE,3.2792935371398926,29.769850451767677,0.03255632718404134,0.03269457817077637,0.0,0.0,0.0,-1.1495795342513258,-1.102067777889365,-5.41043317884852,-0.0032282818583066475,-0.0015463600102394001,-0.015056517459460145,0.4,-0.09417944188224348,0.06482803741459135,0.7850488213153514,-0.07528258729730072,0.5193134769797325,0.32070870511233807,1.6213228926062584,-0.024707355548874876,14.769615232944489,4.176674038171768,24.422606825828552,0.0,0.0,0.0,0.0,0.0,0.0,0.0,0.0,0.0,0.0,0.0,0.0,0.0,0.0,0.0,0.0,True,0,3.408737897872925,0.029936767578125
STABILIZE,3.3127124309539795,29.92233882416728,0.03242376645406087,0.03255343437194824,0.0,0.0,0.0,-1.1494946904952295,-1.102314411751426,-5.413108905455872,-0.002767151682321269,-0.003700728109051482,-0.014140681782543319,0.4,-0.09917894595470302,0.06784245601845013,0.7789294445463355,-0.07070340891271659,-0.49875746481120586,0.3060949733480811,1.3136203400790691,0.08938361741891565,-1.521507278084755,11.822249740362167,18.09305250644684,0.0,0.0,0.0,0.0,0.0,0.0,0.0,0.0,0.0,0.0,0.0,0.0,0.0,0.0,0.0,0.0,True,0,3.4372947216033936,0.06985302734375
STABILIZE,3.3461008071899414,29.94840450978572,0.03246739705403646,0.03260326385498047,0.0,0.0,0.0,-1.1487970507045362,-1.1035338139616848,-5.412092914816833,-0.0034873588101648405,-0.004850335449017749,-0.013383450723548088,0.4,-0.10891852675316864,0.07451614460796756,0.8008494136422437,-0.06691725361774044,-0.49875746481120586,0.3060949733480811,1.3136203400790691,0.08938361741891565,-1.521507278084755,11.822249740362167,18.09305250644684,0.0,0.0,0.0,0.0,0.0,0.0,0.0,0.0,0.0,0.0,0.0,0.0,0.0,0.0,0.0,0.0,True,0,3.466022253036499,0.06985302734375
STABILIZE,3.3799023628234863,29.586524082277588,0.03254273732503255,0.0326535701751709,0.0,0.0,0.0,-1.1498493267235412,-1.1039518428832307,-5.407690431009937,-0.0035987383935786182,-0.003941777626384549,-0.012690845561800265,0.4,-0.11290866279796663,0.08088192855925065,0.826635576266621,-0.06345422780900133,-0.17304295906797051,0.27705917600542307,1.6770277172327042,0.031772252430327476,5.93314915895462,-7.571636140346527,25.08457899093628,0.0,0.0,0.0,0.0,0.0,0.0,0.0,0.0,0.0,0.0,0.0,0.0,0.0,0.0,0.0,0.0,True,0,3.4946913719177246,0.034926025390625
STABILIZE,3.4136505126953125,29.62937008597122,0.03214886983235677,0.032842159271240234,0.0,0.0,0.0,-1.149923605030765,-1.1041080834604948,-5.420030875292857,-0.0016353924796047965,-0.0025337643461411123,-0.011618453389498934,0.4,-0.1095055964457211,0.07498004980435215,0.8170864635336439,-0.05809226694749467,-0.04699675482697785,-0.15204476658254862,1.2444638647139072,0.10292710881068402,-4.4562507420778275,0.0928075925912708,21.737326681613922,0.0,0.0,0.0,0.0,0.0,0.0,0.0,0.0,0.0,0.0,0.0,0.0,0.0,0.0,0.0,0.0,True,0,3.5234527587890625,0.02993798828125
STABILIZE,3.447112798690796,29.883538171066224,0.03243830998738607,0.032568931579589844,0.0,0.0,0.0,-1.1496850820183437,-1.1050349614752066,-5.416258903323717,-0.0029551456076022794,-0.004251707408165444,-0.01161184574838053,0.4,-0.11479874637500234,0.07750168828272548,0.8057814510840724,-0.05805922874190265,-0.5170444957911968,0.2948084380477667,1.3047459535300732,-0.15911819465830623,-6.907494366168976,9.649670124053955,13.463830947875977,0.0,0.0,0.0,0.0,0.0,0.0,0.0,0.0,0.0,0.0,0.0,0.0,0.0,0.0,0.0,0.0,True,0,3.5521414279937744,0.034926025390625
STABILIZE,3.4806735515594482,29.796497708947538,0.0324275811513265,0.03269314765930176,0.0,0.0,0.0,-1.151044823271705,-1.104898571135218,-5.408597565509079,-0.002521984128558969,-0.004859059586775892,-0.010149758447662983,0.4,-0.12221142722800214,0.07714668796885861,0.8075025324311531,-0.05074879223831491,-0.40489775128662586,0.13289403868839145,1.6987944021821022,0.03697041325489064,-1.8605247139930725,-5.809380486607552,21.72783613204956,0.0,0.0,0.0,0.0,0.0,0.0,0.0,0.0,0.0,0.0,0.0,0.0,0.0,0.0,0.0,0.0,True,0,3.609592914581299,0.034927001953125
STABILIZE,3.514160633087158,29.862261934427398,0.03244665463765462,0.03258848190307617,0.0,0.0,0.0,-1.1485496697905349,-1.1046301660451776,-5.4195147691236984,-0.003300143974285876,-0.004082007491264141,-0.01066328355275598,0.4,-0.12479129303943826,0.08127612850050063,0.804189568121393,-0.0533164177637799,-0.34946552477777004,0.35874287132173777,1.458447054028511,-0.27867043747605086,-8.163965493440628,7.912001013755798,18.480755388736725,0.0,0.0,0.0,0.0,0.0,0.0,0.0,0.0,0.0,0.0,0.0,0.0,0.0,0.0,0.0,0.0,True,0,3.6382739543914795,0.064863037109375
STABILIZE,3.5476644039154053,29.85375992028186,0.032421143849690755,0.032552242279052734,0.0,0.0,0.0,-1.1473552404594287,-1.1049505446059336,-5.417929738349432,-0.0027688076092261048,-0.005413567202481284,-0.009011958395818724,0.4,-0.13331009357634307,0.08173366569607343,0.8170727779528074,-0.045059791979093614,-0.4077757243067026,0.023697438882663846,1.1816437356173992,0.28057766108007115,-5.774786323308945,-3.9125896990299225,18.7988743185997,0.0,0.0,0.0,0.0,0.0,0.0,0.0,0.0,0.0,0.0,0.0,0.0,0.0,0.0,0.0,0.0,True,0,3.6669869422912598,0.034927001953125
STABILIZE,3.5809683799743652,30.02064216900239,0.03234103520711263,0.032462358474731445,0.0,0.0,0.0,-1.1469202427866636,-1.1048963299793966,-5.4098359641829665,-0.002575525214624998,-0.0034420037451713533,-0.007076077488139057,0.4,-0.1311515351882786,0.08099945714099203,0.806049526616333,-0.035380387440695285,-0.14219777658581734,0.12547771912068129,1.1893471702933311,0.34533828645853215,2.4759402498602867,1.9680880010128021,16.199910640716553,0.0,0.0,0.0,0.0,0.0,0.0,0.0,0.0,0.0,0.0,0.0,0.0,0.0,0.0,0.0,0.0,True,0,3.6957643032073975,0.02993701171875
STABILIZE,3.615318536758423,29.111948637862223,0.03251341183980306,0.0335240364074707,0.0,0.0,0.0,-1.145918552856199,-1.1046950528422927,-5.415147716923121,-0.0027143914433355267,-0.002393147745711475,-0.007933650239245933,0.4,-0.12409711403407925,0.08113998953337051,0.7988816636004458,-0.03966825119622966,0.07023849757388234,0.18949530785903335,1.5263565815985203,-0.33323959351963306,2.041096054017544,5.902335047721863,19.049866497516632,0.0,0.0,0.0,0.0,0.0,0.0,0.0,0.0,0.0,0.0,0.0,0.0,0.0,0.0,0.0,0.0,True,0,3.724421262741089,0.034927001953125
STABILIZE,3.6488165855407715,29.855247423267468,0.03248170216878255,0.03259444236755371,0.0,0.0,0.0,-1.145759430792879,-1.1038502438193267,-5.415878974051136,-0.0026209600072818083,-0.004806577177549555,-0.006819683585584768,0.4,-0.1296897103126118,0.08068426299231374,0.7947236637572321,-0.03409841792792384,-0.5280011333525181,0.13423715718090534,1.4592938125133514,0.1634823386924006,-13.378824293613434,-3.860357403755188,21.213296055793762,0.0,0.0,0.0,0.0,0.0,0.0,0.0,0.0,0.0,0.0,0.0,0.0,0.0,0.0,0.0,0.0,True,0,3.7588446140289307,0.034926025390625
