Mode,Time,Freq,time2delay,actualDelay,North-Vision,East-Vision,Down-Vision,Yaw-Vision,North-Desired,East-Desired,Down-Desired,Roll-UAV,Pitch-UAV,Yaw-UAV,Roll-Control,Pitch-Control,Yaw-Control,Thrust-Control,northVraw,eastVraw,downVraw,N-Velocity,E-Velocity,D-Velocity,N-Acceleration,E-Acceleration,D-Acceleration,yawVraw,yawRate,Landing-State,Q-Size,N-diff,E-diff,D-diff,Y-diff
GUIDED_NOGPS,0.03717947006225586,26.916413715209817,0.033274205525716145,0.03510546684265137,-0.13206097445570136,2.9197147494484623,14.69107107867813,4.06380925410008,0,0,0.5,0.6030412438018339,2.8275975710950214,57.08998932848442,0,0,0.0,0.5,-11.114763496752152,8.916011386665003,43.66859960919037,5.5201757699251175,0.1331706764176488,4.325742647051811,-1.227204967290163,6.085778772830963,40.05459249019623,5.702483577990406,5.719751955790887,False,0,22.229526993504304,-17.832022773330007,-87.33719921838075,-11.404967155980811
GUIDED_NOGPS,0.0733344554901123,27.6554202409289,0.031205209096272786,0.03481578826904297,-0.13206097445570136,2.9197147494484623,14.69107107867813,4.06380925410008,0,0,0.5,0.5923568002275241,2.8138567245888364,56.93070931703973,0,0,2.0928640278329307,0.5,-11.114763496752152,8.916011386665003,43.66859960919037,5.5201757699251175,0.1331706764176488,4.325742647051811,-1.227204967290163,6.085778772830963,40.05459249019623,5.702483577990406,5.719751955790887,False,1,22.229526993504304,-17.832022773330007,-87.33719921838075,-11.404967155980811
GUIDED_NOGPS,0.10915517807006836,27.924421778671388,0.03202107747395833,0.03452801704406738,-0.9670330841174528,3.5117206579625764,17.839748727499735,4.525892442015089,0,0,0.5,0.5919377040889203,2.8185347638400606,56.67861044986914,0,0,4.093032540812346,0.5,-11.114763496752152,8.916011386665003,43.66859960919037,4.458345472812653,-0.9031833149492741,2.941579930484295,-12.89331316947937,-5.351500958204269,-1.3110735453665257,5.702483577990406,5.613300469368477,False,0,22.229526993504304,-17.832022773330007,-87.33719921838075,-11.404967155980811
GUIDED_NOGPS,0.1428234577178955,29.692926318174095,0.03201177914937337,0.03245234489440918,-1.3063958922583803,3.8172508637587472,19.27724420599335,4.757892034408713,0,0,0.5,0.5901874147532518,2.817511516125028,56.54830410088364,0,0,5.911915622135862,0.5,-9.808711443481368,9.60262698835186,43.85372078166323,4.306931421160698,-0.6743546109646559,2.65657901763916,-8.175058662891388,-1.7394265159964561,25.059393048286438,6.052057500314627,6.387691095765244,False,0,19.617422886962736,-19.20525397670372,-87.70744156332646,-12.104115000629253
GUIDED_NOGPS,0.17633605003356934,29.839317601360243,0.03208664258321126,0.03233051300048828,-1.634105692284876,4.11851460730653,20.725173448375617,4.974617464176792,0,0,0.5,0.5891175296527927,2.801220874624313,56.424865507108585,0,0,7.468952709129846,0.5,-9.808711443481368,9.60262698835186,43.85372078166323,4.11442331969738,-0.8812167681753635,2.7715712785720825,-25.167638063430786,11.218555271625519,32.79749155044556,6.052057500314627,4.632597575789128,False,1,19.617422886962736,-19.20525397670372,-87.70744156332646,-12.104115000629253
GUIDED_NOGPS,0.20996689796447754,29.736713742839317,0.03213647206624349,0.0323643684387207,-2.2186768006005186,4.647540935508561,23.350086705831067,5.379558903530367,0,0,0.5,0.5730685060939668,2.733877343842103,56.31705438615452,0,0,8.695180719384028,0.5,-9.236185345702477,9.156884534442241,44.082483526883934,4.710293933749199,-0.7995091378688812,1.583542674779892,16.142524778842926,22.89009392261505,19.02266889810562,6.277907699981977,4.765743149035241,False,0,18.472370691404954,-18.313769068884483,-88.16496705376787,-12.555815399963954
GUIDED_NOGPS,0.24387454986572266,29.494564223731768,0.03203872044881185,0.032572031021118164,-2.5004473031945795,4.839860354434481,24.619007500763715,5.510600724556875,0,0,0.5,0.5660737520536391,2.6814804013979963,56.36521063489769,0,0,9.536288510260055,0.5,-9.519106394881238,7.453909651304688,44.26771527023401,3.8529764860868454,0.9400256909430027,1.4631928876042366,-8.053816854953766,37.214264273643494,13.674530386924744,6.307305067732307,0.35242511465052284,False,0,19.038212789762476,-14.907819302609376,-88.53543054046801,-12.614610135464615
GUIDED_NOGPS,0.27726078033447266,29.949473744341145,0.03197339375813802,0.032138824462890625,-2.7469219448477675,5.112286040195811,25.828208578155035,5.587832027086316,0,0,0.5,0.5600068365233752,2.516844027540128,56.55263444081743,0,0,9.95502238601579,0.5,-8.658834476638544,8.872371674566047,44.23829891769293,2.8721127659082413,2.2094013169407845,1.3277014717459679,-36.05704605579376,48.313793540000916,8.831138908863068,6.53883668866271,-2.925437469634515,False,0,17.31766895327709,-17.744743349132094,-88.47659783538586,-13.07767337732542
GUIDED_NOGPS,0.3109757900238037,29.66562460215297,0.03207114537556966,0.03223109245300293,-3.0373448168873205,5.386234991931258,26.8823589095905,5.633281186071362,0,0,0.5,0.5586364764602885,2.4144259812660214,56.64546695692165,0,0,9.932836109684285,0.5,-9.848595643398891,9.428345969249918,43.76938319059957,2.8721127659082413,2.2094013169407845,1.3277014717459679,-36.05704605579376,48.313793540000916,8.831138908863068,6.492902478493815,-2.925437469634515,False,0,19.697191286797782,-18.856691938499836,-87.53876638119914,-12.98580495698763
GUIDED_NOGPS,0.34477925300598145,29.578386917060993,0.031793864568074544,0.03251290321350098,-3.3426453930172673,5.667478275476711,27.863524860994133,5.654496089744429,0,0,0.5,0.5565912616906928,2.3320120649670013,56.714414301498344,0,0,9.470712338657458,0.5,-9.848595643398891,9.428345969249918,43.76938319059957,1.142198033630848,3.3911701291799545,0.08073592907749116,-48.439598083496094,29.96121346950531,-3.758503496646881,6.492902478493815,-4.045311443968398,False,0,19.697191286797782,-18.856691938499836,-87.53876638119914,-12.98580495698763
GUIDED_NOGPS,0.37920475006103516,29.052261188188762,0.03205421765645345,0.032932281494140625,-3.628586170254534,5.9172814027994844,28.88082564512135,5.692240342627644,0,0,0.5,0.5666916707301136,2.226051711834597,56.80590810052525,0,0,8.589119101584899,0.5,-9.569037419679962,8.916762760993374,43.96051790773655,1.0393775068223476,2.6411687955260277,0.12955224374309182,-29.168766736984253,-5.6449271738529205,19.029802083969116,6.463769390209076,-3.553507941649861,False,1,19.138074839359923,-17.833525521986747,-87.9210358154731,-12.927538780418152
GUIDED_NOGPS,0.4124760627746582,30.05592260838409,0.03180745442708333,0.031972646713256836,-4.095917658736705,6.372577309227909,30.79189205958304,5.751209355231435,0,0,0.5,0.5697403896991723,2.1969877628123116,56.83185940427672,0,0,7.327103244279351,0.5,-8.774477905828249,8.843381744186937,44.18373838032477,1.1596651747822762,2.091243490576744,0.30612663831561804,-17.74301826953888,-23.222380876541138,52.17843055725098,6.424725561326389,-2.844867277524575,False,0,17.548955811656498,-17.686763488373874,-88.36747676064954,-12.849451122652779
GUIDED_NOGPS,0.44600605964660645,29.819376213057296,0.03201177914937337,0.03223824501037598,-4.327814869655786,6.545531463685836,31.605330158930105,5.780119636518143,0,0,0.5,0.5664337243672398,2.1962827592239194,56.861020896938086,0,0,5.740560997021648,0.5,-8.890929209720815,8.902414189376152,44.14657374565441,0.3735270816832781,0.7665188983082771,0.4250332247465849,-18.47294420003891,-27.438071370124817,39.504119753837585,6.333752405102422,-1.6905377735923288,False,0,17.78185841944163,-17.804828378752305,-88.29314749130882,-12.667504810204845
GUIDED_NOGPS,0.47945451736450195,29.895253029223092,0.032025845845540364,0.03219461441040039,-4.543365398766298,6.703538879022917,32.46893960544145,5.830674167084962,0,0,0.5,0.5651085075856987,2.272954407421663,56.90671486248547,0,0,3.8997622619605226,0.5,-8.688780186247106,8.724501021445917,44.22086046581796,0.5922725889831781,-0.08385268156416714,1.5082056634128094,14.38542902469635,-9.522096067667007,45.67486047744751,6.341681436265596,-0.7939689901266382,False,0,17.377560372494212,-17.449002042891834,-88.44172093163591,-12.683362872531193
GUIDED_NOGPS,0.5129766464233398,29.831889500561886,0.032059462865193684,0.03222489356994629,-4.770363398155822,6.886780018548861,33.2991091920377,5.8656264525110915,0,0,0.5,0.5675190841150373,2.3142943408165766,56.9365013174559,0,0,1.8862382729548939,0.5,-9.009141488070307,9.39562484997111,44.02566399484379,0.33277918118983507,0.07347155478782952,2.6594119146466255,0.9233995340764523,-2.959771640598774,53.64110469818115,6.296017331248118,-1.2936636554532142,False,0,18.018282976140615,-18.79124969994222,-88.05132798968758,-12.592034662496236
GUIDED_NOGPS,0.546379804611206,29.93707531547993,0.032013924916585286,0.032163143157958984,-4.986910506072469,7.062585967445435,34.09660444028596,5.903811533151208,0,0,0.5,0.5797821551612662,2.3644776616393646,57.04840030662822,0,0,-0.21082952277810635,0.5,-9.009141488070307,9.39562484997111,44.02566399484379,0.45478958636522293,0.20782602950930595,3.186466172337532,-5.352553725242615,9.398100525140762,20.933303236961365,6.296017331248118,-0.8141555608577581,False,0,18.018282976140615,-18.79124969994222,-88.05132798968758,-12.592034662496236
GUIDED_NOGPS,0.5804731845855713,29.329976783866186,0.03207376797993978,0.03290605545043945,-5.20068435293212,7.228614476273256,34.78698963292055,5.90863790951449,0,0,0.5,0.5831614979748357,2.3789521131510907,57.10214365011246,0,0,-2.298559420348432,0.5,-9.009141488070307,9.39562484997111,44.02566399484379,-0.38188896141946316,1.0999208316206932,3.264877200126648,-11.700599640607834,26.1387437582016,15.340477228164673,6.296017331248118,-2.088093416544564,False,1,18.018282976140615,-18.79124969994222,-88.05132798968758,-12.592034662496236
GUIDED_NOGPS,0.6140549182891846,29.77915042563917,0.03212931950887044,0.032390594482421875,-5.6464322646774665,7.586832526489956,36.19279360601916,5.911449424402291,0,0,0.5,0.5869239183513079,2.4191505511809663,57.22011467745692,0,0,-4.284483301829301,0.5,-9.009141488070307,9.39562484997111,44.02566399484379,-1.3874237425625324,1.9971560686826706,2.976442873477936,13.833484053611755,1.8282875418663025,24.80817288160324,6.296017331248118,-2.3828408386663553,False,0,18.018282976140615,-18.79124969994222,-88.05132798968758,-12.592034662496236
GUIDED_NOGPS,0.6477470397949219,29.68767208612623,0.03212169011433919,0.032489776611328125,-5.83545672166842,7.731367462171596,36.78428173346507,5.902394048599785,0,0,0.5,0.5846719836376135,2.399797210167735,57.23209824435571,0,0,-6.080642162619563,0.5,-9.009141488070307,9.39562484997111,44.02566399484379,-0.4756786394864321,1.2950383126735687,3.719239681959152,16.921313107013702,-8.679617941379547,28.171205520629883,6.296017331248118,-2.4522440983701475,False,0,18.018282976140615,-18.79124969994222,-88.05132798968758,-12.592034662496236
GUIDED_NOGPS,0.681293249130249,29.802002287923035,0.032106908162434895,0.03225994110107422,-6.110061390085933,7.86760648534765,37.35440600581418,5.921643566128054,0,0,0.5,0.5824561742213262,2.36354021817578,57.21869741320415,0,0,-7.607481923646012,0.5,-10.655817916248001,9.328846733232883,43.49219530986936,-0.8351759053766727,0.5217504221946001,2.0124513655900955,10.67650392651558,-26.287606358528137,-11.665341258049011,6.1093751662128835,-0.3718126599704569,False,0,21.311635832496002,-18.657693466465766,-86.98439061973872,-12.218750332425767
GUIDED_NOGPS,0.7152907848358154,29.417816337838502,0.0320308526357015,0.032582998275756836,-6.3149386511915475,8.006400188624768,37.911903312588294,5.937731998780194,0,0,0.5,0.5895093050347164,2.2184309282681554,57.10811665054164,0,0,-8.79737697910487,0.5,-9.3968983400416,9.546600487506954,43.91883913136979,-0.8351759053766727,0.5217504221946001,2.0124513655900955,10.67650392651558,-26.287606358528137,-11.665341258049011,6.087353079490045,-0.3718126599704569,False,0,18.7937966800832,-19.093200975013907,-87.83767826273959,-12.17470615898009
GUIDED_NOGPS,0.7489049434661865,29.982014954179594,0.03188780148824056,0.03205704689025879,-6.498186386037394,8.125257579652482,38.43646372737255,5.97240652271704,0,0,0.5,0.5947208460931419,2.04432257613536,56.98322322647337,0,0,-9.597625417490859,0.5,-9.3968983400416,9.546600487506954,43.91883913136979,-0.03504723426885903,-0.1995219150558114,1.966581679880619,16.985061764717102,-23.06833118200302,18.410977721214294,6.087353079490045,0.8460155118498114,False,0,18.7937966800832,-19.093200975013907,-87.83767826273959,-12.17470615898009
GUIDED_NOGPS,0.7822096347808838,29.793534547056023,0.031754525502522786,0.03194689750671387,-6.66203481094052,8.223047066423309,38.87265649333812,6.001640458955992,0,0,0.5,0.5710961822494198,1.74386127388603,56.762157323796735,0,0,-9.972783253900806,0.5,-9.3968983400416,9.546600487506954,43.91883913136979,-0.03504723426885903,-0.1995219150558114,1.966581679880619,16.985061764717102,-23.06833118200302,18.410977721214294,6.087353079490045,0.8460155118498114,False,0,18.7937966800832,-19.093200975013907,-87.83767826273959,-12.17470615898009
GUIDED_NOGPS,0.8154928684234619,30.039562832137282,0.03192284901936849,0.0320742130279541,-6.817558018770153,8.272853197535614,39.22487937712042,6.100378518554995,0,0,0.5,0.5504963850735143,1.6602117336774722,56.666319524457705,0,0,-9.9062342875998,0.5,-9.3968983400416,9.546600487506954,43.91883913136979,-0.023510890605393797,-2.745833992958069,-1.6208885237574577,25.462064146995544,-21.76341563463211,-14.394369721412659,6.087353079490045,5.1324389301003,False,1,18.7937966800832,-19.093200975013907,-87.83767826273959,-12.17470615898009
GUIDED_NOGPS,0.8491120338439941,29.7483137460725,0.03214696248372396,0.032349586486816406,-7.128603155287925,8.44017055845142,40.29048890880568,6.314932025729625,0,0,0.5,0.5338904342930678,1.5818198383042377,56.51647883444596,0,0,-9.4009260539328,0.5,-9.40145206526149,9.70455115452334,43.789952991432344,1.8327588215470314,-2.9150644317269325,-0.4361876752227545,63.22747468948364,-10.973857343196869,67.1907126903534,6.140610245352694,4.293112414603753,False,0,18.80290413052298,-19.40910230904668,-87.57990598286469,-12.281220490705389
GUIDED_NOGPS,0.8826718330383301,29.79586269606729,0.03203872044881185,0.03222084045410156,-7.2039842501893485,8.464599542126372,40.60903937275732,6.3956945531289415,0,0,0.5,0.5287681659415285,1.4530992671449408,56.041760196562564,0,0,-8.479239274368842,0.5,-9.40145206526149,9.70455115452334,43.789952991432344,3.27320396900177,-3.3209100365638733,2.067706733942032,24.161724746227264,-8.838799595832825,53.119957447052,6.140610245352694,4.155560515569335,False,0,18.80290413052298,-19.40910230904668,-87.57990598286469,-12.281220490705389
GUIDED_NOGPS,0.9159917831420898,30.014626955389218,0.03196838696797689,0.032102108001708984,-7.305117537224225,8.484568924508167,40.94272248206453,6.54476552184615,0,0,0.5,0.531528843026683,1.395528242961138,55.763013346345176,0,0,-7.181996586895462,0.5,-9.40145206526149,9.70455115452334,43.789952991432344,1.897856965661049,-3.746214881539345,1.4677338302135468,-32.87242949008942,-37.068191170692444,15.62088131904602,6.140610245352694,7.691572500773385,False,0,18.80290413052298,-19.40910230904668,-87.57990598286469,-12.281220490705389
GUIDED_NOGPS,0.9549522399902344,25.667364298390552,0.03208974202473958,0.037572622299194336,-7.396682601453163,8.479414750849608,41.25809149397829,6.7538939550828605,0,0,0.5,0.5141780281007351,1.305092696368761,55.32524944696613,0,0,-5.566654461310076,0.5,-9.40145206526149,9.70455115452334,43.789952991432344,2.0404739305377007,-4.845628887414932,1.7252273857593536,-15.11833518743515,-22.447708249092102,32.17947781085968,6.140610245352694,11.154600499601264,False,0,18.80290413052298,-19.40910230904668,-87.57990598286469,-12.281220490705389
GUIDED_NOGPS,0.9883115291595459,29.973016235993597,0.03192952473958333,0.03209710121154785,-7.490476484985853,8.462073171246598,41.51525001176313,6.936121308335783,0,0,0.5,0.5118169170820263,1.3409364619159303,55.169124982917985,0,0,-3.7047583816978453,0.5,-9.40145206526149,9.70455115452334,43.789952991432344,1.1556810699403286,-5.042014271020889,1.9900312647223473,-15.055879950523376,-10.699789226055145,15.945310890674591,6.140610245352694,10.510622943895783,False,0,18.80290413052298,-19.40910230904668,-87.57990598286469,-12.281220490705389
GUIDED_NOGPS,1.0218923091888428,29.781476327075463,0.03205159505208333,0.03222513198852539,-7.6836101088395665,8.423015542415236,42.076318935172544,7.294736808088657,0,0,0.5,0.5004433714534856,1.386681974047208,55.0210942930363,0,0,-1.6787740091854046,0.5,-9.40145206526149,9.70455115452334,43.789952991432344,0.6341643631458282,-5.105382204055786,2.947787381708622,3.238992393016815,4.1496798396110535,40.34686088562012,6.140610245352694,9.104453479651175,False,0,18.80290413052298,-19.40910230904668,-87.57990598286469,-12.281220490705389
GUIDED_NOGPS,1.0557749271392822,29.51511185233662,0.0319550355275472,0.03267216682434082,-7.773953381293286,8.419599473022947,42.36758507385964,7.403221176911428,0,0,0.5,0.5079587139746153,1.5212730927981306,54.58604197875775,0,0,0.42156532334096364,0.5,-9.40145206526149,9.70455115452334,43.789952991432344,0.7859818637371063,-3.859168291091919,4.622834548354149,-2.924923039972782,22.41707593202591,83.86902809143066,6.140610245352694,6.056971628605933,False,0,18.80290413052298,-19.40910230904668,-87.57990598286469,-12.281220490705389
GUIDED_NOGPS,1.0895512104034424,29.68178955339009,0.03209832509358724,0.032323360443115234,-7.895164462324226,8.424205375322938,42.575707252352636,7.501289595390154,0,0,0.5,0.5276967867371886,1.6186049960181048,54.41002800384652,0,0,2.5032330106138545,0.5,-9.40145206526149,9.70455115452334,43.789952991432344,-1.628744974732399,-3.2914403825998306,2.9269101098179817,-61.49647831916809,14.886461198329926,-80.79957365989685,6.140610245352694,6.74399901287636,False,0,18.80290413052298,-19.40910230904668,-87.57990598286469,-12.281220490705389
GUIDED_NOGPS,1.1228947639465332,29.912735882696943,0.03185728391011556,0.0320286750793457,-8.037476239557451,8.413809960711554,42.83976131009409,7.687830419967037,0,0,0.5,0.511699896731637,1.75122507158495,54.462828781225305,0,0,4.474029437436339,0.5,-9.40145206526149,9.70455115452334,43.789952991432344,-2.7580026537179947,-3.993692621588707,4.803870245814323,-44.32280957698822,-19.031907618045807,41.770872473716736,6.140610245352694,10.962200047097529,False,0,18.80290413052298,-19.40910230904668,-87.57990598286469,-12.281220490705389
GUIDED_NOGPS,1.1564631462097168,29.791418363650568,0.03199008305867513,0.03216838836669922,-8.119762895228224,8.494797572765904,43.09064711600071,7.670591094362923,0,0,0.5,0.5044656058226827,1.779914000533119,54.670705588614645,0,0,6.246665612729069,0.5,-9.40145206526149,9.70455115452334,43.789952991432344,0.4426462110131979,1.380988210439682,4.906623810529709,14.595532417297363,112.21451759338379,8.739502727985382,6.140610245352694,-0.54987441097222,False,0,18.80290413052298,-19.40910230904668,-87.57990598286469,-12.281220490705389
GUIDED_NOGPS,1.1898388862609863,29.95781639489454,0.031916173299153645,0.03207087516784668,-8.197232131017788,8.574613735199033,43.32723225408284,7.648069917905755,0,0,0.5,0.5213851583355679,1.7031036141178597,54.97818021448111,0,0,7.742629306011935,0.5,-9.40145206526149,9.70455115452334,43.789952991432344,0.4426462110131979,1.380988210439682,4.906623810529709,14.595532417297363,112.21451759338379,8.739502727985382,6.140610245352694,-0.54987441097222,False,0,18.80290413052298,-19.40910230904668,-87.57990598286469,-12.281220490705389
GUIDED_NOGPS,1.2232234477996826,29.952468007312614,0.032009394963582356,0.032158613204956055,-8.410412543211924,8.849899343372265,43.665663201294514,7.342494121142285,0,0,0.5,0.5476692203656579,1.6204006954395835,55.00589712213302,0,0,8.895662450393434,0.5,-9.40145206526149,9.70455115452334,43.789952991432344,-2.8002969920635223,4.835747554898262,1.0056210681796074,-34.03162956237793,-10.689031332731247,-25.575536489486694,6.140610245352694,-6.0866129420564965,False,0,18.80290413052298,-19.40910230904668,-87.57990598286469,-12.281220490705389
GUIDED_NOGPS,1.2566044330596924,29.957174487536605,0.032088311513264973,0.03221583366394043,-8.534541979713486,8.941700231378022,43.79290461644366,7.285438456771677,0,0,0.5,0.5634465838224171,1.5484899025367505,54.96864185530519,0,0,9.654695793623906,0.5,-9.40145206526149,9.70455115452334,43.789952991432344,-2.522188425064087,2.102961391210556,-0.7987422868609428,-9.617054462432861,-91.82716608047485,-8.298852294683456,6.140610245352694,-2.28756140729197,False,0,18.80290413052298,-19.40910230904668,-87.57990598286469,-12.281220490705389
GUIDED_NOGPS,1.2901368141174316,29.81958821522011,0.032103570302327473,0.03226161003112793,-8.59434634711338,8.950315760793666,43.83935479374873,7.287535392021166,0,0,0.5,0.515114617790673,1.489267253234274,55.03805706784002,0,0,9.986110817918139,0.5,-9.40145206526149,9.70455115452334,43.789952991432344,-0.40642558597028255,-1.9450802356004715,0.3453726414591074,65.86443781852722,-96.48004174232483,40.55204689502716,6.140610245352694,2.6903342475530367,False,0,18.80290413052298,-19.40910230904668,-87.57990598286469,-12.281220490705389
GUIDED_NOGPS,1.3236262798309326,29.864175555017585,0.03208735783894857,0.03226423263549805,-8.58841075008951,8.96114916959038,43.96952000269862,7.2871558919009445,0,0,0.5,0.48553562981628656,1.4802245096600002,55.28540212334828,0,0,9.875228745343794,0.5,-9.247622109127557,9.586184620902763,43.77355266523366,3.661768138408661,-1.742124743759632,2.306828461587429,86.70561909675598,39.85847234725952,62.50842213630676,7.387412615742041,-1.9727596959933746,False,0,18.495244218255113,-19.172369241805526,-87.54710533046732,-14.774825231484082
GUIDED_NOGPS,1.357755422592163,29.299039502637,0.03208354314168294,0.03293967247009277,-8.584643258622929,9.042434538262725,44.092528746656136,7.1578431055076015,0,0,0.5,0.5179197978271385,1.3889405255066607,55.84942206953501,0,0,9.32696067890069,0.5,-9.247622109127557,9.586184620902763,43.77355266523366,3.283921629190445,2.4800047278404236,2.475385367870331,-18.774157762527466,111.77976131439209,30.534401535987854,7.387412615742041,-9.241348399864803,False,0,18.495244218255113,-19.172369241805526,-87.54710533046732,-14.774825231484082
GUIDED_NOGPS,1.3913791179656982,29.747469804322076,0.032128127415974934,0.032309532165527344,-8.635760869425939,9.193759494304068,44.16966752566215,6.951096281068596,0,0,0.5,0.5644028103062189,1.3282157681953104,55.84047452172229,0,0,8.365590083745087,0.5,-9.247622109127557,9.586184620902763,43.77355266523366,-0.4096981603652239,6.9042399525642395,1.7916183918714523,-75.98379850387573,82.75003433227539,3.938256949186325,7.387412615742041,-13.421453200216579,False,0,18.495244218255113,-19.172369241805526,-87.54710533046732,-14.774825231484082
GUIDED_NOGPS,1.424757480621338,29.953965363327978,0.03198269208272298,0.032140254974365234,-8.689253582314928,9.34741290504066,44.26480164274846,6.74479188487828,0,0,0.5,0.5978576104694703,1.3237931139860213,55.70852892733598,0,0,7.033697242732391,0.5,-9.247622109127557,9.586184620902763,43.77355266523366,-0.4096981603652239,6.9042399525642395,1.7916183918714523,-75.98379850387573,82.75003433227539,3.938256949186325,7.387412615742041,-13.421453200216579,False,1,18.495244218255113,-19.172369241805526,-87.54710533046732,-14.774825231484082
GUIDED_NOGPS,1.4582738876342773,29.838468488336524,0.03208926518758138,0.03225278854370117,-8.877471296446549,9.452712317024556,44.40897387478007,6.867106027781196,0,0,0.5,0.5402818371697602,1.415716681322109,56.027830025750326,0,0,5.390273323461356,0.5,-9.247622109127557,9.586184620902763,43.77355266523366,-1.8184259533882141,-1.70624740421772,1.7776908352971077,59.62910056114197,-136.84604167938232,76.14914774894714,7.387412615742041,6.143287290468324,False,0,18.495244218255113,-19.172369241805526,-87.54710533046732,-14.774825231484082
GUIDED_NOGPS,1.4918794631958008,29.754855918616364,0.032041343053181966,0.03225135803222656,-8.843139417436932,9.502582109215265,44.496981481157555,6.734759904796853,0,0,0.5,0.5097961949439074,1.447677484326126,56.41092509101259,0,0,3.508107587104019,0.5,-9.247622109127557,9.586184620902763,43.77355266523366,3.967621549963951,1.6265826299786568,3.9669163525104523,105.973219871521,86.12731695175171,61.51911020278931,7.387412615742041,-9.128429151185212,False,0,18.495244218255113,-19.172369241805526,-87.54710533046732,-14.774825231484082
GUIDED_NOGPS,1.5252470970153809,29.968090655120427,0.03195837338765462,0.032109737396240234,-8.815445394185435,9.563562787948491,44.62111930358739,6.594084595746839,0,0,0.5,0.5770739317945033,1.539117815778435,56.35190884148909,0,0,1.4705634627465556,0.5,-9.247622109127557,9.586184620902763,43.77355266523366,3.967621549963951,1.6265826299786568,3.9669163525104523,105.973219871521,86.12731695175171,61.51911020278931,7.387412615742041,-9.128429151185212,False,0,18.495244218255113,-19.172369241805526,-87.54710533046732,-14.774825231484082
GUIDED_NOGPS,1.558685541152954,29.906763829271423,0.03205064137776693,0.03220057487487793,-8.834083516495141,9.702844402115232,44.71881069356021,6.322524075538641,0,0,0.5,0.6192722278690171,1.6350224229052883,55.925424999524324,0,0,-0.6321137211366181,0.5,-9.247622109127557,9.586184620902763,43.77355266523366,1.0006927885115147,6.258546561002731,2.9178347438573837,-86.31283044815063,26.48726999759674,7.301580905914307,7.387412615742041,-16.360760222734452,False,0,18.495244218255113,-19.172369241805526,-87.54710533046732,-14.774825231484082
GUIDED_NOGPS,1.5922832489013672,29.767948899929028,0.03207591374715169,0.03222060203552246,-8.90971768360046,9.781627044534567,44.77919913139207,6.281728487653911,0,0,0.5,0.6176894916114254,1.7016058816989228,55.80116336795428,0,0,-2.706793812973938,0.5,-9.247622109127557,9.586184620902763,43.77355266523366,-2.5853995233774185,3.304421529173851,2.3591674864292145,-82.9171359539032,-94.14721727371216,12.32156828045845,7.387412615742041,-3.452237153712905,False,0,18.495244218255113,-19.172369241805526,-87.54710533046732,-14.774825231484082
GUIDED_NOGPS,1.625643253326416,29.970232013090484,0.031932862599690755,0.03207683563232422,-8.962940021261932,9.668717651916728,44.80626414903563,6.623020158116399,0,0,0.5,0.5259084511134088,1.6421282742413346,56.68373309174665,0,0,-4.661586686741114,0.5,-9.247622109127557,9.586184620902763,43.77355266523366,-1.8587470054626465,-6.791628152132034,2.868456393480301,20.164747536182404,-242.3166275024414,65.47830700874329,7.387412615742041,17.7573187570432,False,1,18.495244218255113,-19.172369241805526,-87.54710533046732,-14.774825231484082
GUIDED_NOGPS,1.6591391563415527,29.8582228739838,0.03203562100728353,0.03218817710876465,-8.987969685810032,9.711852353741369,44.89931794797575,6.624124009630873,0,0,0.5,0.5379029569870388,1.5970450770161364,56.82245423378961,0,0,-6.409912168353249,0.5,-9.247622109127557,9.586184620902763,43.77355266523366,3.521353378891945,7.531909644603729,1.3643509708344936,9.666740149259567,284.91437435150146,-14.104804396629333,7.387412615742041,-20.444530327485076,False,0,18.495244218255113,-19.172369241805526,-87.54710533046732,-14.774825231484082
GUIDED_NOGPS,1.6934700012207031,29.144516864238366,0.031999858220418294,0.03269529342651367,-8.987969685810032,9.711852353741369,44.89931794797575,6.624124009630873,0,0,0.5,0.5944031355750306,1.6466006607655177,56.452035999626894,0,0,-7.874334777772317,0.5,-9.247622109127557,9.586184620902763,43.77355266523366,3.521353378891945,7.531909644603729,1.3643509708344936,9.666740149259567,284.91437435150146,-14.104804396629333,7.387412615742041,-20.444530327485076,False,1,18.495244218255113,-19.172369241805526,-87.54710533046732,-14.774825231484082
GUIDED_NOGPS,1.726646900177002,30.12694923897975,0.03156307538350423,0.031707763671875,-9.11140677377719,9.741350746470314,45.03523163760148,6.794283626584946,0,0,0.5,0.6247706902334361,1.835566381890383,56.036197007483594,0,0,-8.989993441398719,0.5,-9.247622109127557,9.586184620902763,43.77355266523366,-1.3316861353814602,-6.376282870769501,3.049994073808193,78.18538546562195,-276.668381690979,150.6184220314026,7.387412615742041,19.63057156145278,False,0,18.495244218255113,-19.172369241805526,-87.54710533046732,-14.774825231484082
GUIDED_NOGPS,1.7602498531341553,29.75844478342616,0.03195241292317708,0.0321195125579834,-9.090397729999964,9.665216791495522,45.08959560512925,7.052140900065313,0,0,0.5,0.5496422912621454,1.7116229944469812,56.48581128507261,0,0,-9.707474268578167,0.5,-9.247622109127557,9.586184620902763,43.77355266523366,2.1747075021266937,-4.423733055591583,3.9371468126773834,82.65215158462524,202.41742134094238,3.5218417644500732,7.387412615742041,12.478065764507125,False,0,18.495244218255113,-19.172369241805526,-87.54710533046732,-14.774825231484082
GUIDED_NOGPS,1.794281005859375,29.382164623467602,0.03182843526204427,0.03266286849975586,-9.069997471569478,9.80540136366297,45.04137443240728,6.723203676635025,0,0,0.5,0.5558897265577385,1.5764597406313643,56.723682868202054,0,0,-9.994999153428735,0.5,-9.247622109127557,9.586184620902763,43.77355266523366,1.9220512360334396,7.661349326372147,-0.7654255721718073,-36.423516273498535,249.42498207092285,-132.58332014083862,7.387412615742041,-19.52281508201207,False,0,18.495244218255113,-19.172369241805526,-87.54710533046732,-14.774825231484082
GUIDED_NOGPS,1.828545331954956,29.183857500695797,0.03194430669148763,0.03295493125915527,-9.113315384310464,9.870874666444804,45.03020125836885,6.621351482196357,0,0,0.5,0.6116458414130219,1.6639432581201206,56.41265654396718,0,0,-9.839833266128725,0.5,-9.247622109127557,9.586184620902763,43.77355266523366,-1.5121486969292164,3.407900035381317,0.5838434677571058,-65.76403379440308,-161.5753173828125,66.41602516174316,7.387412615742041,-7.012033138267409,False,0,18.495244218255113,-19.172369241805526,-87.54710533046732,-14.774825231484082
GUIDED_NOGPS,1.8653008937835693,27.208531728012247,0.03199938138326009,0.035421133041381836,-9.196862350568647,9.855531775981344,45.06488376173835,6.740727937038712,0,0,0.5,0.594148497585036,1.5671386668484124,56.55276079931707,0,0,-9.248849094149707,0.5,-9.247622109127557,9.586184620902763,43.77355266523366,-1.5252675861120224,-4.501017928123474,4.148975759744644,25.57452619075775,-175.25352239608765,132.06000328063965,7.387412615742041,10.963184448111656,False,0,18.495244218255113,-19.172369241805526,-87.54710533046732,-14.774825231484082
GUIDED_NOGPS,1.8986763954162598,29.95995628477753,0.03198126157124837,0.032126665115356445,-9.157125117919268,9.84954092640614,45.076399617352465,6.728799409924701,0,0,0.5,0.5678763350251406,1.4658663848075757,56.64761505141562,0,0,-8.24822205135675,0.5,-8.411441532268213,9.379935318732409,44.02148893854893,0.42178696021437645,0.47590998001396656,2.114546485245228,-7.642588019371033,190.9931778907776,-56.27579092979431,6.325529999752116,0.7966086981582895,False,0,16.822883064536427,-18.759870637464818,-88.04297787709785,-12.651059999504232
GUIDED_NOGPS,1.9321668148040771,29.857797773285117,0.032065423329671223,0.032216787338256836,-9.059807001336509,9.873823033587373,45.051224946695235,6.563928829392962,0,0,0.5,0.5984617620458991,1.613996752762462,56.318365782475155,0,0,-6.882271136822208,0.5,-7.248324738138804,8.481387071772398,44.50308944746169,0.5791760515421629,4.518752917647362,-1.881852000951767,-8.131588995456696,56.662094593048096,-65.8805251121521,6.365749543309175,-7.906619299243944,False,0,14.496649476277607,-16.962774143544795,-89.00617889492338,-12.73149908661835
GUIDED_NOGPS,1.9656345844268799,29.88077054599339,0.032041104634602864,0.032196760177612305,-8.964872103314526,9.899314077717824,45.022822212990334,6.400049275991429,0,0,0.5,0.584292801416972,1.5721667532945998,56.44731633891041,0,0,-5.211495991996031,0.5,-7.248324738138804,8.481387071772398,44.50308944746169,0.5791760515421629,4.518752917647362,-1.881852000951767,-8.131588995456696,56.662094593048096,-65.8805251121521,6.365749543309175,-7.906619299243944,False,0,14.496649476277607,-16.962774143544795,-89.00617889492338,-12.73149908661835
GUIDED_NOGPS,2.0062103271484375,24.65164009098229,0.03203776677449544,0.03923153877258301,-8.865924092529017,9.767813787140549,45.07218739292835,6.5054962575063815,0,0,0.5,0.5565902478344879,1.3847352634120484,56.80224370403554,0,0,-3.309897297378446,0.5,-7.248324738138804,8.481387071772398,44.50308944746169,0.9472974576056004,-4.417531192302704,2.6735125109553337,36.71925365924835,-191.31320714950562,131.04710578918457,6.365749543309175,7.243045077036049,False,0,14.496649476277607,-16.962774143544795,-89.00617889492338,-12.73149908661835
GUIDED_NOGPS,2.0406017303466797,29.128931669340446,0.03195193608601888,0.03292107582092285,-8.721412711952466,9.79521046747532,45.08829842840878,6.308603034281426,0,0,0.5,0.5870143649969577,1.246615071294345,57.022199700972045,0,0,-1.2616991916130784,0.5,-8.152423664342681,9.182045125777886,44.0584043255032,-0.7476077880710363,8.35983231663704,-3.4285198897123337,-91.0646378993988,253.39841842651367,-177.33616828918457,6.453220265078243,-14.47512940800152,False,0,16.304847328685362,-18.364090251555773,-88.1168086510064,-12.906440530156486
GUIDED_NOGPS,2.0769405364990234,27.46383274074947,0.03182104428609212,0.03508186340332031,-8.704079418746243,9.924565144169982,45.004191158212244,6.043084395584548,0,0,0.5,0.6221967761333991,1.3801631988146654,56.93275154360156,0,0,0.8423811189212129,0.5,-8.152423664342681,9.182045125777886,44.0584043255032,-0.7476077880710363,8.35983231663704,-3.4285198897123337,-91.0646378993988,253.39841842651367,-177.33616828918457,6.453220265078243,-14.47512940800152,False,0,16.304847328685362,-18.364090251555773,-88.1168086510064,-12.906440530156486
GUIDED_NOGPS,2.110450029373169,29.84250220565216,0.032093318303426106,0.032263994216918945,-8.70246812331288,9.89233397190429,45.08392681359435,6.086851280204479,0,0,0.5,0.6015783560198347,1.2352873092775845,57.12217659494811,0,0,2.909151336452391,0.5,-8.152423664342681,9.182045125777886,44.0584043255032,-1.57865509390831,-0.9374148212373257,6.076248362660408,45.034435391426086,-147.09326028823853,217.5022840499878,6.453220265078243,3.254691434330034,False,0,16.304847328685362,-18.364090251555773,-88.1168086510064,-12.906440530156486
GUIDED_NOGPS,2.148514747619629,26.274502925441947,0.032059701283772786,0.036763906478881836,-8.670915382633547,9.903693881818416,45.145222322040986,6.022382966619448,0,0,0.5,0.5780695919485913,1.1875139780147534,57.23537332006273,0,0,4.847071672991346,0.5,-8.152423664342681,9.182045125777886,44.0584043255032,0.065225875005126,-0.02300194464623928,2.584012970328331,-88.11691403388977,85.00136733055115,-155.3774356842041,6.453220265078243,-0.4634503198567561,False,0,16.304847328685362,-18.364090251555773,-88.1168086510064,-12.906440530156486
GUIDED_NOGPS,2.1823718547821045,29.53236072776432,0.032006295522054036,0.032633304595947266,-8.650727362226016,9.858474551975133,45.16601955009071,5.9967964314950235,0,0,0.5,0.6282468829950024,1.5193000219016433,57.11506636802213,0,0,6.570309259822431,0.5,-8.326358279384552,8.76577600833021,44.18664174423856,0.065225875005126,-0.02300194464623928,2.584012970328331,-88.11691403388977,85.00136733055115,-155.3774356842041,6.150854778571602,-0.4634503198567561,False,0,16.652716558769104,-17.53155201666042,-88.37328348847711,-12.301709557143203
GUIDED_NOGPS,2.2189040184020996,27.372246006056177,0.032096179326375325,0.03432774543762207,-8.608362885208495,9.828142154237412,45.233308355504384,5.937457278848708,0,0,0.5,0.6209802554091964,1.4694579970939445,57.14908071008879,0,0,8.002539790539762,0.5,-8.326358279384552,8.76577600833021,44.18664174423856,1.3024680316448212,0.7398203946650028,5.12176938354969,57.0473313331604,-72.87006378173828,239.14415836334229,6.150854778571602,-2.413616176962552,False,1,16.652716558769104,-17.53155201666042,-88.37328348847711,-12.301709557143203
GUIDED_NOGPS,2.2517387866973877,30.457069826885093,0.031106026967366536,0.03154277801513672,-8.556091817453623,9.794133916464206,45.27465632017505,5.87305480397367,0,0,0.5,0.6273468454892945,1.2393817942415957,57.54212394587717,0,0,9.080328018195505,0.5,-8.326358279384552,8.76577600833021,44.18664174423856,1.0258323512971401,4.8354703933000565,-2.145730145275593,58.987170457839966,179.66331243515015,-135.4358434677124,6.150854778571602,-4.595180945742151,False,0,16.652716558769104,-17.53155201666042,-88.37328348847711,-12.301709557143203
GUIDED_NOGPS,2.2860379219055176,29.155659360901993,0.03202489217122396,0.03296184539794922,-8.520291939244075,9.843183626343569,45.194641192103475,5.77944837243268,0,0,0.5,0.6513983427952895,1.094631195987102,57.5293173411834,0,0,9.755937380195567,0.5,-8.326358279384552,8.76577600833021,44.18664174423856,1.0258323512971401,4.8354703933000565,-2.145730145275593,58.987170457839966,179.66331243515015,-135.4358434677124,6.150854778571602,-4.595180945742151,False,0,16.652716558769104,-17.53155201666042,-88.37328348847711,-12.301709557143203
GUIDED_NOGPS,2.319366931915283,30.001530725377854,0.03196695645650228,0.03210282325744629,-8.533267491639606,9.872944979478648,45.15143734239053,5.606247589093883,0,0,0.5,0.57904588211308,1.1196221111082383,57.506306433869625,0,0,9.999444309209432,0.5,-8.326358279384552,8.76577600833021,44.18664174423856,-1.4144417829811573,3.838256374001503,-0.30053374357521534,-61.01396083831787,-65.88804125785828,39.866262674331665,6.150854778571602,-8.814308751256327,False,0,16.652716558769104,-17.53155201666042,-88.37328348847711,-12.301709557143203
GUIDED_NOGPS,2.352956533432007,29.772808904221414,0.0320921262105306,0.03224611282348633,-8.628698919555893,9.759958539568043,45.07380319663696,5.686959207855003,0,0,0.5,0.6340437926096392,1.1901893844569886,57.46960782745915,0,0,9.800063584670868,0.5,-8.326358279384552,8.76577600833021,44.18664174423856,-5.685745179653168,-3.379547595977783,-1.913118176162243,-7.699422538280487,-136.0293984413147,5.240281298756599,6.150854778571602,3.726192199340708,False,0,16.652716558769104,-17.53155201666042,-88.37328348847711,-12.301709557143203
GUIDED_NOGPS,2.389270305633545,27.537219165670916,0.03196385701497396,0.03509712219238281,-8.457223400738314,9.82308345757351,45.09309638526948,5.64878534252867,0,0,0.5,0.5662849543093805,0.8690271662155249,57.28577328594825,0,0,9.166626023425668,0.5,-8.326358279384552,8.76577600833021,44.18664174423856,8.37211161851883,5.5671654641628265,2.8790073469281197,305.5628538131714,190.82733392715454,170.3122854232788,6.150854778571602,-2.087602923584792,False,0,16.652716558769104,-17.53155201666042,-88.37328348847711,-12.301709557143203
GUIDED_NOGPS,2.422727108001709,29.88907495955932,0.032100947697957356,0.03224062919616699,-8.477688239941706,9.604996577544497,44.9932797932749,5.8312397545904675,0,0,0.5,0.48816664002891663,1.098900597826889,57.531666926257884,0,0,8.127187352021913,0.5,-8.326358279384552,8.76577600833021,44.18664174423856,-6.639450043439865,-7.493042200803757,-7.1652427315711975,-215.13023376464844,-124.18140172958374,-292.5337791442871,6.150854778571602,9.466908567015304,False,0,16.652716558769104,-17.53155201666042,-88.37328348847711,-12.301709557143203
GUIDED_NOGPS,2.4563000202178955,29.78739844327027,0.032095940907796223,0.03225541114807129,-8.588388887553318,9.429210308372609,44.829364697911096,6.009054267741283,0,0,0.5,0.6070457623678712,1.477590617961314,57.68843342808802,0,0,6.7277855841685845,0.5,-8.326358279384552,8.76577600833021,44.18664174423856,-6.639450043439865,-7.493042200803757,-7.1652427315711975,-215.13023376464844,-124.18140172958374,-292.5337791442871,6.150854778571602,9.466908567015304,False,0,16.652716558769104,-17.53155201666042,-88.37328348847711,-12.301709557143203
GUIDED_NOGPS,2.489950656890869,29.723226940302737,0.03199175198872884,0.03217315673828125,-8.415982001209132,9.562087731635629,44.883188242832425,5.803708728583791,0,0,0.5,0.6424973790071464,0.9300827608147977,57.262328661622185,0,0,5.030401940639225,0.5,-8.326358279384552,8.76577600833021,44.18664174423856,8.925719559192657,9.37076285481453,4.730889946222305,353.88011932373047,382.6579809188843,310.4710340499878,6.150854778571602,-11.58541212017888,False,0,16.652716558769104,-17.53155201666042,-88.37328348847711,-12.301709557143203
GUIDED_NOGPS,2.52333664894104,29.94498347219545,0.03182795842488607,0.03206825256347656,-8.620279192890472,9.361430308040902,44.65527584149709,6.084503635174049,0,0,0.5,0.5029141923857378,0.5631965882266241,57.16003633351749,0,0,3.1102156249790487,0.5,-8.326358279384552,8.76577600833021,44.18664174423856,-11.83205246925354,-9.10482108592987,-10.875466465950012,-163.77012729644775,-67.9294228553772,-597.0526695251465,6.150854778571602,15.2174582726606,False,0,16.652716558769104,-17.53155201666042,-88.37328348847711,-12.301709557143203
GUIDED_NOGPS,2.5605170726776123,26.896909067590098,0.03199294408162435,0.03575396537780762,-8.850936343489519,9.14064069900714,44.40168566147059,6.391060577114211,0,0,0.5,0.7253347136738544,1.3876158956945015,57.253124981715594,0,0,1.0522740443667222,0.5,-8.326358279384552,8.76577600833021,44.18664174423856,-11.83205246925354,-9.10482108592987,-10.875466465950012,-163.77012729644775,-67.9294228553772,-597.0526695251465,6.150854778571602,15.2174582726606,False,0,16.652716558769104,-17.53155201666042,-88.37328348847711,-12.301709557143203
GUIDED_NOGPS,2.5942416191101074,29.657024471989082,0.031883986790974934,0.03235173225402832,-8.898633608579585,9.062159854362118,44.15654973681169,6.547513794908434,0,0,0.5,0.6480629693245019,1.0521930962396973,57.06074245845843,0,0,-1.0522740443666747,0.5,-8.326358279384552,8.76577600833021,44.18664174423856,-1.3839296996593475,-0.9030880406498909,-8.868087828159332,430.48601150512695,290.9764766693115,526.8375396728516,6.150854778571602,5.705506315616356,False,1,16.652716558769104,-17.53155201666042,-88.37328348847711,-12.301709557143203
GUIDED_NOGPS,2.6286044120788574,29.09720564974887,0.031932862599690755,0.033123016357421875,-8.864431395867484,8.84928818312774,44.452397955280574,6.604247976410394,0,0,0.5,0.36907060582296125,0.6588364188014334,57.108594763783536,0,0,-3.110215624979003,0.5,-8.326358279384552,8.76577600833021,44.18664174423856,-8.354541659355164,-9.065306931734085,-1.805219054222107,-537.6502990722656,-116.37438535690308,-607.8737258911133,6.150854778571602,13.267982264660978,False,0,16.652716558769104,-17.53155201666042,-88.37328348847711,-12.301709557143203
GUIDED_NOGPS,2.662194013595581,29.770061750301654,0.03204921086629232,0.03223609924316406,-8.877791458615812,8.956213355508412,44.15265118342407,6.647660029299422,0,0,0.5,0.5817577873786924,0.9964713457736755,57.17105342864872,0,0,-5.030401940639183,0.5,-8.751599934194042,9.580141434803696,43.8493391823553,-0.31945977825671434,4.3274886906147,-13.20907324552536,268.6652421951294,302.18889713287354,0.8932307362556458,6.102669025999348,2.5206710679094506,False,0,17.503199868388084,-19.160282869607393,-87.6986783647106,-12.205338051998696
GUIDED_NOGPS,2.696624755859375,29.048438257497057,0.031991036732991536,0.033150434494018555,-8.889850919149398,9.061846334273618,43.859594724719386,6.689172247767918,0,0,0.5,0.7177168115934688,1.0057412998595578,57.13098753897742,0,0,-6.727785584168561,0.5,-8.751599934194042,9.580141434803696,43.8493391823553,-0.31945977825671434,4.3274886906147,-13.20907324552536,268.6652421951294,302.18889713287354,0.8932307362556458,6.102669025999348,2.5206710679094506,False,0,17.503199868388084,-19.160282869607393,-87.6986783647106,-12.205338051998696
GUIDED_NOGPS,2.73055100440979,29.470938729623384,0.031964810689290364,0.032596588134765625,-9.028696027959395,8.90420250584964,43.78645983308077,6.79936979840199,0,0,0.5,0.3974008964788519,0.4294625514948322,57.18165046714599,0,0,-8.127187352021895,0.5,-8.751599934194042,9.580141434803696,43.8493391823553,-6.934904307126999,-9.203183650970459,-2.201380953192711,-349.8554468154907,-233.16457271575928,-466.1231994628906,6.102669025999348,6.165953273229011,False,0,17.503199868388084,-19.160282869607393,-87.6986783647106,-12.205338051998696
GUIDED_NOGPS,2.7647180557250977,29.27082271988164,0.03204778035481771,0.03279542922973633,-9.078150117757499,9.046366469646687,43.306095587311155,6.985303968700356,0,0,0.5,0.36483818305422766,0.7844750805411734,57.36714815971979,0,0,-9.16662602342566,0.5,-8.751599934194042,9.580141434803696,43.8493391823553,-0.6158340722322464,7.239506393671036,-19.131632149219513,290.40610790252686,318.01929473876953,-447.4949359893799,6.102669025999348,7.109200690060479,False,0,17.503199868388084,-19.160282869607393,-87.6986783647106,-12.205338051998696
GUIDED_NOGPS,2.798408269882202,29.678429152662304,0.031939061482747395,0.03249311447143555,-8.88754043666438,9.419199076145281,43.20840478750804,6.864848172993826,0,0,0.5,0.7225360436614416,0.869209713693264,56.935961732511466,0,0,-9.800063584670857,0.5,-8.751599934194042,9.580141434803696,43.8493391823553,9.758894890546799,8.876876533031464,15.489301085472107,291.74602031707764,84.81274247169495,801.3619422912598,6.102669025999348,-10.99498239379265,False,0,17.503199868388084,-19.160282869607393,-87.6986783647106,-12.205338051998696
GUIDED_NOGPS,2.8322789669036865,29.526331721258966,0.03212145169576009,0.032460927963256836,-8.91716439658191,9.253880360049745,43.37929632476458,6.951519617635794,0,0,0.5,0.6145697493471692,0.4806076483301224,56.84386004664843,0,0,-9.999444309209434,0.5,-8.751599934194042,9.580141434803696,43.8493391823553,-1.7476541921496391,-9.28293913602829,8.318283408880234,-198.9673137664795,-405.954647064209,-286.9579076766968,6.102669025999348,5.901242461755997,False,0,17.503199868388084,-19.160282869607393,-87.6986783647106,-12.205338051998696
GUIDED_NOGPS,2.865790367126465,29.840166762711743,0.031896146138509114,0.0320591926574707,-9.132456166347778,9.261455478131609,43.084768881197945,6.985479748753275,0,0,0.5,0.4794361641657594,0.6665835075066675,56.976802848653556,0,0,-9.755937380195574,0.5,-8.751599934194042,9.580141434803696,43.8493391823553,-11.306698620319366,-0.6172299850732088,-14.979150891304016,-212.72196769714355,388.6195421218872,-445.4681396484375,6.102669025999348,2.885505622425682,False,0,17.503199868388084,-19.160282869607393,-87.6986783647106,-12.205338051998696
GUIDED_NOGPS,2.8990862369537354,30.031389620804216,0.03186062177022298,0.032028913497924805,-9.021770439712569,9.436225065885939,43.2460909375688,6.817269552242564,0,0,0.5,0.6921674217859782,0.9459013722108415,56.89752825805181,0,0,-9.080328018195518,0.5,-8.751599934194042,9.580141434803696,43.8493391823553,5.550471693277359,8.171115070581436,8.509387075901031,261.05239391326904,191.28930568695068,491.93949699401855,6.102669025999348,-7.6155943302198095,False,0,17.503199868388084,-19.160282869607393,-87.6986783647106,-12.205338051998696
GUIDED_NOGPS,2.9325740337371826,29.86098632360584,0.032042773564656575,0.03220820426940918,-8.91431435345563,9.371168519589768,43.63646684960252,6.955253604407782,0,0,0.5,0.6274793938478751,0.4450203617223725,56.83358744213673,0,0,-8.00253979053977,0.5,-8.751599934194042,9.580141434803696,43.8493391823553,5.335694178938866,-4.22932468354702,20.34480571746826,-139.15289640426636,-350.6889581680298,99.33368563652039,6.102669025999348,8.847347230045324,False,0,17.503199868388084,-19.160282869607393,-87.6986783647106,-12.205338051998696
GUIDED_NOGPS,2.9659512042999268,29.9597422820326,0.031967910130818684,0.03216433525085449,-9.010799951061925,9.35867165049677,43.416990680144394,7.065012043937717,0,0,0.5,0.5408144318424625,0.4935077412381608,57.10121474438534,0,0,-6.5703092598224675,0.5,-8.751599934194042,9.580141434803696,43.8493391823553,-5.450259894132614,-1.536204107105732,-11.852787435054779,87.76358366012573,226.96533203125,-451.49755477905273,6.102669025999348,7.111951548748702,False,0,17.503199868388084,-19.160282869607393,-87.6986783647106,-12.205338051998696
GUIDED_NOGPS,2.9995172023773193,29.793111286324148,0.03210309346516927,0.03239107131958008,-8.858145511548141,9.482937331337464,43.280727895329655,6.785636688477336,0,0,0.5,0.6619829482138407,0.8122549539994962,56.969047168851006,0,0,-4.847071672991403,0.5,-8.049943172577036,9.241982311338425,44.11032999392206,5.3397037088871,-0.6145930383354425,13.336089253425598,-122.73600101470947,-284.7074508666992,136.55577898025513,6.139026936159674,-5.315034646050482,False,0,16.099886345154072,-18.48396462267685,-88.22065998784412,-12.278053872319347
GUIDED_NOGPS,3.033337116241455,29.5750498875327,0.03214267094930013,0.03229856491088867,-8.741075463695601,9.427104861821626,43.5351861882446,6.67504439139647,0,0,0.5,0.6510860217233201,0.6714202952952414,56.75616383280005,0,0,-2.9091513364524535,0.5,-8.391913714090101,8.448797283492244,44.075175227260864,5.3397037088871,-0.6145930383354425,13.336089253425598,-122.73600101470947,-284.7074508666992,136.55577898025513,6.252185999526606,-5.315034646050482,False,0,16.783827428180203,-16.897594566984488,-88.15035045452173,-12.504371999053213
GUIDED_NOGPS,3.0671145915985107,29.602602920521996,0.03178003629048665,0.032419681549072266,-8.823962432268944,9.282111631974232,43.4824581950698,6.845964468295475,0,0,0.5,0.5609851544002737,0.6342628389107555,57.10451372575446,0,0,-0.8423811189212783,0.5,-8.391913714090101,8.448797283492244,44.075175227260864,-5.7939402759075165,-5.675176531076431,-3.8730505853891373,-211.09580993652344,44.409576058387756,-374.7141122817993,6.252185999526606,10.43384649498296,False,0,16.783827428180203,-16.897594566984488,-88.15035045452173,-12.504371999053213
GUIDED_NOGPS,3.100477695465088,29.970446165718695,0.03195837338765462,0.032109737396240234,-8.72069596872257,9.356951756581138,43.471338015799844,6.7788536347565636,0,0,0.5,0.6118824967955923,0.7939321177772908,57.30768453280565,0,0,1.261699191613031,0.5,-8.391913714090101,8.448797283492244,44.075175227260864,4.677803814411163,6.510337442159653,-1.3195761479437351,321.69995307922363,280.67753314971924,266.12064838409424,6.252185999526606,-3.1186485802153663,False,0,16.783827428180203,-16.897594566984488,-88.15035045452173,-12.504371999053213
GUIDED_NOGPS,3.1343657970428467,29.50784426840765,0.03205922444661458,0.03269815444946289,-8.641583299359528,9.410462301988028,43.67273034875714,6.535163236314891,0,0,0.5,0.6592780865808099,0.33870214403005655,57.16372805076388,0,0,3.3098972973784346,0.5,-8.391913714090101,8.448797283492244,44.075175227260864,3.4237295389175415,5.417125299572945,10.162904858589172,-91.29223823547363,-92.486572265625,126.59168243408203,6.252185999526606,-12.661166060682241,False,0,16.783827428180203,-16.897594566984488,-88.15035045452173,-12.504371999053213
GUIDED_NOGPS,3.167898416519165,29.822980659840727,0.0321226437886556,0.032282114028930664,-8.713965624719231,9.342976458399846,43.657663240614575,6.512761310149185,0,0,0.5,0.6149731573950231,0.18649575396625942,57.19209041129236,0,0,5.211495991996021,0.5,-8.391913714090101,8.448797283492244,44.075175227260864,-5.136999487876892,-1.6102097928524017,-1.842707023024559,-206.16679191589355,-179.1986346244812,-319.71471309661865,6.252185999526606,-0.3399413964775907,False,0,16.783827428180203,-16.897594566984488,-88.15035045452173,-12.504371999053213
GUIDED_NOGPS,3.2037293910980225,27.908813861570604,0.032058032353719075,0.03460288047790527,-8.825835897231668,9.258137856211023,43.399650323277115,6.5973044271342705,0,0,0.5,0.64649832239604,0.6095408624881886,57.2815249082845,0,0,6.882271136822187,0.5,-8.569801740016674,9.035619786131335,43.93128729956202,-3.650805726647377,-1.9100440666079521,-7.9870715737342834,63.216400146484375,83.79207253456116,-66.73833727836609,6.150563146459598,3.5725919170776996,False,0,17.139603480033347,-18.07123957226267,-87.86257459912404,-12.301126292919196
GUIDED_NOGPS,3.2373385429382324,29.7542226793885,0.03208974202473958,0.03224539756774902,-8.790359575460736,9.211996683968604,43.56440612680661,6.617309281380666,0,0,0.5,0.679985512596996,0.5132993882970364,57.09341808344777,0,0,8.248222051356745,0.5,-8.569801740016674,9.035619786131335,43.93128729956202,1.6439154744148254,-2.1741876378655434,8.995167911052704,-98.88884425163269,-147.43613004684448,6.781972944736481,6.150563146459598,2.2277831647891952,False,0,17.139603480033347,-18.07123957226267,-87.86257459912404,-12.301126292919196
GUIDED_NOGPS,3.270718812942505,29.95738845359941,0.03194788297017415,0.032103538513183594,-8.754594070708224,9.16582125766987,43.730758150289226,6.637859291423321,0,0,0.5,0.6547151466892711,0.20756971568095195,57.00966630384507,0,0,9.248849094149701,0.5,-8.569801740016674,9.035619786131335,43.93128729956202,1.6439154744148254,-2.1741876378655434,8.995167911052704,-98.88884425163269,-147.43613004684448,6.781972944736481,6.150563146459598,2.2277831647891952,False,0,17.139603480033347,-18.07123957226267,-87.86257459912404,-12.301126292919196
GUIDED_NOGPS,3.3041465282440186,29.914015918751605,0.032032283147176106,0.03219127655029297,-8.839906379388667,9.061542434742124,43.581990685862195,6.7561380222658425,0,0,0.5,0.5864135217934081,0.1385851785897934,57.35313261154292,0,0,9.83983326612872,0.5,-8.569801740016674,9.035619786131335,43.93128729956202,-5.35050667822361,-5.5343735963106155,-9.237689524888992,-147.76211977005005,-62.834131717681885,-357.0814609527588,6.150563146459598,7.842949129574731,False,0,17.139603480033347,-18.07123957226267,-87.86257459912404,-12.301126292919196
GUIDED_NOGPS,3.3377294540405273,29.781899257281623,0.03207901318868001,0.03223609924316406,-8.79586717573702,9.114140992865659,43.55755017487064,6.6615408832050536,0,0,0.5,0.6172581224766568,0.17235982370527178,57.37740027366397,0,0,9.994999153428735,0.5,-8.569801740016674,9.035619786131335,43.93128729956202,2.1463723853230476,3.518946096301079,-1.9918844103813171,192.86823272705078,224.44024085998535,157.10521936416626,6.150563146459598,-4.485695574667786,False,0,17.139603480033347,-18.07123957226267,-87.86257459912404,-12.301126292919196
GUIDED_NOGPS,3.374504804611206,27.188777825314716,0.03196004231770833,0.03559708595275879,-8.688013334823834,9.208874048604702,43.69533849099174,6.506849043498313,0,0,0.5,0.6708183848746341,-0.2346210000539048,57.15653927666244,0,0,9.707474268578174,0.5,-8.569801740016674,9.035619786131335,43.93128729956202,5.824682489037514,5.911751836538315,7.339528203010559,92.72823929786682,39.13989961147308,227.27055549621582,6.150563146459598,-7.901334440373647,False,1,17.139603480033347,-18.07123957226267,-87.86257459912404,-12.301126292919196
GUIDED_NOGPS,3.408118963241577,29.748102756145652,0.032139094670613606,0.032357215881347656,-8.715198514553924,9.122609708218537,43.70019024382343,6.640474486519906,0,0,0.5,0.6364441772160755,-0.482253457115831,57.31518408051433,0,0,8.989993441398749,0.5,-8.569801740016674,9.035619786131335,43.93128729956202,-1.2289486825466156,-2.152606099843979,-0.47478945925831795,-134.53582525253296,-178.5625696182251,-159.66967344284058,6.150563146459598,4.921363886632104,False,0,17.139603480033347,-18.07123957226267,-87.86257459912404,-12.301126292919196
GUIDED_NOGPS,3.4444568157196045,27.52384702207523,0.03205612500508626,0.035123348236083984,-8.802990362584778,8.998969737316273,43.58661210441348,6.706375382446208,0,0,0.5,0.5988233351850866,-0.595980162221363,57.5350342095187,0,0,7.874334777772347,0.5,-8.569801740016674,9.035619786131335,43.93128729956202,-5.51532581448555,-6.840189546346664,-7.21319317817688,-127.91436910629272,-119.55649852752686,-159.19053554534912,6.150563146459598,4.7811097940073,False,0,17.139603480033347,-18.07123957226267,-87.86257459912404,-12.301126292919196
GUIDED_NOGPS,3.4798412322998047,28.26026668104058,0.03209570248921712,0.03412437438964844,-8.780030316865254,9.061705649245809,43.57590595541236,6.502431664949721,0,0,0.5,0.6370130039078906,-0.3843866647064802,57.18478210888045,0,0,6.409912168353272,0.5,-8.569801740016674,9.035619786131335,43.93128729956202,0.9171906858682632,3.9638128131628036,-1.2924565002322197,95.1788067817688,169.4908857345581,143.06573867797852,6.150563146459598,-10.943748291054739,False,0,17.139603480033347,-18.07123957226267,-87.86257459912404,-12.301126292919196
GUIDED_NOGPS,3.5133185386657715,29.869492454832255,0.03205087979634603,0.03221249580383301,-8.759302352307099,9.123002711968722,43.56031890703446,6.297566661946675,0,0,0.5,0.6644878133702371,-0.29054178650120904,56.68307056339716,0,0,4.661586686741125,0.5,-8.569801740016674,9.035619786131335,43.93128729956202,0.9171906858682632,3.9638128131628036,-1.2924565002322197,95.1788067817688,169.4908857345581,143.06573867797852,6.150563146459598,-10.943748291054739,False,0,17.139603480033347,-18.07123957226267,-87.86257459912404,-12.301126292919196
GUIDED_NOGPS,3.546769857406616,29.892483233912753,0.03205087979634603,0.03221750259399414,-8.699768991209414,9.154916928087882,43.63757911782471,6.260049055411828,0,0,0.5,0.5949018461061473,-0.48422930277666876,56.82286063004523,0,0,2.706793812973967,0.5,-8.569801740016674,9.035619786131335,43.93128729956202,3.0821777880191803,2.0959729328751564,4.018828272819519,62.31895089149475,-124.50395822525024,141.53833389282227,6.150563146459598,-0.9747087622524281,False,0,17.139603480033347,-18.07123957226267,-87.86257459912404,-12.301126292919196
GUIDED_NOGPS,3.58026385307312,29.860561144215914,0.03207901318868001,0.032213449478149414,-8.662505823487347,9.038339833584896,43.646872024858354,6.291197891999254,0,0,0.5,0.566988837319862,-0.6498021596027692,57.56421960784216,0,0,0.6321137211366836,0.5,-8.569801740016674,9.035619786131335,43.93128729956202,0.3705157898366451,3.362433984875679,-1.4641364105045795,12.458111345767975,421.7564582824707,-34.83051061630249,6.150563146459598,-15.483499263474476,False,0,17.139603480033347,-18.07123957226267,-87.86257459912404,-12.301126292919196
GUIDED_NOGPS,3.614806652069092,28.950792741428938,0.032030614217122395,0.0331573486328125,-8.67633745854456,9.313499093397246,43.62611967734706,5.670867570121474,0,0,0.5,0.6002543131770571,-0.9457295502645333,58.43058129273409,0,0,-1.4705634627465083,0.5,-8.569801740016674,9.035619786131335,43.93128729956202,-1.1738593690097332,16.177797317504883,-1.7899300903081894,-45.12375295162201,328.4034252166748,-49.894022941589355,6.150563146459598,-35.09836822002539,False,0,17.139603480033347,-18.07123957226267,-87.86257459912404,-12.301126292919196
GUIDED_NOGPS,3.6481451988220215,29.99209135698299,0.031917842229207356,0.03205442428588867,-8.740735292147008,9.510564566162076,43.62807731366761,5.426765634457926,0,0,0.5,0.707296557601821,-0.8529227007305454,57.92540001115244,0,0,-3.5081075871039906,0.5,-8.569801740016674,9.035619786131335,43.93128729956202,-4.114918410778046,11.867006868124008,-0.5450084805488586,-76.77159905433655,-136.44979000091553,34.3850314617157,6.150563146459598,-13.98275985375552,False,0,17.139603480033347,-18.07123957226267,-87.86257459912404,-12.301126292919196
GUIDED_NOGPS,3.6846790313720703,27.375283098913293,0.03201464017232259,0.03524017333984375,-8.805805587591129,9.712267159222348,43.628415526285416,5.171579876986056,0,0,0.5,0.6859731872607172,-0.4963033696819588,56.64286465484788,0,0,-5.390273323461346,0.5,-8.569801740016674,9.035619786131335,43.93128729956202,-4.114918410778046,11.867006868124008,-0.5450084805488586,-76.77159905433655,-136.44979000091553,34.3850314617157,6.150563146459598,-13.98275985375552,False,0,17.139603480033347,-18.07123957226267,-87.86257459912404,-12.301126292919196
GUIDED_NOGPS,3.7182092666625977,29.825101329730497,0.032042535146077473,0.03216743469238281,-8.865096450393041,9.612903692612823,43.722163267137006,5.547931002376842,0,0,0.5,0.6392848955805661,-0.3698412432604091,56.805655383525966,0,0,-7.033697242732356,0.5,-8.569801740016674,9.035619786131335,43.93128729956202,-3.7457048892974854,-5.737052112817764,4.9153923988342285,25.49254298210144,-477.70280838012695,183.51874351501465,6.150563146459598,22.7904851564256,False,0,17.139603480033347,-18.07123957226267,-87.86257459912404,-12.301126292919196
