Mode,Time,Freq,North-Vision,East-Vision,Down-Vision,Yaw-Vision,North-Desired,East-Desired,Down-Desired,Roll-UAV,Pitch-UAV,Yaw-UAV,Roll-Control,Pitch-Control,Yaw-Control,Thrust-Control,northVraw,eastVraw,downVraw,yawVraw,zGyro
GUIDED_NOGPS,0.004199504852294922,239.44191356967517,274.25799579555337,-84.34965857775062,-24.29256562241498,-1.1011464753587454,274.2850061563272,-83.85371531187513,-27.668423986429367,-0.5901301051972471,0.8730094866667596,106.93941123105422,-0.14178645713722837,0.009652574255038751,0.22026399153585458,0.4983120708179928,274.25799579555337,-84.34965857775062,-24.29256562241498,1.5934320032869493,-0.5156620156177409
GUIDED_NOGPS,0.0078887939453125,271.5814555814556,274.51080280660426,-84.15726131901768,-23.905540826735283,-0.4436069438453957,274.2849334793224,-83.85346436539257,-27.668395076326373,-0.5966383683417701,0.9508637180862674,106.93430224955505,0.028557666090871077,-0.07200777594889177,0.08877389908681846,0.49811857287520445,274.7636098176552,-83.96486406028474,-23.51851603105559,1.8604272816726848,-0.5156620156177409
GUIDED_NOGPS,0.02722311019897461,52.03205557623124,274.6755516962196,-83.96494887648355,-23.447441436647605,-0.41550970425746936,274.2844306052147,-83.85172799102268,-27.668193867039292,-0.5781895471458897,0.9690877300089191,106.92090824859265,0.004364081274361121,-0.02430208594728838,0.08323376477631142,0.49788962378480417,275.0050494754503,-83.5803239914153,-22.531242656472244,1.6795638762248188,-0.7448451336700702
GUIDED_NOGPS,0.06740951538085938,24.821451186242076,274.7617250800728,-83.48617368212162,-22.488597999770025,-0.3987197878027564,274.28308335830855,-83.84707608120654,-27.66765124279708,-0.6156194106843826,1.0675090484015104,106.85014748879132,0.020928704084823013,-0.021310001518064964,0.08003701459047911,0.4974104733784865,275.02024523163243,-82.91333299466483,-21.416035311782256,1.8660225216421509,-1.3178029288008934
GUIDED_NOGPS,0.12608695030212402,17.05507731969243,274.90533691138523,-82.91262240572097,-21.492068308646225,-0.41946326440387627,274.28049482436234,-83.83813813047261,-27.66660153936995,-0.631285836927982,1.098513411478314,106.74065955639603,0.039004696117873994,-0.028032394162365682,0.0843875247226324,0.49691273338463815,275.47978423663506,-82.24421023108277,-20.528926957684174,1.3497778768712294,-1.8907607239317168
GUIDED_NOGPS,0.15406107902526855,35.736959596475984,275.15641433630674,-82.2131748647126,-20.607898821346026,-0.4783949137835074,274.27628511249975,-83.82360241333916,-27.66488252066907,-0.6241341486193027,0.9768063773795624,106.65083573862118,0.06581032527104093,-0.041856834483958764,0.09635745984330556,0.49647150815033847,275.5133829201609,-81.48198136839021,-19.878734194571642,0.8928780204412874,-2.635605857601787
GUIDED_NOGPS,0.1949770450592041,24.448314855617344,275.33979017090263,-81.40491806988575,-20.000342429889013,-0.54355480521568,274.2700911171204,-83.8022151622164,-27.662335355346304,-0.503080624885904,0.8437196077933351,106.53889576831384,0.09222048760068514,-0.047457820878242074,0.10961009061203522,0.49616900353727134,275.6804889906346,-80.48856261018427,-19.59336613741121,0.8670810650118312,-2.521014298575622
GUIDED_NOGPS,0.2375342845916748,23.50000280141864,275.7966628534325,-80.5504601720627,-19.823133676652105,-0.6221884369558606,274.26156627981106,-83.77277974530874,-27.65880459339392,-0.29356270446591165,0.5414569498721197,106.39392500318033,0.11849478545578454,-0.07224913417989368,0.12560381346864774,0.49608216454162907,277.2894128880996,-79.68083653761363,-19.997300697973465,0.587234423391152,-2.635605857601787
GUIDED_NOGPS,0.28282690048217773,22.082606337890986,276.2520645078388,-79.560284368426,-19.938647775339994,-0.7087354482627658,274.2503803512566,-83.73415584451708,-27.65413814274433,-0.05334509809890863,0.2780292534677159,106.24865370972331,0.1503406078566618,-0.09035031759456143,0.14323480352045023,0.4961422548162978,277.29725350366374,-78.51145395748009,-20.225276490635306,0.6151987805091608,-2.521014298575622
GUIDED_NOGPS,0.32760190963745117,22.339596915079465,276.62556587902617,-78.54173390704563,-20.29056549929304,-0.7945941766275417,274.2362191531508,-83.68525863334098,-27.648187245869778,0.11199463850112552,0.2143768529625159,106.12895464451884,0.18196069582284738,-0.10425337187771258,0.16076144788476998,0.49632118912671164,277.3472910925718,-77.43291122604312,-20.649119309270358,0.8757252897300702,-2.3491269600363753
GUIDED_NOGPS,0.37218451499938965,22.435071916470985,276.9923475135084,-77.79242546985546,-20.50783836972534,-0.8722274502815535,274.2187843401075,-83.62505795478094,-27.640806456382087,0.1900597786916838,0.1007163686754213,106.04592686496817,0.1990148996720317,-0.1195642030065587,0.176676802132511,0.4964335159566716,277.3472910925718,-77.43291122604312,-20.649119309270358,0.8757252897300702,-2.177239621497128
GUIDED_NOGPS,0.4128141403198242,24.61864988759824,277.42913208348875,-77.10526729388515,-20.77862229488946,-0.9372293645222902,274.1977931615716,-83.55257749924068,-27.631853615632373,0.2265533460249297,0.10664385229708166,105.97278919933568,0.21840214601088973,-0.140506798856646,0.190058444776404,0.49657338433962855,277.8644118405367,-76.4499794295692,-21.037628266127662,0.9685620551773724,-1.776169164905552
GUIDED_NOGPS,0.44789862632751465,28.508632174220384,277.78048576513316,-76.1599649994988,-20.86237798756345,-0.9936759367860236,274.1729782237299,-83.46689398242931,-27.621189829310755,0.1830098228490406,0.20929914092314034,105.9213988560205,0.2534401731725745,-0.15503157555774683,0.20169607734010775,0.49662059407912634,279.04618129632155,-74.59700434288405,-20.90038638729233,0.42892565763040125,-1.776169164905552
GUIDED_NOGPS,0.48794126510620117,25.034941326743784,278.1121473289289,-74.85773169099735,-20.812932086199556,-1.0331650596475446,274.14408725142215,-83.36713632326358,-27.60867944404609,0.2846914893532551,0.2146259414238098,105.84825436019884,0.29681736754219856,-0.1679112140786527,0.20999929743458107,0.49660212632107675,278.9555613226427,-73.52621130053885,-20.500781605178684,0.47103470920191626,-1.604281826366305
GUIDED_NOGPS,0.5262727737426758,26.048827142475638,278.5599066209921,-73.57850638633036,-20.531564628107795,-1.0716107849371788,274.1108828500519,-83.25248482177017,-27.594190024005684,0.3429569783570042,0.2090744383716175,105.79179601651951,0.33328978661480607,-0.19020754479612306,0.21810929900395293,0.49646868730205107,279.5860875528873,-72.61230351556821,-20.19352589185237,0.7232893917669827,-1.4896902673401404
GUIDED_NOGPS,0.5678567886352539,24.05432189392549,279.2496969338898,-72.61446003789858,-20.079859401782695,-1.1081186997246832,274.0731422674978,-83.1221703369879,-27.577592327495015,0.3773285713337711,0.30021066632330257,105.73636220121568,0.35234693740305095,-0.2246238859438694,0.22586994379632983,0.49625113353714384,280.7962426570607,-71.70486529758871,-19.545270708317034,0.47073464828272904,-1.3178029288008934
GUIDED_NOGPS,0.6066052913665771,25.815549756265696,279.8367034417025,-71.71765294854235,-19.552823233864107,-1.1483199611201849,274.03065715602423,-82.97547346487,-27.558760283557458,0.38090230773442163,0.2956304908762801,105.68193242371986,0.37576908495930716,-0.24852107982853833,0.2343542329633958,0.49599703147515334,280.79944437959995,-70.83579003247019,-18.919673101422923,0.38325056017984593,-1.4896902673401404
GUIDED_NOGPS,0.6510834693908691,22.488721602942515,280.1873560583582,-71.12548178750967,-19.128205637054293,-1.1846562129730638,273.9832333341925,-82.81172371618628,-27.53757096857399,0.3270179315159861,0.43280774336255173,105.61566592839239,0.38166704836959575,-0.2571166591998694,0.2421482895046142,0.49579531733424015,280.79944437959995,-70.83579003247019,-18.919673101422923,0.38325056017984593,-1.4896902673401404
GUIDED_NOGPS,0.6921489238739014,24.356883195317128,280.65075892777355,-70.3244673353268,-18.67461345932747,-1.230786032108156,273.9306905487716,-82.63029869442546,-27.51390458286293,0.2897716826722901,0.40039102523143655,105.5569672826653,0.4058361762848278,-0.28134516329932974,0.2518805497985121,0.4955803544382323,281.2725756697195,-69.30182194104009,-18.184494175136557,0.3815704642437936,-1.5469860468532228
GUIDED_NOGPS,0.7354283332824707,23.10898562542355,281.0128966784135,-69.5230934858128,-18.177078586218375,-1.2714098173041584,273.87286223664955,-82.43062327369734,-27.48764442727965,0.13874101896066077,0.5209429035868095,105.49345335357336,0.4241405095594502,-0.29528529230808037,0.26055668403909893,0.49534471707946937,281.39677630608713,-68.43166848392816,-17.42706848209564,0.5640274666217522,-1.604281826366305
GUIDED_NOGPS,0.7710459232330322,28.084474977568867,281.4192877032707,-68.50448352504047,-17.585117107723132,-1.3217985155889607,273.80959528674396,-82.2121687766351,-27.458676879816295,0.11640101765028289,0.4551551618314814,105.4467280294613,0.45668532905919046,-0.3176231692155905,0.27110346113414013,0.49506322011395343,282.828197781347,-67.7799601501532,-17.143788665937198,0.05708248696311102,-1.604281826366305
GUIDED_NOGPS,0.8125834465026855,24.0787641152528,281.72510522441104,-67.70878638122194,-17.21405070170267,-1.3508548569057588,273.7407498019133,-81.97445215229749,-27.426891372201496,-0.012608329104645198,0.4884060168149844,105.38934761024402,0.46724136605266703,-0.3283886527534037,0.27747617922036655,0.49489357966475056,282.3285319853014,-66.9147305095845,-17.071294957075168,-0.05955413489090233,-1.0313240312354819
GUIDED_NOGPS,0.8446011543273926,31.236438380648814,282.1576822550084,-66.93496210555566,-17.026089025294194,-1.3757335690239652,273.66619886086767,-81.71703515407113,-27.392180366500114,0.0035919057710597914,0.41062216836043963,105.37016160886544,0.4858575280349771,-0.35541011980619525,0.2828948665619138,0.49481695432939704,282.9623295325869,-66.11019565692929,-16.863183452870203,0.26964251909711834,-0.8021409131831525
GUIDED_NOGPS,0.8898847103118896,22.089118974515618,282.4956330275819,-66.37837394114769,-16.932553954271864,-1.3810781071558407,273.58582828008,-81.43952351757267,-27.35443933171293,-0.008862357211076663,0.402658541314175,105.34415224850605,0.48690699201762005,-0.3656673191532194,0.2845866598075777,0.4947890573112795,282.9623295325869,-66.11019565692929,-16.863183452870203,0.26964251909711834,-0.5729577951308232
GUIDED_NOGPS,0.927562952041626,26.547403998911346,283.12299057695515,-65.88220525329059,-16.872482962896544,-1.3870027926888107,273.49953637569695,-81.14156613855111,-27.31356672037639,-0.001872552389854531,0.3104774011411838,105.34365364469663,0.49257083801496965,-0.40416136203461894,0.28628651331472915,0.49477945812126006,284.53356405295347,-65.42622444601326,-16.891081982949224,0.005318239282999571,0.0
GUIDED_NOGPS,0.9616198539733887,29.368997437226042,283.5188189884518,-65.42486602173824,-16.914601109890373,-1.3755140949330003,273.4072337254496,-80.82285425079002,-27.269463945162308,0.07940664537244431,0.27094933550617456,105.35460926812533,0.4959379652666534,-0.41855841630162555,0.2844651347995327,0.494822568582364,284.80733983883033,-64.73817796227223,-16.989537893851697,-0.3010975356344119,0.34377467707849396
GUIDED_NOGPS,1.0003108978271484,25.849438243795415,284.05739914394877,-64.78570737532114,-17.06723176458206,-1.3530291288353333,273.3088429305649,-80.48312060400974,-27.2220353554776,0.1384396635439604,0.17402073361234846,105.38188221348119,0.5085024125233357,-0.4463895469037674,0.28049214268387884,0.49492259820455226,285.0214327627861,-64.19271971767803,-17.321075416945256,-0.3943142333951215,0.6875493541569879
GUIDED_NOGPS,1.041234016418457,24.443185659172233,284.3673611153895,-64.23687312065728,-17.296734514961397,-1.3189649388651257,273.20429837767637,-80.12213864176968,-27.171188214063996,0.19373884941594058,0.1606753977477898,105.42020640491414,0.5120148391354942,-0.4566901589208891,0.27421700966996404,0.4950627731504487,284.5121393897906,-63.77972168202166,-17.579590234087235,0.02629278336790719,0.7448451336700702
GUIDED_NOGPS,1.0765187740325928,28.348319770742652,284.8863182618114,-63.80711115713664,-17.528060182850204,-1.28348199970765,273.09354600073505,-79.73972167937052,-27.116832673597767,0.2212092299274972,0.17252225414147113,105.45635176600184,0.5109136269866263,-0.4895017348076608,0.267574712158657,0.49520561375462624,285.5571152646964,-63.44889207171032,-17.68351489751811,-0.3715198884625721,0.8021409131831525
GUIDED_NOGPS,1.1190226078033447,23.531777378815082,285.04124715324076,-63.505146039576175,-17.700712974773534,-1.2400031783554197,272.97654304292075,-79.33572208175647,-27.058881753289427,0.26026369131267474,0.13089475911032927,105.49697773118508,0.504632027160642,-0.489072367523733,0.25939897533273937,0.49532091561074204,285.3082085101003,-63.286824364996654,-17.839033792715245,-0.09699282494484862,1.1459155902616465
GUIDED_NOGPS,1.1551668643951416,27.674032237844827,285.2165257542455,-63.265968704565786,-17.746515687539453,-1.1823421854001355,272.85325781855255,-78.91003044141752,-26.997251315483485,0.3206665492789618,0.05896683737371836,105.56373600013278,0.49649294430858304,-0.5027686686882556,0.24829528693142328,0.495374632186028,285.68373284385365,-63.0621896769905,-17.71699837238499,-0.13357761663731083,1.4896902673401404
GUIDED_NOGPS,1.194695234298706,25.304390844263185,285.5961201421288,-63.10686335985188,-17.81387682034706,-1.1165677364174638,272.72366947500035,-78.46257475629164,-26.931860042258133,0.4151012516716606,-0.048565313041435194,105.65587525203625,0.4856153742380362,-0.5276284417827543,0.23558699452036488,0.4954410083890445,286.91940470220317,-62.97157603756861,-17.885598295940927,-0.13014285193861497,2.0053522829578814
GUIDED_NOGPS,1.2338199615478516,25.566606117497898,286.05626661741434,-62.97272032380044,-17.81357779574922,-1.0332014781896066,272.58776775459535,-77.99331960766708,-26.862629412024994,0.5168631462181963,-0.15110736993765975,105.73828831456163,0.4737655342365756,-0.5540667034820541,0.2193155488142614,0.4954754741918621,286.81287176621834,-62.88439525684231,-17.83813671892173,0.17717015394633506,2.119943841984046
GUIDED_NOGPS,1.270371437072754,27.37045979561739,286.563298337686,-62.972499527805034,-17.926057857377348,-0.9524336442351757,272.4455527565413,-77.50226533808457,-26.78948367612882,0.5955922288208474,-0.28416807274725,105.81354333883682,0.4542702132310705,-0.582372237922816,0.2035120838804825,0.4955682870906243,288.0922738660547,-63.06152728900428,-18.054438557269382,-0.016339886639812562,2.119943841984046
GUIDED_NOGPS,1.3037829399108887,29.930879949762012,286.8023835465012,-62.981404801924555,-18.079617128604088,-0.8628061725579761,272.2970346988254,-76.98944722923959,-26.712349835447224,0.6336640234196158,-0.3667701394135628,105.8798508152993,0.43581633816878135,-0.591767441724249,0.18587604888074916,0.4956836336465784,286.50363455417624,-62.99829185992718,-18.346276109621137,0.8723612239948437,2.119943841984046
GUIDED_NOGPS,1.345716953277588,23.853771170535847,286.9663638885657,-63.01937033628618,-18.24899692550389,-0.780996879260695,272.1422336801295,-76.45493467988456,-26.631157616990397,0.6027505872361382,-0.3889558478178071,105.9710065199623,0.4189664020774187,-0.6006020939700903,0.1698401964755391,0.4958089196542567,286.50363455417624,-62.99829185992718,-18.346276109621137,0.8723612239948437,2.0626480624709638
GUIDED_NOGPS,1.390122652053833,22.52894603972628,287.10249786819475,-63.10377231552534,-18.546768638886608,-0.6905769146570507,271.98117944174044,-75.89883038373115,-26.545839450500832,0.6099278353933522,-0.42075478067458,106.08802132082296,0.3978413355485176,-0.6115808886433861,0.15206123729263862,0.4960004645941929,287.6000746003482,-63.314733226721785,-18.947753697417532,0.4356040220425399,1.8334649444186344
GUIDED_NOGPS,1.4325752258300781,23.56152009662107,287.44151443681915,-63.29519701072579,-18.920325040796282,-0.5973447369791939,271.8139111294618,-75.32126950735248,-26.456330445053045,0.5881692005752187,-0.48929490190243813,106.18853438464888,0.3703122978016039,-0.6370553972078804,0.13366785163187653,0.4962319972978716,288.5079546093406,-63.57256594552853,-19.466945315350156,0.3489596674549631,2.0053522829578814
GUIDED_NOGPS,1.4755606651306152,23.274664417426433,287.33277926510624,-63.63092542639313,-19.466139846118146,-0.5094471209145084,271.64047705552446,-74.72241886808538,-26.362568365653278,0.6098215405743939,-0.5331655271065474,106.25350314403403,0.3375203832945797,-0.6291984351539757,0.11630714038246334,0.49655178574023245,287.54859800749017,-64.00547710692916,-19.983720525586726,1.2091481455065747,1.4896902673401404
GUIDED_NOGPS,1.5082623958587646,30.577860725533654,287.469865992094,-63.95439012762929,-19.871635631876163,-0.43267016787899093,271.4609344604975,-74.1024761119326,-26.264493609839253,0.6070166273421929,-0.5803053583238598,106.29352805257031,0.30196681159564787,-0.6499107471883084,0.10109514880582361,0.49680357101101846,287.18906818911535,-64.28512733043029,-20.164241054691583,1.3120463905039372,1.2032113697747289
GUIDED_NOGPS,1.5474882125854492,25.49976897448992,287.6069527190819,-64.1919105892632,-20.10406754498997,-0.38225839340720735,271.27534927519963,-73.46166889146508,-26.16204918427986,0.5286418074418833,-0.6632683044382726,106.34855205652393,0.2786749131788288,-0.661510395652744,0.09116236969277504,0.4969710091803551,287.18906818911535,-64.28512733043029,-20.164241054691583,1.3120463905039372,0.8021409131831525
GUIDED_NOGPS,1.5846471786499023,26.91762289821589,287.832279276585,-64.38385737442091,-20.24487966324845,-0.338185041362331,271.08379588260954,-72.80025404372421,-26.05518068137489,0.44743336617051754,-0.6408135772941795,106.37351639794032,0.25096140139591094,-0.6811527650463027,0.08247342582075241,0.4970948494909368,288.7267073878639,-64.58131746240227,-20.406156880362175,1.0867755401371682,0.4583662361046586
GUIDED_NOGPS,1.6309082508087158,21.620458048320334,287.9704132112744,-64.56523833421663,-20.44831421843898,-0.304894707744381,270.8863568797774,-72.11851676812401,-25.943836255854762,0.4241335098383413,-0.7409914282422277,106.39449190888143,0.2267864821464087,-0.6906124485606969,0.07595647862355781,0.4972522389812921,289.1986242827872,-64.82927020981741,-20.774544720263165,0.8961336267844899,0.4583662361046586
GUIDED_NOGPS,1.6750848293304443,22.64070605381771,288.27341389496456,-64.7597805555494,-20.672092550251943,-0.27749448800920334,270.6831228397355,-71.41676980435341,-25.82796660138023,0.3687191979262494,-0.743743460869214,106.39407526734206,0.1966972001191781,-0.7151383612083763,0.07059830573582726,0.49742206297443586,289.0636014259412,-64.86875399442857,-20.835576050130467,1.0700427402894235,-0.11459155902616465
GUIDED_NOGPS,1.7096481323242188,28.94080468097732,288.5935272301275,-64.87885192139932,-20.949909518683494,-0.2676350288575912,270.47419207340954,-70.69535261027855,-25.707524927142117,0.3368396368207587,-0.6482141939815942,106.38479987044919,0.16676628248065223,-0.740007424016001,0.06871935769467312,0.4976211922957707,288.7896348649301,-64.938531559952,-21.239607785656833,0.9719283622728341,-0.34377467707849396
GUIDED_NOGPS,1.7463757991790771,27.23291086640349,289.11327046259805,-64.94895444875544,-21.252993431894723,-0.269973667162246,270.25967039152937,-69.95463053984487,-25.582466934461024,0.3132356769879582,-0.6129945903306879,106.37346858661613,0.14256341570640618,-0.7740873423969674,0.06928648304727798,0.49783526324871685,289.7877843514679,-65.0395777918858,-21.68379645989686,0.6858265233248346,-0.5156620156177409
GUIDED_NOGPS,1.8001084327697754,18.615785432450547,289.3531354847384,-64.96901226160145,-21.54210204571187,-0.26743581054997206,270.03967086653984,-69.19499402097951,-25.452750793387057,0.19313512472633493,-0.445652767870407,106.36651545404106,0.12361590342057444,-0.7811021370598851,0.06892252531313063,0.4980446756261624,289.92603249856586,-64.92892743296659,-21.702901891581917,1.080292546079903,-0.2291831180523293
GUIDED_NOGPS,1.8390965461730957,25.654333824689743,289.30358564974756,-64.8836985476473,-21.549951932264833,-0.2687371871935036,269.81431359451227,-68.41685773349346,-25.318337119299542,0.17132356928234713,-0.4171884080716284,106.35180322656885,0.09884101593748515,-0.7840814083614827,0.06928754672804521,0.49811580740648265,288.950875107833,-64.68259041808957,-21.26315744531571,1.7538510511618597,-0.5729577951308232
GUIDED_NOGPS,1.8781652450561523,25.60218768693614,289.45806678972696,-64.75326505740433,-21.40473873800525,-0.2741215001516816,269.583725457055,-67.62065978698384,-25.179188949506756,0.07882583916915523,-0.3166572282361644,106.34316986745796,0.07813474533968015,-0.8048220496740452,0.07047158998550491,0.49811277489424927,289.83600712583814,-64.64827732115687,-21.248156877118102,1.2971524654104627,-0.5729577951308232
GUIDED_NOGPS,1.925194263458252,21.267995862320753,289.55569907029815,-64.60027144595779,-21.023727694193486,-0.28974336186694427,269.3480398832244,-66.80686089873609,-25.03527171984563,-0.018764650743927434,-0.2738139061719073,106.29741443020804,0.05935892995820828,-0.815400874254978,0.07373209108113747,0.4979942279871739,289.27779626778596,-64.46994659862698,-20.559868760146625,1.349697687545202,-1.088619810748564
GUIDED_NOGPS,1.9652528762817383,24.96654106918576,289.68212010303176,-64.53385049135298,-20.707353845319645,-0.31337427812355834,269.107396611436,-65.9759435716263,-24.886553241281483,-0.04989673302212489,-0.28176099135377586,106.27641842869943,0.030914056035809906,-0.8321313344424159,0.07858409312965764,0.4979104003020191,290.41988951513633,-64.48332755427516,-20.314035898694186,1.1195099025810151,-0.7448451336700702
GUIDED_NOGPS,2.0064210891723633,24.29748063699507,289.76647248740045,-64.40970085338562,-20.355526375195808,-0.3279646653778795,268.8619414513755,-65.12841127202336,-24.733003676507746,-0.11440642898986728,-0.300678507601022,106.25760125753604,0.008895557291967381,-0.8442187126964269,0.0816367467643866,0.49781126134934406,290.34779442040934,-64.27582840725475,-20.192674466746602,1.317132349840108,-0.6875493541569879
GUIDED_NOGPS,2.0395777225494385,30.168554761956138,290.21677015745956,-64.32992046173541,-20.22827129528473,-0.3369298847477775,268.61182604590954,-64.26478760769128,-24.574595516545664,-0.1259019842085425,-0.3638920951324751,106.25456865354455,-0.020949131398169757,-0.8852689548531012,0.08354178720449859,0.49782683788936954,291.2023634581282,-64.23060542367637,-20.178103520413394,0.8027288829335504,-0.17188733853924698
GUIDED_NOGPS,2.073927402496338,29.119628984219332,290.42256995744447,-64.1666342107621,-20.24312002388453,-0.3321469396559361,268.3572076329969,-63.38561550569135,-24.411303557344034,-0.19041738978754422,-0.41682152552757823,106.24398186033103,-0.04166376001084723,-0.8960169550290725,0.08269930147535577,0.49791590823327025,290.86500612576276,-63.993468801355206,-20.358582084493584,1.1306475396288818,-0.11459155902616465
GUIDED_NOGPS,2.1144375801086426,24.69169409008224,290.96386984468705,-64.07963279784325,-20.466249355735737,-0.3308891924153955,268.09824880759925,-62.491456390284455,-24.243104876378922,-0.19476629929813827,-0.4391305241824266,106.24020476572001,-0.0667910068512253,-0.9344159258091636,0.0825815481117834,0.4981115722396784,291.9842957039989,-64.01482416849818,-20.862062462300234,0.6756119838652239,-0.17188733853924698
GUIDED_NOGPS,2.1541850566864014,25.16426381564343,291.19121596452635,-63.96982236476308,-20.834049520921486,-0.3319423653707664,267.8351172835923,-61.58288936083326,-24.069978809253367,-0.24706304340072927,-0.3863596822421147,106.23400978414281,-0.09245635991768938,-0.9465821626300205,0.08292413882785495,0.4983820353558341,291.55662011433253,-63.901174124435876,-21.28150401597063,0.9730929459701088,-0.40107045659157625
GUIDED_NOGPS,2.196122884750366,23.849702042487376,291.4329811033109,-63.939057472456646,-21.141690164747168,-0.32974798917554476,267.56798565567675,-60.66051036970454,-23.891906926297125,-0.24532572075231307,-0.40188003315092574,106.22973408572238,-0.12193264662020256,-0.9667421014751055,0.08262346468134275,0.498624891619225,291.55662011433253,-63.901174124435876,-21.28150401597063,0.9730929459701088,-0.11459155902616465
GUIDED_NOGPS,2.2377519607543945,24.024561242725564,291.61688853743783,-63.914950321000184,-21.456250555493558,-0.3279845574666685,267.2970311612892,-59.72493140017127,-23.70887300916638,-0.23456144934207876,-0.34337762196034183,106.22395574568455,-0.1515643239904748,-0.9837006634158785,0.08240756785856404,0.49887368877316357,292.12190062876283,-63.94250271412878,-21.805743634539407,0.721703006234506,-0.11459155902616465
GUIDED_NOGPS,2.2803914546966553,23.458207260667006,291.95542475705196,-63.93729744549831,-21.626178537535978,-0.32030149360427507,267.02243544251326,-58.77677964431504,-23.520863027443454,-0.23033430929778134,-0.3105610175976635,106.2446034075455,-0.18332478172604855,-1.011683027758084,0.08100768199004343,0.49905265775504626,292.5576872238334,-63.968215497930274,-21.79128796209788,0.5558115789148417,0.2291831180523293
GUIDED_NOGPS,2.3207759857177734,24.769121746114234,292.06319373857247,-63.92878614098776,-21.768110857725787,-0.30227393093838856,266.74438430799023,-57.81669668092816,-23.327865115236545,-0.1549099843765718,-0.35795036416309295,106.26346839003308,-0.21447086369237897,-1.0223231585956523,0.07752402300107973,0.4992201228712446,292.5231406116012,-63.875640210904194,-21.707300976540058,1.0081723114548566,0.34377467707849396
GUIDED_NOGPS,2.3625645637512207,23.93203202118008,292.22565048887054,-63.9325165309979,-21.70619979909887,-0.28063896143343453,266.4630674948305,-56.84533765341596,-23.129869547779435,-0.09925309402723863,-0.30851497573484804,106.28451220286588,-0.24540954980105498,-1.0410959206317705,0.07331460187894358,0.4992881651256597,292.3689038658229,-63.9536938841592,-21.62001045865866,1.0814459783416623,0.34377467707849396
GUIDED_NOGPS,2.4101412296295166,21.023869434892884,292.3576768518013,-64.00293405653822,-21.644690554894115,-0.25647887613176423,266.1786784305243,-55.86337044769906,-22.92686871803122,0.043880243497842794,-0.3946891779762246,106.30824711023168,-0.278210399645969,-1.0559364645369234,0.0686042750412176,0.49935891091843143,292.2167519289859,-64.17946807455124,-21.60676022948363,0.8007532723765536,0.5156620156177409
GUIDED_NOGPS,2.446324586868286,27.644483697264093,292.47920436387665,-64.1773988752589,-21.658563436867524,-0.2264011077567948,265.8914139948525,-54.87147487011554,-22.718857113276012,0.0587344775398057,-0.37936028580758546,106.33809503690463,-0.32358210296534823,-1.0748114888950144,0.06267062577393138,0.49946985316179576,292.7295381891397,-64.39903466706616,-21.74891962246028,0.8226486729231794,0.5729577951308232
GUIDED_NOGPS,2.4871346950531006,24.50974708989762,292.38005884949575,-64.41662278449435,-21.757528065924685,-0.1928039225438107,265.60147428179795,-53.87034182532323,-22.505831291722682,0.10780883977760519,-0.43364358776223205,106.37972503989586,-0.36183496044645236,-1.0758261034042131,0.05602974534892643,0.499625848387101,292.06195965192904,-64.67136561186555,-21.91690434583013,1.0182490246378961,0.8594366926962349
GUIDED_NOGPS,2.529683828353882,23.5060610306274,292.2878226575614,-64.5805886302658,-21.860909438040185,-0.15359544349813323,265.3090623614562,-52.86067249420196,-22.28778985910457,0.18810493052645855,-0.44955798188921464,106.41664904254895,-0.39738387036441275,-1.083914709360263,0.048252583880223444,0.4997865597894678,292.06195965192904,-64.67136561186555,-21.91690434583013,1.0182490246378961,0.8594366926962349
GUIDED_NOGPS,2.5719478130340576,23.666815255356248,292.3359247963574,-64.79009950526128,-21.99472841291713,-0.10588580829639718,265.0143840419466,-51.84317751175574,-22.0647334452792,0.17485677811522712,-0.4823781080681837,106.46513655546687,-0.43722804606143295,-1.1008676745432506,0.03875599206940149,0.49996499748381895,292.6094145598031,-65.02756729205264,-22.15037654709111,1.1779882427672987,1.1459155902616465
GUIDED_NOGPS,2.6070327758789062,28.509213504530283,292.4902720009556,-65.0544052000666,-22.121064778823868,-0.052894422111718076,264.71764763132325,-50.818576145015086,-21.836664680828008,0.15497371057513654,-0.49710196820632135,106.48443183987216,-0.4848908532935103,-1.1237421528292892,0.02817630132169985,0.5001422000489979,292.9884879519771,-65.4642826962815,-22.295913443550347,0.9334119832038539,1.260507149287811
GUIDED_NOGPS,2.6511471271514893,22.673751925831823,292.5420619535231,-65.31871089487191,-22.247401144730606,-0.010556055907263977,264.41906369948595,-49.787595470939195,-21.60358817365607,0.1023612169657779,-0.558482903925669,106.55987810944413,-0.5204962306962879,-1.1328660248222986,0.019713282651979018,0.5003219064855373,292.9884879519771,-65.4642826962815,-22.295913443550347,0.9334119832038539,0.9740282517223995
GUIDED_NOGPS,2.6959033012390137,22.34733359263028,292.33128618103495,-65.69566809929425,-22.527567725059402,0.03831786644525855,264.1188448400911,-48.75096955431826,-21.36551048559179,0.028944940980125657,-0.5961490493207622,106.59249909292011,-0.5675119027350739,-1.1304972352127072,0.0099213582542944,0.5005810286197339,291.00808078948853,-66.15843890531968,-22.990876288077498,1.6674600496123446,0.5729577951308232
GUIDED_NOGPS,2.747614860534668,19.34169229846947,292.4640495882538,-66.09942368600053,-22.891255594704685,0.07147268478312309,263.81720543246297,-47.70943862567556,-21.122440108986673,-0.036399345407254105,-0.7423167517454746,106.60849539595627,-0.6108438797635855,-1.1542762005342826,0.0032534434671576424,0.500884407742859,292.72577668802313,-66.67554945640035,-23.386977052486188,1.2499828503999026,0.2864788975654116
GUIDED_NOGPS,2.769730567932129,45.222581619010654,292.36416111716125,-66.61791331521027,-23.404065082105898,0.09621011584560245,263.5143614035043,-46.663748259169914,-20.874387443314987,-0.11286854252913014,-0.7348286232593192,106.6182830570369,-0.6946095791799236,-1.1630870065831598,-0.0017155120570588045,0.5012648388193954,292.1099722043404,-67.01975158391073,-23.834341905753988,1.2992265293059262,-0.057295779513082325
GUIDED_NOGPS,2.8138766288757324,22.65807371713494,292.18170467622906,-67.02288487020066,-23.84654808884669,0.0954239708538635,263.21052998960755,-45.61464855049771,-20.62136477177353,-0.2444256832466052,-0.7642028122803111,106.59932928209011,-0.7115058604142498,-1.1616059935976573,-0.0016002622400723178,0.5016125916585366,292.0762057473162,-67.37335357029085,-24.31832530829987,1.3598399178369363,-0.6302535746439055
GUIDED_NOGPS,2.860074520111084,21.65595650535164,291.99924823529693,-67.25548624149748,-24.156997507451248,0.07916772330847899,262.9059294985657,-44.56289329479536,-20.363386237881322,-0.31142450291914126,-0.6907789723937616,106.55124475033323,-0.7496644641946142,-1.1665265287627822,0.001616375134877706,0.501896805634785,292.0762057473162,-67.37335357029085,-24.31832530829987,1.3598399178369363,-1.260507149287811
GUIDED_NOGPS,2.8957719802856445,28.01506852974966,292.21873371014823,-67.4570032455439,-24.48275979642921,0.034927200705294224,262.6007790714834,-43.50923916454134,-20.10046782207934,-0.4399444906324217,-0.6782836215548993,106.47458953727818,-0.7925549148822201,-1.1984208436656552,0.010451107021325859,0.502191145987175,292.1055081637452,-67.62430259604999,-24.81162877268788,0.8650145718411579,-1.8907607239317168
GUIDED_NOGPS,2.941758871078491,21.749837951079375,292.02856976539306,-67.56139196134008,-24.82134998639043,-0.03309247978855151,262.2952984446877,-42.45444488745857,-19.832627318330243,-0.5595523621393049,-0.6031155754699107,106.36756047298407,-0.8236558378467311,-1.1918469177321804,0.024070210117431566,0.5024943613340301,291.77495696424745,-67.6865197176794,-25.33409587818354,1.1093982055997316,-2.807493196141034
GUIDED_NOGPS,2.972367525100708,32.67686218905085,291.96156671737447,-67.66578067713625,-25.159940176351654,-0.1381929805728276,261.9897077116395,-41.3992704244166,-19.559884310718058,-0.6331083234976118,-0.6303410830275518,106.25484869130052,-0.8706997667213351,-1.2066343230209329,0.04513279906477195,0.5028000279328168,291.77495696424745,-67.6865197176794,-25.33409587818354,1.1093982055997316,-3.380450991271857
GUIDED_NOGPS,3.0087735652923584,27.478046671296237,292.04429804572,-67.6386891323185,-25.41840712000806,-0.23392369619840167,261.6842270848439,-40.34447614733385,-19.28226015004795,-0.6261185853774558,-0.5414121267556915,106.15501181620245,-0.8960977654399174,-1.2251133679253694,0.06436372975854716,0.5030680734849801,292.4898623890439,-67.54302796159669,-25.587029603657108,0.941269889585783,-4.010704565915763
GUIDED_NOGPS,3.043687582015991,28.643356643356643,292.1105298438634,-67.4853934287101,-25.500649780139735,-0.3666921190018442,261.3790766577615,-39.29082201707982,-18.999777930445912,-0.6394149893399137,-0.355695761406754,105.94162304615291,-0.9227513278734941,-1.239840907320517,0.09104609783785521,0.5032504359248469,292.407364738033,-67.2266326068542,-25.580823858578576,0.8794231971443196,-4.755549699585833
GUIDED_NOGPS,3.0830414295196533,25.41509525425372,292.3254629449589,-67.19316106367738,-25.612883423055013,-0.5231638630608909,261.0744761667197,-38.23906676137747,-18.71246246595848,-0.5927081814438095,-0.32606298569265374,105.75696205175244,-0.941984744578176,-1.2632529146433726,0.1225461471551902,0.5034502104785483,293.18017366922254,-66.80982262258124,-25.67079680692939,0.6267173139843862,-5.614986392282068
GUIDED_NOGPS,3.129613161087036,21.477640600756835,292.5086319761344,-66.6911636807775,-25.510283950702814,-0.7179543825842148,260.77064475282293,-37.18996705270527,-18.42034026715248,-0.6788546894025358,-0.23025346760565188,105.51771418550524,-0.9534878765875119,-1.2800338653918621,0.16183679013643273,0.5035449718417752,292.69080212012506,-66.03703581289712,-25.279231186600494,0.8468817541014744,-6.0733526283867265
GUIDED_NOGPS,3.1696033477783203,25.010906445476717,292.6878564388134,-65.9902543135493,-25.239549296358593,-0.9647036365852953,260.46780072386423,-36.14427668619962,-18.12343951771472,-0.7394796619189806,-0.1780525462546394,105.30121767938334,-0.9619538651895614,-1.3008311524051548,0.21157325343367725,0.5035580548893219,292.6710792776426,-65.12390450516953,-24.768619895545914,0.8965341986893804,-6.187944187412891
GUIDED_NOGPS,3.2035977840423584,29.424420358483285,292.732306974846,-65.13895179091149,-24.75298632056533,-1.2012505984137256,260.16616131623607,-35.10274575755693,-17.821790051051725,-0.8811795134920056,-0.09387625438677087,105.00693214880417,-0.9656196444247812,-1.3127910318199314,0.2592924361707165,0.5034655981347568,292.7121150692064,-64.2559150546678,-24.211107879549598,0.41451366900267317,-7.047380880109126
GUIDED_NOGPS,3.247124671936035,22.979339816463497,293.10574058541283,-64.19712444793088,-24.395510137546996,-1.4247888910001265,259.86594245684125,-34.06611984093597,-17.51542332688947,-1.0621233375192496,0.015302985474560677,104.65135933080248,-0.9659375039631578,-1.3450953723273356,0.30461919090845374,0.5034400434053288,294.2745327908675,-63.21155378395525,-24.206802637545497,-0.6375643879958659,-7.448451336700702
GUIDED_NOGPS,3.2895700931549072,23.564432309135753,293.18217075242455,-63.08855375545888,-24.132068719284074,-1.7161641847375384,259.56735852500395,-33.03513916686006,-17.20437240787306,-1.1641230347066929,0.069943858504428,104.32718489241533,-0.9602385352815805,-1.353478056461296,0.36361855429380274,0.5034638481557056,293.5623245042811,-61.79819242775354,-23.978295640757135,-0.00642301067949802,-7.677634454753031
GUIDED_NOGPS,3.323948383331299,29.094581752346336,293.55290557900656,-61.8435398468888,-24.006659003298953,-2.015839192527766,259.2706221143806,-32.010537800119465,-16.888671936166507,-1.2229831503746298,0.11411074316378654,104.08961042251478,-0.949577950373292,-1.3905137916037302,0.4242535261826562,0.5035589935335663,294.5444762530351,-60.520873328957585,-23.834878731594245,-1.270871116549543,-7.964113352318443
GUIDED_NOGPS,3.3686323165893555,22.384902760284355,294.08073207841505,-60.405451199473,-23.874037348858945,-2.2701898154949984,258.975943794871,-30.993042817673242,-16.56835811005239,-1.331217636335531,0.08114392800022086,103.76730062577104,-0.9336434612751818,-1.4226561404996152,0.47613490535893216,0.5036528396194033,295.310211774685,-58.89728784170786,-23.808937674225458,-1.264390831666205,-7.964113352318443
GUIDED_NOGPS,3.4101765155792236,24.075585199811727,294.47899670636207,-58.89655712997335,-23.727733682766033,-2.5946133075657736,258.6835318745293,-29.983373486551926,-16.24346866053163,-1.4522541379568576,-0.009887979484062835,103.40332667509024,-0.915603316952017,-1.4484526687187098,0.5420969336008229,0.5037421325111172,294.70343820894135,-57.27151021925458,-23.539384642478403,-1.6836880896741064,-7.563042895726867
GUIDED_NOGPS,3.4521052837371826,23.855127855127854,295.01847826351934,-57.22303561344314,-23.70900543879236,-2.8849746553722193,258.3935921614747,-28.982240441759643,-15.914042827923165,-1.5192305460711795,-0.04723457341161986,103.13579499549002,-0.8908986444945393,-1.4847426467754186,0.6013809491396622,0.5038974813054345,296.97194057665354,-55.50030877936694,-23.77869399967322,-2.4547802555395464,-7.104676659622208
GUIDED_NOGPS,3.4932608604431152,24.30480208146212,295.4589919501369,-55.5479776631779,-23.77409610141105,-3.162818794766361,258.1063277258029,-27.99034486417611,-15.580121338463703,-1.4366476893119073,-0.22944048833143524,102.81937282181083,-0.8685803942128366,-1.5117691776933944,0.6582529991869045,0.5040969873814737,295.7648929373692,-53.87211399091213,-24.00420966208154,-2.141917603397829,-6.589014644004467
GUIDED_NOGPS,3.530802011489868,26.643358064843987,296.039939586084,-53.84463919092722,-24.11913079622072,-3.4203207809507923,257.8219386614967,-27.00837765845921,-15.241746380907436,-1.4014076484543438,-0.3583936861289091,102.61822375075396,-0.8431766838971683,-1.5520872254618945,0.7110200139722097,0.5044386922076567,297.4492144327705,-52.161494802502546,-24.574488726907408,-2.8625820455837356,-5.958761069360562
GUIDED_NOGPS,3.5683372020721436,26.649282986739863,296.3542563349149,-52.241096063137086,-24.566235426959892,-3.6280190843905,257.54062184833697,-26.037018630947017,-14.89896158312573,-1.3878307264882395,-0.4953849226820036,102.41484120783848,-0.8252220442799307,-1.5682191161098218,0.7539383949863345,0.5048336369219171,296.8817955188395,-50.68967939599654,-25.120007891890733,-2.810447176565944,-5.557690612768986
GUIDED_NOGPS,3.613830089569092,21.986758577307157,296.85430543327345,-50.65576593776123,-25.134079104073695,-3.834009645574957,257.26257071381394,-25.07693566756012,-14.551811988706891,-1.4094336543376378,-0.6604506913230835,102.2093208157128,-0.8074984323094704,-1.6008183731572614,0.7968761109992758,0.5052911335576834,297.2036837007341,-49.1161236147846,-25.70774069342295,-3.2625722460119846,-5.443099053742821
GUIDED_NOGPS,3.660038709640503,21.64466921250903,296.9852084802442,-49.20326234483352,-25.7685431540198,-4.062115329440082,256.987974995038,-24.12878391170392,-14.200344033555862,-1.4038708921454854,-0.8647973581285829,101.97963521430361,-0.7936609797011491,-1.6086552788128852,0.8443763193428131,0.505784099560232,297.6264558115071,-47.80398402371941,-26.477880876745722,-4.010214361093816,-4.5263665815335035
GUIDED_NOGPS,3.706234931945801,21.64958500227113,297.3974602363478,-47.83022422924558,-26.608758708231047,-4.274175917058903,256.71702050065045,-23.19320494217061,-13.844605522493941,-1.3649647472509177,-0.9708309223511533,101.8119540701798,-0.7808119178725075,-1.6420010142088182,0.8887637191475826,0.5063820765928686,297.8261517178873,-46.57056504923274,-27.640654554524478,-4.345207041519814,-4.18259190445501
GUIDED_NOGPS,3.747401237487793,24.29748063699507,297.38060450040007,-46.51017751836372,-27.55719403796434,-4.452993583471199,256.4498888727349,-22.2708259510419,-13.4846456058585,-1.4174675576271596,-0.9646801235601453,101.61846847137167,-0.7679254934536375,-1.6433127650819404,0.926359026428583,0.5070362742160529,297.3649357530319,-45.15598348213899,-28.55304668262284,-3.839741645408793,-3.8388172273765155
GUIDED_NOGPS,3.7973291873931885,20.031826995634773,297.4688675222249,-45.26278432432758,-28.562755131970533,-4.594039410851909,256.18675734872795,-21.362258921590694,-13.120514756102718,-1.5414049686550375,-0.8279196726958031,101.45274076135048,-0.7593771208738841,-1.6583362461439113,0.9568574108525798,0.5077211201879339,297.32311062796356,-44.061804441610995,-29.49456415876429,-3.8876106749400208,-3.151267873219528
GUIDED_NOGPS,3.835498094558716,26.205064445791187,297.45907992228393,-44.0554268206742,-29.332112031819538,-4.752951396768665,255.92779852333032,-20.46809980618383,-12.752264744395298,-1.6395397392676054,-0.5659979262816813,101.32200411044727,-0.7482521014243864,-1.6677573902370144,0.9904600882104657,0.5082899236437122,297.15474570102924,-42.948492538272575,-29.948725254071494,-3.8183589167319525,-3.0939720937064457
GUIDED_NOGPS,3.8746018409729004,25.581107702441436,297.26620237230605,-42.98708886823766,-29.749887655072083,-4.853984627917864,255.67318011041766,-19.588927704183874,-12.379948617220176,-1.7816849405188564,-0.332411913330445,101.23543829290654,-0.7448630403779501,-1.6653030885947555,1.0125608663821866,0.508684969518926,296.6620680616176,-41.95096962482939,-29.806373552380464,-4.2238149104342,-2.4064227395494577
GUIDED_NOGPS,3.916346788406372,23.960742420693634,297.1681297528943,-41.94100509750577,-29.636529962604058,-4.9403690133219555,255.4230647049517,-18.725304039851807,-12.003620672976254,-1.8330599159083998,-0.1472147490801343,101.14797089039534,-0.7394066675644902,-1.6734438502373985,1.0319006279547278,0.508816454644814,297.33578862082857,-40.92355312941532,-29.154491081360224,-4.7311638040741855,-1.8334649444186344
GUIDED_NOGPS,3.9516501426696777,28.332808689719464,297.14302578957063,-40.94023785965745,-28.98194939677067,-5.010289150342893,255.17760954489123,-17.877771740248903,-11.62333643857712,-1.84317969493742,-0.08556780950912639,101.09414899973565,-0.734527413636659,-1.6848566567135432,1.0476539213602247,0.5086793064790968,297.2394159364138,-39.9461908247276,-27.98498355657133,-4.5282004644955975,-1.2032113697747289
GUIDED_NOGPS,3.993739366531372,23.7638966793013,296.9756312731153,-39.97214220976098,-27.890767107855115,-5.047389898848974,254.93696627310285,-17.04685441313913,-11.239152646050755,-1.8293099286106513,-0.12229432364566674,101.0618422049615,-0.7309994332201228,-1.6832885193843523,1.0571965288008647,0.5083258072309021,296.48613804568714,-39.04668267513997,-26.53282668563381,-4.85286064038263,-0.6302535746439055
GUIDED_NOGPS,4.041712760925293,20.848513768764292,296.92875376360195,-39.06785509455235,-26.73213887946838,-5.07970109174454,254.70128069927225,-16.233055524891313,-10.851127209139264,-1.7646705124095317,-0.20205201672906592,101.04276548660964,-0.7292027280364634,-1.6930395209858295,1.0660926325700104,0.5079405058351646,296.92035815346236,-38.21069178378942,-25.67860639620001,-4.80818355872826,-0.40107045659157625
GUIDED_NOGPS,4.074944972991943,30.09884392648779,296.87159775788547,-38.28975533261388,-25.892716632955455,-5.096043142996799,254.47069256181493,-15.436857578381648,-10.459319199898594,-1.6752486085786669,-0.30250416914139877,101.0425469205562,-0.7317265884651575,-1.7012332292323273,1.0710616662343235,0.5077166987165285,296.37628803303534,-37.611891538912204,-25.466716817032545,-4.533768468107567,0.11459155902616465
GUIDED_NOGPS,4.116617918014526,24.001327588081462,296.75038860583646,-37.62074794121255,-25.57571083823156,-5.092580467332587,254.24533528978736,-14.658721290895642,-10.063788825298257,-1.6652827222493836,-0.4991107375133927,101.0709263565576,-0.7368826684187072,-1.7027047185693924,1.072488469645262,0.5077559610064667,296.7297428605835,-37.03966050093597,-25.581809301462123,-4.820606132533499,0.2864788975654116
GUIDED_NOGPS,4.160211801528931,22.94376613714936,296.5230872396264,-37.058407206020554,-25.720008778193115,-5.065242896264688,254.0253357647979,-13.899084772030335,-9.664597403821052,-1.4889850810441878,-0.8700156226544726,101.14211058808748,-0.7447166957522101,-1.699742665523354,1.0692304561618573,0.508027705687186,296.10290910536366,-36.52366957821345,-26.111500216084664,-4.828056543560862,1.432394487827058
GUIDED_NOGPS,4.205065488815308,22.296607376378155,296.4244004620755,-36.52367773539644,-26.250033428222583,-5.004007746334906,253.81081408291763,-13.158362701596616,-9.261807342062788,-1.4222990626912972,-1.0072827881778652,101.23782202892687,-0.7513571587489214,-1.7071210695512218,1.0592321673450757,0.5084941130430799,295.99270415793245,-36.00770312703986,-27.056790767120955,-4.4332679752449735,2.177239621497128
GUIDED_NOGPS,4.24231743812561,26.852310194047337,296.0684804561971,-36.09603599772103,-27.133093547612123,-4.90906262970593,253.60188331659168,-12.436945507521756,-8.855482111331966,-1.2663993545555214,-1.227268987357107,101.33567131897647,-0.7633921745320545,-1.694722864620937,1.0420740893240095,0.5091388057181401,295.14075812407054,-35.756735287909734,-28.230989659630747,-4.4017875554757495,2.979380534680281
GUIDED_NOGPS,4.284769773483276,23.586562145018164,295.8130050628372,-35.78304778165268,-28.290511944006777,-4.792242848752924,253.3986492765498,-11.735198543751181,-8.445686224249563,-1.1788082615873376,-1.3118502080571366,101.52365178531356,-0.7769452272225529,-1.6953288572575063,1.0207203984260076,0.5099224128598786,295.0989110662357,-35.5847049300084,-29.583755405268626,-4.259551344744381,3.896113006889598
GUIDED_NOGPS,4.329908847808838,22.144047304788554,295.4442629588869,-35.67145713919903,-29.467286903987972,-4.64293089528206,253.20121027371766,-11.053461268150983,-8.03248521134871,-1.0746309079934238,-1.3807852796376656,101.71870832763078,-0.7977889247310402,-1.6859615228666653,0.992972967393444,0.5107174008463197,294.88603234083183,-35.672931199678914,-30.587115647064547,-4.400517708668474,4.297183463481175
GUIDED_NOGPS,4.387837171554565,17.272167223970087,294.9023497968051,-35.69164956492206,-30.411244295032514,-4.4557282802493905,253.00965688112757,-10.392046420410054,-7.615945597674443,-1.085882577433962,-1.4403362049071258,101.9328757392457,-0.819114915781353,-1.6695859857195852,0.9580825531008841,0.511397649348679,293.39334329495483,-35.817312565078815,-31.06286183276437,-3.80019839830112,4.698253920072751
GUIDED_NOGPS,4.4206154346466064,30.506025848964658,294.2636002433233,-35.87693175106068,-31.066916472985593,-4.254402606564889,252.82407169582964,-9.751239199942518,-7.196134879383354,-1.0922811840257947,-1.4974670020545802,102.16757469950568,-0.8560929484371416,-1.6438184587279003,0.9192182670539742,0.5119353907968012,292.79895639052353,-36.14055148842427,-31.550771939127856,-3.7945225217199123,5.213915935690491
GUIDED_NOGPS,4.4581098556518555,26.677589650303393,293.59208761663115,-36.15364255717014,-31.43290848320723,-4.088059897564862,252.64452910080274,-9.131296443789836,-6.773121500343407,-1.1749680944482037,-1.4786364906779723,102.38166014885056,-0.8838461662532778,-1.6247814380115033,0.8874825488829916,0.5123298934914319,291.7831949906096,-36.50306361800726,-31.68509167772946,-3.293137668034447,5.500394833255903
GUIDED_NOGPS,4.502468109130859,22.549051653692313,292.9309371246445,-36.52368449184474,-31.777249523066814,-3.898894494411453,252.47109502686538,-8.532445804522695,-6.346974828733593,-1.2031344072031611,-1.5094968861736766,102.63787420499608,-0.9131738905995782,-1.6074111382330896,0.8513809018496792,0.5127151373471666,291.79315860630265,-36.927438369102646,-32.09588495234313,-3.2426639325473587,5.213915935690491
GUIDED_NOGPS,4.540210008621216,26.589477821519814,292.2297336472117,-36.925343916911146,-32.042452320138445,-3.6834117026669384,252.30382671458676,-7.954884928143997,-5.917765133643687,-1.2804261085114947,-1.507184973861333,102.8163060668735,-0.9479731020197605,-1.5827786620627395,0.8096637488237405,0.5130623435932474,291.38001495366774,-37.3455297636235,-32.34638033034275,-3.3056018803778215,4.755549699585833
GUIDED_NOGPS,4.5820019245147705,23.878215127466497,291.7699971332834,-37.415483389834954,-32.321453417908955,-3.517022162312571,252.1427724761977,-7.398780631990519,-5.48556356167391,-1.2826887153957673,-1.4838220983618928,103.0069024956627,-0.9801808676818393,-1.5780781615980903,0.7778841982638715,0.5134179449281175,291.09466072531325,-37.97348203677869,-32.52209497104098,-3.415726088661401,4.297183463481175
GUIDED_NOGPS,4.622345209121704,24.793866416026766,291.25604963310604,-37.919003457860754,-32.52760665235296,-3.3459874642053102,251.98797145750177,-6.864268082635647,-5.050442113534736,-1.2830293710806215,-1.500096624885035,103.1457739018674,-1.014415272818244,-1.5617863777324479,0.7450219306093988,0.5137385822694092,290.2292188896368,-38.437998573180046,-32.71434465567514,-3.481334527688773,3.552338329811104
GUIDED_NOGPS,4.662372589111328,24.98766197015281,290.7348496304737,-38.40282048722363,-32.627247377409894,-3.2136172026563035,251.8394533997859,-6.351449973790579,-4.612473620646551,-1.263115207503509,-1.534239139720342,103.28953572351783,-1.0455552156121293,-1.546508777133755,0.7198347030896474,0.5140073868783817,289.177194977448,-38.79698085171212,-32.645302505513556,-3.0665331194286125,2.6929016371148693
GUIDED_NOGPS,4.702463865280151,24.949462263253068,289.92185682579185,-38.716057308018726,-32.51759319978956,-3.113301581472439,251.69723840173185,-5.860395704208145,-4.171731721739366,-1.2300991402727253,-1.5495936184179422,103.35722972838182,-1.067583281391267,-1.5120940614577993,0.701007961379803,0.5141729307390251,287.72819458289337,-38.913192499163976,-32.19313243817999,-2.7011448150481385,1.6615776058793874
GUIDED_NOGPS,4.750126600265503,20.983585561697975,289.19149275163693,-38.8744552833467,-32.343855793957836,-3.0443061480051585,251.56133668132688,-5.39114055558349,-3.7282908394525904,-1.2310490701758858,-1.701135025533015,103.42090758201385,-1.0819032437437492,-1.4928496841745376,0.6886734615922295,0.5143077824772526,287.72819458289337,-38.913192499163976,-32.19313243817999,-2.7011448150481385,1.0313240312354819
GUIDED_NOGPS,4.784411430358887,29.17776695652174,288.64616259408615,-38.88173269582173,-32.28215855047568,-2.9926708788432776,251.43174833777465,-4.943684870457616,-3.2822261569347155,-1.2212781644030652,-1.8143609923950206,103.44497033845981,-1.0966429470504164,-1.4764336505617777,0.679371020004325,0.5144999661967705,288.36800993755924,-38.81881308913722,-32.46021077506708,-2.9819152594316307,0.11459155902616465
GUIDED_NOGPS,4.820643186569214,27.605728727885424,288.4951033276331,-38.688321538674735,-32.60392603821768,-2.990908624315529,251.30846311340648,-4.517993230118634,-2.833613594443033,-1.1891257959371706,-1.9003645999897054,103.43126897898476,-1.0986152340730364,-1.4866936680233538,0.6800946833470197,0.5148851562218874,289.47392255737174,-38.332959027722985,-33.15843490140599,-3.3769848395136393,-0.40107045659157625
GUIDED_NOGPS,4.862385511398315,23.961700620422526,288.0435823186596,-38.34479831694889,-32.9691568075645,-3.0226885036613766,251.19146015559213,-4.113993632504673,-2.382529785943369,-1.203062156608347,-2.018857496475437,103.36578112522268,-1.0965400645050492,-1.466103690028738,0.687717566838713,0.5152933135108105,286.9195899325806,-37.88262283398644,-33.28882474622046,-2.7819604035696557,-2.0053522829578814
GUIDED_NOGPS,4.9158806800842285,18.696109939779177,287.79445867085826,-37.74156425150145,-33.47295908705607,-3.1015293200954868,251.08070777865083,-3.731576670105369,-1.9290520557097928,-1.2420554931365382,-2.085463793714109,103.21236824627502,-1.0850246062207225,-1.465969094092101,0.7051485440158758,0.5157719535156732,286.48257634388636,-37.009110892794915,-33.97161761354179,-2.6024173694416532,-3.495042550298022
GUIDED_NOGPS,4.95551872253418,25.232235243159998,287.2944748172046,-36.9552480026939,-33.922035390515305,-3.2527361406676145,250.9761632257623,-3.3705947078653935,-1.4732583949243718,-1.2018945144253923,-2.039379440166975,103.01464109999232,-1.0661216478285842,-1.4427528451246403,0.7366787947753959,0.5162243884977955,285.2282753146253,-35.9740102813003,-34.50566381178369,-2.319058914685229,-4.469070802020421
GUIDED_NOGPS,5.000290155410767,22.34066782782847,286.9232939356244,-35.8763131251987,-34.684633450814026,-3.4280194156655712,250.8777724308776,-3.0308610610850906,-1.0152274382767956,-1.2394042057998098,-1.8727004128604499,102.78660840436228,-1.0378414480299332,-1.4357258007833746,0.7732696919393814,0.5168347030062687,286.5121055296579,-34.645818201500845,-35.57661892711662,-3.6656052269948987,-5.500394833255903
GUIDED_NOGPS,5.039417028427124,25.564424506911767,286.6358047273893,-34.466171424067944,-35.307391012204484,-3.660405756525146,250.78546978063022,-2.712149173323951,-0.5550384405642603,-1.2999775250106562,-1.7371157150287018,102.60943329729214,-0.9937588895567567,-1.4290127457479669,0.8211756977698401,0.5173761762858201,288.03647651619644,-32.77868578940266,-35.83989029771317,-4.701445112701421,-6.016056848873644
GUIDED_NOGPS,5.07969069480896,24.842915780682688,285.8573975198883,-32.84393941011828,-35.302636277478044,-3.8789478794217063,250.69917787624712,-2.4141917943024964,-0.09277125329100855,-1.4491142786510616,-1.4566455227063526,102.30699252084398,-0.9474596346099107,-1.38915212242605,0.8664471029684913,0.5176049325120935,283.02755389507536,-31.10731423945132,-34.49139960760436,-3.1772583735010045,-6.41712730546522
GUIDED_NOGPS,5.120434522628784,24.546611186216502,286.08014186937993,-30.856479837055335,-34.947881804394605,-4.129201470218105,250.61880729545953,-2.136680157803937,0.37149369873180405,-1.6488845052692407,-1.2732262353526551,102.0547331442279,-0.885432627109995,-1.42589875104809,0.9181788966641448,0.5176596877515632,287.5962980913445,-28.683439482312014,-34.5123555078663,-5.228267836503775,-6.64631042351755
GUIDED_NOGPS,5.162332057952881,23.872642932354363,285.5997412187506,-28.796789957524364,-33.81129982456505,-4.382322627928007,250.5442563544139,-1.8792631595777038,0.8376754407865121,-1.928712446366197,-0.9754988230403282,101.72981421522123,-0.8269137874424233,-1.3925230733768994,0.9706373953779639,0.5173244876326758,282.8262720614785,-26.599616150809737,-32.43014435822447,-3.420068818144017,-6.818197762056797
GUIDED_NOGPS,5.196311712265015,29.433505729784354,286.20254803789607,-26.244407594198407,-33.11586914293253,-4.671559517664127,250.4754108695832,-1.6415465352400815,1.3056924716490954,-2.110093455861175,-0.8782549652276236,101.48377714093903,-0.7331619686077406,-1.4487191319136963,1.0300828788650642,0.5172107808072908,289.5261396253854,-23.45016714947345,-32.40510756270683,-7.520893729172627,-7.047380880109126
GUIDED_NOGPS,5.233415842056274,26.958973139393628,286.60275303372407,-23.538872509914516,-31.95553564589522,-4.91879052238516,250.41214391967762,-1.4230920381777992,1.7754627869895572,-2.442498058754774,-0.7006734619018771,101.21233176294437,-0.6537710016562205,-1.4601877308936086,1.0813436582859839,0.5168654992164424,290.03750149533636,-20.566834229460344,-31.031355016754357,-7.684967793863123,-7.276563998161455
GUIDED_NOGPS,5.275273323059082,23.89576413616294,286.31797571144506,-20.980802752679267,-30.788726583598613,-5.167034912388044,250.35431560755555,-1.2234166174496863,2.246903902772175,-2.6437404045825024,-0.6004654087110929,100.91037592992728,-0.5873390856410682,-1.4331458064993323,1.1331638764482486,0.5165178152431854,281.60366728368064,-18.925406879103985,-28.929717171334644,-5.051283876679321,-6.932789321082962
GUIDED_NOGPS,5.313635587692261,26.071495614662133,285.03561999107944,-18.54927663441143,-29.302355123653538,-5.4456080353948035,250.30177282213472,-1.0419915956888417,2.719932878655719,-2.6449997207107234,-0.5505573765283683,100.65758379855595,-0.5132017543327115,-1.3572221175122712,1.1909627557787426,0.5160111440011547,281.1845194895162,-16.15558879466993,-27.945993182871607,-5.46156423860792,-6.703606203030632
GUIDED_NOGPS,5.3541834354400635,24.667007768897356,284.707269476687,-17.078861489481294,-28.273901179025952,-5.676564026275539,250.2543490003029,-0.8782418470051425,3.1944663413938628,-2.6372406258135888,-0.46075783794159597,100.39916359130851,-0.4926235333525436,-1.371184221856462,1.2394542438913414,0.5157341837602099,281.1845194895162,-16.15558879466993,-27.945993182871607,-5.46156423860792,-6.130648407899809
GUIDED_NOGPS,5.395973205566406,23.934763380297763,282.80528452788656,-14.233160492230425,-27.528541542741735,-5.910617859777052,250.21186388882936,-0.7315449748871288,3.670420508235317,-2.5869420455485574,-0.38934492847665986,100.18569285898893,-0.38036784234129006,-1.2592268350032418,1.2887342973317022,0.5155994810254885,280.01621488138306,-10.388303887351375,-26.693638262481993,-5.452843729742057,-5.614986392282068
GUIDED_NOGPS,5.438390493392944,23.57701604290099,280.57810953342835,-11.396973130794464,-26.95441389572821,-6.117523129596376,250.17412330627528,-0.6012304901048537,4.14771121032426,-2.4117803501796993,-0.35331760159554665,99.95244872902217,-0.2946132918414157,-1.164727905652666,1.3327195732888049,0.5155510625530262,278.9016265230456,-7.6470267103620495,-26.223610241831025,-5.645824924404337,-4.411775022507339
GUIDED_NOGPS,5.48455286026001,21.668486880511658,279.9362745018958,-7.7095969648413245,-26.215948305331594,-6.295343251268039,250.1409189049051,-0.4865789886116545,4.626253916100438,-2.3203676596491873,-0.3288824130768409,99.8095133602613,-0.16902734760622892,-1.1785884711616537,1.3711806264817676,0.515421101110716,278.39449212601767,-5.093460296810515,-25.73059641168176,-6.3071604220345705,-3.20856365273261
GUIDED_NOGPS,5.5282580852508545,22.886177619660824,279.3643711781565,-5.077785280421643,-25.721296893901073,-6.431841550793125,250.1120279325973,-0.38682132944575187,5.105963754699609,-2.145988447827119,-0.27867868172782245,99.71625395733396,-0.10380164766377067,-1.1576796646677414,1.4012936834175147,0.5154136303243003,278.32500287081984,-2.492868834092331,-25.209684028190438,-6.55405789191235,-1.5469860468532228
GUIDED_NOGPS,5.563687324523926,28.228883714043423,278.4259903599972,-2.6296457138933342,-25.26391597570046,-6.509437899233582,250.08721299475556,-0.3011378126342379,5.5867555393537245,-2.0954123911270557,-0.2865123217364453,99.70526418295941,-0.021308897801759305,-1.1078338067222075,1.4191253277194493,0.5154253357575271,276.4926153987199,-0.3026080107771222,-24.851467487229186,-6.690323476614566,-0.7448451336700702
GUIDED_NOGPS,5.614435434341431,19.708685947889013,277.7212704634645,-1.0326949518822028,-24.970873000882936,-6.5161056702605045,250.06622181621972,-0.22865735709422097,6.068543790791267,-1.9700432016944138,-0.35603550995710925,99.73946294013366,-0.0016809797636291902,-1.0927198360739923,1.423763445258859,0.515519708395837,276.4926153987199,-0.3026080107771222,-24.851467487229186,-6.690323476614566,1.0313240312354819
GUIDED_NOGPS,5.656950950622559,23.548159626310945,276.74430742530467,1.0027625055643048,-24.69215944321175,-6.466218300197274,250.04878700317644,-0.16845667853419855,6.551242760637479,-1.8469337376599884,-0.4969563464387826,99.89750668733858,0.07479532478601093,-1.0451617036855358,1.4165241715076935,0.5156217011019246,274.0168113322463,3.6135035382471923,-24.373543355176878,-6.770362018507242,3.380450991271857
GUIDED_NOGPS,5.703351974487305,21.536088561643485,275.8687712665504,2.308133021905743,-24.532851399194314,-6.317445190800183,250.03462580507068,-0.11955946735815814,7.0347664548146795,-1.6951165616571762,-0.6160480584156538,100.14816779968888,0.09928486869956393,-1.0148570814693247,1.3897096146935493,0.5157838089270045,274.0168113322463,3.6135035382471923,-24.373543355176878,-6.770362018507242,5.844169510334397
GUIDED_NOGPS,5.749044418334961,21.889111556446228,274.64384459127893,4.633842364840471,-24.4167187339873,-6.066137773338253,250.0234398765162,-0.08093556656638157,7.519028656942524,-1.6117797160465581,-0.8260004428998824,100.51847333573029,0.19092939797372627,-0.9582440444191899,1.3422189721778002,0.5159678736954649,272.2003694944625,6.674520018027064,-24.503069491608148,-6.666838671223715,7.849521793292278
