Mode,Time,Freq,time2delay,actualDelay,North-Desired,East-Desired,Down-Desired,Roll-UAV,Pitch-UAV,Yaw-UAV,Roll-Control,Pitch-Control,Yaw-Control,Thrust-Control,North-Pos,East-Pos,Down-Pos,Yaw-Ang,North-Vel,East-Vel,Down-Vel,Yaw-Vel,North-Acc,East-Acc,Down-Acc,North-Avg,East-Avg,Down-Avg,Yaw-Avg,North-Dif,East-Dif,Down-Dif,Yaw-Dif,North-One,East-One,Down-One,Yaw-One,North-Two,East-Two,Down-Two,Yaw-Two,Landing-State,Q-Size,Kalman-Time,Kalman-Dt
STABILIZE,0.03432011604309082,29.145326940448893,0.033306392033894856,0.03342294692993164,0.0,0.0,0.0,-0.6469784099894978,-0.8709880708375531,76.39610982888867,-0.019403872810390403,0.019164083854966537,0.022658598123370868,0.4,0.09191410215162399,0.09277018675478832,0.12428390154974239,0.09063439249348347,0.39632669650018215,0.066002196399495,1.5303182415664196,0.07664734232925172,2.490127272903919,2.0981453359127045,25.826841592788696,0.0,0.0,0.0,0.0,0.0,0.0,0.0,0.0,0.0,0.0,0.0,0.0,0.0,0.0,0.0,0.0,False,0,0.14485883712768555,0.02993701171875
STABILIZE,0.06759095191955566,30.056568754613142,0.032341988881429036,0.03244924545288086,0.0,0.0,0.0,-0.647952032111342,-0.8715471324932893,76.39950443290617,-0.005478796847022278,0.005387907875701797,0.02562209101295292,0.4,0.10451072420821864,0.10558516737108546,0.1488167289721637,0.10248836405181168,0.0546494557056576,0.08643449400551617,1.4441213570535183,-0.04183508875920661,1.8074050545692444,0.22671318147331476,20.700731873512268,0.0,0.0,0.0,0.0,0.0,0.0,0.0,0.0,0.0,0.0,0.0,0.0,0.0,0.0,0.0,0.0,False,0,0.17349815368652344,0.034846435546875
STABILIZE,0.10176634788513184,29.261020922136723,0.03253296216328939,0.03337287902832031,0.0,0.0,0.0,-0.6479471229128762,-0.8719447242081781,76.4017515651431,-0.0061188136911628594,0.006220973641614024,0.029022800557613738,0.4,0.11957429598074298,0.11987371073303063,0.18045818479803882,0.11609120223045495,0.20593502558767796,0.05945746088400483,1.8315229564905167,0.024620160580198124,5.0767675042152405,0.26136920787394047,29.597949981689453,0.0,0.0,0.0,0.0,0.0,0.0,0.0,0.0,0.0,0.0,0.0,0.0,0.0,0.0,0.0,0.0,False,1,0.20231890678405762,0.034926025390625
STABILIZE,0.1353015899658203,29.82064827125296,0.0325191338857015,0.03264141082763672,0.0,0.0,0.0,-0.6490113517629287,-0.8714594606119899,76.40298782938288,-0.008994838926354503,0.008447468451196464,0.03504977480734149,0.4,0.14289362312638074,0.1455607161300637,0.24816336514764067,0.14019909922936596,-0.05236673168838024,0.13665074948221445,1.4223569072782993,0.08116580594990605,-1.3197829015552998,0.008465492282994092,21.75026684999466,0.0,0.0,0.0,0.0,0.0,0.0,0.0,0.0,0.0,0.0,0.0,0.0,0.0,0.0,0.0,0.0,False,0,0.259641170501709,0.024947998046875
STABILIZE,0.16889238357543945,29.767737631386577,0.0324285348256429,0.032819271087646484,0.0,0.0,0.0,-0.6484282243625389,-0.8710860947243134,76.40513250878226,-0.004977756321025803,0.004736957632930849,0.035111242978153066,0.4,0.14511588209967433,0.14844134382074456,0.26682371765144397,0.14044497191261227,0.0662888865917921,0.13562748208642006,1.7181582748889923,-0.16615256913190535,0.016085919924080372,0.15135358553379774,29.191473126411438,0.0,0.0,0.0,0.0,0.0,0.0,0.0,0.0,0.0,0.0,0.0,0.0,0.0,0.0,0.0,0.0,False,0,0.28897857666015625,0.03492578125
STABILIZE,0.20244073867797852,29.80941551057539,0.032555611928304036,0.032709598541259766,0.0,0.0,0.0,-0.6480870350691555,-0.8713300605437299,76.40609556545523,-0.0061547383007143205,0.005839939722323219,0.036294489015803705,0.4,0.15229811208305336,0.15650646385949307,0.29732410676873816,0.14517795606321482,0.0662888865917921,0.13562748208642006,1.7181582748889923,-0.16615256913190535,0.016085919924080372,0.15135358553379774,29.191473126411438,0.0,0.0,0.0,0.0,0.0,0.0,0.0,0.0,0.0,0.0,0.0,0.0,0.0,0.0,0.0,0.0,False,0,0.3176085948944092,0.03492578125
STABILIZE,0.2359154224395752,29.874172892969323,0.03246811230977376,0.03258657455444336,0.0,0.0,0.0,-0.6473400364895383,-0.8714508695146744,76.40757088631595,-0.005890797554166758,0.0058032922078835765,0.03706620679926198,0.4,0.1582635151350685,0.1621424337369891,0.3286051646593602,0.14826482719704792,0.08177767740562558,0.022786034969612956,1.8377682194113731,-0.16375594646559777,-4.420072212815285,0.0004816683940589428,29.43539023399353,0.0,0.0,0.0,0.0,0.0,0.0,0.0,0.0,0.0,0.0,0.0,0.0,0.0,0.0,0.0,0.0,False,0,0.34993553161621094,0.029937255859375
STABILIZE,0.2693963050842285,29.866940106670086,0.0324282964070638,0.03261113166809082,0.0,0.0,0.0,-0.6462733530402528,-0.8714860876775823,76.40979069779621,-0.005198298951976313,0.005211369111355099,0.03776083920961562,0.4,0.1605456333093565,0.16367422515105245,0.3523520290738969,0.15104335683846248,0.07634313660673797,-0.004263294613338076,1.7285456880927086,0.1558212410015999,2.4642696604132652,-0.12206012615934014,23.909276723861694,0.0,0.0,0.0,0.0,0.0,0.0,0.0,0.0,0.0,0.0,0.0,0.0,0.0,0.0,0.0,0.0,False,0,0.3784456253051758,0.034926025390625
STABILIZE,0.30286669731140137,29.87715211739146,0.03245738347371419,0.03257179260253906,0.0,0.0,0.0,-0.6460109243657361,-0.8702504637680447,76.41166216962878,-0.0056454815272181024,0.005442146799752573,0.03871262814053428,0.4,0.16360584937766376,0.16711402416088222,0.38090855772150656,0.1548505125621371,-0.00014073157217353582,0.027725112158805132,1.6356412321329117,0.10291202769963578,2.80289389193058,-0.1264401013031602,24.779005348682404,0.0,0.0,0.0,0.0,0.0,0.0,0.0,0.0,0.0,0.0,0.0,0.0,0.0,0.0,0.0,0.0,False,0,0.4072999954223633,0.03492578125
STABILIZE,0.3363533020019531,29.861411515104052,0.032416613896687825,0.03264808654785156,0.0,0.0,0.0,-0.6445521987302624,-0.870063807504633,76.41474258494446,-0.006629574427417382,0.006991609000392732,0.03949694642609625,0.4,0.1736632279240123,0.17475556181792767,0.4405469725153037,0.157987785704385,0.28782663866877556,0.18505494808778167,1.8324805423617363,0.02226224787760948,9.492698311805725,1.8856773152947426,26.477745175361633,0.0,0.0,0.0,0.0,0.0,0.0,0.0,0.0,0.0,0.0,0.0,0.0,0.0,0.0,0.0,0.0,False,0,0.46461009979248047,0.034927001953125
STABILIZE,0.36980295181274414,29.895892285651154,0.032492669423421223,0.03262042999267578,0.0,0.0,0.0,-0.6449895976414077,-0.8709612836894021,76.41728341531571,-0.005253566237134578,0.006167515134724396,0.03923337740849807,0.4,0.17830817116265543,0.17472682595678019,0.46827549653907197,0.15693350963399227,0.326186022721231,-0.03167817194480449,1.7413919791579247,-0.08814287086750053,3.391721099615097,-0.4215529654175043,21.79599702358246,0.0,0.0,0.0,0.0,0.0,0.0,0.0,0.0,0.0,0.0,0.0,0.0,0.0,0.0,0.0,0.0,False,0,0.4932711124420166,0.034926025390625
STABILIZE,0.403322696685791,29.835072519436917,0.032486708958943684,0.03261733055114746,0.0,0.0,0.0,-0.6440618658530496,-0.8705338632577474,76.42022722684798,-0.005296688255817807,0.005280830874051099,0.0399521257556747,0.4,0.17805184087662887,0.1749185369788237,0.49865299418926656,0.1598085030226988,-0.0060036167269572616,0.04915003664791584,2.002071402966976,0.2674397655311252,-1.7946697771549225,-0.1564077683724463,29.388004541397095,0.0,0.0,0.0,0.0,0.0,0.0,0.0,0.0,0.0,0.0,0.0,0.0,0.0,0.0,0.0,0.0,False,0,0.5218784809112549,0.034926025390625
STABILIZE,0.4367241859436035,29.93793004996431,0.032412322362264,0.03253650665283203,0.0,0.0,0.0,-0.6439743006934558,-0.8712439894880171,76.42138152881772,-0.004957606495543593,0.004400003033890781,0.03997649964092631,0.4,0.17362210131729228,0.1734753596956351,0.5217708986375216,0.15990599856370524,-0.2530340105295181,-0.02118464035447687,1.5186519362032413,0.09064476115634826,-4.92001548409462,-2.2472985088825226,23.725692927837372,0.0,0.0,0.0,0.0,0.0,0.0,0.0,0.0,0.0,0.0,0.0,0.0,0.0,0.0,0.0,0.0,False,0,0.551128625869751,0.02993701171875
STABILIZE,0.4701659679412842,29.90228635388224,0.032462390263875325,0.032594919204711914,0.0,0.0,0.0,-0.6431117225064773,-0.8704114534612161,76.42194843451882,-0.004307202878080499,0.004629868428352177,0.0389053525643205,0.4,0.1709132424111906,0.1691303503315219,0.5428609981190109,0.155621410257282,0.039036828093230724,-0.07581134559586644,1.903892494738102,-0.08903943324766388,-0.4012268967926502,-0.39072255603969097,26.35868787765503,0.0,0.0,0.0,0.0,0.0,0.0,0.0,0.0,0.0,0.0,0.0,0.0,0.0,0.0,0.0,0.0,False,0,0.5793240070343018,0.034926025390625
STABILIZE,0.503645658493042,29.8711942626395,0.03247788747151693,0.0325922966003418,0.0,0.0,0.0,-0.642238258705509,-0.8706957600854178,76.4237789252164,-0.00440996871039788,0.004803890837450454,0.03808635631432,0.4,0.1694247351687147,0.1658996703820138,0.5698958634160546,0.15234542525728,0.039036828093230724,-0.07581134559586644,1.903892494738102,-0.08903943324766388,-0.4012268967926502,-0.39072255603969097,26.35868787765503,0.0,0.0,0.0,0.0,0.0,0.0,0.0,0.0,0.0,0.0,0.0,0.0,0.0,0.0,0.0,0.0,False,0,0.615807056427002,0.034926025390625
STABILIZE,0.5370590686798096,29.92511415525114,0.03241780598958333,0.03253674507141113,0.0,0.0,0.0,-0.6427050060857442,-0.8704674823567513,76.42445511394422,-0.004737304588371557,0.0048494734878257685,0.036932125937019736,0.4,0.16836914972312078,0.164695420696558,0.5937460075102406,0.14772850374807894,0.10008105309680104,0.09858357952907681,1.745617762207985,-0.14612287930828427,0.5131899379193783,-0.2553687198087573,21.86301499605179,0.0,0.0,0.0,0.0,0.0,0.0,0.0,0.0,0.0,0.0,0.0,0.0,0.0,0.0,0.0,0.0,False,0,0.6445837020874023,0.0349267578125
STABILIZE,0.5738394260406494,27.189130322045326,0.0324590524037679,0.033577680587768555,0.0,0.0,0.0,-0.6431977935621901,-0.8704458712113305,76.42599190650748,-0.004356106395503061,0.00517293783855048,0.03583804871767796,0.4,0.16905684905169377,0.16159893229218866,0.6127850859664895,0.14335219487071185,0.23997980169951916,-0.005785876055597328,1.4929471537470818,-0.09898100703834882,-2.7359947562217712,1.6608349978923798,27.578359842300415,0.0,0.0,0.0,0.0,0.0,0.0,0.0,0.0,0.0,0.0,0.0,0.0,0.0,0.0,0.0,0.0,False,1,0.673222541809082,0.03492626953125
STABILIZE,0.6049823760986328,32.109750122488975,0.030117305119832356,0.030326128005981445,0.0,0.0,0.0,-0.6427563392262251,-0.8705029673239236,76.42681835939705,-0.0035068466438254817,0.0056699586856671,0.03377964746720337,0.4,0.17178228256468372,0.15551227060641953,0.640326369606907,0.13511858986881348,0.3424645634368062,0.06037048879079521,1.4636686071753502,-0.026152394125582144,-0.3774283919483423,-0.4153964575380087,19.45604830980301,0.0,0.0,0.0,0.0,0.0,0.0,0.0,0.0,0.0,0.0,0.0,0.0,0.0,0.0,0.0,0.0,False,0,0.7308056354522705,0.029936767578125
STABILIZE,0.6385090351104736,29.827434414979482,0.03250697453816732,0.032655954360961914,0.0,0.0,0.0,-0.6428887808630999,-0.869810823701078,76.4281707368527,-0.004001813118953239,0.004065700038106868,0.03328025211313979,0.4,0.16662910125679606,0.1522964966592691,0.6560448726381594,0.13312100845255917,-0.03781866980716586,0.08803643868304789,1.8589043989777565,0.1430392223207954,-1.6877342015504837,-0.3191332798451185,27.314329147338867,0.0,0.0,0.0,0.0,0.0,0.0,0.0,0.0,0.0,0.0,0.0,0.0,0.0,0.0,0.0,0.0,False,0,0.7594854831695557,0.034926025390625
STABILIZE,0.6719400882720947,29.91209590574878,0.03243711789449056,0.03256654739379883,0.0,0.0,0.0,-0.6426964683492817,-0.8691476016604992,76.43009685019865,-0.003943541569567724,0.004604721170552583,0.03274828974418084,0.4,0.16478929976585416,0.14925892718812125,0.6716315355204888,0.13099315897672337,0.1128868549130857,0.0448648032033816,1.4888429082930088,0.08789981885268988,3.5463623702526093,-0.36118237767368555,24.353939294815063,0.0,0.0,0.0,0.0,0.0,0.0,0.0,0.0,0.0,0.0,0.0,0.0,0.0,0.0,0.0,0.0,False,0,0.7881381511688232,0.029937255859375
STABILIZE,0.7053723335266113,29.910176139199887,0.032464059193929036,0.03259468078613281,0.0,0.0,0.0,-0.6425131204587492,-0.8689568899722677,76.43179073711282,-0.0034478490953852997,0.004744102608770982,0.032076002944464777,0.4,0.16387300912982547,0.14428962554846325,0.6832246851075545,0.1283040117778591,0.24850794579833746,-0.01964271068572998,1.6819480806589127,0.09849496303968705,7.1903809905052185,-0.4157958086580038,24.18937385082245,0.0,0.0,0.0,0.0,0.0,0.0,0.0,0.0,0.0,0.0,0.0,0.0,0.0,0.0,0.0,0.0,False,0,0.8220365047454834,0.03492578125
STABILIZE,0.7389078140258789,29.819800220397426,0.03249386151631673,0.03272604942321777,0.0,0.0,0.0,-0.6436950633502787,-0.8712575965055043,76.43590934118234,-0.003116605554275783,0.004569365731149071,0.03150409425608207,0.4,0.1622458621133432,0.1384404668584096,0.7010021679776248,0.12601637702432827,0.14074849896132946,-0.11965602170675993,1.7272334545850754,0.08315235713185501,3.572716936469078,-0.5059212911874056,20.263579487800598,0.0,0.0,0.0,0.0,0.0,0.0,0.0,0.0,0.0,0.0,0.0,0.0,0.0,0.0,0.0,0.0,False,0,0.8505034446716309,0.03492724609375
STABILIZE,0.7723701000213623,29.884176926584587,0.03251674969991048,0.03263354301452637,0.0,0.0,0.0,-0.6436214787341424,-0.8699528169306202,76.43693386955783,-0.0037953658245292415,0.0033375147282013466,0.03119494559297179,0.4,0.1549769615119686,0.13669621328097054,0.7146161483377141,0.12477978237188717,-0.20158393308520317,0.14945301227271557,1.5254464000463486,0.153649667732359,0.3156897611916065,-0.24280084762722254,24.992434680461884,0.0,0.0,0.0,0.0,0.0,0.0,0.0,0.0,0.0,0.0,0.0,0.0,0.0,0.0,0.0,0.0,False,0,0.8792707920074463,0.029936767578125
STABILIZE,0.8058528900146484,29.866302087783758,0.03249052365620931,0.03262019157409668,0.0,0.0,0.0,-0.6434926656352642,-0.868587632870264,76.4345023222133,-0.0034419851823625325,0.0039027677557298716,0.03002820585051279,0.4,0.15144556118818978,0.13350988181272608,0.7239078679183896,0.12011282340205116,0.09380613919347525,0.09644574602134526,1.6776643693447113,-0.02589876999179253,1.3078928925096989,-0.34359495621174574,22.570382058620453,0.0,0.0,0.0,0.0,0.0,0.0,0.0,0.0,0.0,0.0,0.0,0.0,0.0,0.0,0.0,0.0,False,0,0.9079222679138184,0.034926025390625
STABILIZE,0.8396861553192139,29.55712624643247,0.03245499928792318,0.032930850982666016,0.0,0.0,0.0,-0.6437058422425627,-0.8669288573973029,76.41765907572007,-0.0022685467930536503,0.0033432018502853092,0.028895754659020875,0.4,0.14568425653393463,0.12510835581928956,0.7459032715753768,0.1155830186360835,0.08682532352395356,-0.10023950599133968,1.2828942388296127,0.2107950457328657,-1.8468009307980537,-0.7822683081030846,8.179687708616257,0.0,0.0,0.0,0.0,0.0,0.0,0.0,0.0,0.0,0.0,0.0,0.0,0.0,0.0,0.0,0.0,False,0,0.9658050537109375,0.034927001953125
STABILIZE,0.8731215000152588,29.908683157797157,0.03241399129231771,0.03255152702331543,0.0,0.0,0.0,-0.6433905329628313,-0.8676579267303488,76.42162058543867,-0.0021697286780673597,0.004032345600488169,0.027720787808005513,0.4,0.14408870024421264,0.11750617776405675,0.7560015979180149,0.11088315123202205,0.1759668462909758,-0.20305896177887917,1.5128876082599163,-0.05488293119879287,-5.4215796291828156,-6.467036157846451,14.136402308940887,0.0,0.0,0.0,0.0,0.0,0.0,0.0,0.0,0.0,0.0,0.0,0.0,0.0,0.0,0.0,0.0,False,0,0.9943668842315674,0.02993603515625
STABILIZE,0.9074547290802002,29.124886293408142,0.032436641057332356,0.03361845016479492,0.0,0.0,0.0,-0.6439568516945606,-0.870359266547089,76.42916794447153,-0.0020758901420916236,0.002698045996412562,0.02984438042174554,0.4,0.13614804977721315,0.11037598515659319,0.7598438047726948,0.11937752168698217,-0.1752457465045154,-0.1543206861242652,1.5126843936741352,0.7766398397069638,-16.240589320659637,1.395051833242178,14.600841701030731,0.0,0.0,0.0,0.0,0.0,0.0,0.0,0.0,0.0,0.0,0.0,0.0,0.0,0.0,0.0,0.0,False,0,1.0230133533477783,0.03492724609375
STABILIZE,0.9410426616668701,29.773442934821187,0.03262070020039876,0.03274941444396973,0.0,0.0,0.0,-0.6481223599537692,-0.8680994344271667,76.45201492724523,-0.0038406398162779015,0.004601895363683624,0.028560038365234953,0.4,0.1386567478835393,0.11286115208422984,0.7749920238727243,0.11424015346093981,0.4275012295693159,0.4110432229936123,1.8895868211984634,-0.09251738024726891,50.346457958221436,17.15104579925537,19.452157616615295,0.0,0.0,0.0,0.0,0.0,0.0,0.0,0.0,0.0,0.0,0.0,0.0,0.0,0.0,0.0,0.0,False,0,1.0517890453338623,0.03492578125
STABILIZE,0.9745137691497803,29.876726477522848,0.032474549611409505,0.032610416412353516,0.0,0.0,0.0,-0.6493446436500842,-0.8635943377001615,76.45176221024593,-0.0004339620450585901,0.007584300646386109,0.027730145251926554,0.4,0.15502624491035719,0.09868450480535494,0.7852406346222222,0.11092058100770621,1.2578357942402363,-0.6047349888831377,1.634480059146881,0.023540086891890275,12.383124232292175,-22.1734881401062,21.06412798166275,0.0,0.0,0.0,0.0,0.0,0.0,0.0,0.0,0.0,0.0,0.0,0.0,0.0,0.0,0.0,0.0,False,0,1.0805716514587402,0.034927001953125
STABILIZE,1.0078928470611572,29.958244348416127,0.03246358235677083,0.03256821632385254,0.0,0.0,0.0,-0.6410911070900642,-0.862759080269863,76.41515922648384,-0.006672000917967514,-0.0012623974563851594,0.022606947511709594,0.4,0.12686344309637554,0.11640215672104737,0.7984995720559503,0.09042779004683837,-1.4309726655483246,1.31712406873703,1.8595004454255104,-1.003604411144696,-2.381514012813568,29.028451442718506,30.34539222717285,0.0,0.0,0.0,0.0,0.0,0.0,0.0,0.0,0.0,0.0,0.0,0.0,0.0,0.0,0.0,0.0,False,1,1.109191656112671,0.034926025390625
STABILIZE,1.0413742065429688,29.86672743067918,0.03249862988789876,0.032627105712890625,0.0,0.0,0.0,-0.6483340424571867,-0.8622874770520148,76.45781375785056,0.0020097172769026495,0.007186016498739134,0.02341235234469611,0.4,0.1429938689630929,0.09006508943653603,0.8133817622376537,0.09364940937878444,0.7725732401013374,-0.5432510748505592,1.7292264848947525,0.33234409168642093,28.40149998664856,-72.7465271949768,28.31958532333374,0.0,0.0,0.0,0.0,0.0,0.0,0.0,0.0,0.0,0.0,0.0,0.0,0.0,0.0,0.0,0.0,False,0,1.1667001247406006,0.02993701171875
STABILIZE,1.0750408172607422,29.707858483549952,0.03248742421468099,0.032631874084472656,0.0,0.0,0.0,-0.6480487753376329,-0.8686709291616264,76.47277870232206,0.001199662265029717,0.003988462346736113,0.026640420072326802,0.4,0.14154229603497118,0.07137471947107081,0.8150839049729062,0.10656168028930721,0.21078186109662056,-0.8863162249326706,1.5697915107011795,1.0137401984295833,-24.859905242919922,36.36432886123657,9.968455880880356,0.0,0.0,0.0,0.0,0.0,0.0,0.0,0.0,0.0,0.0,0.0,0.0,0.0,0.0,0.0,0.0,False,0,1.1953179836273193,0.034926025390625
STABILIZE,1.1082792282104492,30.081574398806577,0.032256396611531575,0.03238105773925781,0.0,0.0,0.0,-0.6414903529913927,-0.8730919291844758,76.46355794694254,-0.006612335851759586,0.0008866887641058945,0.02001468803185705,0.4,0.1255552527954221,0.09270378811720109,0.8165458337651703,0.0800587521274282,-0.7066161837428808,1.5295695513486862,1.2501397170126438,-1.3933569898570144,-8.496348559856415,52.14167833328247,12.721091508865356,0.0,0.0,0.0,0.0,0.0,0.0,0.0,0.0,0.0,0.0,0.0,0.0,0.0,0.0,0.0,0.0,False,0,1.223893404006958,0.02993701171875
STABILIZE,1.1417503356933594,29.877577769388033,0.03248742421468099,0.03261137008666992,0.0,0.0,0.0,-0.6464982156743343,-0.8683797389874017,76.44988390822418,-0.0015873806619333627,0.008925139098429805,0.015269647685387515,0.4,0.15019793316535404,0.08695760714157723,0.821031846942084,0.06107859074155006,1.7883691936731339,-0.11865654960274696,1.7794881016016006,-0.9303504188528976,73.09148907661438,-53.312915563583374,20.42302042245865,0.0,0.0,0.0,0.0,0.0,0.0,0.0,0.0,0.0,0.0,0.0,0.0,0.0,0.0,0.0,0.0,False,0,1.2525289058685303,0.034926025390625
STABILIZE,1.175283432006836,29.82086029150373,0.032460721333821614,0.032599449157714844,0.0,0.0,0.0,-0.6454879346465542,-0.876792290889036,76.4774642120927,-0.00018732900932006997,0.007558028389805713,0.016224574381500493,0.4,0.16478352404120797,0.0753458940299175,0.8277890710602336,0.06489829752600197,1.1247682385146618,-0.48608831129968166,1.6165073961019516,0.45407134954841794,-52.528876066207886,3.268173709511757,28.746259212493896,0.0,0.0,0.0,0.0,0.0,0.0,0.0,0.0,0.0,0.0,0.0,0.0,0.0,0.0,0.0,0.0,False,0,1.2812976837158203,0.0349267578125
STABILIZE,1.2096335887908936,29.113161054772366,0.0323825200398763,0.03351616859436035,0.0,0.0,0.0,-0.6470042900031499,-0.8835826728627922,76.48382994839915,5.597981081571103e-05,-0.008114860243204916,0.014965998256694328,0.4,0.10085555034680128,0.06404759270098755,0.8300033105016227,0.059863993026777314,-3.5958971828222275,-0.46245730482041836,1.379556581377983,-0.09488093252499744,-74.58626627922058,-16.565150022506714,22.693683207035065,0.0,0.0,0.0,0.0,0.0,0.0,0.0,0.0,0.0,0.0,0.0,0.0,0.0,0.0,0.0,0.0,False,1,1.3100335597991943,0.029937255859375
STABILIZE,1.2430846691131592,29.892270193993472,0.032488377888997395,0.032605886459350586,0.0,0.0,0.0,-0.652969499747804,-0.8844738524669202,76.45349024810595,-0.00028530212068730696,0.0006883849779986904,0.006365339275619273,0.4,0.08969569721295383,0.05623367462112964,0.8400650679186635,0.025461357102477093,3.4973420202732086,0.39178398437798023,2.3811401799321175,-1.6253691244522388,15.177062153816223,-14.514344930648804,33.709001541137695,0.0,0.0,0.0,0.0,0.0,0.0,0.0,0.0,0.0,0.0,0.0,0.0,0.0,0.0,0.0,0.0,False,0,1.367417335510254,0.034927001953125
STABILIZE,1.2765488624572754,29.883538171066224,0.03248480161031087,0.032625436782836914,0.0,0.0,0.0,-0.6479111576980278,-0.8909846235715291,76.51520783744618,0.0056055097733734805,-0.0017295534454753489,0.014135192079654158,0.4,0.06854574240221162,0.021393666671311054,0.8437414912167752,0.05654076831861663,-1.0230532847344875,-1.9155239686369896,1.4982488937675953,2.088685935455062,-86.07900142669678,-48.39681088924408,27.335715293884277,0.0,0.0,0.0,0.0,0.0,0.0,0.0,0.0,0.0,0.0,0.0,0.0,0.0,0.0,0.0,0.0,False,0,1.3960106372833252,0.029936279296875
STABILIZE,1.3100738525390625,29.828495028944488,0.03247836430867513,0.032617807388305664,0.0,0.0,0.0,-0.6610329649498272,-0.884354377517298,76.52769342324896,-0.002575083770065939,0.0010823454593497396,0.0029415140954974633,0.4,0.06389498663943625,0.030628559737778956,0.8402592753447569,0.011766056381989853,-0.03932408581022173,0.7344732992351055,1.3902561739087105,-2.5730833782791898,33.191099762916565,73.16283583641052,18.87384057044983,0.0,0.0,0.0,0.0,0.0,0.0,0.0,0.0,0.0,0.0,0.0,0.0,0.0,0.0,0.0,0.0,False,0,1.4251937866210938,0.0349267578125
STABILIZE,1.343583106994629,29.842926870917708,0.03239253362019857,0.03252363204956055,0.0,0.0,0.0,-0.67042826367915,-0.881957728170564,76.46169330529914,-0.003825657553265365,0.010398639507859941,-0.0006550672724773502,0.4,0.1044666915883489,0.04453548165181925,0.8548511766818111,-0.002620269089909401,2.7155499905347824,1.0313931852579117,2.198895439505577,-0.6857485380700472,61.42466068267822,-16.63280874490738,18.680357933044434,0.0,0.0,0.0,0.0,0.0,0.0,0.0,0.0,0.0,0.0,0.0,0.0,0.0,0.0,0.0,0.0,False,0,1.4535346031188965,0.034926025390625
STABILIZE,1.3769011497497559,30.01226449521656,0.03234818776448568,0.03246927261352539,0.0,0.0,0.0,-0.6614084652716192,-0.8732400055512476,76.5159113469307,-0.004356520142697126,0.011848351282006344,-0.0042248409053656875,0.4,0.14600322192595172,0.05895112035121296,0.8691296767165362,-0.01689936362146275,2.7155499905347824,1.0313931852579117,2.198895439505577,-0.6857485380700472,61.42466068267822,-16.63280874490738,18.680357933044434,0.0,0.0,0.0,0.0,0.0,0.0,0.0,0.0,0.0,0.0,0.0,0.0,0.0,0.0,0.0,0.0,False,0,1.4898145198822021,0.034926025390625
STABILIZE,1.4114055633544922,28.98179958817595,0.032480510075887044,0.03364062309265137,0.0,0.0,0.0,-0.6601966936633238,-0.8770956473377197,76.43743247336725,0.009268824392172414,0.005059132042660812,0.00819932038235093,0.4,0.1493039412371664,0.004862933081657424,0.8715704449061201,0.03279728152940372,0.37827242631465197,-3.1051097437739372,1.5085434541106224,3.145861547972578,-49.14714992046356,-67.85150170326233,22.2863107919693,0.0,0.0,0.0,0.0,0.0,0.0,0.0,0.0,0.0,0.0,0.0,0.0,0.0,0.0,0.0,0.0,False,0,1.518564224243164,0.02993701171875
STABILIZE,1.4448065757751465,29.940922005054038,0.03246358235677083,0.03256964683532715,0.0,0.0,0.0,-0.6513503180276878,-0.8772356128548521,76.43109405781748,-0.001791326256900551,-0.010134907798422573,-0.006567109902114185,0.4,0.07951033349513725,0.01269857894938472,0.8682755454953832,-0.02626843960845674,-3.97384874522686,0.6041774991899729,1.4867561869323254,-3.47286112335517,-102.42079496383667,51.66041851043701,20.457421243190765,0.0,0.0,0.0,0.0,0.0,0.0,0.0,0.0,0.0,0.0,0.0,0.0,0.0,0.0,0.0,0.0,False,0,1.5530529022216797,0.034926025390625
STABILIZE,1.4782886505126953,29.866089420879113,0.03249409993489583,0.03263425827026367,0.0,0.0,0.0,-0.6596755715739929,-0.8688675639045287,76.52326063047762,-0.0027272006925731095,-0.003581349725062965,0.014609641405972535,0.4,0.051012282616138604,0.023927419936409414,0.8635127484696143,0.05843856562389014,-1.4779891818761826,0.8281542919576168,1.1054879985749722,5.2412387209367255,141.1558747291565,-89.40836191177368,-57.75156021118164,0.0,0.0,0.0,0.0,0.0,0.0,0.0,0.0,0.0,0.0,0.0,0.0,0.0,0.0,0.0,0.0,False,0,1.587616205215454,0.034927001953125
STABILIZE,1.5117099285125732,29.92041774264884,0.03246787389119466,0.03258085250854492,0.0,0.0,0.0,-0.6526363145823543,-0.8741512488360624,76.46855764541499,-0.003152220516604345,-0.004501552210299577,0.03621716233147227,0.4,0.02225693072695009,0.035602339335898514,0.8581691113226652,0.14486864932588908,-1.4779891818761826,0.8281542919576168,1.1054879985749722,5.2412387209367255,141.1558747291565,-89.40836191177368,-57.75156021118164,0.0,0.0,0.0,0.0,0.0,0.0,0.0,0.0,0.0,0.0,0.0,0.0,0.0,0.0,0.0,0.0,False,0,1.6262528896331787,0.034927001953125
STABILIZE,1.5452368259429932,29.828070774307335,0.03247979482014974,0.03271174430847168,0.0,0.0,0.0,-0.6505624983956092,-0.8660498974284868,76.4170580190731,-0.004846514538467191,-0.03638533176421342,0.03285301020149223,0.4,-0.15502938737857674,0.05408574632467687,0.8811981985968474,0.1314120408059689,-5.016276612877846,0.6556042935699224,2.145339921116829,-0.3629224217137449,-86.52760982513428,-72.97290563583374,-16.06917381286621,0.0,0.0,0.0,0.0,0.0,0.0,0.0,0.0,0.0,0.0,0.0,0.0,0.0,0.0,0.0,0.0,True,0,1.6733603477478027,0.034927001953125
STABILIZE,1.5787549018859863,29.833799230380755,0.03251245816548665,0.03271174430847168,0.0,0.0,0.0,-0.6557447443457977,-0.8855531824383409,76.55570402903518,0.004558392727950192,0.002484444027016064,0.04304521855528855,0.4,-0.12094557763354902,0.02446822533535678,0.8774088295366502,0.1721808742211542,2.2794969379901886,-1.6561729833483696,1.2588567100465298,2.4930028253553753,124.99516010284424,-13.7682244181633,-8.918088674545288,0.0,0.0,0.0,0.0,0.0,0.0,0.0,0.0,0.0,0.0,0.0,0.0,0.0,0.0,0.0,0.0,True,0,1.70298433303833,0.02993603515625
STABILIZE,1.6122417449951172,29.862474546826718,0.03248623212178548,0.03261065483093262,0.0,0.0,0.0,-0.653771833531869,-0.8735291146522095,76.50976417667768,-0.004192210525392152,0.00556395172287079,0.0256016361161022,0.4,-0.07699341571268788,0.040942098895513646,0.8668925965918989,0.1024065444644088,2.6618586853146553,1.0823965072631836,1.1473949998617172,-3.9711735825093175,-34.38045382499695,76.06703042984009,-22.147543728351593,0.0,0.0,0.0,0.0,0.0,0.0,0.0,0.0,0.0,0.0,0.0,0.0,0.0,0.0,0.0,0.0,True,0,1.7306628227233887,0.0349267578125
STABILIZE,1.645700454711914,29.887584083912895,0.03247264226277669,0.0326075553894043,0.0,0.0,0.0,-0.6500183777786824,-0.8652861435410619,76.43803353001421,-0.0047118241370972275,0.006626802282779204,0.008316522266573766,0.4,-0.034295789364304004,0.05756250818045411,0.8609698180421568,0.033266089066295065,2.6618586853146553,1.0823965072631836,1.1473949998617172,-3.9711735825093175,-34.38045382499695,76.06703042984009,-22.147543728351593,0.0,0.0,0.0,0.0,0.0,0.0,0.0,0.0,0.0,0.0,0.0,0.0,0.0,0.0,0.0,0.0,True,0,1.7594773769378662,0.0349267578125
STABILIZE,1.6792290210723877,29.828070774307335,0.032474788029988606,0.03266406059265137,0.0,0.0,0.0,-0.6532807536027156,-0.8808756234347929,76.53431870674387,-0.0014622219788908563,-0.012446962301531842,0.013545664654239349,0.4,-0.08890810598327883,0.05635282936920148,0.8584191062092478,0.054182658616957396,-3.1632445752620697,0.012229576532263309,1.3683455064892769,1.4185302923733312,-135.5638027191162,-44.96655464172363,6.471787393093109,0.0,0.0,0.0,0.0,0.0,0.0,0.0,0.0,0.0,0.0,0.0,0.0,0.0,0.0,0.0,0.0,True,0,1.7880382537841797,0.03492626953125
STABILIZE,1.7126288414001465,29.937288994525456,0.03243711789449056,0.03254842758178711,0.0,0.0,0.0,-0.6522417644360803,-0.8764420302506613,76.51855463013949,-0.005759847572095236,0.008678136557787177,0.0035505359027890315,0.4,-0.03475387709360846,0.07576368914260778,0.854770211127716,0.014202143611156126,3.2726220786571503,1.231892965734005,1.3184847310185432,-2.2016431770619103,107.52593278884888,26.411765813827515,10.834776610136032,0.0,0.0,0.0,0.0,0.0,0.0,0.0,0.0,0.0,0.0,0.0,0.0,0.0,0.0,0.0,0.0,True,0,1.817030668258667,0.03492724609375
STABILIZE,1.7464251518249512,29.590698724461,0.0324893315633138,0.03301095962524414,0.0,0.0,0.0,-0.6499768096742806,-0.8735516862929823,76.47376224956254,-0.006332466305540885,0.010429996191737647,-0.0065343025028578045,0.4,0.0205578126477151,0.0953634669497925,0.8508973022583324,-0.026137210011431218,3.2726220786571503,1.231892965734005,1.3184847310185432,-2.2016431770619103,107.52593278884888,26.411765813827515,10.834776610136032,0.0,0.0,0.0,0.0,0.0,0.0,0.0,0.0,0.0,0.0,0.0,0.0,0.0,0.0,0.0,0.0,True,1,1.845691204071045,0.03492724609375
STABILIZE,1.7799749374389648,29.807508901096558,0.03252437909444173,0.03265738487243652,0.0,0.0,0.0,-0.6514049061801951,-0.8756890018946674,76.51378032790964,0.00028332356663340804,-0.010422132271089327,0.0018719890181211635,0.4,-0.03220964282083738,0.08034014380138144,0.8545533556945231,0.007487956072484654,-2.9150759801268578,0.23008519783616066,1.8570218235254288,2.4435038041100583,-57.65004754066467,24.837693572044373,37.96524405479431,0.0,0.0,0.0,0.0,0.0,0.0,0.0,0.0,0.0,0.0,0.0,0.0,0.0,0.0,0.0,0.0,True,0,1.9030051231384277,0.03492578125
STABILIZE,1.813387393951416,29.928317100146277,0.03244021733601888,0.0325627326965332,0.0,0.0,0.0,-0.6514372428570468,-0.8769918071179944,76.51820629049182,-0.002853991859131796,-0.011521453223585052,0.011913211034400737,0.4,-0.08259338096135221,0.08250473059755038,0.8595439684158274,0.04765284413760295,-2.9150759801268578,0.23008519783616066,1.8570218235254288,2.4435038041100583,-57.65004754066467,24.837693572044373,37.96524405479431,0.0,0.0,0.0,0.0,0.0,0.0,0.0,0.0,0.0,0.0,0.0,0.0,0.0,0.0,0.0,0.0,True,0,1.9320282936096191,0.03492578125
STABILIZE,1.8469386100769043,29.804755340164576,0.03247192700703939,0.032611846923828125,0.0,0.0,0.0,-0.650041536388837,-0.8736273519823813,76.49266821318514,-0.005674061967293134,0.0015018392785369197,0.0033634333117401882,0.4,-0.06357388960972524,0.09778620122435837,0.8605073757665233,0.013453733246960753,1.1368348263204098,0.9971401654183865,1.626291312277317,-1.9118258708603986,75.22408366203308,17.04850047826767,25.62223970890045,0.0,0.0,0.0,0.0,0.0,0.0,0.0,0.0,0.0,0.0,0.0,0.0,0.0,0.0,0.0,0.0,True,0,1.9697535037994385,0.029937255859375
STABILIZE,1.8803906440734863,29.892696276868694,0.0323825200398763,0.032526254653930664,0.0,0.0,0.0,-0.6510587009666401,-0.870793837333031,76.50425221401748,-0.005961743788342693,-0.007063160161143698,0.007492503183648254,0.4,-0.08821109646499183,0.11228239819198185,0.8600046580542356,0.029970012734593016,-1.4976408332586288,1.0075271129608154,1.787121593952179,1.048522083004227,-55.27192950248718,50.26832818984985,18.68623048067093,0.0,0.0,0.0,0.0,0.0,0.0,0.0,0.0,0.0,0.0,0.0,0.0,0.0,0.0,0.0,0.0,True,0,1.998443603515625,0.069852783203125
STABILIZE,1.9137704372406006,29.9576024227187,0.03239563306172689,0.03263139724731445,0.0,0.0,0.0,-0.6476939256659097,-0.8773358778974338,76.5108774975124,-0.00750279371816588,-0.008642653826846534,0.0049056493101738334,0.4,-0.11688021111217718,0.13207170762015805,0.8897572340989766,0.019622597240695334,-1.103322859853506,0.8040868677198887,1.6264604404568672,-0.49110127349449495,2.1963700652122498,15.223115682601929,31.3387930393219,0.0,0.0,0.0,0.0,0.0,0.0,0.0,0.0,0.0,0.0,0.0,0.0,0.0,0.0,0.0,0.0,True,0,2.027095079421997,0.02993701171875
STABILIZE,1.9473950862884521,29.74071999376015,0.032578500111897786,0.03272867202758789,0.0,0.0,0.0,-0.6493635867528604,-0.8752081672492691,76.51528296952705,-0.0061733067330328375,-0.007159250660207927,0.002334627327281365,0.4,-0.1343379826799582,0.14264781110499827,0.8834644586332949,0.00933850930912546,-1.103322859853506,0.8040868677198887,1.6264604404568672,-0.49110127349449495,2.1963700652122498,15.223115682601929,31.3387930393219,0.0,0.0,0.0,0.0,0.0,0.0,0.0,0.0,0.0,0.0,0.0,0.0,0.0,0.0,0.0,0.0,True,0,2.05568790435791,0.02993701171875
STABILIZE,1.9808604717254639,29.88162206833661,0.03242209752400716,0.032570600509643555,0.0,0.0,0.0,-0.6498312946284476,-0.8708454372777763,76.51016032764954,-0.00015120860218955796,0.0020868264734074785,0.0018414913044127825,0.4,-0.10509956861477938,0.12291413347353543,0.8721601412955226,0.00736596521765113,1.4611261896789074,-0.8635618723928928,1.3123871758580208,-0.04678124628588671,27.861273288726807,-14.146427810192108,14.190393686294556,0.0,0.0,0.0,0.0,0.0,0.0,0.0,0.0,0.0,0.0,0.0,0.0,0.0,0.0,0.0,0.0,True,0,2.0893311500549316,0.034927001953125
STABILIZE,2.0142178535461426,29.978371965034913,0.03242233594258626,0.032532453536987305,0.0,0.0,0.0,-0.6478595577532824,-0.8731195167454203,76.51565862993141,-0.004034959624974154,-0.007534012357932054,0.0017995887534445428,0.4,-0.12600250068394045,0.12457701847124761,0.8631390391448108,0.007198355013778171,-1.2528796680271626,0.26437377091497183,1.1790437623858452,0.06388286602883504,-11.606354266405106,-18.295933306217194,12.515014410018921,0.0,0.0,0.0,0.0,0.0,0.0,0.0,0.0,0.0,0.0,0.0,0.0,0.0,0.0,0.0,0.0,True,0,2.115807056427002,0.02993701171875
STABILIZE,2.047675132751465,29.888223012406204,0.03250172932942708,0.032616376876831055,0.0,0.0,0.0,-0.648067344914439,-0.8724669668754196,76.5290526308938,-0.0005053691271940746,-0.0036536219089307316,0.003233528310453793,0.4,-0.12539822271876355,0.10915050005959841,0.8455233607873028,0.012934113241815173,0.9405819699168205,-0.687924399971962,1.5919774770736694,0.36684044233724633,57.44355320930481,-12.110704183578491,16.075468063354492,0.0,0.0,0.0,0.0,0.0,0.0,0.0,0.0,0.0,0.0,0.0,0.0,0.0,0.0,0.0,0.0,True,0,2.1733789443969727,0.034831787109375
STABILIZE,2.0811636447906494,29.860348559061396,0.03247979482014974,0.032753944396972656,0.0,0.0,0.0,-0.645582223273612,-0.8682056225244192,76.50353504415463,-0.006356651347935071,-0.000912650718707314,-0.0015477945888606854,0.4,-0.11174819310607155,0.12391907813000584,0.8455961452479234,-0.0061911783554427415,0.6613864563405514,1.027976255863905,1.6289923340082169,-1.0350859269680484,-8.450888842344284,25.29180347919464,25.98778009414673,0.0,0.0,0.0,0.0,0.0,0.0,0.0,0.0,0.0,0.0,0.0,0.0,0.0,0.0,0.0,0.0,True,0,2.201948881149292,0.034927001953125
STABILIZE,2.1148808002471924,29.65996054111008,0.03259304364522298,0.03276419639587402,0.0,0.0,0.0,-0.6447671362457063,-0.8690211364391482,76.51531029028374,-0.0029055570245040937,-0.007387926939449159,0.00011151713463109772,0.4,-0.1310612888652024,0.12003317057325273,0.8460706765157,0.00044606853852439086,-1.235263142734766,-0.039004269638098776,1.6435541212558746,0.4366294743270119,-51.37563943862915,-10.29995083808899,22.16283679008484,0.0,0.0,0.0,0.0,0.0,0.0,0.0,0.0,0.0,0.0,0.0,0.0,0.0,0.0,0.0,0.0,True,0,2.230717897415161,0.02993701171875
STABILIZE,2.1482222080230713,29.991233527110996,0.03233960469563802,0.03246641159057617,0.0,0.0,0.0,-0.6455437500986778,-0.8709811872875303,76.53659998992666,-0.0025194292488940257,-0.0046730878749310055,0.0013594638001456253,0.4,-0.13459814439238055,0.11487295244754717,0.8409458713705805,0.005437855200582501,-0.40792766958475113,-0.06546832737512887,1.542649231851101,0.32329211668459706,21.269094944000244,-0.27454234659671783,18.936985731124878,0.0,0.0,0.0,0.0,0.0,0.0,0.0,0.0,0.0,0.0,0.0,0.0,0.0,0.0,0.0,0.0,True,0,2.2593913078308105,0.034926025390625
STABILIZE,2.181643486022949,29.9212715262024,0.03246787389119466,0.03259468078613281,0.0,0.0,0.0,-0.6444754124629527,-0.8699455598546271,76.50949779930005,-0.005040955496116528,-0.0001187472543249765,-0.004107823320294888,0.4,-0.11588698440060383,0.12248938714233243,0.841495391350502,-0.01643129328117955,0.9381003677845001,0.6300106644630432,1.620263233780861,-1.2185402190412422,33.408334851264954,15.43833315372467,21.9951793551445,0.0,0.0,0.0,0.0,0.0,0.0,0.0,0.0,0.0,0.0,0.0,0.0,0.0,0.0,0.0,0.0,True,0,2.2910690307617188,0.034927001953125
STABILIZE,2.215344190597534,29.674439664930947,0.03249815305074056,0.032834768295288086,0.0,0.0,0.0,-0.644763347625151,-0.869142799183739,76.5152488185812,-0.005261811874084904,0.0005035026896467778,-0.009598673535030078,0.4,-0.09680223918109704,0.1301080813266309,0.8420530242620347,-0.03839469414012031,0.9381003677845001,0.6300106644630432,1.620263233780861,-1.2185402190412422,33.408334851264954,15.43833315372467,21.9951793551445,0.0,0.0,0.0,0.0,0.0,0.0,0.0,0.0,0.0,0.0,0.0,0.0,0.0,0.0,0.0,0.0,True,0,2.3173420429229736,0.034927001953125
STABILIZE,2.2488627433776855,29.83464807767543,0.032450230916341145,0.03258061408996582,0.0,0.0,0.0,-0.6461546785034238,-0.8705033408498939,76.53698248052018,-0.0022918438119307848,-0.007415943831755147,-0.004760286347904965,0.4,-0.11836628619199581,0.12239609005519357,0.8413842537543226,-0.01904114539161986,-1.2674334459006786,0.09302138932980597,1.5615430660545826,0.2554450728945101,-19.586679339408875,7.8168511390686035,26.680898666381836,0.0,0.0,0.0,0.0,0.0,0.0,0.0,0.0,0.0,0.0,0.0,0.0,0.0,0.0,0.0,0.0,True,0,2.374539852142334,0.029936767578125
STABILIZE,2.2966115474700928,20.942828325194483,0.03238418896993001,0.04682564735412598,0.0,0.0,0.0,-0.6461546785034238,-0.8705033408498939,76.53698248052018,-0.003673062601318886,-0.0035497681104134948,-0.004760286347904965,0.4,-0.11836628619199581,0.12239609005519357,0.8413842537543226,-0.01904114539161986,-1.2674334459006786,0.09302138932980597,1.5615430660545826,0.2554450728945101,-19.586679339408875,7.8168511390686035,26.680898666381836,0.0,0.0,0.0,0.0,0.0,0.0,0.0,0.0,0.0,0.0,0.0,0.0,0.0,0.0,0.0,0.0,True,1,2.374539852142334,0.029936767578125
STABILIZE,2.3303210735321045,29.66373634145479,0.03240087827046712,0.03292679786682129,0.0,0.0,0.0,-0.644599263002512,-0.8697679215753539,76.53801383908485,-0.005892285050685115,0.00024167815194262973,-0.015203383930982407,0.4,-0.10011084052224692,0.13310254533844695,0.8493429443591443,-0.060813535723929626,0.3357165027409792,0.5358869209885597,1.9217770546674728,-1.2068634770465765,38.1500244140625,9.940508008003235,23.767411708831787,0.0,0.0,0.0,0.0,0.0,0.0,0.0,0.0,0.0,0.0,0.0,0.0,0.0,0.0,0.0,0.0,True,0,2.432128667831421,0.03492626953125
STABILIZE,2.3680453300476074,26.510489024290038,0.03254559834798177,0.036782264709472656,0.0,0.0,0.0,-0.6437153404743772,-0.8713996430958993,76.54195485823595,-0.004443583606252659,-0.0038337051528057374,-0.010974026810833867,0.4,-0.10450754836163682,0.1354626665084894,0.8635309574290967,-0.04389610724333547,-1.162740122526884,0.5216859746724367,1.9337859004735947,0.3981793512812482,-30.74321448802948,13.900864124298096,24.71175342798233,0.0,0.0,0.0,0.0,0.0,0.0,0.0,0.0,0.0,0.0,0.0,0.0,0.0,0.0,0.0,0.0,True,0,2.4897682666778564,0.024947998046875
STABILIZE,2.4042413234710693,27.62500164657841,0.03235510190327962,0.03515768051147461,0.0,0.0,0.0,-0.6401179652158961,-0.871774343004898,76.52827398932841,-0.0047586028282328875,-0.006183611421279696,-0.008942704814427802,0.4,-0.12006156196198789,0.13898427191385748,0.8608140422810832,-0.03577081925771121,-1.162740122526884,0.5216859746724367,1.9337859004735947,0.3981793512812482,-30.74321448802948,13.900864124298096,24.71175342798233,0.0,0.0,0.0,0.0,0.0,0.0,0.0,0.0,0.0,0.0,0.0,0.0,0.0,0.0,0.0,0.0,True,0,2.5193991661071777,0.024947998046875
STABILIZE,2.437612771987915,29.968947161587653,0.03229811986287435,0.03243255615234375,0.0,0.0,0.0,-0.6411742966597209,-0.870201531865944,76.53834851835418,-0.002340477777823371,-0.0003861769855772057,-0.007083204666966441,0.4,-0.10470100514575396,0.13024323589566217,0.853329980828955,-0.028332818667865765,0.6609388161450624,-0.21221658680588007,1.612577959895134,0.38169023408820607,24.86458420753479,-13.411323726177216,25.836467742919922,0.0,0.0,0.0,0.0,0.0,0.0,0.0,0.0,0.0,0.0,0.0,0.0,0.0,0.0,0.0,0.0,True,0,2.5504164695739746,0.06486279296875
STABILIZE,2.4710631370544434,29.89461380013257,0.0323674996693929,0.03250575065612793,0.0,0.0,0.0,-0.6421697433703973,-0.869265902671358,76.53831436740833,-0.006385304572225468,-0.004612635673821725,-0.007533223509319734,0.4,-0.11174567882268842,0.1420670295434978,0.8719254803922342,-0.030132894037278937,-0.372299668379128,0.6230611354112625,1.1238697916269302,-0.047929465118389324,-29.72719371318817,17.791293561458588,17.762458324432373,0.0,0.0,0.0,0.0,0.0,0.0,0.0,0.0,0.0,0.0,0.0,0.0,0.0,0.0,0.0,0.0,True,0,2.5793397426605225,0.03492626953125
STABILIZE,2.504405975341797,29.988231508955064,0.03238371213277181,0.032509565353393555,0.0,0.0,0.0,-0.6402102261305441,-0.8700338720661612,76.53869002781269,-0.0029577374860806486,-0.005628675985681472,-0.008380589357492703,0.4,-0.12262257267891594,0.13582381218818323,0.8669746200084695,-0.03352235742997081,-0.801496859639883,-0.10839018505066633,1.4020605012774467,-0.22933355318224224,-1.1860155500471592,-7.570349425077438,25.004610419273376,0.0,0.0,0.0,0.0,0.0,0.0,0.0,0.0,0.0,0.0,0.0,0.0,0.0,0.0,0.0,0.0,True,0,2.6078546047210693,0.0349267578125
STABILIZE,2.5378003120422363,29.9460524624809,0.03248432477315267,0.0325925350189209,0.0,0.0,0.0,-0.6407749440366867,-0.8688885880805677,76.54405855650032,-0.0032482023081197324,-0.00019942117250168657,-0.006711874580078116,0.4,-0.10602551245649028,0.13187893681061655,0.863036883463794,-0.026847498320312465,0.7298873271793127,0.02499549009371549,1.4526236802339554,0.3300022439356057,29.91575598716736,0.34761172719299793,18.900063633918762,0.0,0.0,0.0,0.0,0.0,0.0,0.0,0.0,0.0,0.0,0.0,0.0,0.0,0.0,0.0,0.0,True,1,2.6384754180908203,0.034926025390625
STABILIZE,2.5713748931884766,29.78443709079547,0.03253129323323568,0.03268933296203613,0.0,0.0,0.0,-0.6411342226592,-0.8682229648016088,76.5455202169827,-0.004757008287535204,0.0036391779059301655,-0.005042726869448646,0.4,-0.07342253093508808,0.13571349069173294,0.8631010586396658,-0.020170907477794583,0.6745768710970879,0.6828638724982738,1.8779167905449867,-0.05275246579659763,-5.028686299920082,12.05672025680542,21.575789153575897,0.0,0.0,0.0,0.0,0.0,0.0,0.0,0.0,0.0,0.0,0.0,0.0,0.0,0.0,0.0,0.0,True,0,2.6957948207855225,0.02993701171875
STABILIZE,2.6047966480255127,29.919564007818185,0.032440932591756184,0.032581329345703125,0.0,0.0,0.0,-0.6402568101551178,-0.8695283847067274,76.5482522926507,-0.002624652814451967,-0.00459210442354167,-0.005551483242103143,0.4,-0.08484144652307264,0.12879400067983465,0.8527490526538215,-0.022205932968412573,-0.8516603149473667,-0.1052657375112176,1.3000459410250187,-0.16489456034458005,-20.92243880033493,-3.8297615945339203,17.78455525636673,0.0,0.0,0.0,0.0,0.0,0.0,0.0,0.0,0.0,0.0,0.0,0.0,0.0,0.0,0.0,0.0,True,0,2.7254772186279297,0.034927001953125
STABILIZE,2.638237476348877,29.905271188495078,0.03248480161031087,0.03259873390197754,0.0,0.0,0.0,-0.6382883282919789,-0.8700012152241922,76.54612127362967,-0.0042861202418281175,0.0009940364487744234,-0.005576694849983634,0.4,-0.0679536768582104,0.130811814084675,0.8516419877584593,-0.022306779399934536,0.7586459163576365,0.35751350224018097,1.5658911317586899,-0.050756423052940744,16.013413667678833,9.952404350042343,14.124910533428192,0.0,0.0,0.0,0.0,0.0,0.0,0.0,0.0,0.0,0.0,0.0,0.0,0.0,0.0,0.0,0.0,True,0,2.753309965133667,0.064863037109375
STABILIZE,2.6717171669006348,29.869279742490495,0.032469781239827473,0.03258323669433594,0.0,0.0,0.0,-0.6380611177803702,-0.8704029690856064,76.55199523631588,-0.005182988514817842,0.0017875030787494607,-0.005745235345526356,0.4,-0.04969378961645732,0.1368252538778773,0.8740862593387758,-0.022980941382105425,0.7586459163576365,0.35751350224018097,1.5658911317586899,-0.050756423052940744,16.013413667678833,9.952404350042343,14.124910533428192,0.0,0.0,0.0,0.0,0.0,0.0,0.0,0.0,0.0,0.0,0.0,0.0,0.0,0.0,0.0,0.0,True,0,2.7819020748138428,0.064863037109375
STABILIZE,2.705902099609375,29.252041705896712,0.03242328961690267,0.033402204513549805,0.0,0.0,0.0,-0.6360735860927494,-0.8719436569911203,76.55454972706545,-0.003878181439386704,-0.0018431639305901636,-0.0045849803280410845,0.4,-0.05141795347440595,0.13571755757111229,0.8914314103758448,-0.018339921312164338,-0.34133687149733305,0.017473891784902662,1.46079296246171,0.2056842232842714,-20.920151472091675,-5.705002322793007,21.381959319114685,0.0,0.0,0.0,0.0,0.0,0.0,0.0,0.0,0.0,0.0,0.0,0.0,0.0,0.0,0.0,0.0,True,0,2.811450719833374,0.034927001953125
STABILIZE,2.73958683013916,29.685360813067973,0.032547744115193684,0.0328524112701416,0.0,0.0,0.0,-0.6351943059588161,-0.8729565527006921,76.54998716069989,-0.0037303874291321213,-0.0038036441038529615,-0.004560501252398446,0.4,-0.06227585521057296,0.13407444232427,0.8810795419851452,-0.018242005009593783,-0.6925513036549091,0.20704763010144234,1.3764502480626106,-0.04389180946270686,-8.481460809707642,5.985914543271065,17.64908879995346,0.0,0.0,0.0,0.0,0.0,0.0,0.0,0.0,0.0,0.0,0.0,0.0,0.0,0.0,0.0,0.0,True,0,2.840257167816162,0.034926025390625
STABILIZE,2.7730631828308105,29.873747337981925,0.03249386151631673,0.03262758255004883,0.0,0.0,0.0,-0.6350947879681749,-0.8740189139208935,76.5539008590943,-0.0037877299604624328,-0.003412532977415303,-0.00458870674497741,0.4,-0.06965904258552183,0.13294892447163467,0.8661792674336921,-0.01835482697990964,0.014690164243802428,0.3011604771018028,1.5766648575663567,-0.054929528563579695,18.35132986307144,6.2086910009384155,26.105481386184692,0.0,0.0,0.0,0.0,0.0,0.0,0.0,0.0,0.0,0.0,0.0,0.0,0.0,0.0,0.0,0.0,True,0,2.8978288173675537,0.02993701171875
STABILIZE,2.8065640926361084,29.848236206687968,0.03245976765950521,0.03259682655334473,0.0,0.0,0.0,-0.634599545892496,-0.8730544698657465,76.56041002937333,-0.004280366602314974,-0.004327810174361299,-0.004587374083663064,0.4,-0.08036137287530394,0.13433730926507761,0.8559575123377722,-0.018349496334652257,-0.7176334504038095,0.3796106204390526,1.488353405147791,-0.046716626293036044,-10.86914911866188,10.00945270061493,23.118889331817627,0.0,0.0,0.0,0.0,0.0,0.0,0.0,0.0,0.0,0.0,0.0,0.0,0.0,0.0,0.0,0.0,True,0,2.926243782043457,0.06985302734375
STABILIZE,2.839900493621826,29.998097540391505,0.03242662747701009,0.03252768516540527,0.0,0.0,0.0,-0.6335249650369826,-0.873470310992324,76.55423553836364,-0.00513712388367514,-0.004128347816085269,-0.00565694170295478,0.4,-0.0885626270384303,0.13960934555394092,0.8760022591646988,-0.02262776681181912,-0.39680302143096924,0.31226237770169973,1.4750810340046883,-0.2313675888531573,5.849431082606316,-1.5424150042235851,27.125898003578186,0.0,0.0,0.0,0.0,0.0,0.0,0.0,0.0,0.0,0.0,0.0,0.0,0.0,0.0,0.0,0.0,True,0,2.9617724418640137,0.029936767578125
STABILIZE,2.8736114501953125,29.666254075808265,0.0325193723042806,0.03286242485046387,0.0,0.0,0.0,-0.6336924113933537,-0.8727230989692951,76.56417346360601,-0.003976134461793042,0.0007977806620819982,-0.004622660473908455,0.4,-0.07197282563586639,0.13859144585922958,0.8614079228489956,-0.01849064189563382,0.6133291870355606,0.2791635924950242,1.38133205473423,0.15049151899423469,5.92636838555336,2.1922484040260315,15.980513393878937,0.0,0.0,0.0,0.0,0.0,0.0,0.0,0.0,0.0,0.0,0.0,0.0,0.0,0.0,0.0,0.0,True,0,2.9905412197113037,0.034926025390625
STABILIZE,2.9071385860443115,29.822980659840727,0.03243854840596517,0.03261923789978027,0.0,0.0,0.0,-0.6344285777198342,-0.8725794515533133,76.56564195427755,-0.004548785879492268,-0.0029431987240708586,-0.00548797005328894,0.4,-0.07572990216333657,0.1404558131219208,0.856389946697848,-0.02195188021315576,-0.3497971687465906,0.3817863529548049,1.6098277643322945,-0.21535786556248543,-11.860021948814392,8.273591101169586,26.475617289543152,0.0,0.0,0.0,0.0,0.0,0.0,0.0,0.0,0.0,0.0,0.0,0.0,0.0,0.0,0.0,0.0,True,0,3.0222692489624023,0.03492724609375
STABILIZE,2.940646171569824,29.847811390306212,0.0324433167775472,0.032579660415649414,0.0,0.0,0.0,-0.6347675792182489,-0.8719028359386589,76.56254787858354,-0.0025421164704252947,-0.0034314651756922193,-0.0057479858063027274,0.4,-0.08127536865209135,0.13246227356907703,0.842169503561109,-0.02299194322521091,-0.4406331107020378,-0.1144697773270309,1.1189271695911884,-0.09630380633743522,1.0331417433917522,-1.7280783504247665,19.908925890922546,0.0,0.0,0.0,0.0,0.0,0.0,0.0,0.0,0.0,0.0,0.0,0.0,0.0,0.0,0.0,0.0,True,0,3.053565263748169,0.029936767578125
STABILIZE,2.9796011447906494,25.66877803685412,0.03237632115681966,0.038103342056274414,0.0,0.0,0.0,-0.6346574957787353,-0.8730494005847219,76.56870187902572,-0.0028538102854843814,-0.0008612414666427154,-0.004494578676505235,0.4,-0.07269497905410587,0.1263632278626847,0.83051607955659,-0.01797831470602094,0.2580922795459628,-0.0018910690414486453,1.3960249722003937,0.207552226661417,4.788970202207565,0.3761500585824251,23.576052486896515,0.0,0.0,0.0,0.0,0.0,0.0,0.0,0.0,0.0,0.0,0.0,0.0,0.0,0.0,0.0,0.0,True,0,3.0822465419769287,0.03492626953125
STABILIZE,3.0131165981292725,29.836558160710222,0.03248265584309896,0.03262948989868164,0.0,0.0,0.0,-0.6344285243589812,-0.8721343686793518,76.57174814339555,-0.0026812634452221657,-0.0005138488816370563,-0.003296625725643667,0.4,-0.06473216144734126,0.12106027629046508,0.8234526028449001,-0.013186502902574669,0.2580922795459628,-0.0018910690414486453,1.3960249722003937,0.207552226661417,4.788970202207565,0.3761500585824251,23.576052486896515,0.0,0.0,0.0,0.0,0.0,0.0,0.0,0.0,0.0,0.0,0.0,0.0,0.0,0.0,0.0,0.0,True,0,3.110872268676758,0.03492626953125
STABILIZE,3.0465047359466553,29.950115321722613,0.032429011662801106,0.03255486488342285,0.0,0.0,0.0,-0.6317818260556013,-0.8735712163651402,76.57065531312834,-0.0038851131895629694,-0.003578392575500529,-0.004459625087672189,0.4,-0.0725510239949153,0.1222643548268843,0.8182577490297895,-0.017838500350688756,-0.5050051957368851,0.07603805279359221,1.4303061179816723,-0.035682709152931674,-10.788501799106598,0.3715476952493191,27.44339406490326,0.0,0.0,0.0,0.0,0.0,0.0,0.0,0.0,0.0,0.0,0.0,0.0,0.0,0.0,0.0,0.0,True,0,3.1682956218719482,0.02993701171875
STABILIZE,3.0799450874328613,29.905271188495078,0.03249386151631673,0.03261399269104004,0.0,0.0,0.0,-0.6310260229352571,-0.8742014613986326,76.573694747309,-0.0036704133920596755,-0.0004142047797959366,-0.0030328604006929745,0.4,-0.06414029110600956,0.12227578987866208,0.8157819799274545,-0.012131441602771898,0.2888064133003354,0.2909684553742409,1.7716685310006142,0.2665856183589033,12.45531290769577,0.44385879300534725,30.460405349731445,0.0,0.0,0.0,0.0,0.0,0.0,0.0,0.0,0.0,0.0,0.0,0.0,0.0,0.0,0.0,0.0,True,0,3.1970624923706055,0.03485546875
STABILIZE,3.11334228515625,29.942204454597373,0.032497437795003255,0.03260374069213867,0.0,0.0,0.0,-0.6296277551461086,-0.8732633242439608,76.5777723702435,-0.004214253143305912,-0.0007088873369490226,-0.0033214526385883414,0.4,-0.05834530069650358,0.12488048170405862,0.8163300615857214,-0.013285810554353366,0.17121733399108052,0.39952676743268967,1.7021631821990013,-0.10057716355044262,5.444594100117683,4.250846430659294,21.536071598529816,0.0,0.0,0.0,0.0,0.0,0.0,0.0,0.0,0.0,0.0,0.0,0.0,0.0,0.0,0.0,0.0,True,0,3.227355718612671,0.03492724609375
STABILIZE,3.146876096725464,29.822556562051165,0.03252914746602376,0.03265953063964844,0.0,0.0,0.0,-0.6295612675234067,-0.8729698395530618,76.5774786721092,-0.002895228393698167,-0.002696948149844308,-0.0035596960941296813,0.4,-0.06287185138738678,0.12081003278198982,0.8107754253171685,-0.014238784376518725,-0.3904897253960371,0.03095616411883384,1.3508042320609093,-0.08844171832411503,-13.60241174697876,0.24428057949990034,21.83583378791809,0.0,0.0,0.0,0.0,0.0,0.0,0.0,0.0,0.0,0.0,0.0,0.0,0.0,0.0,0.0,0.0,True,0,3.256101608276367,0.02993603515625
STABILIZE,3.180328369140625,29.89397459837783,0.032446893056233723,0.03256058692932129,0.0,0.0,0.0,-0.6297963220803904,-0.87339363144672,76.57826414386373,-0.0026867391110021897,-0.002778956506513007,-0.003789882511997723,0.4,-0.06713701735553748,0.11633108385512793,0.801780069831796,-0.015159530047990892,-0.3904897253960371,0.03095616411883384,1.3508042320609093,-0.08844171832411503,-13.60241174697876,0.24428057949990034,21.83583378791809,0.0,0.0,0.0,0.0,0.0,0.0,0.0,0.0,0.0,0.0,0.0,0.0,0.0,0.0,0.0,0.0,True,0,3.2847840785980225,0.02993603515625
STABILIZE,3.2139177322387695,29.769850451767677,0.032410415013631184,0.032738685607910156,0.0,0.0,0.0,-0.627664982894229,-0.873561077803091,76.58019025720968,-0.0030126788708682234,-0.0022435249108504842,-0.003477074190452216,0.4,-0.06824150352243591,0.114038093817746,0.7951416447467051,-0.013908296761808865,-0.2157088601961732,0.14340681955218315,1.4437424018979073,0.0342706075626712,-3.282294049859047,4.255807399749756,23.52115511894226,0.0,0.0,0.0,0.0,0.0,0.0,0.0,0.0,0.0,0.0,0.0,0.0,0.0,0.0,0.0,0.0,True,1,3.3135972023010254,0.0349267578125
STABILIZE,3.2473974227905273,29.86672743067918,0.03241756757100423,0.032555580139160156,0.0,0.0,0.0,-0.6288627739590671,-0.8730347797110298,76.58196610639389,-0.003650738602402322,-0.00041453489883101714,-0.004521490411399411,0.4,-0.060445433078930556,0.1151345449190421,0.7957302422075057,-0.018085961645597642,-0.05902005941607058,0.28726973105221987,1.6147907823324203,-0.21198612667045277,1.6546271741390228,0.2727275947108865,21.739228069782257,0.0,0.0,0.0,0.0,0.0,0.0,0.0,0.0,0.0,0.0,0.0,0.0,0.0,0.0,0.0,0.0,True,0,3.3709652423858643,0.029936767578125
STABILIZE,3.282074213027954,28.838723872387238,0.03246811230977376,0.03386092185974121,0.0,0.0,0.0,-0.6279290657551853,-0.8730491337804575,76.58153580447618,-0.003511071762188225,-0.0018658096220893722,-0.004247284149199147,0.4,-0.060709088465735146,0.11541296043073931,0.7900072323325438,-0.016989136596796586,-0.15964958583936095,0.2808074001222849,1.446463167667389,0.026307700887920598,3.4966737031936646,6.255010515451431,27.035075426101685,0.0,0.0,0.0,0.0,0.0,0.0,0.0,0.0,0.0,0.0,0.0,0.0,0.0,0.0,0.0,0.0,True,0,3.3996074199676514,0.034927001953125
STABILIZE,3.315600872039795,29.827434414979482,0.032507928212483723,0.03265857696533203,0.0,0.0,0.0,-0.6274308888325975,-0.8728024999183965,76.5844932763868,-0.002333257248089449,-0.0009327121373916153,-0.004540689519598965,0.4,-0.05646567596468128,0.11001477028939032,0.7858404642392285,-0.01816275807839586,0.11851586168631911,-0.08294990402646363,1.2894900515675545,-0.09933174792439955,2.969001419842243,2.097979560494423,20.300641655921936,0.0,0.0,0.0,0.0,0.0,0.0,0.0,0.0,0.0,0.0,0.0,0.0,0.0,0.0,0.0,0.0,True,0,3.4283103942871094,0.03492626953125
STABILIZE,3.3490238189697266,29.920844628334997,0.03244665463765462,0.03256654739379883,0.0,0.0,0.0,-0.6282276197271088,-0.8729877154387802,76.58822255967362,-0.00318301092499095,-0.0004325689879496736,-0.0045502900151308395,0.4,-0.0504482282014325,0.10945346006959403,0.7888521317129996,-0.018201160060523358,0.22201973479241133,0.19794947002083063,1.7023414373397827,-0.03315203068394939,-6.918002665042877,2.286183647811413,27.14599370956421,0.0,0.0,0.0,0.0,0.0,0.0,0.0,0.0,0.0,0.0,0.0,0.0,0.0,0.0,0.0,0.0,True,0,3.4570441246032715,0.0349267578125
STABILIZE,3.382512092590332,29.862261934427398,0.03245571454366048,0.03257036209106445,0.0,0.0,0.0,-0.6278190890373775,-0.8720997908466785,76.58813376721442,-0.0031755385484867208,-0.0002549259034973051,-0.004558338383349848,0.4,-0.044442952062743554,0.10893700323753622,0.7919811007635047,-0.01823335353339939,0.22201973479241133,0.19794947002083063,1.7023414373397827,-0.03315203068394939,-6.918002665042877,2.286183647811413,27.14599370956421,0.0,0.0,0.0,0.0,0.0,0.0,0.0,0.0,0.0,0.0,0.0,0.0,0.0,0.0,0.0,0.0,True,0,3.485844612121582,0.0349267578125
STABILIZE,3.4159326553344727,29.92212535848303,0.0323822816212972,0.032503604888916016,0.0,0.0,0.0,-0.6275664253989398,-0.8721958403818818,76.59018965415459,-0.003737661534556775,-0.001188269977934492,-0.004780724871679122,0.4,-0.04375653651432691,0.1111769169816986,0.7913546073247264,-0.01912289948671649,-0.08501436095684767,0.3555720206350088,1.478738896548748,-0.0832696909772551,1.8449293449521065,4.080351069569588,21.17912471294403,0.0,0.0,0.0,0.0,0.0,0.0,0.0,0.0,0.0,0.0,0.0,0.0,0.0,0.0,0.0,0.0,True,0,3.5143613815307617,0.029937255859375
STABILIZE,3.44931960105896,29.9507569265924,0.03242352803548177,0.03255319595336914,0.0,0.0,0.0,-0.6281924549250538,-0.8714499090193224,76.59348180533453,-0.00226010310767973,-0.0020476812385586186,-0.0031921285472577172,0.4,-0.04726819723745016,0.10604107271257271,0.7855514488663952,-0.012768514189030869,-0.3293191781267524,-0.05126523319631815,1.3936763629317284,0.3356334947824432,-0.14326702803373337,0.08195564732886851,21.213945746421814,0.0,0.0,0.0,0.0,0.0,0.0,0.0,0.0,0.0,0.0,0.0,0.0,0.0,0.0,0.0,0.0,True,1,3.5499582290649414,0.03492578125
STABILIZE,3.4829962253570557,29.696290002832058,0.03248289426167806,0.03264641761779785,0.0,0.0,0.0,-0.6276506821856543,-0.8705529130822294,76.59433557898078,-0.003851361664640016,-0.0015737262411698336,-0.0031524192198094047,0.4,-0.04801638528186357,0.10924257021859739,0.7859772320597003,-0.012609676879237619,-0.2864637179300189,0.3873873967677355,1.478386577218771,-0.09217535719055919,-11.063634604215622,3.9909757673740387,18.324200809001923,0.0,0.0,0.0,0.0,0.0,0.0,0.0,0.0,0.0,0.0,0.0,0.0,0.0,0.0,0.0,0.0,True,0,3.6072182655334473,0.02993701171875
STABILIZE,3.5163278579711914,29.999384892678076,0.032282384236653645,0.03240609169006348,0.0,0.0,0.0,-0.6261570051915372,-0.8704579307640838,76.59536010735629,-0.003043560827246391,-0.0016810306362641692,-0.0023929702829218365,0.4,-0.04916730351991768,0.10812531499358508,0.7806656856448008,-0.009571881131687346,-0.18531992100179195,0.17653013346716762,1.3918541371822357,0.14760921918512895,1.065828837454319,2.0358767360448837,22.454844415187836,0.0,0.0,0.0,0.0,0.0,0.0,0.0,0.0,0.0,0.0,0.0,0.0,0.0,0.0,0.0,0.0,True,0,3.636449098587036,0.034926025390625
STABILIZE,3.5498032569885254,29.87204523926529,0.032421143849690755,0.03257107734680176,0.0,0.0,0.0,-0.6253306590236714,-0.8697045288821197,76.60053056055798,-0.0035635496840003117,-0.001379801455613281,-0.003140537883666552,0.4,-0.04871579124792965,0.10965282585907796,0.7784440270241276,-0.012562151534666208,-0.07773388642817736,0.300665688700974,1.328416634351015,-0.20879954993795094,3.9222627878189087,2.122250944375992,22.882544994354248,0.0,0.0,0.0,0.0,0.0,0.0,0.0,0.0,0.0,0.0,0.0,0.0,0.0,0.0,0.0,0.0,True,0,3.6652324199676514,0.034926025390625
STABILIZE,3.583296537399292,29.856522543813444,0.03241613705952962,0.03254294395446777,0.0,0.0,0.0,-0.6249418718495096,-0.8701838160627842,76.60025735299118,-0.003153132987328098,-0.000300080451152782,-0.001590987562441869,0.4,-0.04317024941854704,0.10900092579807352,0.7758821641042124,-0.006363950249767476,0.22458774037659168,0.17004903638735414,1.3100444339215755,0.33771816990275155,5.2767690271139145,1.941564492881298,14.893171191215515,0.0,0.0,0.0,0.0,0.0,0.0,0.0,0.0,0.0,0.0,0.0,0.0,0.0,0.0,0.0,0.0,True,0,3.693889617919922,0.0298916015625
STABILIZE,3.6167635917663574,29.87842910976713,0.0323667844136556,0.032489776611328125,0.0,0.0,0.0,-0.6250260752753711,-0.8705911194528991,76.60027101336952,-0.003413162020736763,-0.0017708402778252284,-0.0013402999214232334,0.4,-0.04544663439219349,0.10968457235795613,0.7739862734200547,-0.0053611996856929335,-0.2464241348206997,0.279566808603704,1.5697330236434937,0.032467731106478735,-6.831167638301849,3.9631832391023636,20.75735479593277,0.0,0.0,0.0,0.0,0.0,0.0,0.0,0.0,0.0,0.0,0.0,0.0,0.0,0.0,0.0,0.0,True,0,3.7234246730804443,0.034926025390625
STABILIZE,3.6501405239105225,29.962096480387466,0.032318862279256184,0.032462120056152344,0.0,0.0,0.0,-0.6246993467731212,-0.8696336123086279,76.60345388152275,-0.0035553956555650994,-0.0018789921490756794,-0.0010802715242240214,0.4,-0.04790665280388301,0.11094694304279852,0.776200993673781,-0.004321086096896086,-0.2464241348206997,0.279566808603704,1.5697330236434937,0.032467731106478735,-6.831167638301849,3.9631832391023636,20.75735479593277,0.0,0.0,0.0,0.0,0.0,0.0,0.0,0.0,0.0,0.0,0.0,0.0,0.0,0.0,0.0,0.0,True,0,3.752134084701538,0.034926025390625
