E-kp,E-ki,E-kd,E-I-Tot,E-P,E-I,E-D,E-PID,N-kp,N-ki,N-kd,N-I-Tot,N-P,N-I,N-D,N-PID,D-kp,D-ki,D-kd,D-I-Tot,D-P,D-I,D-D,D-PID,Y-kp,Y-ki,Y-kd,Y-I-Tot,Y-P,Y-I,Y-D,Y-PID,errorN,desiredN,actualN,errorE,desiredE,actualE,errorD,desiredD,actualD,errorY,desiredY,actualY,roll,pitch,yaw-rate,thrust,dt,Time,Mode
0.1,0.004,0.04,-0.0007192502906421267,-0.001980849379525027,-2.877001162568507e-06,-0.021821412186634814,-0.023805138567322408,0.1,0.004,0.04,-0.0005995296097464258,-0.0016511329518029841,-2.398118438985703e-06,-0.018189193529125028,-0.019842724599366996,0.002,8e-05,0,-0.026177261585726176,-0.0014418683744557657,-2.094180926858094e-06,-0.0,-0.0014439625553826238,0.2,0.02,0,0.0008121587575304816,0.004473447398940391,1.6243175150609633e-05,0.0,0.004489690574091001,-0.01651132951802984,0.0,0.01651132951802984,-0.01980849379525027,0.0,0.01980849379525027,-0.7209341872278828,0.0,0.7209341872278828,0.022367236994701955,0,-0.022367236994701955,-0.023797390512462647,0.01985201618307565,-0.004489690574091001,0.4,0.03631019592285156,0.03660273551940918,STABILIZE
0.1,0.004,0.04,-0.0014709085658728715,-0.002186448145828766,-5.883634263491486e-06,-0.012106810908983792,-0.014299142689076049,0.1,0.004,0.04,-0.0007605442911864809,-0.0004683647653286931,-3.0421771647459235e-06,-0.0022136472866415968,-0.0026850542291350357,0.002,8e-05,0,-0.051064010412132044,-0.001447827759509396,-4.085120832970564e-06,-0.0,-0.0014519128803423666,0.2,0.02,0,0.0015989019607056335,0.004577008660744497,3.1978039214112674e-05,0.0,0.00460898669995861,-0.004683647653286931,0.0,0.004683647653286931,-0.021864481458287656,0.0,0.021864481458287656,-0.723913879754698,0.0,0.723913879754698,0.022885043303722485,0,-0.022885043303722485,-0.014298069085863202,0.002690765369153529,-0.00460898669995861,0.4,0.0343780517578125,0.07093405723571777,STABILIZE
0.1,0.004,0.04,-0.00216716880690312,-0.0020800050669473893,-8.66867522761248e-06,-0.0076472237669346155,-0.009735897509109618,0.1,0.004,0.04,-0.0008283799024837853,-0.00020265183462017737,-3.3135196099351413e-06,-0.0004173785252611118,-0.0006233438794912243,0.002,8e-05,0,-0.07569928709764517,-0.0014719065461987818,-6.055942967811615e-06,-0.0,-0.0014779624891665933,0.2,0.02,0,0.002332656373859891,0.004384030014402501,4.6653127477197826e-05,0.0,0.0044306831418796985,-0.0020265183462017736,0.0,0.0020265183462017736,-0.020800050669473893,0.0,0.020800050669473893,-0.7359532730993908,0.0,0.7359532730993908,0.021920150072012503,0,-0.021920150072012503,-0.009735658318462695,0.0006270685816831588,-0.0044306831418796985,0.4,0.033473968505859375,0.10442352294921875,STABILIZE
0.1,0.004,0.04,-0.0028229935142692927,-0.001959850231133255,-1.1291974057077171e-05,-0.005376350104669614,-0.0073474923098599465,0.1,0.004,0.04,-0.0008956380065067699,-0.00020099244391753735,-3.5825520260270797e-06,-0.0003080750120745328,-0.0005126500080180972,0.002,8e-05,0,-0.09986036029094122,-0.0014440469945841857,-7.988828823275298e-06,-0.0,-0.0014520358234074609,0.2,0.02,0,0.003035306756764827,0.004199565828718387,6.070613513529654e-05,0.0,0.004260271963853684,-0.0020099244391753733,0.0,0.0020099244391753733,-0.019598502311332547,0.0,0.019598502311332547,-0.7220234972920928,0.0,0.7220234972920928,0.020997829143591933,0,-0.020997829143591933,-0.007347303939830817,0.000515342691729067,-0.004260271963853684,0.4,0.0334630012512207,0.1378779411315918,STABILIZE
0.1,0.004,0.04,-0.0035033074456165326,-0.0020367336265822407,-1.401322978246613e-05,-0.004485219775276823,-0.00653596663164153,0.1,0.004,0.04,-0.0012199107385962133,-0.0009708123664649148,-4.879642954384853e-06,-0.002090218369345366,-0.0030659103787646657,0.002,8e-05,0,-0.12389135079298393,-0.0014388864957876888,-9.911308063438715e-06,-0.0,-0.0014487978038511275,0.2,0.02,0,0.004136805094280236,0.006595363111848381,8.273610188560472e-05,0.0,0.006678099213733986,-0.009708123664649147,0.0,0.009708123664649147,-0.020367336265822406,0.0,0.020367336265822406,-0.7194432478938444,0.0,0.7194432478938444,0.0329768155592419,0,-0.0329768155592419,-0.00653420095217125,0.0030696716725397122,-0.006678099213733986,0.4,0.033402204513549805,0.1712949275970459,STABILIZE
0.1,0.004,0.04,-0.004209132599311356,-0.002110774213528892,-1.6836530397245424e-05,-0.00029807238150950967,-0.002425683125435647,0.1,0.004,0.04,-0.0016069133110151767,-0.0011573334361281301,-6.4276532440607065e-06,0.0011013864644630394,-6.237462490915136e-05,0.002,8e-05,0,-0.14797790611005765,-0.0014406196659292932,-1.1838232488804613e-05,0.0,-0.0014524578984180978,0.2,0.02,0,0.0052288415420955695,0.006531482654637509,0.00010457683084191139,0.0,0.00663605948547942,-0.011573334361281301,0.0,0.011573334361281301,-0.02110774213528892,0.0,0.02110774213528892,-0.7203098329646466,0.0,0.7203098329646466,0.032657413273187545,0,-0.032657413273187545,-0.0024256471791634015,6.375720408267573e-05,-0.00663605948547942,0.4,0.03343915939331055,0.2047281265258789,STABILIZE
0.1,0.004,0.04,-0.004911756398438228,-0.0021001523696395747,-1.9647025593752913e-05,0.0002057686167973742,-0.0019140307784359534,0.1,0.004,0.04,-0.0019088020567472204,-0.0009023496862823852,-7.635208226988881e-06,-0.0010412733290353594,-0.0019512582235447335,0.002,8e-05,0,-0.17287310552826002,-0.0014882419899741144,-1.3829848442260802e-05,-0.0,-0.0015020718384163752,0.2,0.02,0,0.006409314820672375,0.007056902303565761,0.0001281862964134475,0.0,0.007185088599979209,-0.009023496862823851,0.0,0.009023496862823851,-0.021001523696395744,0.0,0.021001523696395744,-0.7441209949870572,0.0,0.7441209949870572,0.035284511517828805,0,-0.035284511517828805,-0.0019128287704562547,0.0019524365727638642,-0.007185088599979209,0.4,0.033455848693847656,0.2382185459136963,STABILIZE
0.1,0.004,0.04,-0.005524476575647161,-0.0018323693709523825,-2.2097906302588646e-05,0.0005920329368456089,-0.0012624343404093624,0.1,0.004,0.04,-0.0025247337091748607,-0.001841973443162209,-1.0098934836699442e-05,-0.0039242974178294995,-0.005776369795828408,0.002,8e-05,0,-0.19738076408249192,-0.0014658268018231339,-1.5790461126599354e-05,0.0,-0.0014816172629497331,0.2,0.02,0,0.007665421366196622,0.007512894943841846,0.00015330842732393245,0.0,0.007666203371165779,-0.01841973443162209,0.0,0.01841973443162209,-0.018323693709523824,0.0,0.018323693709523824,-0.7329134009115669,0.0,0.7329134009115669,0.03756447471920923,0,-0.03756447471920923,-0.0012586469440394768,0.0057771962362606,-0.007666203371165779,0.4,0.033438682556152344,0.271625280380249,STABILIZE
0.1,0.004,0.04,-0.00605072085922508,-0.0015740844965433623,-2.420288343690032e-05,0.0009228372996748617,-0.000675450080305401,0.1,0.004,0.04,-0.003457148839414688,-0.0027890092997763767,-1.3828595357658752e-05,-0.0061944583896909634,-0.008997296284824999,0.002,8e-05,0,-0.2216497854717234,-0.001451853882586155,-1.7731982837737872e-05,-0.0,-0.0014695858654238927,0.2,0.02,0,0.009006694571511435,0.008023944103527579,0.0001801338914302287,0.0,0.008204077994957808,-0.027890092997763766,0.0,0.027890092997763766,-0.015740844965433622,0.0,0.015740844965433622,-0.7259269412930774,0.0,0.7259269412930774,0.04011972051763789,0,-0.04011972051763789,-0.0006691498174669782,0.008997767043533313,-0.008204077994957808,0.4,0.0334317684173584,0.30506277084350586,STABILIZE
0.1,0.004,0.04,-0.006701401088889768,-0.0019276521871206332,-2.680560435555907e-05,0.0002690163451546376,-0.001685441446321555,0.1,0.004,0.04,-0.004344875508703466,-0.0026299066386290346,-1.7379502034813865e-05,-0.003973624374400399,-0.006620910515064247,0.002,8e-05,0,-0.24596766429638833,-0.0014408432949209618,-1.9677413143711067e-05,-0.0,-0.001460520708064673,0.2,0.02,0,0.010337853875439883,0.007887168002464074,0.00020675707750879768,0.0,0.008093925079972872,-0.026299066386290343,0.0,0.026299066386290343,-0.01927652187120633,0.0,0.01927652187120633,-0.7204216474604809,0.0,0.7204216474604809,0.03943584001232037,0,-0.03943584001232037,-0.001680883972394689,0.006622069011178716,-0.008093925079972872,0.4,0.03375506401062012,0.3388230800628662,STABILIZE
0.1,0.004,0.04,-0.007313609417533043,-0.0018301861995280212,-2.9254437670132173e-05,0.0006792496947248314,-0.0011801909424733218,0.1,0.004,0.04,-0.0052468855932285,-0.0026965435314989707,-2.0987542372914e-05,-0.003686758372442355,-0.0064042894463142395,0.002,8e-05,0,-0.2699746976491669,-0.0014353722116533254,-2.1597975811933353e-05,0.0,-0.0014569701874652587,0.2,0.02,0,0.011625121223364085,0.0076965269012100644,0.0002325024244672817,0.0,0.007929029325677347,-0.026965435314989704,0.0,0.026965435314989704,-0.01830186199528021,0.0,0.01830186199528021,-0.7176861058266627,0.0,0.7176861058266627,0.03848263450605032,0,-0.03848263450605032,-0.0011758892440640568,0.006405080675414048,-0.007929029325677347,0.4,0.03345060348510742,0.3722822666168213,STABILIZE
0.1,0.004,0.04,-0.007930882683097,-0.0018452356775744711,-3.1723530732388e-05,0.0006178602950686608,-0.0012590989132381983,0.1,0.004,0.04,-0.006184554106791983,-0.0028030039392436495,-2.4738216427167935e-05,-0.004551074904358957,-0.007378817060029775,0.002,8e-05,0,-0.2939374715447194,-0.0014326544754963884,-2.3514997723577552e-05,0.0,-0.0014561694732199658,0.2,0.02,0,0.012734572454984607,0.006633039560670926,0.00025469144909969215,-0.0,0.006887731009770618,-0.028030039392436493,0.0,0.028030039392436493,-0.01845235677574471,0.0,0.01845235677574471,-0.7163272377481942,0.0,0.7163272377481942,0.033165197803354626,0,-0.033165197803354626,-0.0012548275340636625,0.00737954464302912,-0.006887731009770618,0.4,0.03345227241516113,0.4057426452636719,STABILIZE
0.1,0.004,0.04,-0.008514529814472338,-0.0017449149264155113,-3.4058119257889356e-05,0.0002171469821885097,-0.001561826063484891,0.1,0.004,0.04,-0.007114443951780729,-0.002780067926693188,-2.8457775807122915e-05,-0.0022482256461871107,-0.005056751348687422,0.002,8e-05,0,-0.31778751260289395,-0.0014260771757744987,-2.5423001008231517e-05,0.0,-0.0014515001767827303,0.2,0.02,0,0.01376061750433433,0.006135081372082349,0.00027521235008668663,-0.0,0.006410293722169036,-0.027800679266931878,0.0,0.027800679266931878,-0.01744914926415511,0.0,0.01744914926415511,-0.7130385878872493,0.0,0.7130385878872493,0.030675406860411744,0,-0.030675406860411744,-0.0015591185216027707,0.005057586805051196,-0.006410293722169036,0.4,0.03344845771789551,0.43921589851379395,STABILIZE
0.1,0.004,0.04,-0.009244920741816412,-0.0017846840668571421,-3.697968296726565e-05,-0.0004786511331110723,-0.00230031488293548,0.1,0.004,0.04,-0.008009954431081712,-0.0021881477771412447,-3.2039817724326846e-05,0.0011750367654818495,-0.001045150829383722,0.002,8e-05,0,-0.34670962483436607,-0.0014134029037588694,-2.7736769986749287e-05,0.0,-0.0014411396737456187,0.2,0.02,0,0.014977245400695597,0.005945573365280907,0.00029954490801391195,-0.0,0.006245118273294819,-0.021881477771412444,0.0,0.021881477771412444,-0.01784684066857142,0.0,0.01784684066857142,-0.7067014518794347,0.0,0.7067014518794347,0.029727866826404534,0,-0.029727866826404534,-0.0022997722977068993,0.00104634420508544,-0.006245118273294819,0.4,0.04092550277709961,0.48011016845703125,STABILIZE
0.1,0.004,0.04,-0.009862490239772391,-0.0018320196164869655,-3.9449960959089566e-05,0.00024697280491525064,-0.0016244967725308045,0.1,0.004,0.04,-0.008555281433386625,-0.0016177122881380513,-3.42211257335465e-05,0.0021517183912881954,0.0004997849774165976,0.002,8e-05,0,-0.37044776117601724,-0.001408383399137598,-2.9635820894081382e-05,0.0,-0.0014380192200316793,0.2,0.02,0,0.01595266716563768,0.005787176386258686,0.00031905334331275363,-0.0,0.00610622972957144,-0.016177122881380512,0.0,0.016177122881380512,-0.018320196164869653,0.0,0.018320196164869653,-0.704191699568799,0.0,0.704191699568799,0.028935881931293428,0,-0.028935881931293428,-0.0016247489699685177,-0.0004989644999401757,-0.00610622972957144,0.4,0.03370976448059082,0.5138247013092041,STABILIZE
0.1,0.004,0.04,-0.010504073477288078,-0.001913637367869178,-4.201629390915231e-05,-0.00018087719633127074,-0.002136530858109601,0.1,0.004,0.04,-0.008910625707072326,-0.0010598781901103903,-3.56425028282893e-05,0.0036421586617926623,0.0025466379688539828,0.002,8e-05,0,-0.3943292896093181,-0.0014246190529775956,-3.1546343168745454e-05,0.0,-0.0014561653961463411,0.2,0.02,0,0.016812034221744848,0.005126433532304346,0.00033624068443489696,-0.0,0.005462674216739243,-0.010598781901103903,0.0,0.010598781901103903,-0.019136373678691778,0.0,0.019136373678691778,-0.7123095264887978,0.0,0.7123095264887978,0.02563216766152173,0,-0.02563216766152173,-0.0021376699228019525,-0.0025456819033828995,-0.005462674216739243,0.4,0.03352689743041992,0.5473601818084717,STABILIZE
0.1,0.004,0.04,-0.011295236463015718,-0.002367969740601547,-4.5180945852062876e-05,-0.0012327489959523235,-0.003645899682405933,0.1,0.004,0.04,-0.009190930686047531,-0.0008389595068616353,-3.6763722744190125e-05,0.004425727118643045,0.0035500038890372196,0.002,8e-05,0,-0.4179475152711794,-0.0014137982868991168,-3.343580122169435e-05,0.0,-0.0014472340881208111,0.2,0.02,0,0.017839365945499227,0.006149656845164537,0.00035678731890998453,-0.0,0.0065064441640745214,-0.008389595068616352,0.0,0.008389595068616352,-0.023679697406015467,0.0,0.023679697406015467,-0.7068991434495584,0.0,0.7068991434495584,0.030748284225822684,0,-0.030748284225822684,-0.0036478042981239016,-0.0035480467737807313,-0.0065064441640745214,0.4,0.03341102600097656,0.5807604789733887,STABILIZE
0.1,0.004,0.04,-0.012244294067206132,-0.0028352109013434976,-4.897717626882453e-05,-0.002589357610521592,-0.005473545688133914,0.1,0.004,0.04,-0.009397483989511008,-0.0006170565149074573,-3.7589935958044035e-05,0.00490119984022997,0.004246553389364469,0.002,8e-05,0,-0.4415574097108101,-0.001410642089568671,-3.532459277686481e-05,0.0,-0.001445966682345536,0.2,0.02,0,0.019044253119473317,0.007198950275424821,0.00038088506238946634,0.0,0.007579835337814287,-0.006170565149074572,0.0,0.006170565149074572,-0.028352109013434976,0.0,0.028352109013434976,-0.7053210447843354,0.0,0.7053210447843354,0.0359947513771241,0,-0.0359947513771241,-0.005476212407016387,-0.00424311392282272,-0.007579835337814287,0.4,0.033473968505859375,0.6143839359283447,STABILIZE
0.1,0.004,0.04,-0.013030510493213318,-0.0022307213115699614,-5.212204197285327e-05,-0.0011395298756184777,-0.003422373229161292,0.1,0.004,0.04,-0.009057913827762262,0.0009634578616388057,-3.623165531104905e-05,0.007331629074293614,0.00825885528062137,0.002,8e-05,0,-0.4662983708468745,-0.001403943938318038,-3.730386966774996e-05,0.0,-0.001441247807985788,0.2,0.02,0,0.019957890876749294,0.005184504288624149,0.00039915781753498586,-0.0,0.005583662106159135,0.009634578616388056,0.0,-0.009634578616388056,-0.022307213115699612,0.0,0.022307213115699612,-0.7019719691590189,0.0,0.7019719691590189,0.025922521443120745,0,-0.025922521443120745,-0.003426109460319359,-0.008257306039613499,-0.005583662106159135,0.4,0.03524494171142578,0.6494851112365723,STABILIZE
0.1,0.004,0.04,-0.014462323649637138,-0.004272493543188406,-5.784929459854855e-05,-0.005901269725471434,-0.010231612563258389,0.1,0.004,0.04,-0.008298473723591812,0.0022661496906556835,-3.319389489436725e-05,0.00908763085789354,0.011320586653654856,0.002,8e-05,0,-0.4900454322877421,-0.0014172123816659935,-3.920363458301937e-05,-0.0,-0.0014564160162490129,0.2,0.02,0,0.02073496760690898,0.004637553855786024,0.00041469935213817965,-0.0,0.0050522532079242035,0.022661496906556833,0.0,-0.022661496906556833,-0.04272493543188406,0.0,0.04272493543188406,-0.7086061908329967,0.0,0.7086061908329967,0.023187769278930116,0,-0.023187769278930116,-0.010236193199719894,-0.011316444963218066,-0.0050522532079242035,0.4,0.03351235389709473,0.6830489635467529,STABILIZE
0.1,0.004,0.04,-0.015968524011751625,-0.004502374819061708,-6.387409604700651e-05,-0.0062562518871110305,-0.010822500802219744,0.1,0.004,0.04,-0.007600204180635728,0.00208728618462796,-3.040081672254291e-05,0.0073288275574455745,0.009385712925350991,0.002,8e-05,0,-0.5139639130348648,-0.0014299553782456428,-4.1117113042789186e-05,-0.0,-0.001471072491288432,0.2,0.02,0,0.02084071511695417,0.0006322066285225782,0.00041681430233908345,-0.0,0.0010490209308616617,0.020872861846279598,0.0,-0.020872861846279598,-0.04502374819061708,0.0,0.04502374819061708,-0.7149776891228214,0.0,0.7149776891228214,0.003161033142612891,0,-0.003161033142612891,-0.010823018599624075,-0.0093851158289783,-0.0010490209308616617,0.4,0.03345346450805664,0.716489315032959,STABILIZE
0.1,0.004,0.04,-0.0178622287498351,-0.005667741799459454,-7.14489149993404e-05,-0.007958687112435968,-0.013697877826894762,0.1,0.004,0.04,-0.007321799596110162,0.0008332477968416727,-2.9287198384440646e-05,0.003797247827765716,0.004601208426222948,0.002,8e-05,0,-0.5384123914684614,-0.0014634558425567052,-4.3072991317476915e-05,-0.0,-0.0015065288338741822,0.2,0.02,0,0.020582196485416555,-0.0015474607254641892,0.0004116439297083311,-0.0,-0.0011358167957558581,0.008332477968416727,0.0,-0.008332477968416727,-0.05667741799459454,0.0,0.05667741799459454,-0.7317279212783526,0.0,0.7317279212783526,-0.007737303627320946,0,0.007737303627320946,-0.01369725634826232,-0.004603058165184071,0.0011358167957558581,0.4,0.03341197967529297,0.7498679161071777,STABILIZE
0.1,0.004,0.04,-0.019487450064999176,-0.004860961587556386,-7.79498002599967e-05,-0.004911585847566237,-0.00985049723538262,0.1,0.004,0.04,-0.007458441166057815,-0.0004086885992581776,-2.983376466423126e-05,0.0002952588023901092,-0.00014326356153229964,0.002,8e-05,0,-0.5622804873624203,-0.0014277673597571975,-4.498243898899363e-05,-0.0,-0.0014727497987461911,0.2,0.02,0,0.022021985019309413,0.008612681475631209,0.00044043970038618827,0.0,0.009053121176017398,-0.004086885992581776,0.0,0.004086885992581776,-0.04860961587556385,0.0,0.04860961587556385,-0.7138836798785987,0.0,0.7138836798785987,0.04306340737815604,0,-0.04306340737815604,-0.009850386776478776,0.00015066713681358802,-0.009053121176017398,0.4,0.033434152603149414,0.7833354473114014,STABILIZE
0.1,0.004,0.04,-0.021288037693598445,-0.005355419013604045,-8.515215077439378e-05,-0.007460190676344058,-0.012900761840722497,0.1,0.004,0.04,-0.007859943532648461,-0.0011941731543047896,-3.1439774130593845e-05,-0.005161228346525783,-0.0063868412749611666,0.002,8e-05,0,-0.5860944755563531,-0.0014165807110731086,-4.688755804450825e-05,-0.0,-0.0014634682691176168,0.2,0.02,0,0.022221445731723178,0.0011864967577930902,0.00044442891463446357,-0.0,0.0016309256724275538,-0.011941731543047895,0.0,0.011941731543047895,-0.05355419013604045,0.0,0.05355419013604045,-0.7082903555365543,0.0,0.7082903555365543,0.005932483788965451,0,-0.005932483788965451,-0.012900100469243206,0.006388177003341449,-0.0016309256724275538,0.4,0.033621788024902344,0.8169219493865967,STABILIZE
0.1,0.004,0.04,-0.023243813345452436,-0.005845757478780697,-9.297525338180975e-05,-0.003758600235551571,-0.009697332967714078,0.1,0.004,0.04,-0.008524395806681236,-0.00198602884054613,-3.409758322672495e-05,-0.010164454607765546,-0.0121845810315384,0.002,8e-05,0,-0.6095991159047479,-0.0014050939531068214,-4.876792927237984e-05,0.0,-0.0014538618823792013,0.2,0.02,0,0.021162323706601156,-0.0063313708741892325,0.00042324647413202315,-0.0,-0.005908124400057209,-0.0198602884054613,0.0,0.0198602884054613,-0.05845757478780697,0.0,0.05845757478780697,-0.7025469765534107,0.0,0.7025469765534107,-0.03165685437094616,0,0.03165685437094616,-0.009704063667309368,0.01217922123707612,0.005908124400057209,0.4,0.03345632553100586,0.8503866195678711,STABILIZE
0.1,0.004,0.04,-0.024010120404571376,-0.002291286295083124,-9.60404816182855e-05,0.005293533292639105,0.0029062065159376955,0.1,0.004,0.04,-0.010315092352451831,-0.005354248541954283,-4.1260369409807324e-05,-0.017793604352489615,-0.023189113263853707,0.002,8e-05,0,-0.6328352939166902,-0.0013895405397958583,-5.062682351333522e-05,0.0,-0.0014401673633091935,0.2,0.02,0,0.019222501658604913,-0.011600278558269176,0.00038445003317209825,-0.0,-0.011215828525097078,-0.05354248541954283,0.0,0.05354248541954283,-0.02291286295083124,0.0,0.02291286295083124,-0.6947702698979291,0.0,0.6947702698979291,-0.05800139279134588,0,0.05800139279134588,0.0028827303372632746,0.023192043378705045,0.011215828525097078,0.4,0.03344440460205078,0.8838424682617188,STABILIZE
0.1,0.004,0.04,-0.025695622320485573,-0.005040323564210913,-0.00010278248928194229,0.0015072555867437893,-0.0036358504667490664,0.1,0.004,0.04,-0.012271082093183554,-0.005849190136468979,-4.9084328372734216e-05,-0.015975054900108386,-0.0218733293649501,0.002,8e-05,0,-0.6563057591375495,-0.0014037212037403804,-5.2504460731003964e-05,0.0,-0.0014562256644713844,0.2,0.02,0,0.018816368318663085,-0.002429001621644761,0.00037632736637326173,-0.0,-0.0020526742552714992,-0.05849190136468979,0.0,0.05849190136468979,-0.050403235642109134,0.0,0.050403235642109134,-0.7018606018701902,0.0,0.7018606018701902,-0.012145008108223804,0,0.012145008108223804,-0.0036404868829515414,0.02187255818095372,0.0020526742552714992,0.4,0.033440351486206055,0.9172728061676025,STABILIZE
0.1,0.004,0.04,-0.027251731909007485,-0.004070750228632609,-0.00010900692763602994,0.0016059287250451233,-0.0025738284312235155,0.1,0.004,0.04,-0.01593799191277161,-0.009592559609276548,-6.375196765108645e-05,-0.020837456739134126,-0.03049376831606176,0.002,8e-05,0,-0.6829407605485521,-0.00139353216358569,-5.463526084388417e-05,0.0,-0.0014481674244295742,0.2,0.02,0,0.02035988598536514,0.008075620047549617,0.00040719771970730285,-0.0,0.00848281776725692,-0.09592559609276548,0.0,0.09592559609276548,-0.04070750228632609,0.0,0.04070750228632609,-0.6967660817928449,0.0,0.6967660817928449,0.040378100237748085,0,-0.040378100237748085,-0.002552337896278887,0.03049557459977177,-0.00848281776725692,0.4,0.03822660446166992,0.9555137157440186,STABILIZE
0.1,0.004,0.04,-0.027645455870872793,-0.0011772239523717067,-0.00011058182348349117,0.009703697376873252,0.008415891601018055,0.1,0.004,0.04,-0.020255561254092024,-0.01290941506467652,-8.10222450163681e-05,-0.026902313549844858,-0.039892750859537744,0.002,8e-05,0,-0.7061654728487309,-0.0013888251798129289,-5.649323782789848e-05,0.0,-0.0014453184176408274,0.2,0.02,0,0.022119237393496707,0.010520825852097402,0.00044238474786993415,0.0,0.010963210599967337,-0.1290941506467652,0.0,0.1290941506467652,-0.011772239523717067,0.0,0.011772239523717067,-0.6944125899064644,0.0,0.6944125899064644,0.052604129260487006,0,-0.052604129260487006,0.008452514192002894,0.039885007288644504,-0.010963210599967337,0.4,0.033445119857788086,0.9889481067657471,STABILIZE
0.1,0.004,0.04,-0.026325805493334527,0.003943919438169528,-0.00010530322197333811,0.02312026105110843,0.02695887726730462,0.1,0.004,0.04,-0.02537073706750306,-0.015287262189701773,-0.00010148294827001224,-0.030694011246988527,-0.046082756384960316,0.002,8e-05,0,-0.7289063666826248,-0.0013592729522822872,-5.8312509334609984e-05,0.0,-0.0014175854616168971,0.2,0.02,0,0.02295882530959892,0.005018400568406228,0.00045917650619197847,0.0,0.005477577074598206,-0.15287262189701772,0.0,0.15287262189701772,0.03943919438169528,0.0,-0.03943919438169528,-0.6796364761411436,0.0,0.6796364761411436,0.025092002842031134,0,-0.025092002842031134,0.026979056074626154,0.04607094564767878,-0.005477577074598206,0.4,0.033460378646850586,1.0224173069000244,STABILIZE
0.1,0.004,0.04,-0.02703770593055844,-0.0020645565529842157,-0.00010815082372223377,0.0006778913139139053,-0.001494816062792544,0.1,0.004,0.04,-0.03075500216039201,-0.015614711270407181,-0.00012302000864156804,-0.02339682913311342,-0.039134560412162164,0.002,8e-05,0,-0.7523817659174571,-0.001361603021714389,-6.019054127339657e-05,0.0,-0.0014217935629877857,0.2,0.02,0,0.024840969526905333,0.01091667591230626,0.0004968193905381066,0.0,0.011413495302844367,-0.1561471127040718,0.0,0.1561471127040718,-0.020645565529842154,0.0,0.020645565529842154,-0.6808015108571945,0.0,0.6808015108571945,0.0545833795615313,0,-0.0545833795615313,-0.0014575334719149342,0.03913596670446509,-0.011413495302844367,0.4,0.03448200225830078,1.0568828582763672,STABILIZE
0.1,0.004,0.04,-0.027364432918517853,-0.0009766332990108946,-0.00010945773167407142,0.009856031876915482,0.008769940846230517,0.1,0.004,0.04,-0.03666177289169626,-0.017656175334164085,-0.00014664709156678505,-0.027094551241921064,-0.04489737366765194,0.002,8e-05,0,-0.7758240304083497,-0.0014014450565602253,-6.206592243266798e-05,0.0,-0.0014635109789928934,0.2,0.02,0,0.02528657858837632,0.0026639773499679514,0.0005057315717675264,0.0,0.0031697089217354777,-0.17656175334164084,0.0,0.17656175334164084,-0.009766332990108945,0.0,0.009766332990108945,-0.7007225282801126,0.0,0.7007225282801126,0.013319886749839756,0,-0.013319886749839756,0.008780378165593709,0.04489533365471643,-0.0031697089217354777,0.4,0.03345441818237305,1.0903558731079102,STABILIZE
0.1,0.004,0.04,-0.025886977663206703,0.004418180998846828,-0.00010354791065282682,0.02073304362322542,0.02504767671141942,0.1,0.004,0.04,-0.042553973905676834,-0.01762003313993597,-0.00017021589562270733,-0.019174026397306636,-0.03696427543286531,0.002,8e-05,0,-0.7996385243423996,-0.0014242968674460972,-6.397108194739198e-05,-0.0,-0.001488267949393489,0.2,0.02,0,0.024481514367979816,-0.004814926785255762,0.0004896302873595963,-0.0,-0.0043252964978961654,-0.17620033139935967,0.0,0.17620033139935967,0.04418180998846828,0.0,-0.04418180998846828,-0.7121484337230486,0.0,0.7121484337230486,-0.02407463392627881,0,0.02407463392627881,0.025032142791322678,0.03697479674307007,0.0043252964978961654,0.4,0.033440351486206055,1.1238043308258057,STABILIZE
0.1,0.004,0.04,-0.02471327445706558,0.003505167859768555,-9.885309782826232e-05,0.01163048086775955,0.015036795629699843,0.1,0.004,0.04,-0.048949061302041484,-0.019098401269471432,-0.00019579624520816595,-0.014772199845479395,-0.03406639736015899,0.002,8e-05,0,-0.823182985926726,-0.0014062718682053869,-6.585463887413809e-05,-0.0,-0.0014721265070795249,0.2,0.02,0,0.023380132220267268,-0.006578373962489975,0.00046760264440534534,-0.0,-0.00611077131808463,-0.1909840126947143,0.0,0.1909840126947143,0.03505167859768555,0.0,-0.03505167859768555,-0.7031359341026934,0.0,0.7031359341026934,-0.032891869812449875,0,0.032891869812449875,0.01501723660773634,0.03407502394095815,0.00611077131808463,0.4,0.03348493576049805,1.1572740077972412,STABILIZE
0.1,0.004,0.04,-0.022535891387282552,0.0065044275309625145,-9.014356554913021e-05,0.006554078102823917,0.012968362068237302,0.1,0.004,0.04,-0.055063850073577586,-0.018266514966318353,-0.00022025540029431035,-0.007098980852504382,-0.025585751219117044,0.002,8e-05,0,-0.8467725553814831,-0.0014093674846141267,-6.774180443051866e-05,-0.0,-0.0014771092890446453,0.2,0.02,0,0.02156926190375364,-0.010819111166238442,0.00043138523807507284,-0.0,-0.01038772592816337,-0.1826651496631835,0.0,0.1826651496631835,0.06504427530962514,0.0,-0.06504427530962514,-0.7046837423070633,0.0,0.7046837423070633,-0.05409555583119221,0,0.05409555583119221,0.012944199618345868,0.025597983835057403,0.01038772592816337,0.4,0.033475399017333984,1.190802812576294,STABILIZE
0.1,0.004,0.04,-0.019331286708209675,0.009592553685308371,-7.73251468328387e-05,0.02788916086163936,0.037404389400114896,0.1,0.004,0.04,-0.060939891864285334,-0.017589141869064143,-0.00024375956745714133,-0.0047171820126007125,-0.022550083449121995,0.002,8e-05,0,-0.8704906433956384,-0.0014199382162449882,-6.963925147165108e-05,-0.0,-0.0014895774677166392,0.2,0.02,0,0.019028056713074375,-0.01521351284054639,0.0003805611342614875,-0.0,-0.014832951706284903,-0.17589141869064143,0.0,0.17589141869064143,0.0959255368530837,0.0,-0.0959255368530837,-0.7099691081224941,0.0,0.7099691081224941,-0.07606756420273195,0,0.07606756420273195,0.037374418289555594,0.022599722730049718,0.014832951706284903,0.4,0.03340721130371094,1.2241699695587158,STABILIZE
0.1,0.004,0.04,-0.017453377453566024,0.005603353749351835,-6.981350981426409e-05,0.015765133773700566,0.021298674013238136,0.1,0.004,0.04,-0.06572829382506186,-0.01428775645786582,-0.00026291317530024744,0.008045205152700668,-0.006505464480465399,0.002,8e-05,0,-0.8940069330077357,-0.0014033701494675598,-7.152055464061887e-05,-0.0,-0.0014748907041081786,0.2,0.02,0,0.019337136741307027,0.0018444818148317277,0.00038674273482614056,-0.0,0.0022312245496578682,-0.1428775645786582,0.0,0.1428775645786582,0.056033537493518346,0.0,-0.056033537493518346,-0.7016850747337798,0.0,0.7016850747337798,0.009222409074158638,0,-0.009222409074158638,0.021299720866016444,0.006502036131748741,-0.0022312245496578682,0.4,0.03351402282714844,1.2576920986175537,STABILIZE
0.1,0.004,0.04,-0.016706341229825214,0.002234446305904697,-6.682536491930086e-05,-0.005202326533934189,-0.0030347055929487925,0.1,0.004,0.04,-0.06918526936718956,-0.0103400959474626,-0.00027674107746875824,0.0174049612653322,0.006788124240400843,0.002,8e-05,0,-0.9156352789425517,-0.0012938429527520712,-7.325082231540414e-05,0.0,-0.0013670937750674753,0.2,0.02,0,0.014792197751967925,-0.02718856679917699,0.00029584395503935853,-0.0,-0.026892722844137632,-0.10340095947462599,0.0,0.10340095947462599,0.02234446305904697,0.0,-0.02234446305904697,-0.6469214763760356,0.0,0.6469214763760356,-0.13594283399588494,0,0.13594283399588494,-0.003018591222871709,-0.006795305421259156,0.026892722844137632,0.4,0.033432722091674805,1.2911608219146729,STABILIZE
0.1,0.004,0.04,-0.017094896578019925,-0.0011614553127236645,-6.83795863120797e-05,-0.011141738833201258,-0.012371573732237002,0.1,0.004,0.04,-0.07131645067176252,-0.006370448534743178,-0.0002852658026870501,0.030429719776013577,0.02377400543858335,0.002,8e-05,0,-0.9353639599666994,-0.0011794449102290815,-7.482911679733596e-05,0.0,-0.0012542740270264174,0.2,0.02,0,0.005466669720737175,-0.05575104873037944,0.0001093333944147435,-0.0,-0.0556417153359647,-0.06370448534743177,0.0,0.06370448534743177,-0.011614553127236645,0.0,0.011614553127236645,-0.5897224551145408,0.0,0.5897224551145408,-0.2787552436518972,0,0.2787552436518972,-0.012255762554991027,-0.02383391397571215,0.0556417153359647,0.4,0.033454179763793945,1.3245830535888672,STABILIZE
0.1,0.004,0.04,-0.017673295297214137,-0.001717349951162835,-7.069318118885656e-05,-0.019629839274348884,-0.021417882406700575,0.1,0.004,0.04,-0.0721736957962418,-0.00254528549909315,-0.0002886947831849672,0.03752763815105978,0.03469365786878166,0.002,8e-05,0,-0.9560821855499301,-0.0012303085229203193,-7.648657484399441e-05,0.0,-0.0013067950977643137,0.2,0.02,0,-0.00014052991338309867,-0.03329718306164983,-2.8105982676619736e-06,-0.0,-0.033299993659917496,-0.025452854990931497,0.0,0.025452854990931497,-0.01717349951162835,0.0,0.01717349951162835,-0.6151542614601596,0.0,0.6151542614601596,-0.16648591530824916,0,0.16648591530824916,-0.021316981818747267,-0.03475574584500422,0.033299993659917496,0.4,0.03367972373962402,1.3582515716552734,STABILIZE
0.1,0.004,0.04,-0.01824360391782867,-0.0016959464913169676,-7.29744156713147e-05,-0.026974033399596375,-0.028742954306584658,0.1,0.004,0.04,-0.07330031216595999,-0.003350258106260027,-0.00029320124866383994,0.03399051791155631,0.03034705855663244,0.002,8e-05,0,-0.9751685957392149,-0.0011351583764409642,-7.801348765913719e-05,0.0,-0.0012131718641001015,0.2,0.02,0,-0.013488881580551093,-0.07938891104400636,-0.00026977763161102186,-0.0,-0.07965868867561739,-0.03350258106260027,0.0,0.03350258106260027,-0.016959464913169676,0.0,0.016959464913169676,-0.567579188220482,0.0,0.567579188220482,-0.3969445552200318,0,0.3969445552200318,-0.028532022101751056,-0.030545459565953188,0.07965868867561739,0.4,0.03362774848937988,1.3919081687927246,STABILIZE
0.1,0.004,0.04,-0.018802005123135544,-0.0016696044376018062,-7.520802049254218e-05,-0.01738856219607884,-0.01913337465417319,0.1,0.004,0.04,-0.07469186794435544,-0.004160713982525657,-0.00029876747177742173,0.02417131836341869,0.019711836909115613,0.002,8e-05,0,-0.9925962526515875,-0.0010421644166010886,-7.9407700212127e-05,0.0,-0.0011215721168132157,0.2,0.02,0,-0.0343449631401013,-0.12471823481711115,-0.000686899262802026,-0.0,-0.1254051340799132,-0.041607139825256566,0.0,0.041607139825256566,-0.01669604437601806,0.0,0.01669604437601806,-0.5210822083005443,0.0,0.5210822083005443,-0.6235911740855558,0,0.6235911740855558,-0.01891770757830994,-0.01991890759981792,0.1254051340799132,0.4,0.033445119857788086,1.425340175628662,STABILIZE
0.1,0.004,0.04,-0.019485097962940047,-0.0020409159444971215,-7.794039185176019e-05,-0.010214731607871326,-0.012333587944220207,0.1,0.004,0.04,-0.07707630566895254,-0.007124122355291271,-0.0003083052226758102,0.00764194145052865,0.00020951387256156872,0.002,8e-05,0,-1.0093355540451088,-0.0010002595583803225,-8.074684432360871e-05,0.0,-0.0010810064027039312,0.2,0.02,0,-0.05634641712517721,-0.13147003049574355,-0.0011269283425035443,-0.0,-0.1325969588382471,-0.07124122355291271,0.0,0.07124122355291271,-0.020409159444971212,0.0,0.020409159444971212,-0.5001297791901612,0.0,0.5001297791901612,-0.6573501524787178,0,0.6573501524787178,-0.012330372546279562,-0.0003509993027984931,0.1325969588382471,0.4,0.03346991539001465,1.4588313102722168,STABILIZE
0.1,0.004,0.04,-0.020122712616726914,-0.0019072390674983572,-8.049085046690766e-05,-0.0017741240898331157,-0.0037618540077983802,0.1,0.004,0.04,-0.07846428930888662,-0.004151749975331825,-0.0003138571572355465,0.005261993584034134,0.0007963864514667629,0.002,8e-05,0,-1.0262196494529108,-0.0010100773622399725,-8.209757195623287e-05,0.0,-0.0010921749341962054,0.2,0.02,0,-0.08031583934531264,-0.14339513125081535,-0.0016063167869062528,-0.0,-0.1450014480377216,-0.04151749975331824,0.0,0.04151749975331824,-0.01907239067498357,0.0,0.01907239067498357,-0.5050386811199862,0.0,0.5050386811199862,-0.7169756562540768,0,0.7169756562540768,-0.0037515940874477986,-0.0008433971538339917,0.1450014480377216,0.4,0.033431291580200195,1.4922511577606201,STABILIZE
0.1,0.004,0.04,-0.020615629747531287,-0.001473693273505811,-8.246251899012515e-05,0.0005832523655406401,-0.000972903426955296,0.1,0.004,0.04,-0.0788254469706601,-0.0010797669295082941,-0.0003153017878826404,0.003523561648000877,0.0021284929306099425,0.002,8e-05,0,-1.043022425351526,-0.0010047180862878973,-8.344179402812208e-05,0.0,-0.0010881598803160193,0.2,0.02,0,-0.10370620638144604,-0.13986215699069424,-0.0020741241276289206,-0.0,-0.14193628111832315,-0.01079766929508294,0.0,0.01079766929508294,-0.01473693273505811,0.0,0.01473693273505811,-0.5023590431439486,0.0,0.5023590431439486,-0.6993107849534712,0,0.6993107849534712,-0.0009468527637232058,-0.0021402086528344816,0.14193628111832315,0.4,0.0334477424621582,1.5256977081298828,STABILIZE
0.1,0.004,0.04,-0.020779047020404395,-0.00048636995393381465,-8.311618808161758e-05,0.0028831472168516416,0.0023136610748362096,0.1,0.004,0.04,-0.07991372721503637,-0.0032389893859957226,-0.00031965490886014545,0.0002974803558894814,-0.003261163938966387,0.002,8e-05,0,-1.0587178274904747,-0.0009342674591346009,-8.469742619923799e-05,0.0,-0.0010189648853338388,0.2,0.02,0,-0.1264981043444941,-0.13566857612364552,-0.002529962086889882,-0.0,-0.1381985382105354,-0.032389893859957226,0.0,0.032389893859957226,-0.004863699539338146,0.0,0.004863699539338146,-0.4671337295673004,0.0,0.4671337295673004,-0.6783428806182276,0,0.6783428806182276,0.0022748898736838904,0.0032883269102444023,0.1381985382105354,0.4,0.0335993766784668,1.5593082904815674,STABILIZE
0.1,0.004,0.04,-0.02067413916274133,0.000313477228835783,-8.269655665096532e-05,0.004732168851065997,0.004962949523250815,0.1,0.004,0.04,-0.07999412044915387,-0.0002402246009945399,-0.0003199764817966155,0.009404607538343598,0.008844406455552442,0.002,8e-05,0,-1.074404615765262,-0.0009374799995453764,-8.595236926122097e-05,0.0,-0.0010234323688065974,0.2,0.02,0,-0.1495669299152253,-0.13786482106296427,-0.0029913385983045063,-0.0,-0.14085615966126877,-0.002402246009945399,0.0,0.002402246009945399,0.00313477228835783,0.0,-0.00313477228835783,-0.4687399997726882,0.0,0.4687399997726882,-0.6893241053148214,0,0.6893241053148214,0.005068994616324465,-0.008784058691802259,0.14085615966126877,0.4,0.03346586227416992,1.5927598476409912,STABILIZE
0.1,0.004,0.04,-0.020372927722757457,0.0009002995464697817,-8.149171089102984e-05,0.007022856023345391,0.007841663858924142,0.1,0.004,0.04,-0.0805775898094751,-0.0017439483722940488,-0.0003223103592379004,0.012892146043640392,0.010825887312108443,0.002,8e-05,0,-1.0900960845162053,-0.0009380136558342776,-8.720768676129644e-05,0.0,-0.001025221342595574,0.2,0.02,0,-0.17121338783419093,-0.1293994427845466,-0.003424267756683819,0.0,-0.1328237105412304,-0.017439483722940487,0.0,0.017439483722940487,0.009002995464697816,0.0,-0.009002995464697816,-0.4690068279171388,0.0,0.4690068279171388,-0.646997213922733,0,0.646997213922733,0.007963409730448293,-0.010736649087859257,0.1328237105412304,0.4,0.03345680236816406,1.6262128353118896,STABILIZE
0.1,0.004,0.04,-0.01987578419844362,0.0014866999911615408,-7.950313679377448e-05,0.008105868718781438,0.009513065573149205,0.1,0.004,0.04,-0.08167936014821543,-0.0032948270926954045,-0.00032671744059286175,0.0020690520394740313,-0.001552492493814235,0.002,8e-05,0,-1.105803769943987,-0.0009394717881071916,-8.846430159551897e-05,0.0,-0.0010279360897027107,0.2,0.02,0,-0.19137889604920497,-0.12060927848314316,-0.0038275779209840993,0.0,-0.12443685640412726,-0.03294827092695404,0.0,0.03294827092695404,0.014866999911615407,0.0,-0.014866999911615407,-0.4697358940535958,0.0,0.4697358940535958,-0.6030463924157158,0,0.6030463924157158,0.009496198748535037,0.0016525310498467915,0.12443685640412726,0.4,0.03343939781188965,1.6596620082855225,STABILIZE
0.1,0.004,0.04,-0.018778351389781966,0.0032807096156209463,-7.511340555912786e-05,0.011359385322494144,0.014564981532555962,0.1,0.004,0.04,-0.08288766057473422,-0.003612141715239397,-0.00033155064229893686,-0.006037362937843126,-0.00998105529538146,0.002,8e-05,0,-1.1216219759787167,-0.0009457515800588768,-8.972975807829734e-05,0.0,-0.001035481338137174,0.2,0.02,0,-0.21088225313008363,-0.11660823443060463,-0.004217645062601673,0.0,-0.1208258794932063,-0.03612141715239397,0.0,0.03612141715239397,0.03280709615620946,0.0,-0.03280709615620946,-0.47287579002943836,0.0,0.47287579002943836,-0.5830411721530231,0,0.5830411721530231,0.014462662084480174,0.010128749048293088,0.1208258794932063,0.4,0.033451080322265625,1.6931068897247314,STABILIZE
0.1,0.004,0.04,-0.01755207412737282,0.0036645242289832496,-7.020829650949129e-05,0.009926144457904235,0.013520460390377994,0.1,0.004,0.04,-0.08331893642147781,-0.0012887956404428946,-0.00033327574568591125,0.004658082800039152,0.003036011413910346,0.002,8e-05,0,-1.1377961290871483,-0.0009666749562442216,-9.102369032697187e-05,-0.0,-0.0010576986465711934,0.2,0.02,0,-0.230270453338275,-0.1158767786001566,-0.0046054090667655,0.0,-0.1204821876669221,-0.012887956404428944,0.0,0.012887956404428944,0.03664524228983249,0.0,-0.03664524228983249,-0.48333747812211075,0.0,0.48333747812211075,-0.579383893000783,0,0.579383893000783,0.013550469223664308,-0.0028991375082428462,0.1204821876669221,0.4,0.033463478088378906,1.7265803813934326,STABILIZE
0.1,0.004,0.04,-0.01622116963991254,0.003973363429239316,-6.488467855965016e-05,0.008751735111299348,0.012660213861979014,0.1,0.004,0.04,-0.0829917521028349,0.0009767960199736734,-0.00033196700841133957,0.00290061688177368,0.003545445893336014,0.002,8e-05,0,-1.154280678947898,-0.0009842796110660797,-9.234245431583185e-05,-0.0,-0.0010766220653819116,0.2,0.02,0,-0.24942939912893822,-0.11439657054980304,-0.004988587982578764,0.0,-0.1193851585323818,0.009767960199736733,0.0,-0.009767960199736733,0.039733634292393155,0.0,-0.039733634292393155,-0.4921398055330399,0.0,0.4921398055330399,-0.5719828527490152,0,0.5719828527490152,0.012694976550842261,-0.003418884611563242,0.1193851585323818,0.4,0.03349566459655762,1.760071039199829,STABILIZE
0.1,0.004,0.04,-0.014463404132757936,0.005250431136612981,-5.785361653103174e-05,0.010400231617529848,0.015592809137611796,0.1,0.004,0.04,-0.08253776159916122,0.0013560659066938804,-0.00033015104639664487,0.007402536335973953,0.008428451196271189,0.002,8e-05,0,-1.1711087942041005,-0.0010053088418454832,-9.368870353632805e-05,-0.0,-0.0010989975453818113,0.2,0.02,0,-0.26707644480460996,-0.10542316106175474,-0.0053415288960921995,0.0,-0.11076468995784694,0.013560659066938803,0.0,-0.013560659066938803,0.05250431136612981,0.0,-0.05250431136612981,-0.5026544209227416,0.0,0.5026544209227416,-0.5271158053087737,0,0.5271158053087737,0.01566968913581454,-0.008284644153906121,0.11076468995784694,0.4,0.033478498458862305,1.793565034866333,STABILIZE
0.1,0.004,0.04,-0.012553245223869991,0.005706807573320281,-5.0212980895479966e-05,0.01008811388509301,0.015744708477517813,0.1,0.004,0.04,-0.08156252837436757,0.0029136153683915504,-0.0003262501134974703,0.014835518111988546,0.017422883366882625,0.002,8e-05,0,-1.1884769174261853,-0.001037783156961086,-9.507815339409483e-05,-0.0,-0.001132861310355181,0.2,0.02,0,-0.2844870703961078,-0.10403227660221076,-0.005689741407922157,0.0,-0.10972201801013291,0.029136153683915502,0.0,-0.029136153683915502,0.057068075733202814,0.0,-0.057068075733202814,-0.518891578480543,0.0,0.518891578480543,-0.5201613830110537,0,0.5201613830110537,0.01590223162024596,-0.01727922855205249,0.10972201801013291,0.4,0.03347158432006836,1.8270299434661865,STABILIZE
0.1,0.004,0.04,-0.01012116109970835,0.007270621562124599,-4.04846443988334e-05,0.009537615694994124,0.01676775261271989,0.1,0.004,0.04,-0.0798403411275519,0.0051484122635068515,-0.0003193613645102076,0.02093906375878667,0.025768114657783316,0.002,8e-05,0,-1.2063480178943964,-0.0010684992933610816,-9.650784143155172e-05,-0.0,-0.0011650071347926332,0.2,0.02,0,-0.3014558003779825,-0.1014547258973747,-0.006029116007559649,0.0,-0.10748384190493435,0.05148412263506851,0.0,-0.05148412263506851,0.07270621562124599,0.0,-0.07270621562124599,-0.5342496466805408,0.0,0.5342496466805408,-0.5072736294868735,0,0.5072736294868735,0.016995232908974426,-0.02561865178083645,0.10748384190493435,0.4,0.03345084190368652,1.8604819774627686,STABILIZE
0.1,0.004,0.04,-0.007399881274982642,0.008137829023839332,-2.959952509993057e-05,0.010694709916859455,0.01880293941559886,0.1,0.004,0.04,-0.07897682309521568,0.0025823004463947567,-0.0003159072923808627,0.009245672745132542,0.011512065899146436,0.002,8e-05,0,-1.2243093850509912,-0.001074248474020897,-9.79447508040793e-05,-0.0,-0.0011721932248249763,0.2,0.02,0,-0.31751538088280695,-0.0960504826849388,-0.006350307617656139,0.0,-0.10240079030259494,0.025823004463947564,0.0,-0.025823004463947564,0.08137829023839332,0.0,-0.08137829023839332,-0.5371242370104485,0.0,0.5371242370104485,-0.480252413424694,0,0.480252413424694,0.018898771737575412,-0.011354057369239966,0.10240079030259494,0.4,0.03343987464904785,1.893916368484497,STABILIZE
0.1,0.004,0.04,-0.004535428487124871,0.008237438060707848,-1.8141713948499483e-05,0.010186248224290933,0.01840554457105028,0.1,0.004,0.04,-0.07782484428216696,0.0033127982279761666,-0.00031129937712866783,0.005515185066408496,0.008516683917255994,0.002,8e-05,0,-1.2432136613378173,-0.0010872778609257404,-9.94570929070254e-05,-0.0,-0.0011867349538327659,0.2,0.02,0,-0.33325902741721025,-0.09054945065009345,-0.006665180548344205,0.0,-0.09721463119843766,0.033127982279761665,0.0,-0.033127982279761665,0.08237438060707848,0.0,-0.08237438060707848,-0.5436389304628702,0.0,0.5436389304628702,-0.4527472532504673,0,0.4527472532504673,0.01847226749023171,-0.008370980209789887,0.09721463119843766,0.4,0.03477358818054199,1.928741455078125,STABILIZE
0.1,0.004,0.04,-0.0012526435668946414,0.008543363936600358,-5.010574267578566e-06,0.007771507044417782,0.01630986040675056,0.1,0.004,0.04,-0.07696146413740368,0.002246924782336986,-0.0003078458565496147,0.0023897574943564683,0.004328836420143839,0.002,8e-05,0,-1.2642251148944907,-0.0010936354280501998,-0.00010113800919155926,-0.0,-0.001194773437241759,0.2,0.02,0,-0.3484435688846971,-0.07903476293417465,-0.006968871377693942,0.0,-0.0860036343118686,0.02246924782336986,0.0,-0.02246924782336986,0.08543363936600358,0.0,-0.08543363936600358,-0.5468177140250999,0.0,0.5468177140250999,-0.3951738146708732,0,0.3951738146708732,0.016339328592629987,-0.00421624387128133,0.0860036343118686,0.4,0.03842496871948242,1.9672131538391113,STABILIZE
0.1,0.004,0.04,0.0020018011874409027,0.009567222693998003,8.007204749763612e-06,0.009088630791094796,0.018663860689842562,0.1,0.004,0.04,-0.07606622974578382,0.0026317567002920933,-0.0003042649189831353,-0.00042787654693730956,0.0018996152343716483,0.002,8e-05,0,-1.2836117509563705,-0.0011398335414629839,-0.00010268894007650964,-0.0,-0.0012425224815394934,0.2,0.02,0,-0.3610722998389571,-0.07425038094196174,-0.007221445996779143,0.0,-0.08147182693874087,0.02631756700292093,0.0,-0.02631756700292093,0.09567222693998002,0.0,-0.09567222693998002,-0.5699167707314919,0.0,0.5699167707314919,-0.3712519047098087,0,0.3712519047098087,0.018675777492088753,-0.0017786424470641572,0.08147182693874087,0.4,0.03401660919189453,2.0011415481567383,STABILIZE
0.1,0.004,0.04,0.005315802946833851,0.009567222693998003,2.1263211787335404e-05,0.005348661571050802,0.014937147476836141,0.1,0.004,0.04,-0.07515461238157908,0.0026317567002920933,-0.00030061844952631634,-0.0057725477550338924,-0.0034414095042681154,0.002,8e-05,0,-1.303353166425842,-0.0011398335414629839,-0.00010426825331406737,-0.0,-0.0012441017947770513,0.2,0.02,0,-0.37393213915427,-0.07425038094196174,-0.0074786427830854,0.0,-0.08172902372504713,0.02631756700292093,0.0,-0.02631756700292093,0.09567222693998002,0.0,-0.09567222693998002,-0.5699167707314919,0.0,0.5699167707314919,-0.3712519047098087,0,0.3712519047098087,0.014914535220160252,0.0035381228479828904,0.08172902372504713,0.4,0.03463912010192871,2.035785675048828,STABILIZE
0.1,0.004,0.04,0.009309159977267965,0.011917176598868661,3.7236639909071865e-05,0.00888427516191853,0.020838688400696262,0.1,0.004,0.04,-0.07383927029741101,0.003925309904797286,-0.00029535708118964404,0.0034547278919861515,0.007084680715593794,0.002,8e-05,0,-1.3218344720910797,-0.001103056810156373,-0.00010574675776728639,-0.0,-0.0012088035679236593,0.2,0.02,0,-0.3860166970074414,-0.07212668887751987,-0.007720333940148828,0.0,-0.0798470228176687,0.039253099047972854,0.0,-0.039253099047972854,0.1191717659886866,0.0,-0.1191717659886866,-0.5515284050781865,0.0,0.5515284050781865,-0.36063344438759937,0,0.36063344438759937,0.020882868007377948,-0.006953377516692874,0.0798470228176687,0.4,0.033509254455566406,2.06929874420166,STABILIZE
0.1,0.004,0.04,0.013550033529486968,0.01267178612645516,5.420013411794787e-05,0.010458941526315244,0.023184927786888354,0.1,0.004,0.04,-0.07285208135616268,0.0029497335810342693,-0.0002914083254246507,-0.0005578807885603597,0.002100444467049259,0.002,8e-05,0,-1.3403252275309803,-0.0011050124242841677,-0.00010722601820247843,-0.0,-0.001212238442486646,0.2,0.02,0,-0.39732282812759045,-0.067565737911343,-0.00794645656255181,0.0,-0.07551219447389482,0.029497335810342692,0.0,-0.029497335810342692,0.1267178612645516,0.0,-0.1267178612645516,-0.5525062121420838,0.0,0.5525062121420838,-0.33782868955671497,0,0.33782868955671497,0.0231969093879825,-0.0019637052447134032,0.07551219447389482,0.4,0.03346705436706543,2.1027724742889404,STABILIZE
0.1,0.004,0.04,0.018146259335554762,0.013742002554295458,7.258503734221905e-05,0.012381835054599572,0.026196422646237248,0.1,0.004,0.04,-0.07176632168109161,0.003246253090629283,-0.00028706528672436645,0.002370483842257696,0.005329671646162612,0.002,8e-05,0,-1.3592959696384244,-0.0011343915529703243,-0.00010874367757107395,-0.0,-0.0012431352305413983,0.2,0.02,0,-0.4082683032416262,-0.06545054717567893,-0.008165366064832525,0.0,-0.07361591324051145,0.03246253090629283,0.0,-0.03246253090629283,0.13742002554295457,0.0,-0.13742002554295457,-0.5671957764851622,0.0,0.5671957764851622,-0.32725273587839465,0,0.32725273587839465,0.026226436335133784,-0.005179961049600263,0.07361591324051145,0.4,0.033446550369262695,2.136241912841797,STABILIZE
0.1,0.004,0.04,0.022795837748743754,0.013907367632787247,9.118335099497501e-05,0.010369631076854475,0.024368182060636696,0.1,0.004,0.04,-0.07066356933061499,0.0032984457908044676,-0.00028265427732245994,0.0015903300868426076,0.004606121600324615,0.002,8e-05,0,-1.378159405066424,-0.0011284495410180913,-0.00011025275240531393,0.0,-0.0012387022934234053,0.2,0.02,0,-0.4186858291943766,-0.06231978488115561,-0.008373716583887532,0.0,-0.07069350146504313,0.032984457908044676,0.0,-0.032984457908044676,0.13907367632787246,0.0,-0.13907367632787246,-0.5642247705090456,0.0,0.5642247705090456,-0.311598924405778,0,0.311598924405778,0.024392871632284256,-0.004473529553743352,0.07069350146504313,0.4,0.0334324836730957,2.1696481704711914,STABILIZE
0.1,0.004,0.04,0.02810056091826567,0.014061658487899465,0.00011240224367306267,0.010696824069674045,0.024870884801246572,0.1,0.004,0.04,-0.06940069356841205,0.0033476068615177004,-0.00027760277427364824,0.0016945822659181476,0.0047645863531621995,0.002,8e-05,0,-1.3993447954216456,-0.001123156532727458,-0.00011194758363373165,0.0,-0.0012351041163611897,0.2,0.02,0,-0.42988109635137856,-0.05935239914008439,-0.00859762192702757,0.0,-0.06795002106711195,0.033476068615177004,0.0,-0.033476068615177004,0.14061658487899464,0.0,-0.14061658487899464,-0.561578266363729,0.0,0.561578266363729,-0.29676199570042194,0,0.29676199570042194,0.02489522913741513,-0.004635704920420832,0.06795002106711195,0.4,0.03772473335266113,2.207387685775757,STABILIZE
0.1,0.004,0.04,0.033123308875582715,0.014781944630409289,0.00013249323550233087,0.006782385097259622,0.02169682296317124,0.1,0.004,0.04,-0.06868758683418293,0.00209867274856803,-0.00027475034733673173,-0.004334136839506624,-0.0025102144382753255,0.002,8e-05,0,-1.4185861746498671,-0.0011325473815580695,-0.00011348689397198938,-0.0,-0.0012460342755300589,0.2,0.02,0,-0.43940751943568385,-0.056072516381361064,-0.008788150388713677,0.0,-0.06486066677007474,0.020986727485680298,0.0,-0.020986727485680298,0.14781944630409288,0.0,-0.14781944630409288,-0.5662736907790347,0.0,0.5662736907790347,-0.2803625819068053,0,0.2803625819068053,0.021684280152273375,0.0026163519447971297,0.06486066677007474,0.4,0.033978939056396484,2.2413618564605713,STABILIZE
0.1,0.004,0.04,0.03801364695119388,0.014613227525692815,0.00015205458780477552,0.004575232383500624,0.019340514496998217,0.1,0.004,0.04,-0.06771986399771199,0.0028917334083066047,-0.00027087945599084797,-0.00010626027850150654,0.0025145936738142504,0.002,8e-05,0,-1.4373614638398324,-0.001122080185670421,-0.0001149889171071866,-0.0,-0.0012370691027776075,0.2,0.02,0,-0.44774809407889615,-0.04984633498617727,-0.008954961881577923,0.0,-0.05880129686775519,0.028917334083066046,0.0,-0.028917334083066046,0.14613227525692815,0.0,-0.14613227525692815,-0.5610400928352105,0.0,0.5610400928352105,-0.24923167493088633,0,0.24923167493088633,0.019351269749176312,-0.0024304405871361187,0.05880129686775519,0.4,0.03346514701843262,2.2748324871063232,STABILIZE
0.1,0.004,0.04,0.043084824227501144,0.01516408761547679,0.0001723392969100046,0.0033331749168537383,0.01866960182924053,0.1,0.004,0.04,-0.06720746162385133,0.0015322111746918533,-0.00026882984649540534,-0.004067747204036207,-0.0028043658758397593,0.002,8e-05,0,-1.4560482292917567,-0.0011175619905332357,-0.00011648385834334054,0.0,-0.0012340458488765763,0.2,0.02,0,-0.4556852510545565,-0.047468166557312556,-0.00911370502109113,0.0,-0.056581871578403685,0.015322111746918533,0.0,-0.015322111746918533,0.1516408761547679,0.0,-0.1516408761547679,-0.5587809952666178,0.0,0.5587809952666178,-0.23734083278656276,0,0.23734083278656276,0.01865782493774825,0.0028816781604293473,0.056581871578403685,0.4,0.033442020416259766,2.308276653289795,STABILIZE
0.1,0.004,0.04,0.048196497580568196,0.015273856231005595,0.0001927859903222728,0.0031998696661532434,0.018666511887481113,0.1,0.004,0.04,-0.06673457623438224,0.0014129978489646952,-0.000266938304937529,-0.004477609017158619,-0.0033315494731314525,0.002,8e-05,0,-1.474692500793963,-0.0011141945221741104,-0.00011797540006351706,0.0,-0.0012321699222376274,0.2,0.02,0,-0.46317442316422786,-0.044755808985229024,-0.009263488463284557,0.0,-0.05401929744851358,0.014129978489646951,0.0,-0.014129978489646951,0.15273856231005595,0.0,-0.15273856231005595,-0.5570972610870552,0.0,0.5570972610870552,-0.22377904492614512,0,0.22377904492614512,0.018653357578122576,0.003404429320766286,0.05401929744851358,0.4,0.03346681594848633,2.3417391777038574,STABILIZE
0.1,0.004,0.04,0.05359816756995855,0.0155001409632614,0.0002143926702798342,0.003392137544462484,0.01910667117800372,0.1,0.004,0.04,-0.06628304572643291,0.0012956708825556198,-0.00026513218290573164,-0.004851197830527548,-0.0038206591308776595,0.002,8e-05,0,-1.4941599094323583,-0.00111723810850057,-0.00011953279275458868,0.0,-0.0012367709012551587,0.2,0.02,0,-0.47051686955100236,-0.04213843283048791,-0.009410337391020047,0.0,-0.05154877022150796,0.012956708825556197,0.0,-0.012956708825556197,0.155001409632614,0.0,-0.155001409632614,-0.558619054250285,0.0,0.558619054250285,-0.21069216415243955,0,0.21069216415243955,0.019092492423725866,0.0038908935668670462,0.05154877022150796,0.4,0.03484916687011719,2.3765764236450195,STABILIZE
0.1,0.004,0.04,0.05877117742985989,0.015453718953158196,0.00023508470971943956,0.0015853521976746787,0.017274155860552316,0.1,0.004,0.04,-0.06584871415612405,0.001297511159231581,-0.0002633948566244962,-0.001906309796952775,-0.0008721934943456903,0.002,8e-05,0,-1.512729191382772,-0.0011094680744688176,-0.00012101833531062177,0.0,-0.0012304864097794394,0.2,0.02,0,-0.4774188466726382,-0.04123758413285602,-0.009548376933452764,0.0,-0.05078596106630878,0.012975111592315808,0.0,-0.012975111592315808,0.15453718953158196,0.0,-0.15453718953158196,-0.5547340372344087,0.0,0.5547340372344087,-0.20618792066428007,0,0.20618792066428007,0.017270905288173717,0.0009343514933717994,0.05078596106630878,0.4,0.03347420692443848,2.410062074661255,STABILIZE
0.1,0.004,0.04,0.06403979433549326,0.01578103332269203,0.00025615917734197303,0.0027729993884425723,0.018810191888476574,0.1,0.004,0.04,-0.06604260367200639,-0.0005807552467495134,-0.00026417041468802555,-0.008302919853184869,-0.009147845514622407,0.002,8e-05,0,-1.531249205749078,-0.0011094561213547721,-0.00012249993645992627,0.0,-0.0012319560578146983,0.2,0.02,0,-0.4835885583792271,-0.03696014638262204,-0.009671771167584543,0.0,-0.046631917550206584,-0.005807552467495133,0.0,0.005807552467495133,0.15781033322692029,0.0,-0.15781033322692029,-0.554728060677386,0.0,0.554728060677386,-0.1848007319131102,0,0.1848007319131102,0.018780588808479128,0.00920846786645507,0.046631917550206584,0.4,0.0333857536315918,2.4434456825256348,STABILIZE
0.1,0.004,0.04,0.06933765634107522,0.01582354342867959,0.00027735062536430086,0.001556806538424021,0.017657700592467913,0.1,0.004,0.04,-0.06677320177638979,-0.0021821351370498523,-0.00026709280710555917,-0.00887704518596052,-0.011326273130115931,0.002,8e-05,0,-1.5498173268267352,-0.0011091775133127981,-0.00012398538614613884,0.0,-0.001233162899458937,0.2,0.02,0,-0.4894543765536942,-0.0350398060691741,-0.009789087531073885,0.0,-0.044828893600247985,-0.021821351370498523,0.0,0.021821351370498523,0.1582354342867959,0.0,-0.1582354342867959,-0.5545887566563991,0.0,0.5545887566563991,-0.17519903034587048,0,0.17519903034587048,0.01762298461837652,0.011380213810455946,0.044828893600247985,0.4,0.03348088264465332,2.4769415855407715,STABILIZE
0.1,0.004,0.04,0.07500671571533195,0.016316085972663857,0.0003000268628613278,0.0024284796184869013,0.019044592454012087,0.1,0.004,0.04,-0.06721135075902228,-0.0012610339736306188,-0.0002688454030360891,-0.006471261752016315,-0.008001141128683022,0.002,8e-05,0,-1.569268964509457,-0.0011196728479564001,-0.00012554151716075658,-0.0,-0.0012452143651171567,0.2,0.02,0,-0.4953804184106302,-0.03411141144664727,-0.009907608368212605,0.0,-0.044019019814859874,-0.012610339736306188,0.0,0.012610339736306188,0.16316085972663857,0.0,-0.16316085972663857,-0.5598364239782001,0.0,0.5598364239782001,-0.17055705723323633,0,0.17055705723323633,0.019020690455389375,0.008057797199035028,0.044019019814859874,0.4,0.034745216369628906,2.511718511581421,STABILIZE
0.1,0.004,0.04,0.08048870744495917,0.01639346050816525,0.0003219548297798367,0.002094124665738009,0.0188095400036831,0.1,0.004,0.04,-0.06798713789453585,-0.002319929762033611,-0.0002719485515781434,-0.008735160065252094,-0.01132703837886385,0.002,8e-05,0,-1.5879454487998519,-0.0011170108338225315,-0.00012703563590398816,0.0,-0.0012440464697265198,0.2,0.02,0,-0.5009363203619632,-0.03322896630222042,-0.010018726407239265,0.0,-0.04324769270945969,-0.023199297620336113,0.0,0.023199297620336113,0.1639346050816525,0.0,-0.1639346050816525,-0.5585054169112658,0.0,0.5585054169112658,-0.1661448315111021,0,0.1661448315111021,0.018776615112666716,0.011381534101217871,0.04324769270945969,0.4,0.03344011306762695,2.545156240463257,STABILIZE
0.1,0.004,0.04,0.0863400431332325,0.017475900368617205,0.00034536017253293,0.004791365103119915,0.022612625644270048,0.1,0.004,0.04,-0.0685245157405472,-0.001604960336836809,-0.0002740980629621888,-0.00703126655097152,-0.008910324950770517,0.002,8e-05,0,-1.6073752039513705,-0.0011605981379433168,-0.00012859001631610964,-0.0,-0.0012891881542594266,0.2,0.02,0,-0.5062634997757243,-0.031820856515619986,-0.010125269995514486,0.0,-0.04194612651113447,-0.01604960336836809,0.0,0.01604960336836809,0.17475900368617203,0.0,-0.17475900368617203,-0.5802990689716584,0.0,0.5802990689716584,-0.15910428257809991,0,0.15910428257809991,0.022587795467391134,0.008973083370811149,0.04194612651113447,0.4,0.03348231315612793,2.5786631107330322,STABILIZE
0.1,0.004,0.04,0.09230423837284682,0.017832273297759046,0.0003692169534913873,0.004859456043551311,0.023060946294801744,0.1,0.004,0.04,-0.06871948701694383,-0.0005829421986095822,-0.0002748779480677753,-8.59296403240233e-05,-0.0009437497870013808,0.002,8e-05,0,-1.6268818177112654,-0.0011664516458812888,-0.00013015054541690125,-0.0,-0.00129660219129819,0.2,0.02,0,-0.5113905636926491,-0.03065868949910341,-0.010227811273852984,0.0,-0.04088650077295639,-0.005829421986095821,0.0,0.005829421986095821,0.17832273297759046,0.0,-0.17832273297759046,-0.5832258229406444,0.0,0.5832258229406444,-0.15329344749551704,0,0.15329344749551704,0.023058338781473037,0.0010054453296982476,0.04088650077295639,0.4,0.03344607353210449,2.612093210220337,STABILIZE
0.1,0.004,0.04,0.09840004747967726,0.01821682378592066,0.00039360018991870904,0.0056772393932444385,0.024287663369083806,0.1,0.004,0.04,-0.06919559039806208,-0.0014227957676682997,-0.0002767823615922483,0.0017325781172901193,3.299998802957127e-05,0.002,8e-05,0,-1.6464890268304488,-0.0011718906127084472,-0.00013171912214643593,-0.0,-0.0013036097348548832,0.2,0.02,0,-0.5158614887814672,-0.02672198327594882,-0.010317229775629344,0.0,-0.03703921305157817,-0.014227957676682996,0.0,0.014227957676682996,0.18216823785920658,0.0,-0.18216823785920658,-0.5859453063542236,0.0,0.5859453063542236,-0.1336099163797441,0,0.1336099163797441,0.024287674285723985,2.3637252954004413e-05,0.03703921305157817,0.4,0.0334625244140625,2.6455326080322266,STABILIZE
0.1,0.004,0.04,0.1045222027971668,0.01830625261051376,0.0004180888111886672,0.004757097917046832,0.02348143933874926,0.1,0.004,0.04,-0.06957807004124549,-0.0011436771207832708,-0.00027831228016498194,0.00027945408166481656,-0.0011425353192834361,0.002,8e-05,0,-1.6658986819139694,-0.0011607613025654867,-0.00013327189455311755,-0.0,-0.0012940331971186042,0.2,0.02,0,-0.5202083251009395,-0.025995512885303974,-0.01040416650201879,0.0,-0.03639967938732276,-0.011436771207832708,0.0,0.011436771207832708,0.1830625261051376,0.0,-0.1830625261051376,-0.5803806512827433,0.0,0.5803806512827433,-0.12997756442651986,0,0.12997756442651986,0.02347878703720938,0.001195800834813305,0.03639967938732276,0.4,0.03344297409057617,2.678961753845215,STABILIZE
