Mode,Time,Freq,North-Vision,East-Vision,Down-Vision,Yaw-Vision,North-Desired,East-Desired,Down-Desired,Roll-UAV,Pitch-UAV,Yaw-UAV,Roll-Control,Pitch-Control,Yaw-Control,Thrust-Control
GUIDED_NOGPS,0.0017321109771728516,585.4695700725852,314.12030424823286,-14.454599020472822,-8.358491915560306,1.20353706819337,300,0,30,0.4018255250396979,0.47134772608458336,86.38298020684954,-2.8909284231532095,-2.8240692693703022,-1.20353706819337,0.5038363066433206
GUIDED_NOGPS,0.002733945846557617,1003.1820138722794,314.12030424823286,-14.454599020472822,-8.358491915560306,1.20353706819337,300,0,30,0.4018255250396979,0.47134772608458336,86.38298020684954,-2.8909490213593347,-2.8240893911970684,-1.20353706819337,0.5038373998817037
GUIDED_NOGPS,0.004160881042480469,713.924085106383,314.12030424823286,-14.454599020472822,-8.358491915560306,1.20353706819337,300,0,30,0.4018255250396979,0.47134772608458336,86.38298020684954,-2.890963026898852,-2.8241030728273135,-1.20353706819337,0.5038381432179576
GUIDED_NOGPS,0.005335092544555664,848.8775551507792,314.0843488225463,-14.439286626254018,-8.3409860131872,2.81859849116717,300,0,30,0.4018255250396979,0.47134772608458336,86.38298020684954,-2.88792385441783,-2.8169347211498406,-2.81859849116717,0.5038376303466615
GUIDED_NOGPS,0.008665084838867188,300.86105731296175,314.04839339685975,-14.423974232035219,-8.323480110814097,4.4336599141409705,300,0,30,0.37081347800007813,0.457397705035067,86.22007336495557,-2.88488406916184,-2.8097657386898818,-4.4336599141409705,0.5038370856616006
GUIDED_NOGPS,0.010744094848632812,483.1590830549476,314.06711791666055,-14.466830466792203,-8.249156405642417,2.901849686164539,300,0,30,0.37081347800007813,0.457397705035067,86.22007336495557,-2.8935030559529076,-2.813557063457661,-2.901849686164539,0.5038321776983453
GUIDED_NOGPS,0.012164592742919922,708.018906144497,314.12179786214796,-14.52499909576799,-8.192338602843838,-0.2450219647856926,300,0,30,0.37081347800007813,0.457397705035067,86.22007336495557,-2.905161937195413,-2.8245175097093385,0.2450219647856926,0.5038278188033289
GUIDED_NOGPS,0.013698577880859375,654.541822721598,314.1764778076353,-14.58316772474378,-8.135520800045262,-3.391893615735924,300,0,30,0.37081347800007813,0.457397705035067,86.22007336495557,-2.916815790753832,-2.83547306525455,3.391893615735924,0.5038231897198966
GUIDED_NOGPS,0.016323566436767578,382.34311759343666,314.12179786214796,-14.52499909576799,-8.19233860284384,-0.2450219647856926,300,0,30,0.2953462909737841,0.4661436555455626,86.0452068618249,-2.9052211868045834,-2.8245751120148643,0.2450219647856926,0.5038309288562918
GUIDED_NOGPS,0.01871967315673828,418.2592740327084,314.33051577877046,-14.511988202326192,-8.20963866568795,-1.0290399840198081,300,0,30,0.2953462909737841,0.4661436555455626,86.0452068618249,-2.9026477324352182,-2.866347060460729,1.0290399840198081,0.5038341714683396
GUIDED_NOGPS,0.02335667610168457,216.05645701334157,314.264027725457,-14.395185296285755,-8.208106715770228,2.103367090764138,300,0,30,0.2953462909737841,0.4661436555455626,86.0452068618249,-2.87935246370238,-2.853114167197547,-2.103367090764138,0.5038374853576164
GUIDED_NOGPS,0.0254669189453125,474.79103463889516,314.29035279472333,-14.352042254604703,-8.167403520356059,0.48278257991835954,300,0,30,0.2953462909737841,0.4661436555455626,86.0452068618249,-2.870754956047487,-2.858410148051901,-0.48278257991835954,0.503835069203012
GUIDED_NOGPS,0.027658939361572266,458.1935765785449,314.0532800018797,-14.26374147738966,-8.166218064896357,2.793087739256928,300,0,30,0.2953462909737841,0.4661436555455626,86.0452068618249,-2.853124944772487,-2.8110252888740535,-2.793087739256928,0.5038365638231161
GUIDED_NOGPS,0.03920435905456543,86.67708204174416,314.12071860221,-14.264675437154954,-8.16770980796529,-0.35756399093808017,300,0,30,0.2953462909737841,0.4661436555455626,86.0452068618249,-2.8534812135461065,-2.824680775427558,0.35756399093808017,0.5038457823129288
GUIDED_NOGPS,0.04242444038391113,311.5893321447144,314.15002402544775,-14.250118161536653,-8.151554993732093,-1.9020957864535954,300,0,30,0.2953462909737841,0.4661436555455626,86.0452068618249,-2.8506176936501126,-2.830589458601343,1.9020957864535954,0.5038467335519405
GUIDED_NOGPS,0.049399614334106445,143.45386141322936,314.0900420650001,-14.17444991401731,-8.214438562889354,-3.5678124665105884,300,0,30,0.2953462909737841,0.4661436555455626,86.0452068618249,-2.8355771210189578,-2.8186855891183162,3.5678124665105884,0.5038580406298021
GUIDED_NOGPS,0.05141305923461914,498.49108628476347,314.62878374664814,-14.055620068648837,-8.255967411143597,-0.40741829819843645,300,0,30,0.2953462909737841,0.4661436555455626,86.0452068618249,-2.811837548725106,-2.926461398642423,0.40741829819843645,0.5038636304264742
GUIDED_NOGPS,0.05353689193725586,472.38472800991104,314.61485600919707,-13.896805048519385,-8.330411099421832,1.1427454589464787,300,0,30,0.2953462909737841,0.4661436555455626,86.0452068618249,-2.7801012594864853,-2.9237039462983887,-1.1427454589464787,0.5038725484991856
GUIDED_NOGPS,0.05618000030517578,381.0232558139535,314.6902156554315,-13.799101000290975,-8.325816404309608,2.8140941006328717,300,0,30,0.2953462909737841,0.4661436555455626,86.0452068618249,-2.7605890494809335,-2.9388063220853136,-2.8140941006328717,0.5038736776904964
GUIDED_NOGPS,0.060955047607421875,209.46384338793447,314.15729409066347,-13.653151485982447,-8.340831077747955,3.563773489513854,300,0,30,0.2953462909737841,0.4661436555455626,86.0452068618249,-2.731484799775282,-2.8323108250304667,-3.563773489513854,0.5038799897881052
GUIDED_NOGPS,0.07123947143554688,97.28855075153089,314.1770419449945,-13.547187146434895,-8.32293091116231,5.9236832895620735,300,0,30,0.0574087538301621,0.4969005309866589,85.22867823711738,-2.7103111368577735,-2.8362804937940664,-5.9236832895620735,0.5038792863314442
GUIDED_NOGPS,0.07338166236877441,468.532618409294,314.1975174131921,-13.439384167556812,-8.328790721627499,5.043921216562538,300,0,30,0.0574087538301621,0.4969005309866589,85.22867823711738,-2.6888900615138676,-2.8405229783953976,-5.043921216562538,0.5038878304887907
GUIDED_NOGPS,0.0813603401184082,125.48028480823311,314.75341386520523,-13.37428441316663,-8.374864482158388,1.741267469862952,300,0,30,0.0574087538301621,0.4969005309866589,85.22867823711738,-2.675984313134329,-2.9518282476296953,-1.741267469862952,0.5038989914945827
GUIDED_NOGPS,0.08513498306274414,266.71143329518,314.9764340932695,-13.278147107205553,-8.451933252280385,-2.990953573117551,300,0,30,-0.058385057334864016,0.5202693829016228,85.07932249053671,-2.656777305897873,-2.9964553632776942,2.990953573117551,0.5039078830160114
GUIDED_NOGPS,0.08723115921020508,476.2466220052231,314.92927961278446,-13.080744328151438,-8.507180605261082,-0.40815387769599454,300,0,30,-0.058385057334864016,0.5202693829016228,85.07932249053671,-2.617346221905802,-2.9870809302225827,0.40815387769599454,0.503916320460574
GUIDED_NOGPS,0.09142160415649414,239.41457845767454,314.36394421934756,-12.904128495367097,-8.59504650675976,0.5385486720983342,300,0,30,-0.1866507272232673,0.499389921495717,84.93433806502485,-2.5820478679987358,-2.874041471185598,-0.5385486720983342,0.5039265912972166
GUIDED_NOGPS,0.09366917610168457,446.4400212879191,314.1450840661694,-12.766829764818993,-8.657361307138075,1.991112933593077,300,0,30,-0.1866507272232673,0.499389921495717,84.93433806502485,-2.5546442017706847,-2.830331574584317,-1.991112933593077,0.5039362189222393
GUIDED_NOGPS,0.09578204154968262,475.2213913437571,314.20508115464014,-12.619108148187914,-8.69444621170855,2.5753419883046624,300,0,30,-0.1866507272232673,0.499389921495717,84.93433806502485,-2.5251268718713415,-2.842361378246707,-2.5753419883046624,0.5039415828319097
GUIDED_NOGPS,0.09773921966552734,512.8764979212522,314.77737451768365,-12.562909655452492,-8.722838695505024,1.6046266433092597,300,0,30,-0.1866507272232673,0.499389921495717,84.93433806502485,-2.513915256610764,-2.956853084384567,-1.6046266433092597,0.5039461533107181
GUIDED_NOGPS,0.1096045970916748,84.32456775231202,314.70674446824916,-12.307673637525468,-8.815122746412138,4.03666204412481,300,0,30,-0.366642847098992,0.45682674390913625,84.78864329983931,-2.46301928793623,-2.9429077888433963,-4.03666204412481,0.5039649208079262
GUIDED_NOGPS,0.11408877372741699,223.57697228144988,314.62670427184867,-12.165964618104994,-8.93069813321756,3.2616837863692134,300,0,30,-0.366642847098992,0.45682674390913625,84.78864329983931,-2.434719577443205,-2.926950356942352,-3.2616837863692134,0.5039791722967416
GUIDED_NOGPS,0.11578798294067383,590.9967591940257,313.99684168763196,-11.859349746144217,-9.000015801891621,5.727562640969495,300,0,30,-0.366642847098992,0.45682674390913625,84.78864329983931,-2.373424083419707,-2.8010102734429836,-5.727562640969495,0.5039879114726741
GUIDED_NOGPS,0.12024593353271484,224.66677379613262,314.0645725760346,-11.758631466537764,-9.018332027537392,4.2245295548641435,300,0,30,-0.8093427854529849,0.4026292995667909,84.50728048716981,-2.353335698031827,-2.8146225605539072,-4.2245295548641435,0.5039934111479879
GUIDED_NOGPS,0.1217200756072998,692.7009083402147,314.15930696156653,-11.553391998787697,-9.018896616497694,4.927711866751125,300,0,30,-0.8093427854529849,0.4026292995667909,84.50728048716981,-2.3123038799965365,-2.8335891390733092,-4.927711866751125,0.5039945534331887
GUIDED_NOGPS,0.1231386661529541,701.7406725782165,314.23077397055397,-11.452622121270357,-9.037270428955203,3.438739121735196,300,0,30,-0.8093427854529849,0.4026292995667909,84.50728048716981,-2.2921682890700428,-2.8479053851379614,-3.438739121735196,0.5039976441234068
GUIDED_NOGPS,0.12507891654968262,522.4593921275535,314.2339719030901,-11.336713625924943,-9.037310208859624,3.4396331561944513,300,0,30,-1.0531842207212896,0.3542462138379775,84.38401606321858,-2.2690103105035226,-2.84857475425928,-3.4396331561944513,0.5039992817046572
GUIDED_NOGPS,0.12900495529174805,255.1745452333151,314.2370677713352,-11.22096179890103,-9.037406393058061,3.418251576479714,300,0,30,-1.0531842207212896,0.3542462138379775,84.38401606321858,-2.2459008074135642,-2.849245773690854,-3.418251576479714,0.5040021344996577
GUIDED_NOGPS,0.13100624084472656,501.17146612498505,314.7204335412762,-11.100478806083139,-9.087787986823356,2.4792175947100694,300,0,30,-1.0531842207212896,0.3542462138379775,84.38401606321858,-2.2218205275413156,-2.9459405680258657,-2.4792175947100694,0.504008321909545
GUIDED_NOGPS,0.13267302513122559,603.4969784172662,315.2896690160428,-10.925712479090366,-9.116144074114628,1.4248673100215588,300,0,30,-1.0531842207212896,0.3542462138379775,84.38401606321858,-2.1868928031171055,-3.059823405549282,-1.4248673100215588,0.5040129863499118
GUIDED_NOGPS,0.13432836532592773,606.7270360190945,315.3516140101494,-10.738056760195727,-9.1902320412649,-0.23653797555524628,300,0,30,-1.0531842207212896,0.3542462138379775,84.38401606321858,-2.149376070435109,-3.0722330071297814,0.23653797555524628,0.504021447058058
GUIDED_NOGPS,0.140916109085083,151.96753623188405,314.87326952816835,-10.519773405128959,-9.144506752098296,-0.38220728546509974,300,0,30,-1.0531842207212896,0.3542462138379775,84.38401606321858,-2.1057350851381162,-2.9765862878165033,0.38220728546509974,0.5040180418729735
GUIDED_NOGPS,0.1429610252380371,490.73405873405875,314.87620739925165,-10.286918071818159,-9.144385706711235,-0.41859378328583335,300,0,30,-1.0531842207212896,0.3542462138379775,84.38401606321858,-2.059231496650383,-2.9772714441574393,0.41859378328583335,0.5040231652068005
GUIDED_NOGPS,0.15505433082580566,82.83081541165551,315.3595343181567,-10.171316650231342,-9.116228013856622,-2.0318650640366136,300,0,30,-1.350462654817394,0.28061560064647645,84.26825118697603,-2.036131909971438,-3.073968083094347,2.0318650640366136,0.5040219413917754
GUIDED_NOGPS,0.15669655799865723,607.9582548195391,315.87684639865205,-9.90705905436551,-9.221061430230236,0.2153348082185905,300,0,30,-1.350462654817394,0.28061560064647645,84.26825118697603,-1.983405623104753,-3.1776311938782102,-0.2153348082185905,0.5040423403783253
GUIDED_NOGPS,0.15842843055725098,579.7241188666206,315.8279614745565,-9.595180284362014,-9.302283841165753,2.462850177372213,300,0,30,-1.350462654817394,0.28061560064647645,84.26825118697603,-1.9210472668286973,-3.1678829078961463,-2.462850177372213,0.5040518878564479
GUIDED_NOGPS,0.160172700881958,575.5872101001784,315.77907655046107,-9.283301514358518,-9.38350625210127,4.710365546525836,300,0,30,-1.6651420630411635,0.2627535353889824,84.13989144190398,-1.858687355712119,-3.1581328516520863,-4.710365546525836,0.5040613543355259
GUIDED_NOGPS,0.16605901718139648,170.27174927942193,316.00752810483834,-9.122650827502428,-9.326457355131412,3.849736414260429,300,0,30,-2.2144459397742757,0.3093462577816062,83.91420833134842,-1.8266095229681047,-3.203914941529699,-3.849736414260429,0.5040601590028209
GUIDED_NOGPS,0.1673450469970703,782.5194029850746,316.0085796991306,-9.006181796093864,-9.326425329973068,3.8440768956960105,300,0,30,-2.2144459397742757,0.3093462577816062,83.91420833134842,-1.803327992463572,-3.2041470807068864,-3.8440768956960105,0.5040612278693473
GUIDED_NOGPS,0.16936707496643066,497.0143381917289,316.0107744321283,-8.773250646666966,-9.326361435855057,3.8328341610931838,300,0,30,-2.2144459397742757,0.3093462577816062,83.91420833134842,-1.7567561618819747,-3.204612305366189,-3.8328341610931838,0.5040625123862319
GUIDED_NOGPS,0.172255277633667,347.38313731986085,315.8829677894357,-8.589100056764233,-9.262744822627733,4.502079206217999,300,0,30,-2.2144459397742757,0.3093462577816062,83.91420833134842,-1.7199422911548101,-3.179081021256127,-4.502079206217999,0.5040576361232848
GUIDED_NOGPS,0.17824935913085938,167.14369968916873,315.93996406795037,-8.435479405525413,-9.18134119699152,2.1630740683641014,300,0,30,-2.4845058565844678,0.28835495202804134,83.80524632351921,-1.6892699164848541,-3.1905780760302074,-2.1630740683641014,0.5040543036746652
GUIDED_NOGPS,0.1812279224395752,336.3785387761649,315.997966391593,-8.281953674962063,-9.099941422724074,-0.19077947092164038,300,0,30,-2.4845058565844678,0.28835495202804134,83.80524632351921,-1.6585939032019745,-3.202234815648718,0.19077947092164038,0.5040489144779914
GUIDED_NOGPS,0.18330621719360352,482.76979742173114,315.3884130995164,-8.080777044403556,-9.11552032938926,-2.410505457642851,300,0,30,-2.4845058565844678,0.28835495202804134,83.80524632351921,-1.6183744195827667,-3.0803543264631217,2.410505457642851,0.5040520061007081
GUIDED_NOGPS,0.18816304206848145,206.26033931644946,314.8680359798711,-7.8084678595704595,-9.070831718501713,0.7605192223612439,300,0,30,-2.7392898418725147,0.22667124682939174,83.70028680654363,-1.5639556377776684,-2.9763608834939728,-0.7605192223612439,0.5040518458978623
GUIDED_NOGPS,0.18944263458251953,784.4219188329905,314.34920919060914,-7.536767311084286,-9.02628021850416,3.9332355111423425,300,0,30,-2.7392898418725147,0.22667124682939174,83.70028680654363,-1.509626327481607,-2.872616086561165,-3.9332355111423425,0.504048509159614
GUIDED_NOGPS,0.19047188758850098,976.1005352571561,314.27032875088156,-7.2814031922980185,-9.00337803800962,6.505403209283448,300,0,30,-2.7392898418725147,0.22667124682939174,83.70028680654363,-1.4585620518957116,-2.8568567515974945,-6.505403209283448,0.5040471347198842
GUIDED_NOGPS,0.1919405460357666,690.9891268533772,314.7401226416127,-7.00850184812055,-9.012868882260127,5.648500455568107,300,0,30,-2.7392898418725147,0.22667124682939174,83.70028680654363,-1.403989337457051,-2.9508314179803525,-5.648500455568107,0.5040489248362431
GUIDED_NOGPS,0.19359970092773438,602.9764232317424,315.319432128415,-6.856566266051659,-8.90241928604104,4.538838480724517,300,0,30,-2.7392898418725147,0.22667124682939174,83.70028680654363,-1.3736155408460187,-3.066723075399447,-4.538838480724517,0.504039391340322
GUIDED_NOGPS,0.19487380981445312,791.97583081571,315.9737132164244,-6.6894818737313555,-8.832456209233234,1.917316869403308,300,0,30,-2.7392898418725147,0.22667124682939174,83.70028680654363,-1.3402071679663963,-3.1975996033585683,-1.917316869403308,0.5040333825313489
GUIDED_NOGPS,0.19622421264648438,743.4073023750443,315.5119477085591,-6.499071459260908,-8.707465858891522,2.709756223844257,300,0,30,-2.7392898418725147,0.22667124682939174,83.70028680654363,-1.3021319602010686,-3.1052629113046955,-2.709756223844257,0.5040217024404161
GUIDED_NOGPS,0.19873285293579102,399.8383222116301,314.9075823655647,-6.277520695714571,-8.724751729489277,-0.11559654658041534,300,0,30,-2.9752239991552076,0.17628008548459465,83.59764272369668,-1.2578393799830865,-2.984431573091725,0.11559654658041534,0.5040255990501564
GUIDED_NOGPS,0.2013871669769287,377.4911349113491,314.3915689060595,-6.007998664877991,-8.68115574604194,3.0834474291907887,300,0,30,-2.9752239991552076,0.17628008548459465,83.59764272369668,-1.2039470175905598,-2.8812577308666674,-3.0834474291907887,0.5040227902748208
GUIDED_NOGPS,0.2046823501586914,304.3761973875181,314.3992644836367,-5.776474143264235,-8.68137303053287,3.048503770654591,300,0,30,-2.9752239991552076,0.17628008548459465,83.59764272369668,-1.1576519603819244,-2.88282139270519,-3.048503770654591,0.5040241308004633
GUIDED_NOGPS,0.20717453956604004,402.4471310688927,314.41296936518506,-5.545069224418168,-8.68154736108949,3.019507446061766,300,0,30,-3.190996718668492,0.17654870401804654,83.49721845232997,-1.1113920553384578,-2.885617157695782,-3.019507446061766,0.5040270890722904
GUIDED_NOGPS,0.21031928062438965,318.7403298122958,314.636000054626,-5.281552532307608,-8.641291886423192,3.760777002422008,300,0,30,-3.190996718668492,0.17654870401804654,83.49721845232997,-1.0587015080756472,-2.9302587418674384,-3.760777002422008,0.504024935197659
GUIDED_NOGPS,0.21204447746276855,582.0571745767417,314.5995799368031,-5.082861808890445,-8.581763118765215,-0.259192264427071,300,0,30,-3.190996718668492,0.17654870401804654,83.49721845232997,-1.0189784775690793,-2.9230181309789476,0.259192264427071,0.5040212768219576
GUIDED_NOGPS,0.21494364738464355,346.03613563237354,314.5865352398503,-4.909984630668846,-8.499832431272582,-0.3958175105324055,300,0,30,-3.3780525481466923,0.21100444705982213,83.40290037008127,-0.9844114154523014,-2.920434067583691,0.3958175105324055,0.5040143969117271
GUIDED_NOGPS,0.21842479705810547,287.9319008718336,314.96543169729233,-4.786761770151638,-8.429526104904456,-2.319857183209327,300,0,30,-3.3780525481466923,0.21100444705982213,83.40290037008127,-0.959789129736267,-2.9962830356978656,2.319857183209327,0.5040109447120592
GUIDED_NOGPS,0.2264995574951172,123.96713365253886,315.52804885133,-4.672780071465591,-8.416209227704732,-1.6205032646158817,300,0,30,-3.3780525481466923,0.21100444705982213,83.40290037008127,-0.937013800388235,-3.108876285830205,1.6205032646158817,0.5040130676680171
GUIDED_NOGPS,0.2312915325164795,209.0254161267816,316.09408550636215,-4.442505994668987,-8.402914597574629,-0.9444769462624881,300,0,30,-3.553793955821355,0.23693968919456546,83.31856119420995,-0.8909962171825025,-3.22221849959518,0.9444769462624881,0.50401817521698
GUIDED_NOGPS,0.2334301471710205,469.2140060409442,315.61456426385445,-4.180448979387237,-8.436668993641463,-1.7744546540863173,300,0,30,-3.553793955821355,0.23693968919456546,83.31856119420995,-0.8385921657610537,-3.1263417104828517,1.7744546540863173,0.504022902532228
GUIDED_NOGPS,0.23651123046875,325.16505155438404,315.08642152432134,-3.8996096021848388,-8.410295717599034,-0.2865122996482417,300,0,30,-3.726172135660021,0.22861592975214132,83.24817609481298,-0.7824390982796857,-3.020770450134694,0.2865122996482417,0.5040231823073417
GUIDED_NOGPS,0.23781776428222656,772.7162859248342,314.5584755817501,-3.61913026033338,-8.383924627717303,1.2296074008913156,300,0,30,-3.726172135660021,0.22861592975214132,83.24817609481298,-0.7263479497967754,-2.9152002480509536,-1.2296074008913156,0.5040215463659737
GUIDED_NOGPS,0.2389230728149414,910.2222222222222,315.007979567095,-3.3526247390047406,-8.331984862619949,2.4442750893526863,300,0,30,-3.726172135660021,0.22861592975214132,83.24817609481298,-0.6730508477664764,-3.0051189610730207,-2.4442750893526863,0.5040172675746685
GUIDED_NOGPS,0.24002981185913086,907.8580086580087,315.0304829322902,-3.1102232485396653,-8.338268392986246,0.2754187664797361,300,0,30,-3.726172135660021,0.22861592975214132,83.24817609481298,-0.6245736033146226,-3.0096343911560766,-0.2754187664797361,0.5040186487438542
GUIDED_NOGPS,0.2417759895324707,575.1136706430824,315.05674957447786,-2.8680139906060886,-8.344605437202501,-1.9144429461389478,300,0,30,-3.726172135660021,0.22861592975214132,83.24817609481298,-0.5761349586927854,-3.014904555797061,1.9144429461389478,0.5040201399740989
GUIDED_NOGPS,0.2430562973022461,785.8916994566235,315.144317485234,-2.596485252482196,-8.350095921532047,-0.7150911384624218,300,0,30,-3.726172135660021,0.22861592975214132,83.24817609481298,-0.5218341331371374,-3.032446846517895,0.7150911384624218,0.5040221430020844
GUIDED_NOGPS,0.2447831630706787,581.8956714761376,315.1587220711863,-2.309578281080222,-8.293072816253607,2.4279833580138663,300,0,30,-3.726172135660021,0.22861592975214132,83.24817609481298,-0.4644561985678985,-3.0353504712304473,-2.4279833580138663,0.5040175879397126
GUIDED_NOGPS,0.24609947204589844,764.268221574344,315.02816155520077,-1.9625801238535312,-8.26811624298841,5.697637951925088,300,0,30,-3.726172135660021,0.22861592975214132,83.24817609481298,-0.3950595636538354,-3.009261313520035,-5.697637951925088,0.5040162608625197
GUIDED_NOGPS,0.25280165672302246,149.34852585101837,314.96634736780834,-1.651917323298557,-8.263739703657391,4.456698696876207,300,0,30,-3.882263729422792,0.2151374585596203,83.18098069375839,-0.33293798401897523,-2.9969979589985813,-4.456698696876207,0.5040209100743118
GUIDED_NOGPS,0.25514841079711914,427.99020408163267,314.99010599562604,-1.304715266211983,-8.264461407216237,4.398285206285787,300,0,30,-3.997573117425063,0.2045307083871194,83.1022354428173,-0.2635006500009449,-3.001785041350426,-4.398285206285787,0.5040227873132402
GUIDED_NOGPS,0.2572662830352783,473.9862131314273,315.1193573900719,-1.0823704421914744,-8.28322510081622,3.357137097910216,300,0,30,-3.997573117425063,0.2045307083871194,83.1022354428173,-0.2190332892805407,-3.0276577272767486,-3.357137097910216,0.5040257984049629
GUIDED_NOGPS,0.26064491271972656,296.7108092812677,314.552192850793,-0.9431045038242517,-8.311917095630603,2.390281189037111,300,0,30,-3.997573117425063,0.2045307083871194,83.1022354428173,-0.19118390478149117,-2.9142835027662564,-2.390281189037111,0.5040317575462595
GUIDED_NOGPS,0.26230621337890625,605.6756678700361,314.5439398575182,-0.7920165405696308,-8.346751107505339,3.1018923250603194,300,0,30,-3.997573117425063,0.2045307083871194,83.1022354428173,-0.16096745059542863,-2.9126538099429626,-3.1018923250603194,0.5040363433594915
GUIDED_NOGPS,0.26383233070373535,657.9300392156863,315.21590726947323,-0.5853709028477757,-8.394963843397756,0.11759439441491774,300,0,30,-3.997573117425063,0.2045307083871194,83.1022354428173,-0.11963926412638214,-3.0470717542858767,-0.11759439441491774,0.5040423991513284
GUIDED_NOGPS,0.26514148712158203,767.0636430138991,315.8878746814283,-0.37872526512592053,-8.443176579290173,-2.866703536230484,300,0,30,-3.997573117425063,0.2045307083871194,83.1022354428173,-0.07831072521602603,-3.181489930417505,2.866703536230484,0.504048415431613
GUIDED_NOGPS,0.2677934169769287,377.9333213191566,316.07111252120467,-0.11140070759438499,-8.517292604596413,-2.0880572379144033,300,0,30,-4.076788797645224,0.19538140318962288,83.0326767963099,-0.024845939843151386,-3.218155694887236,2.0880572379144033,0.5040566992581054
GUIDED_NOGPS,0.269603967666626,553.8497293014657,315.62991011869616,0.10641899755731626,-8.522260719647791,3.1488106670025076,300,0,30,-4.076788797645224,0.19538140318962288,83.0326767963099,0.018718281982058757,-3.1299564551290007,-3.1488106670025076,0.5040592289497231
GUIDED_NOGPS,0.27213096618652344,397.67744382288805,315.03892657780733,0.42754941679241854,-8.54116489155663,6.903732597875759,300,0,30,-4.076788797645224,0.19538140318962288,83.0326767963099,0.0829451487973787,-3.0117872876338,-6.903732597875759,0.5040625309703053
GUIDED_NOGPS,0.27474021911621094,384.0937728937729,314.9176736942316,0.6485663042361745,-8.605357498600245,2.15430992249532,300,0,30,-4.076788797645224,0.19538140318962288,83.0326767963099,0.12715020665312954,-2.9875753610403524,-2.15430992249532,0.5040709506793316
GUIDED_NOGPS,0.276979923248291,447.77452759688265,314.74100413158936,0.9030800106229752,-8.653420169160674,1.4107334575213077,300,0,30,-4.076788797645224,0.19538140318962288,83.0326767963099,0.17805545070616915,-2.952282301400017,-1.4107334575213077,0.5040778994108158
GUIDED_NOGPS,0.27837681770324707,729.8249521489473,315.2749675861978,1.1677813559658747,-8.676191124202473,1.5584853573766206,300,0,30,-4.076788797645224,0.19538140318962288,83.0326767963099,0.23099831103687027,-3.05910888688999,-1.5584853573766206,0.5040818929260683
GUIDED_NOGPS,0.27942419052124023,949.3671344499774,315.7966619448801,1.4103662235290482,-8.721453028769776,2.5013251223249853,300,0,30,-4.076788797645224,0.19538140318962288,83.0326767963099,0.2795169601206824,-3.163466525689223,-2.5013251223249853,0.5040873391690556
GUIDED_NOGPS,0.2802925109863281,1157.3686534216336,316.32196263359197,1.6158910456072608,-8.76367473730083,-0.9947435699903195,300,0,30,-4.076788797645224,0.19538140318962288,83.0326767963099,0.3206233950678174,-3.2685415171311303,0.9947435699903195,0.504092266872681
GUIDED_NOGPS,0.28104662895202637,1333.2180546726001,316.29150138309967,1.8241812209965786,-8.817328028662265,-3.9279005601775245,300,0,30,-4.076788797645224,0.19538140318962288,83.0326767963099,0.3622828766852597,-3.2624621858706004,3.9279005601775245,0.5040982478292635
GUIDED_NOGPS,0.28181958198547363,1308.6751950078003,316.3703731168827,2.1177102914627963,-8.915574341593455,-3.752918448562222,300,0,30,-4.076788797645224,0.19538140318962288,83.0326767963099,0.42099025748779145,-3.2782486436396168,3.752918448562222,0.5041086482653966
GUIDED_NOGPS,0.2836489677429199,561.6368505623996,315.92576721792847,2.4009349995841283,-9.011518239649723,-4.230321685108616,300,0,30,-4.076788797645224,0.19538140318962288,83.0326767963099,0.47763730736258125,-3.1893414481953144,4.230321685108616,0.5041189277720735
GUIDED_NOGPS,0.2858877182006836,440.43935734537433,315.3809881078578,2.6753147240909265,-9.100040704632132,-2.1401601464668922,300,0,30,-4.076788797645224,0.19538140318962288,83.0326767963099,0.5325187517612475,-3.0804172440323057,2.1401601464668922,0.5041293875346267
GUIDED_NOGPS,0.29170823097229004,172.06695109944206,314.7847512326807,2.9245766052600026,-9.051604551187674,0.557847019902051,300,0,30,-4.076788797645224,0.19538140318962288,83.0326767963099,0.5823772849191732,-2.961200994388231,-0.557847019902051,0.5041261881761991
GUIDED_NOGPS,0.29594874382019043,236.27219468228932,314.90001912823243,3.203797601633571,-9.068132554049305,2.5561052041469927,300,0,30,-4.076788797645224,0.19538140318962288,83.0326767963099,0.6382453841360841,-2.9843657258371983,-2.5561052041469927,0.5041336698472562
GUIDED_NOGPS,0.3026461601257324,149.47626514611548,315.4689608579859,3.3944337734619334,-9.09630549346879,0.35421141009985985,300,0,30,-4.076788797645224,0.19538140318962288,83.0326767963099,0.6763971555495188,-3.0982658909178977,-0.35421141009985985,0.5041421393823625
GUIDED_NOGPS,0.30483555793762207,458.1935765785449,315.895489143268,3.685214360035424,-9.217499060032585,-0.1790494831824437,300,0,30,-4.076788797645224,0.19538140318962288,83.0326767963099,0.7345642908038025,-3.1836190718147055,0.1790494831824437,0.5041566037642637
GUIDED_NOGPS,0.3071167469024658,440.208228379513,316.31192572994183,3.9628429114653763,-9.286919158941537,1.1778961895250244,300,0,30,-4.076788797645224,0.19538140318962288,83.0326767963099,0.7900982795621188,-3.266940465147126,-1.1778961895250244,0.5041651872001727
GUIDED_NOGPS,0.309110164642334,510.13184140111895,315.88915982895975,4.244347348036961,-9.382616896446878,0.7587124401559416,300,0,30,-4.076788797645224,0.19538140318962288,83.0326767963099,0.8464082681862236,-3.1824213566592694,-0.7587124401559416,0.5041764459657386
GUIDED_NOGPS,0.3119015693664551,357.3878663940014,315.3221574838646,4.439157828759634,-9.372042363784082,0.722211538063012,300,0,30,-4.076788797645224,0.19538140318962288,83.0326767963099,0.8853784852628652,-3.0690489177769145,-0.722211538063012,0.5041768290455432
GUIDED_NOGPS,0.31453418731689453,380.8848528877588,314.7781719718933,4.667600590433386,-9.381436601696834,1.1985313058170703,300,0,30,-4.076788797645224,0.19538140318962288,83.0326767963099,0.9310829924234139,-2.960302330236027,-1.1985313058170703,0.5041804607475124
GUIDED_NOGPS,0.3178853988647461,300.23650680028635,314.7956313003792,4.899429323513715,-9.381601823543386,1.1572689621519647,300,0,30,-4.076788797645224,0.19538140318962288,83.0326767963099,0.9774605662036291,-2.9638299124113017,-1.1572689621519647,0.5041823786040709
GUIDED_NOGPS,0.31994175910949707,488.05026762857807,315.05806092382363,5.135048647402228,-9.409134487876175,-2.310033222827054,300,0,30,-4.076788797645224,0.19538140318962288,83.0326767963099,1.0246010005357544,-3.0163644258044213,2.310033222827054,0.5041876751445548
GUIDED_NOGPS,0.3221619129180908,456.2001305199043,315.6189942575277,5.372774571814745,-9.40073627941357,-2.7903139005429978,300,0,30,-4.076788797645224,0.19538140318962288,83.0326767963099,1.072156370404997,-3.1285807009435107,2.7903139005429978,0.5041883291365278
GUIDED_NOGPS,0.32563161849975586,287.5962698848053,315.63655140364455,5.604631318476836,-9.400895556689257,-2.8329181359304365,300,0,30,-4.128830997139313,0.1126917180028635,82.95937520613732,1.118538488561944,-3.1321221744764443,2.8329181359304365,0.5041898591739492
GUIDED_NOGPS,0.32697391510009766,750.8600071607591,315.619990936744,5.812906324439706,-9.377397222592686,-2.1576165655452164,300,0,30,-4.128830997139313,0.1126917180028635,82.95937520613732,1.1602114995882558,-3.1288584757244338,2.1576165655452164,0.5041899493605139
GUIDED_NOGPS,0.3442115783691406,58.030964207147505,315.68561990635664,6.084238683016042,-9.379289218459482,-1.1960136208954424,300,0,30,-3.8259039965996084,-0.03148210279273416,82.69533375320297,1.2145156853370123,-3.1420814992306902,1.1960136208954424,0.5041950205244998
GUIDED_NOGPS,0.3454880714416504,788.1067267944381,316.0088149926478,6.352346063024608,-9.361984763808378,2.309116466684088,300,0,30,-3.8259039965996084,-0.03148210279273416,82.69533375320297,1.2682160404299057,-3.2069193030104617,-2.309116466684088,0.5042030654834425
GUIDED_NOGPS,0.34706974029541016,639.3756097560976,316.1932470110117,6.595862131586653,-9.380766283085789,3.2360942467919926,300,0,30,-3.8259039965996084,-0.03148210279273416,82.69533375320297,1.3169279300445338,-3.2438270065565376,-3.2360942467919926,0.504205979629364
GUIDED_NOGPS,0.3486011028289795,653.1149174711928,315.85692317597426,6.745865810569536,-9.288149975584874,1.1935761427609937,300,0,30,-3.8259039965996084,-0.03148210279273416,82.69533375320297,1.346941341166612,-3.1765920343401652,-1.1935761427609937,0.5041981944290774
GUIDED_NOGPS,0.3500051498413086,715.873698583376,315.6812438365628,6.933189602759268,-9.26480511623899,-0.2565381021817738,300,0,30,-3.8259039965996084,-0.03148210279273416,82.69533375320297,1.38441485885799,-3.1414759778285117,0.2565381021817738,0.5041968520705724
GUIDED_NOGPS,0.351287841796875,783.8355447579892,315.9735745634507,7.13121433348874,-9.174616549517486,-1.7067022254631183,300,0,30,-3.8259039965996084,-0.03148210279273416,82.69533375320297,1.4240292037868136,-3.1999631760244314,1.7067022254631183,0.5041888658394815
GUIDED_NOGPS,0.353102445602417,558.1985626829918,315.93343472233425,7.359791640078295,-9.196389310207577,-2.1198686443998818,300,0,30,-3.8259039965996084,-0.03148210279273416,82.69533375320297,1.4697566954037884,-3.1919612525581385,2.1198686443998818,0.5041923245221682
GUIDED_NOGPS,0.3550105094909668,523.5680938709274,316.2434922954428,7.554538439070772,-9.142156021094882,-4.032509721585366,300,0,30,-3.8259039965996084,-0.03148210279273416,82.69533375320297,1.5087210497121013,-3.2540050078265375,4.032509721585366,0.5041884550074243
GUIDED_NOGPS,0.3590223789215088,249.76502113976062,316.2496531013594,7.6708324397192165,-9.142257657382084,-4.063723843048673,300,0,30,-3.5730179501271793,-0.03667977002940809,82.64607442890883,1.5319910388621536,-3.2552608714829394,4.063723843048673,0.5041896070641173
GUIDED_NOGPS,0.3652820587158203,159.9780303608208,316.2608661282439,7.787084991648875,-9.142389115703786,-4.074960787145272,300,0,30,-3.5730179501271793,-0.03667977002940809,82.64607442890883,1.5553064870474802,-3.257639078932212,4.074960787145272,0.5041961485080608
GUIDED_NOGPS,0.37668466567993164,87.77081633080127,315.8469773764828,7.981425313358495,-9.113096504861668,-0.43337386654100857,300,0,30,-3.2824444139185,-0.072860082475759,82.6110765396017,1.5942701540943447,-3.1750511460427733,0.43337386654100857,0.5042025892972563
GUIDED_NOGPS,0.3781411647796631,688.8329775004106,315.32901319092997,8.232021840561453,-9.071510904314911,3.349286004995269,300,0,30,-3.2824444139185,-0.072860082475759,82.6110765396017,1.644401716390041,-3.071481132668247,-3.349286004995269,0.5041995942274283
GUIDED_NOGPS,0.37989258766174316,574.0117695360614,315.2114052240818,8.446563701158077,-9.045993522480858,5.121363485840765,300,0,30,-3.2824444139185,-0.072860082475759,82.6110765396017,1.687323677751313,-3.047984012146177,-5.121363485840765,0.5041982988710632
GUIDED_NOGPS,0.3813605308532715,684.1141738704943,315.51907670816,8.68473072418229,-9.036128464242486,4.828453829372383,300,0,30,-3.2824444139185,-0.072860082475759,82.6110765396017,1.7349699242245447,-3.1095412565864478,-4.828453829372383,0.5041984667978638
GUIDED_NOGPS,0.3833596706390381,502.25170638246914,316.29924818310445,8.867489641961177,-8.930931579953034,3.2984058080070042,300,0,30,-3.2824444139185,-0.072860082475759,82.6110765396017,1.7715369509768855,-3.265603569949635,-3.2984058080070042,0.5041892855532706
GUIDED_NOGPS,0.3889915943145752,177.96605566870332,316.7343607624426,9.022439448159842,-8.844323489299587,-0.46917539332782116,300,0,30,-3.107261374208486,-0.13475520337356164,82.60534601088806,1.8025805868928246,-3.352725638870578,0.46917539332782116,0.5041852464576514
GUIDED_NOGPS,0.39084339141845703,542.0398035668131,316.46190534300024,9.134766234820269,-8.781764392246403,-3.445632866954,300,0,30,-3.107261374208486,-0.13475520337356164,82.60534601088806,1.8250593840333824,-3.298258775071516,3.445632866954,0.5041801317254481
GUIDED_NOGPS,0.3923008441925049,689.0593067192377,315.78452141729775,9.359550030859001,-8.782682190648387,-2.0465558971430986,300,0,30,-3.107261374208486,-0.13475520337356164,82.60534601088806,1.8700333591912575,-3.1628110239692604,2.0465558971430986,0.504181650242087
GUIDED_NOGPS,0.39337635040283203,935.1848383500558,315.2532497995701,9.60833070466751,-8.741343927694375,1.8466113592055062,300,0,30,-3.107261374208486,-0.13475520337356164,82.60534601088806,1.919801596273419,-3.056575912888701,-1.8466113592055062,0.5041784923608827
GUIDED_NOGPS,0.39479494094848633,708.018906144497,315.2186410671288,9.837567887200713,-8.69713629455217,5.124763195675598,300,0,30,-3.107261374208486,-0.13475520337356164,82.60534601088806,1.9656611048573136,-3.04967284181013,-5.124763195675598,0.5041750213339754
GUIDED_NOGPS,0.396503210067749,587.4375350140056,315.896383769636,9.965059706913943,-8.623964506262462,0.4226146014756201,300,0,30,-2.941898652421069,-0.21162028466303398,82.60555091656315,1.991175895464029,-3.1852475863247713,-0.4226146014756201,0.5041689775301359
GUIDED_NOGPS,0.4007747173309326,234.5938810895464,316.44503582052505,10.065266733469775,-8.549230784597297,-3.5673725778868146,300,0,30,-2.941898652421069,-0.21162028466303398,82.60555091656315,2.011253169787519,-3.295036600731181,3.5673725778868146,0.5041642516715141
GUIDED_NOGPS,0.40245604515075684,596.7141840944657,316.9051675781363,10.22175593458338,-8.463217770970596,-7.474197399839478,300,0,30,-2.941898652421069,-0.21162028466303398,82.60555091656315,2.0425748834159676,-3.3871024350905317,7.474197399839478,0.5041574470242867
GUIDED_NOGPS,0.4056363105773926,315.31378740039094,316.1532587221725,10.377828888653637,-8.429390213504814,-6.665233184002545,300,0,30,-2.755570238089475,-0.2675627089361854,82.60991540744278,2.0738048889147858,-3.236744657104236,6.665233184002545,0.5041552058887041
GUIDED_NOGPS,0.40858006477355957,340.64029887111184,315.6094907044807,10.625132076566468,-8.388280368216813,-2.6833502790490136,300,0,30,-2.755570238089475,-0.2675627089361854,82.60991540744278,2.12331306000429,-3.12806088552932,2.6833502790490136,0.5041545296465918
GUIDED_NOGPS,0.410250186920166,601.4201319185546,315.0817343847801,10.752101176325924,-8.367515673578062,-2.69724109720435,300,0,30,-2.755570238089475,-0.2675627089361854,82.60991540744278,2.148725526860163,-3.0225357771887653,2.69724109720435,0.5041537839595844
GUIDED_NOGPS,0.4118771553039551,617.5359246171967,315.2560749457324,10.936275226229691,-8.403040077821741,-2.1865820388514075,300,0,30,-2.755570238089475,-0.2675627089361854,82.60991540744278,2.18557900851252,-3.057429936311612,2.1865820388514075,0.504158647722078
GUIDED_NOGPS,0.4139585494995117,485.62047007062637,315.26068284892466,11.052139544902085,-8.403133898642091,-2.1924127933581588,300,0,30,-2.755570238089475,-0.2675627089361854,82.60991540744278,2.208768944641396,-3.0583750903401152,2.1924127933581588,0.5041598435413115
GUIDED_NOGPS,0.41617536544799805,451.0489299924723,315.57017138216224,11.254197559826745,-8.420926105447933,-0.17987398555709433,300,0,30,-2.755570238089475,-0.2675627089361854,82.60991540744278,2.2492071436017778,-3.1203095924938085,0.17987398555709433,0.5041634386924518
GUIDED_NOGPS,0.4197728633880615,278.4507734183098,315.3908476238558,11.421592394727044,-8.365301645215341,3.297670783244636,300,0,30,-2.5635979530693347,-0.3116853307680711,82.62268103100155,2.282733204216175,-3.084508300543309,-3.297670783244636,0.5041610400110325
GUIDED_NOGPS,0.4209287166595459,869.8266279552053,315.33059144273244,11.555415254032027,-8.376803402172614,2.2607547288542,300,0,30,-2.5635979530693347,-0.3116853307680711,82.62268103100155,2.309512256492176,-3.072476275512826,-2.2607547288542,0.5041631520077058
GUIDED_NOGPS,0.422069787979126,881.3414582895566,315.0122762556436,11.70496543004681,-8.338840194481472,4.259784818937182,300,0,30,-2.5635979530693347,-0.3116853307680711,82.62268103100155,2.3394343223218987,-3.0088286680502865,-4.259784818937182,0.504160143797384
GUIDED_NOGPS,0.42322230339050293,873.6313268069152,315.0168696072581,11.82083033617864,-8.338931174233464,4.254301434919597,300,0,30,-2.5635979530693347,-0.3116853307680711,82.62268103100155,2.362621321800183,-3.009765146788943,-4.254301434919597,0.5041610622135376
GUIDED_NOGPS,0.42585158348083496,381.5084591595416,315.1674436196226,11.979082352343033,-8.337947589361582,5.192971138094246,300,0,30,-2.3938545187030007,-0.3349029046650898,82.64269348526969,2.3942898922767433,-3.0399029519123046,-5.192971138094246,0.5041621267067876
GUIDED_NOGPS,0.4272146224975586,737.2656002812445,315.5116900558142,12.062538114082281,-8.37615775927403,3.173342033388854,300,0,30,-2.3938545187030007,-0.3349029046650898,82.64269348526969,2.4110121420902577,-3.108792228599311,-3.173342033388854,0.5041679264138968
GUIDED_NOGPS,0.42943620681762695,451.48589881593114,315.5162756291858,12.17840311749098,-8.376247264262913,3.1680265808602903,300,0,30,-2.3938545187030007,-0.3349029046650898,82.64269348526969,2.434202125680207,-3.1097309808793403,-3.1680265808602903,0.5041690056858138
GUIDED_NOGPS,0.43050384521484375,941.905232427577,315.3723735385635,12.251820985119297,-8.37717881655633,2.2404663978923574,300,0,30,-2.3938545187030007,-0.3349029046650898,82.64269348526969,2.4489080365650775,-3.0809785894645434,-2.2404663978923574,0.504170498216417
GUIDED_NOGPS,0.43265366554260254,474.5224572915488,315.2594127704352,12.35045697680865,-8.394888148051097,0.7147347733214531,300,0,30,-2.3938545187030007,-0.3349029046650898,82.64269348526969,2.468648102710572,-3.0584023344560953,-0.7147347733214531,0.5041730692139453
GUIDED_NOGPS,0.4360783100128174,291.4127700965747,315.2639902880821,12.466321947116382,-8.394976144051562,0.7095834207275544,300,0,30,-2.2258815974355812,-0.3576420718355168,82.6728897515903,2.491870096506907,-3.0593778341478655,-0.7095834207275544,0.504176096295371
GUIDED_NOGPS,0.43798041343688965,527.519054207018,315.9037820641516,12.551968792123432,-8.42526144364229,-2.4744384120942158,300,0,30,-2.2258815974355812,-0.3576420718355168,82.6728897515903,2.509028721386506,-3.1873732575793907,2.4744384120942158,0.5041809160419699
GUIDED_NOGPS,0.4393477439880371,736.1010881010881,316.249509751825,12.589287042703475,-8.410893567622578,-3.1277675141440966,300,0,30,-2.2258815974355812,-0.3576420718355168,82.6728897515903,2.5165092670581926,-3.256540602901581,3.1277675141440966,0.5041805102474476
GUIDED_NOGPS,0.4413740634918213,494.9615293839981,316.24781648372976,12.64674683206745,-8.468656160589036,-3.141312671432246,300,0,30,-2.2258815974355812,-0.3576420718355168,82.6728897515903,2.5280287177015675,-3.2562372704206104,3.141312671432246,0.5041879590474416
GUIDED_NOGPS,0.4424397945404053,942.9640287769785,315.6782729509163,12.716526591139214,-8.485044629157342,1.0333651974833202,300,0,30,-2.2258815974355812,-0.3576420718355168,82.6728897515903,2.5419996195988475,-3.142346995894303,-1.0333651974833202,0.5041905027870056
GUIDED_NOGPS,0.4435727596282959,893.7362028553164,315.35194230755303,12.795815686866055,-8.615759024632375,1.6840751512931291,300,0,30,-2.2258815974355812,-0.3576420718355168,82.6728897515903,2.557869678394116,-3.07709555189699,-1.6840751512931291,0.5042043129733165
GUIDED_NOGPS,0.4492337703704834,176.9002108814846,315.28974308833375,12.871976586070721,-8.68500921749507,0.7044960607058925,300,0,30,-2.048012372391048,-0.3932496088869386,82.7047116029334,2.573173474514082,-3.0647407761466026,-0.7044960607058925,0.5042155426561421
GUIDED_NOGPS,0.4504659175872803,816.8070107108082,315.30502796738284,12.930544967734427,-8.743493833784253,0.7031639928279958,300,0,30,-2.048012372391048,-0.3932496088869386,82.7047116029334,2.5849037490843627,-3.0678173981886863,-0.7031639928279958,0.5042223857761019
GUIDED_NOGPS,0.45193982124328613,681.8897740204844,315.1380592373366,13.017753523061321,-8.756961666514483,5.033123127205745,300,0,30,-2.048012372391048,-0.3932496088869386,82.7047116029334,2.6023633993871846,-3.034444513324078,-5.033123127205745,0.5042248007472718
GUIDED_NOGPS,0.4553651809692383,292.7960907504363,315.28218321861647,13.03837790725005,-8.931660471551744,6.814235577405057,300,0,30,-1.8563382678168612,-0.4694953040764819,82.74311092644722,2.606505401455694,-3.0632893819323024,-6.814235577405057,0.50424329332197
GUIDED_NOGPS,0.4581434726715088,361.7026560883063,315.30010103652967,12.801609608778435,-9.298952271892217,2.688527824284781,300,0,30,-1.8563382678168612,-0.4694953040764819,82.74311092644722,2.559201909812408,-3.0669329048695193,-2.688527824284781,0.5042831026644268
GUIDED_NOGPS,0.46754932403564453,106.3977068060171,315.27790584609585,12.300715513289907,-9.92660678935981,1.8364778430659545,300,0,30,-1.6558916390274392,-0.5762041498923844,82.78663289183854,2.459149913220095,-3.0626513846356356,-1.8364778430659545,0.5043541011206673
GUIDED_NOGPS,0.47012805938720703,388.8295170112172,315.46772076144373,11.531254695105453,-10.824241772881592,-0.8268103250536333,300,0,30,-1.6558916390274392,-0.5762041498923844,82.78663289183854,2.305286149494369,-3.1006524625966327,0.8268103250536333,0.5044458755100636
GUIDED_NOGPS,0.47246646881103516,428.90929542898044,315.72558964483824,11.095235507419543,-11.59872980031595,1.4476992004851656,300,0,30,-1.6558916390274392,-0.5762041498923844,82.78663289183854,2.2181067519789055,-3.152260878806367,-1.4476992004851656,0.5045251569442263
GUIDED_NOGPS,0.47406578063964844,627.0449992525041,315.6841502445647,11.130467215013661,-11.827790832329768,2.4338325869130983,300,0,30,-1.6558916390274392,-0.5762041498923844,82.78663289183854,2.2251774147515118,-3.1440072702868163,-2.4338325869130983,0.5045498910107941
GUIDED_NOGPS,0.4772160053253174,318.16005461579306,315.7321312110548,11.480053583294145,-11.480036934050327,2.3965983213095305,300,0,30,-1.4373937807570254,-0.6820087960560537,82.83091983841689,2.295105981509178,-3.153618939519196,-2.3965983213095305,0.5045159317117044
GUIDED_NOGPS,0.47828030586242676,944.0252081926626,315.37069222234277,11.706806708482768,-10.813040549673259,3.2493786591409113,300,0,30,-1.4373937807570254,-0.6820087960560537,82.83091983841689,2.3404946495155183,-3.0813810910734967,-3.2493786591409113,0.5044518846313202
GUIDED_NOGPS,0.47939109802246094,910.2222222222222,315.2695753486551,11.3982789711765,-10.419505854724664,1.2994799989718284,300,0,30,-1.4373937807570254,-0.6820087960560537,82.83091983841689,2.2787998391396584,-3.061172100150825,-1.2994799989718284,0.5044132926586917
GUIDED_NOGPS,0.48110246658325195,587.1908161836764,314.8612575424384,10.52258865218045,-10.62297963013809,2.1631349434666873,300,0,30,-1.4373937807570254,-0.6820087960560537,82.83091983841689,2.1036756413710176,-2.9795281221733703,-2.1631349434666873,0.5044347106463195
GUIDED_NOGPS,0.482647180557251,649.7759876065065,314.6885159513144,9.05289239451576,-11.608818115635941,3.491938247263827,300,0,30,-1.4373937807570254,-0.6820087960560537,82.83091983841689,1.8097518200805536,-2.9450048398545343,-3.491938247263827,0.5045347129015499
GUIDED_NOGPS,0.4837827682495117,885.2477838750527,314.5220138520918,7.202102346106064,-12.745853034385945,4.1468406270132006,300,0,30,-1.4373937807570254,-0.6820087960560537,82.83091983841689,1.4396043964126377,-2.9117257651999164,-4.1468406270132006,0.5046496729937284
GUIDED_NOGPS,0.48610544204711914,431.82374137753527,314.2949583514626,5.409704168661128,-13.049228505437254,4.829619520555444,300,0,30,-1.2107906223759222,-0.7756811052630762,82.87121795451996,1.0811337816028754,-2.8663385019105827,-4.829619520555444,0.50468144623221
GUIDED_NOGPS,0.4879014492034912,559.0914422820581,314.59827825627866,3.9765906962347373,-11.949324108426756,2.425549478791931,300,0,30,-1.2107906223759222,-0.7756811052630762,82.87121795451996,0.794518553350787,-2.9270298918172775,-2.425549478791931,0.504573031028483
GUIDED_NOGPS,0.49087047576904297,341.5278886084195,314.67603969465046,2.740785420148935,-9.696240200950172,3.098363468294778,300,0,30,-1.2107906223759222,-0.7756811052630762,82.87121795451996,0.5473653395836126,-2.942624167978006,-3.098363468294778,0.5043499940748197
GUIDED_NOGPS,0.49280858039855957,515.0176817288801,314.7424971854169,1.3539840395720173,-7.462739471652646,-0.36272129249891333,300,0,30,-1.2107906223759222,-0.7756811052630762,82.87121795451996,0.27000813053307693,-2.955949061055874,0.36272129249891333,0.5041283412250179
GUIDED_NOGPS,0.4949467182159424,469.2665025732826,314.34650973328775,-0.19489871081518043,-6.2259412975772825,1.5134110897297717,300,0,30,-1.2107906223759222,-0.7756811052630762,82.87121795451996,-0.0397688046203172,-2.8767799161019445,-1.5134110897297717,0.5040060928936234
GUIDED_NOGPS,0.49964094161987305,213.41800234060958,314.29019031835196,-1.7436716537397372,-6.298316784956735,-0.08654440196674311,300,0,30,-0.9895215215714817,-0.8611394183020709,82.92525158104394,-0.34952615028492706,-2.865538628649634,0.08654440196674311,0.5040144783345357
GUIDED_NOGPS,0.501225471496582,633.580664652568,313.3696636311682,-3.0554380079598573,-6.999145591755435,0.9542883795539486,300,0,30,-0.9895215215714817,-0.8611394183020709,82.92525158104394,-0.6118942251610856,-2.681498069136537,-0.9542883795539486,0.5040881465377707
GUIDED_NOGPS,0.5025262832641602,773.714074893931,312.87322530540496,-4.371947850144607,-7.708848861656931,1.752408227737547,300,0,30,-0.9895215215714817,-0.8611394183020709,82.92525158104394,-0.8752028490257353,-2.5822300009286,-1.752408227737547,0.5041602649503549
GUIDED_NOGPS,0.5035889148712158,947.0092571686611,311.9737387280969,-5.721454824140854,-7.9484775382217085,0.8513020280205646,300,0,30,-0.9895215215714817,-0.8611394183020709,82.92525158104394,-1.1451109088231037,-2.40234663383302,-0.8513020280205646,0.5041851119516424
GUIDED_NOGPS,0.5059795379638672,419.556266880064,312.2197866336714,-7.010915468297848,-8.020979074285991,5.480839423788922,300,0,30,-0.7859066988633786,-0.9287688031732165,82.99069162348184,-1.403016124082478,-2.451579024145711,-5.480839423788922,0.5041937814885132
GUIDED_NOGPS,0.510613203048706,216.25697344676462,312.7675691961379,-7.906849220717182,-8.023621186141199,3.56349521349064,300,0,30,-0.7859066988633786,-0.9287688031732165,82.99069162348184,-1.5822189529233266,-2.561161499134265,-3.56349521349064,0.5041955920991257
GUIDED_NOGPS,0.5122342109680176,619.6342148027774,313.63042776282424,-7.832496701564383,-8.131565385674275,4.438247462717797,300,0,30,-0.7859066988633786,-0.9287688031732165,82.99069162348184,-1.5673836162093813,-2.733794411711173,-4.438247462717797,0.5042098106563822
GUIDED_NOGPS,0.514171838760376,517.4958667489204,314.53227684355716,-6.4371771045262705,-7.955116521784736,3.8708944613612317,300,0,30,-0.7859066988633786,-0.9287688031732165,82.99069162348184,-1.288331528132606,-2.9141909377295696,-3.8708944613612317,0.5041935609764124
GUIDED_NOGPS,0.5297811031341553,64.1125021017716,315.25054305957957,-3.7971588948071564,-7.072358080419214,4.343016127839732,300,0,30,-0.5885335484787566,-0.9991356531585093,83.05956042088307,-0.7603857854963005,-3.058076722133111,-4.343016127839732,0.5041165907632509
GUIDED_NOGPS,0.5323183536529541,394.90669428490725,314.87542255067234,-0.37115152460056294,-5.887344411269356,5.759808972057613,300,0,30,-0.5885335484787566,-0.9991356531585093,83.05956042088307,-0.07518541978495638,-2.9830970412299433,-5.759808972057613,0.5040002327268562
GUIDED_NOGPS,0.5500383377075195,56.45928737767368,314.33353094743694,2.9729463087696915,-5.280553662671657,4.426876079562926,300,0,30,-0.09479439456182191,-1.2771958559209018,83.29405447546795,0.5936873540928675,-2.8749752496360985,-4.426876079562926,0.5039521820644398
GUIDED_NOGPS,0.55129075050354,801.6636085626911,313.886507985777,5.6709225384441355,-5.591355752069293,1.1108278690031266,300,0,30,-0.09479439456182191,-1.2771958559209018,83.29405447546795,1.1332898159361855,-2.785588327051725,-1.1108278690031266,0.503984168030643
GUIDED_NOGPS,0.5525555610656738,797.6995055154051,314.51863483035703,7.119302508725756,-6.204288436186403,-3.1595830861543135,300,0,30,-0.09479439456182191,-1.2771958559209018,83.29405447546795,1.4229739217428,-2.9120302385349546,3.1595830861543135,0.5040462863241099
GUIDED_NOGPS,0.5538055896759033,805.357910906298,315.63987473194305,7.899489090874172,-6.2774983369859685,-6.468247781719522,300,0,30,-0.09479439456182191,-1.2771958559209018,83.29405447546795,1.5790216062067135,-3.1362987460982525,6.468247781719522,0.5040545595943695
GUIDED_NOGPS,0.5551989078521729,721.042461750043,315.50453404380255,8.00965964759642,-5.906418305595435,-6.810638234925804,300,0,30,-0.09479439456182191,-1.2771958559209018,83.29405447546795,1.6010675344757113,-3.109253482838978,6.810638234925804,0.5040185110705456
GUIDED_NOGPS,0.5570385456085205,545.6360088461038,315.35850912435535,7.77265307538351,-5.766883925385867,-7.059869674353787,300,0,30,-0.09479439456182191,-1.2771958559209018,83.29405447546795,1.5536749594644874,-3.0800657677810364,7.059869674353787,0.504005361945348
GUIDED_NOGPS,0.558218240737915,851.9813122080033,314.46959341047597,6.950533028948997,-6.3025857973758725,-2.3250522485538596,300,0,30,-0.09479439456182191,-1.2771958559209018,83.29405447546795,1.3892646894938916,-2.90231122746196,2.3250522485538596,0.5040603673396222
GUIDED_NOGPS,0.5607194900512695,400.90843051041867,314.4466359520789,5.678320755794289,-7.5753719896398515,-1.9882732296548085,300,0,30,0.03628951543179177,-1.3426945952969738,83.3660651598874,1.1348350054202796,-2.897752226302295,1.9882732296548085,0.504189336100927
GUIDED_NOGPS,0.5621659755706787,694.4211920529801,313.5539934840388,4.3519030213575824,-9.61739866062931,3.2392881531363478,300,0,30,0.03628951543179177,-1.3426945952969738,83.3660651598874,0.8695567875157486,-2.71924032980086,-3.2392881531363478,0.5043945090122405
GUIDED_NOGPS,0.5638046264648438,613.740708223588,313.5795677698014,2.7357248904162916,-12.132104710026852,-3.1312899616749945,300,0,30,0.03628951543179177,-1.3426945952969738,83.3660651598874,0.5463252196123138,-2.724375331432805,3.1312899616749945,0.5046472296265049
GUIDED_NOGPS,0.5673778057098389,280.5742190113051,313.43997988053826,1.3469569872052862,-14.907160060647984,0.8066647628659306,300,0,30,0.03628951543179177,-1.3426945952969738,83.3660651598874,0.2685769323136616,-2.696510570731341,-0.8066647628659306,0.5049282647327152
GUIDED_NOGPS,0.5815291404724121,70.69091399389885,314.44100942073595,0.0117061190931671,-17.38370780288974,-3.6334274955986814,300,0,30,0.13645415956874943,-1.3952452169974057,83.44201003326876,0.001526916595171237,-2.896911273661759,3.6334274955986814,0.5051887026911643
GUIDED_NOGPS,0.5831713676452637,612.0391069604552,314.1019335934118,-1.0296535090753298,-19.551506181765543,3.4155812999489306,300,0,30,0.13645415956874943,-1.3952452169974057,83.44201003326876,-0.2067470461023219,-2.82912400742525,-3.4155812999489306,0.5054074431804415
GUIDED_NOGPS,0.5859775543212891,361.9836023129369,314.20480935005986,-2.139941990604942,-21.139544434205206,2.5147982272650893,300,0,30,0.13645415956874943,-1.3952452169974057,83.44201003326876,-0.4288081480061188,-2.8497217649136966,-2.5147982272650893,0.5055678747201244
GUIDED_NOGPS,0.5902688503265381,232.127068459793,313.64551384535207,-3.276853162833092,-22.119608252070147,1.0197308933677078,300,0,30,0.20686637961921253,-1.4944879723593967,83.53481864371089,-0.6562056233240129,-2.7379261302073217,-1.0197308933677078,0.5056707293404639
GUIDED_NOGPS,0.5915992259979248,756.2755138838803,314.29939336557806,-4.399115877044236,-22.809845873128722,-4.200681362757663,300,0,30,0.20686637961921253,-1.4944879723593967,83.53481864371089,-0.8806697672854538,-2.8687397438677533,4.200681362757663,0.5057425384500562
GUIDED_NOGPS,0.5938067436218262,455.4570528830492,314.3640840173282,-5.329299021356298,-23.235345055928022,-4.287658299000658,300,0,30,0.23215909038408544,-1.6195779778097144,83.62583774459048,-1.0667183423657367,-2.8817100729134246,4.287658299000658,0.5057874750275493
GUIDED_NOGPS,0.5970618724822998,307.9970627111176,315.12302082769617,-5.908793061329934,-23.606238970105085,0.8081581648169968,300,0,30,0.23215909038408544,-1.6195779778097144,83.62583774459048,-1.1826325481733455,-3.033536844294891,-0.8081581648169968,0.5058273582850861
GUIDED_NOGPS,0.6010069847106934,253.98474022041904,315.42487247120226,-6.339525107984781,-24.00167073888636,5.806253202212891,300,0,30,0.2448583864026961,-1.739476612603999,83.71172054321423,-1.2688070782281904,-3.0939755943008915,-5.806253202212891,0.5058716922500621
GUIDED_NOGPS,0.6024856567382812,679.3495302883058,315.6749875997463,-6.531507603581869,-24.61915286710764,7.812398613958417,300,0,30,0.2448583864026961,-1.739476612603999,83.71172054321423,-1.3072133801278463,-3.1440221457357675,-7.812398613958417,0.5059350799604853
GUIDED_NOGPS,0.6056711673736572,314.91132967940536,315.63515114956266,-6.614775222041586,-25.192731369275823,4.870186229910843,300,0,30,0.24038936161224503,-1.8341282001832722,83.80689922929835,-1.3238832534631935,-3.1360935008740087,-4.870186229910843,0.5059951661920788
GUIDED_NOGPS,0.6075563430786133,533.42286659036,315.88490276668387,-6.193179691288769,-25.729012476636836,3.6583741165691825,300,0,30,0.24038936161224503,-1.8341282001832722,83.80689922929835,-1.2395764589458034,-3.1860754024383344,-3.6583741165691825,0.5060510100149141
GUIDED_NOGPS,0.6093034744262695,574.4048205970967,316.15602062828987,-5.33639315225881,-26.560917497607647,2.4611124654225685,300,0,30,0.24038936161224503,-1.8341282001832722,83.80689922929835,-1.0682285966599177,-3.2403275712315938,-2.4611124654225685,0.5061362027955847
GUIDED_NOGPS,0.6110286712646484,582.2995973899764,316.50104965677923,-4.218189941557198,-27.867952553886365,4.8406080561488425,300,0,30,0.24038936161224503,-1.8341282001832722,83.80689922929835,-0.844595258881307,-3.3093619507103984,-4.8406080561488425,0.5062689104236577
GUIDED_NOGPS,0.6126034259796143,638.3052807791812,315.3246718355354,-3.001986899180288,-29.369398682310106,6.842841474616208,300,0,30,0.24038936161224503,-1.8341282001832722,83.80689922929835,-0.601359951098239,-3.0741134456637367,-6.842841474616208,0.5064211516406882
GUIDED_NOGPS,0.6183931827545166,172.9039492126309,314.92961413632247,-2.0444997337462736,-31.328833191668107,3.2731648754485767,300,0,30,0.22486028620398635,-1.8835663900562938,83.90231697200343,-0.40987416701318635,-2.995186970689749,-3.2731648754485767,0.5066240837908486
GUIDED_NOGPS,0.6200377941131592,612.128429655575,314.4996922148692,-1.2705852547804324,-33.60749202650587,2.3087171612813413,300,0,30,0.22486028620398635,-1.8835663900562938,83.90231697200343,-0.2550937089068298,-2.909230404846027,-2.3087171612813413,0.5068543903628868
GUIDED_NOGPS,0.6216983795166016,603.9314614830813,315.7729619223034,-0.8435523049253842,-35.24214607599996,-4.776060825432069,300,0,30,0.22486028620398635,-1.8835663900562938,83.90231697200343,-0.16968863416291516,-3.1639126784459286,4.776060825432069,0.5070201995861601
GUIDED_NOGPS,0.6227142810821533,989.4560037744751,316.51268746187264,-0.12559134783107298,-36.044803017947764,-2.2019258422706165,300,0,30,0.22486028620398635,-1.8835663900562938,83.90231697200343,-0.026096608390447674,-3.311879565464733,2.2019258422706165,0.5071022074518822
GUIDED_NOGPS,0.6244122982025146,590.8302577827864,316.6174675266686,0.809124863610478,-36.43687108146255,-4.801354614780479,300,0,30,0.18985129783943974,-1.917762585909609,83.99988622429707,0.16084735615440127,-3.332850411826176,4.801354614780479,0.5071426003412898
GUIDED_NOGPS,0.6258895397186279,679.6797925781883,316.30544823317786,2.1986093329870053,-37.06819595385297,-5.259570776607082,300,0,30,0.18985129783943974,-1.917762585909609,83.99988622429707,0.4387482883841754,-3.2704765025959746,5.259570776607082,0.5072081966145664
GUIDED_NOGPS,0.6279876232147217,477.82000455684664,315.8284976356775,4.158132282345787,-38.07807422376987,-2.8005115083412164,300,0,30,0.18985129783943974,-1.917762585909609,83.99988622429707,0.8306594550442525,-3.1751114185376115,2.8005115083412164,0.5073113379809505
GUIDED_NOGPS,0.6291334629058838,876.9190884382186,315.5925352629604,6.674725450711719,-39.667293953676996,1.7677177656618237,300,0,30,0.18985129783943974,-1.917762585909609,83.99988622429707,1.3339915470059027,-3.127950383315404,-1.7677177656618237,0.5074730693654906
GUIDED_NOGPS,0.630176305770874,962.6587101216434,315.52680584210316,9.43703238413491,-42.10584301372271,7.450273514442671,300,0,30,0.18985129783943974,-1.917762585909609,83.99988622429707,1.886462678283984,-3.114820531981852,-7.450273514442671,0.507718413388193
GUIDED_NOGPS,0.6310656070709229,1132.67728868485,315.8097590097257,11.73025205215405,-44.102698500383134,4.115492277567522,300,0,30,0.18985129783943974,-1.917762585909609,83.99988622429707,2.345118078398922,-3.171426619801509,-4.115492277567522,0.5079195476685859
GUIDED_NOGPS,0.6322422027587891,854.5851670741646,317.52544254060723,13.321185506327181,-44.619548742170686,2.5315127834949087,300,0,30,0.18985129783943974,-1.917762585909609,83.99988622429707,2.663319099427307,-3.514582178878492,-2.5315127834949087,0.5079728381243401
GUIDED_NOGPS,0.6334073543548584,863.0255144032922,318.448968566355,14.13573116254338,-42.885576596308944,0.5575546389664652,300,0,30,0.18985129783943974,-1.917762585909609,83.99988622429707,2.8262448020469004,-3.6993090118305245,-0.5575546389664652,0.5078011497910373
