Mode,Time,Freq,North-Vision,East-Vision,Down-Vision,Yaw-Vision,North-Desired,East-Desired,Down-Desired,Roll-UAV,Pitch-UAV,Yaw-UAV,Roll-Control,Pitch-Control,Yaw-Control,Thrust-Control,northVraw,eastVraw,downVraw,N-Velocity,E-Velocity,D-Velocity,yawVraw,yawRate,Q-Size
GUIDED_NOGPS,0.010811805725097656,92.66108472329614,-14.759032443117949,56.80136836632087,76.46106728439916,4.04019782437848,-13.824383508583557,59.52237203501354,72.89617952587378,-0.6392476497052484,-0.24420938502941267,112.70627655107938,4.271884786329139,-3.7082341312718716,10.0,0.4928702244829492,-13.256271559424832,61.853159209043795,68.15084978105428,1.6817586496472359,2.2309577092528343,-31.972768902778625,4.90782719847318,1.5753707523455704,0
GUIDED_NOGPS,0.0314173698425293,48.53844373466648,-12.171660772403591,61.03632629466992,74.12855394916498,4.787243222793632,-13.824330169822616,59.52209975606122,72.89596137167779,-0.6754935960006548,-0.22641746261304346,112.67361458646839,-4.3198697583518255,3.65222196352814,9.990327539206083,0.4975348148450256,-13.292442293217883,61.43779531454537,66.09482469027357,5.082497000694275,1.6825933009386063,-31.73440396785736,5.021391374579394,3.7649373011812517,0
GUIDED_NOGPS,0.0690603256225586,26.569938996192803,-12.235577965305179,61.10098717261909,72.61822866493222,4.883574199091632,-13.823964014340524,59.52023063819477,72.89445189702518,-0.761408731301247,-0.134445923870207,112.55394284202059,-0.2349297741991653,0.0031127068504386048,3.443483484383303,0.500552446464186,-13.292442293217883,61.43779531454537,66.09482469027357,4.042058438062668,1.1846675537526608,-31.59586191177368,5.021391374579394,3.8179903686725027,0
GUIDED_NOGPS,0.09905314445495605,33.345290338993834,-12.152545547666227,61.27248447807748,70.97191168817277,5.018076540054953,-13.822991847088952,59.515268005466424,72.89040787283572,-0.798479156134668,-0.1168249696264997,112.46668717537368,-0.5410705504738362,0.29518352881397086,3.905176467330089,0.5038369923693259,-12.683381924706154,61.91155517494046,64.7286767983172,4.042058438062668,1.1846675537526608,-31.59586191177368,5.157070821373287,3.8179903686725027,0
GUIDED_NOGPS,0.13417768478393555,28.475342168151204,-12.20251721450962,61.393187565574024,69.62931440746019,5.110628368735081,-13.821141430198919,59.50582216226947,72.88263788364836,-0.731623450269585,-0.19553454883741925,112.41365075646853,-0.38521215729281866,0.008009366031941634,3.5944088307537068,0.5065066469523763,-12.77731384423546,62.28167366910206,64.27453196316814,-1.6341609880328178,-0.8292006328701973,-27.927085757255554,5.278329997777281,2.254304789336355,0
GUIDED_NOGPS,0.16929054260253906,28.485011477391577,-12.131136334395867,61.49354771164383,68.34385543992929,5.156258818144324,-13.818160989870687,59.49060787615374,72.87000161295056,-0.7478028877528758,-0.19530493708743046,112.33223490156197,-0.39788224805651573,0.25914525628802904,3.3642167243642858,0.5090522923460425,-12.402914725353275,62.117682349156865,63.78235067232825,2.7124304324388504,-0.45697344467043877,-26.51650607585907,5.234865333361649,-0.046052417076678745,0
GUIDED_NOGPS,0.20005083084106445,32.51448859672243,-12.126921958317206,61.52928749082436,67.07330304118753,5.284277948014434,-13.813818723263667,59.468441860641114,72.85140912850771,-0.8728878772830216,-0.13930597699064132,112.20323311870794,-0.28457697237896296,0.12602077899792874,3.9667281633161644,0.5115562121746403,-12.65271511806381,61.71166730651346,61.84805102444848,0.5089233629405499,-0.98079489544034,-24.12746548652649,5.411965838012831,4.117145824129891,0
GUIDED_NOGPS,0.23446035385131836,29.068167327363955,-12.036725977934505,61.5611351716476,65.82062466898175,5.364747581846351,-13.807902305386305,59.438240258041056,72.82582016769258,-1.0615226010374057,0.050020470169871864,112.15059968096382,-0.3062970577430012,0.3036467547521847,3.6863325612130535,0.5140103909974216,-13.06679594938663,61.79459076122488,59.40522946946756,7.750767469406128,-0.8615171536803246,-21.589969098567963,5.770809526300054,0.6727147228646646,0
GUIDED_NOGPS,0.2677929401397705,30.003462237292016,-11.929929475906283,61.60863318120933,64.77444066821292,5.464959344826446,-13.80021839598599,59.399016122266076,72.79224342281458,-1.191396727114494,0.23857658671784132,112.09879269610929,-0.3692199163051113,0.34285834512316804,3.879632396410153,0.5160356055092034,-12.619299997106946,62.06021446029747,59.181530098078895,6.345820426940918,-0.9475152939558029,-13.55559229850769,5.72760881305525,2.250273270178755,0
GUIDED_NOGPS,0.30095887184143066,30.156191133543274,-11.91988979522176,61.654480142522026,63.724037022104724,5.531567377647184,-13.790592146438945,59.34987690164724,72.7497358264493,-1.3639975284314205,0.5186349399775799,112.04811269246778,-0.3739906126389294,0.13405414857478992,3.720721337354484,0.5180513976086891,-12.434995558750682,62.38485550664843,58.88238934326474,0.29980787076056004,-1.8029361963272095,-19.98351216316223,5.619291380242576,1.4394553239476058,0
GUIDED_NOGPS,0.3346388339996338,29.69755158106405,-11.957336384065432,61.66604373538183,62.754366375865175,5.587095852859456,-13.778866706640128,59.29002192174973,72.69740183676774,-1.4678821443863757,0.792484171034101,112.02782703063285,-0.32097781362801736,0.030831771922075216,3.6822540484260036,0.5198860709218052,-12.803884189561334,62.27874286373037,57.755053422258925,-1.013068575412035,-2.933322824537754,-15.28899371623993,5.673454926216205,0.9240281182806988,0
GUIDED_NOGPS,0.3692626953125,28.884998657089533,-12.026566954967556,61.62341426027757,61.872637561814365,5.644125648130928,-13.76490273189313,59.218739868188266,72.63439272286588,-1.6298052255964564,1.1539354873945014,111.99853917947183,-0.23235723303314224,-0.03504111877135771,3.71703147199606,0.5215235103221031,-13.115969809040728,61.809985784650195,56.73754171024272,-1.7339996993541718,-3.8836058229207993,-10.883031040430069,5.826430579756767,0.6918795933454857,0
GUIDED_NOGPS,0.4016380310058594,30.892715622007806,-12.057368259550822,61.59935653127735,61.04351793391606,5.682122264301112,-13.74857788980007,59.13540626944267,72.55990585009394,-1.6675486375065351,1.2173250856992146,111.99090985816893,-0.30777750386902863,0.02021660478410557,3.644132230759965,0.5230327758323557,-12.558416787344868,62.254945704087774,56.65154825542193,-1.6400016844272614,-4.352389276027679,-12.402357161045074,5.918929042252694,-0.4536180491031112,0
GUIDED_NOGPS,0.43476128578186035,30.197442690934224,-12.11069484760178,61.53437477811311,60.226293072676356,5.713916629325382,-13.729786367151494,59.03948097967335,72.4731839653858,-1.8330786989286174,1.3876602919241066,112.00422872705046,-0.24634202842216335,-0.030785690277958664,3.6200432120293082,0.5244937817854189,-12.697069126767474,61.87441793453746,55.19164306370682,-2.3903192952275276,-5.150526016950607,-11.188657581806183,5.714245010369526,0.3924014114498141,0
GUIDED_NOGPS,0.47006678581237793,28.327642100713206,-12.250086107930937,61.448577140106664,59.4954427811035,5.734416947062582,-13.708438376816273,58.930505661536806,72.3735144825884,-1.8950820889969353,1.4134590903580082,112.01860627525333,-0.2126141138640296,-0.22332565506934818,3.561847367073856,0.5257561434029698,-13.238019602421062,61.90646381540466,54.53523073142843,-5.824682861566544,-6.466091424226761,-6.827331334352493,5.835265106904434,-0.5711002910350924,0
GUIDED_NOGPS,0.5010528564453125,32.27802959759279,-12.393752098974044,61.34888226109728,58.82427680648911,5.744666366922701,-13.684459664631504,58.80810126900115,72.26022876779118,-1.8736376428806225,1.363191459387653,112.06891744867964,-0.2108007540265214,-0.2656873919928231,3.509653178123351,0.5268719039226042,-12.924089564244495,62.02387956184061,54.516234719392955,-7.438503950834274,-7.6547302305698395,-6.194780021905899,5.984832641399977,-1.5378772826704317,0
GUIDED_NOGPS,0.5357792377471924,28.80090090708709,-12.580517971236088,61.23065685322388,58.23307638868247,5.71736611295712,-13.657791016292402,58.67196553016157,72.13270142465535,-1.857021927064097,1.1402338077543386,112.14255371812155,-0.1916956101029859,-0.3540822024729053,3.273053986381207,0.5277992500719457,-13.33989301545423,61.856965640016995,53.94146535929781,-8.753184974193573,-8.185964077711105,-3.5542644560337067,5.944277567140808,-3.298203367881012,0
GUIDED_NOGPS,0.5691952705383301,29.930879949762012,-12.772996861129378,61.099843060038516,57.67804945809563,5.691392308015193,-13.628387764242197,58.521870430055884,71.99034957974342,-1.643052377491696,0.9404218529491988,112.2511878768706,-0.191895683184867,-0.40868668950249715,3.259289457978667,0.5286246002432956,-13.704660305343769,62.18801824969965,53.63546502929312,-8.054577559232712,-10.002997517585754,-1.6654806211590767,5.887051595991639,-2.975609051069667,0
GUIDED_NOGPS,0.602245569229126,30.2604053186347,-12.982535027859504,60.95385631228857,57.18546126006854,5.70483182909666,-13.596219294562038,58.357659693480024,71.83263216784849,-1.444579033042173,0.69777687472441,112.33994618513492,-0.1847226464647153,-0.4763824737317943,3.504133019523495,0.5292943418155599,-13.704660305343769,62.18801824969965,53.63546502929312,-9.449122101068497,-11.017655581235886,-2.1202992647886276,5.887051595991639,-0.4832008790589058,0
GUIDED_NOGPS,0.637934684753418,28.027423989308385,-13.176652763530795,60.72394027752427,56.80310143846815,5.65556839589006,-13.56126855386089,58.179246267803514,71.6590492173237,-1.2929315445515535,0.4746192266144608,112.37783324446099,-0.056152633614422895,-0.42277474221242645,3.1166798182181363,0.5297118955577111,-13.665111387240032,61.12377758555539,53.218325083199424,-8.928994834423065,-12.647567689418793,3.3495046198368073,5.66913633131337,-3.329118725055194,0
GUIDED_NOGPS,0.6737830638885498,27.899160558208838,-13.407988775418207,60.4768544149039,56.41479695511233,5.610715828985943,-13.523531556165421,57.98660980578503,71.46914113541158,-0.8272203787186702,-0.13140390168818614,112.63421805533575,-0.03804661582199048,-0.5207657731493547,3.1161963226426885,0.5301086883605985,-14.392605801634218,60.84527390925376,52.95973980332701,-8.928994834423065,-12.647567689418793,3.3495046198368073,5.749630124853464,-3.329118725055194,0
GUIDED_NOGPS,0.7066197395324707,30.456627503376563,-13.630772045953943,60.20626921345732,56.03789304647548,5.494013609240652,-13.483016889809917,57.779794148387865,71.26248799357344,-0.7652070635317145,-0.30172048497541915,112.77653870707131,-0.0017036277514717105,-0.5756874292255272,2.5871900873952978,0.5304491898941959,-14.195977427700534,60.28551401457714,52.86920918726521,-9.742840379476547,-13.040558993816376,0.16809932421892881,5.5794588546002135,-6.932152368376817,0
GUIDED_NOGPS,0.7425642013549805,27.824019529798864,-13.864243021474843,59.92127710566021,55.82168021439044,5.42116426592676,-13.439745224326165,57.55890480759543,71.03870881281885,-0.5857046762236077,-0.6313215353385659,112.97100785311991,-0.0070161120003647826,-0.5809318087127193,2.846624718517279,0.5304340571968569,-14.633206828706538,59.81302089836595,53.11026479518246,-9.851769357919693,-13.506798446178436,5.721605569124222,5.454968148026639,-3.9751641205318973,0
GUIDED_NOGPS,0.7725472450256348,33.35855059093006,-14.158360704977138,59.61540927735092,55.60399217805448,5.299346735942008,-13.393748817333357,57.324106449226804,70.79746084903488,-0.51865543054509,-0.7771413783632838,113.14667348838347,0.06149948105544388,-0.8618230779699158,2.365607892948585,0.5303869373419607,-14.909306371036772,59.38747908228163,52.89269843284122,-12.262862920761108,-12.463432550430298,8.288685232400894,5.38370758787779,-6.584745468414696,0
GUIDED_NOGPS,0.8080623149871826,28.160653140148515,-14.427481717899179,59.34931792867693,55.51091419879658,5.1189652550374705,-13.345071021427989,57.075620375752166,70.53843887831562,-0.45561219753649046,-0.8146561923795788,113.35681791857725,-0.07417955796663667,-0.7323695778688788,2.0564692089827963,0.5300550493590381,-15.585876946142807,59.394080958645965,53.35433399541911,-10.66020131111145,-12.787608802318573,8.81914347410202,5.128909415723759,-9.704751975614426,0
GUIDED_NOGPS,0.8491973876953125,24.31452388957809,-14.781023220432306,59.05098574506733,55.46376516623717,5.030263555888104,-13.293765791073753,56.81372200910838,70.2613744822915,-0.5231834190779853,-0.850643498621024,113.59601797350027,-0.03791522445722262,-0.8330902670310345,2.5842849786867603,0.5295952186321087,-16.31808644594534,59.031500571507564,53.29228919288879,-13.095638155937195,-12.443441152572632,13.672856986522675,4.931724681357004,-3.30205025848761,0
GUIDED_NOGPS,0.8859865665435791,27.186134391143433,-15.089725283841005,58.71526507664391,55.4680829357085,4.904260919847607,-13.23989718949144,56.53873837351444,69.96603533345873,-0.6052907239162953,-0.7708907947773701,113.70933081183078,0.05899295213152994,-1.0314853378700648,2.0820564292141923,0.5289959047955005,-16.86194817812602,57.79941139072865,53.63004884352647,-9.885044395923615,-12.589241564273834,12.816157937049866,4.645958918875384,-5.196497566778557,0
GUIDED_NOGPS,0.9095563888549805,42.43443070759394,-15.40307001590891,58.42242050779316,55.620750813726914,4.7652616028426324,-13.183538895548839,56.251045578287005,69.65222448050864,-0.5959662350387586,-0.7158781566854131,113.79964640322586,-0.06747689996235219,-1.0343870621319846,1.972099225414554,0.5280629473335634,-17.40910864584732,58.13106699232955,53.88097328012624,-10.107509046792984,-12.667176127433777,19.586098194122314,4.734805670747834,-6.791709591776192,0
GUIDED_NOGPS,0.9434657096862793,29.495808720112517,-15.706800899244882,58.116006686160965,55.82992009955236,4.61683579501133,-13.124773710650627,55.95106630065589,69.3197796336571,-0.5782474436712761,-0.6784397020496047,114.03776045807084,-0.0711405729252764,-0.9948636106937443,1.8882438825907104,0.5269797190682095,-17.568904016415843,57.94518960873766,54.066505490028284,-9.087888151407242,-12.77770847082138,22.936126589775085,4.575759377586531,-6.890044252143689,0
GUIDED_NOGPS,0.9761693477630615,30.582319829673054,-16.006241698514643,57.76048391833338,55.911417472204356,4.499287573146151,-13.063693065628273,55.639267268579566,68.96857244997393,-0.47479457037705974,-0.5847829742116263,114.20572163995062,0.00739030195217695,-1.034358733142976,1.9849128873333264,0.5261143099555392,-18.335736523298003,57.23366439947753,54.974273802583234,-7.082720845937729,-14.283637702465057,11.561442911624908,4.276277237594821,-4.235302547242411,0
GUIDED_NOGPS,1.008336067199707,31.094946140102458,-16.29165373403348,57.41748433602784,56.069510947175694,4.367608086792892,-13.000396527629936,55.316156743560704,68.59850781871224,-0.41747204768516905,-0.7271667518361516,114.346307423637,-0.03729275524172307,-1.065066500787929,1.7972446175444932,0.525057993743073,-18.190749952571064,57.07487879110599,55.50922768118598,-7.517614960670471,-13.864485919475555,14.342066645622253,4.174082003872586,-5.043797588825521,0
GUIDED_NOGPS,1.0464982986450195,26.2081755583049,-16.633243267485398,57.02220705316629,56.290157112036574,4.227566638676472,-12.934991307010357,54.98228200346162,68.20952314663785,-0.2465065964267848,-0.803274429179693,114.52680883283293,0.029342210242240506,-1.0763177284207068,1.8062720508889347,0.5238387320692025,-18.667616988843164,56.02654579523791,56.04800151974416,-10.379306972026825,-14.574545621871948,16.445471346378326,3.7329168142326887,-4.5030788329922915,0
GUIDED_NOGPS,1.0767772197723389,33.03511991493719,-16.978902325633765,56.606741818212576,56.55396689121823,4.074294328367153,-12.867591764220764,54.638226825319826,67.80158764335869,-0.18684756206936795,-0.8080925406697552,114.66412295590686,0.09995440573278676,-1.3270037878607366,1.4259659189143417,0.522495241504281,-18.799903077768544,55.61355876867802,56.91086988147382,-10.379306972026825,-14.574545621871948,16.445471346378326,3.475696627651899,-4.5030788329922915,0
GUIDED_NOGPS,1.10990571975708,30.188314212094603,-17.321016778878175,56.19436713553962,56.80554336714405,3.883224626825216,-12.798318916698763,54.28460896816351,67.3747016066542,-0.09827070738530717,-0.9643142815527265,114.75821564191295,0.0561318142614947,-1.269376227496474,1.184474052351816,0.5211383164790203,-19.591157604110776,54.6010143744518,56.85560459013325,-10.586441308259964,-14.772367477416992,15.652836859226227,3.1983619200521467,-7.1752520344290875,0
GUIDED_NOGPS,1.1433215141296387,29.92981204241533,-17.81428501322854,55.75923969257061,57.0287076384754,3.759361985557267,-12.727299945758244,53.92207765582707,66.92889570780467,0.04246778172182532,-1.1506672418766504,114.90372599199091,0.10966691640234952,-1.6361237448081773,1.5144180848510875,0.5198003761386585,-19.591157604110776,54.6010143744518,56.85560459013325,-20.17400562763214,-15.229204297065735,13.820113241672516,3.1983619200521467,-2.6969247397718643,0
GUIDED_NOGPS,1.1768214702606201,29.856947608200457,-18.223422773112485,55.32635377756519,57.32875385769052,3.5786377874526734,-12.654667703479264,53.55131105976656,66.46423027692067,0.18212427281489257,-1.425455143696372,115.10165121375954,0.08036466769419337,-1.5064167508626292,1.0677852641129737,0.5182709528384603,-20.58091412052581,54.141070329237124,57.67124215956656,-12.090739607810974,-14.58132416009903,16.260254383087158,2.967864745111006,-5.94199094345747,0
GUIDED_NOGPS,1.2106056213378906,29.6030207855454,-18.53757714391563,54.91577853518274,57.639314713788295,3.4027116188706867,-12.580560219597967,53.173013781875284,65.98079458827245,0.17028995622164056,-1.504006054411221,115.29546466164781,0.009798252043701619,-1.3426490596322382,1.0002141710230648,0.5166829597489683,-20.729357377780758,53.90918054262578,57.96120076741974,-6.129283830523491,-13.379620015621185,16.13430827856064,2.901247741839075,-5.789410493814908,0
GUIDED_NOGPS,1.2430119514465332,30.861120308441677,-18.86713897724828,54.49235120710019,57.96557995855619,3.228174807212054,-12.505120208396457,52.7879143372992,65.4787061456193,0.2395372154720066,-1.6955979832719563,115.43178157710294,0.029223566748231587,-1.4477440757439997,0.860630299236449,0.5150262523741262,-21.39255840073195,53.290263403732126,58.331619280399906,-6.129283830523491,-13.379620015621185,16.13430827856064,2.8219511196301776,-5.789410493814908,0
GUIDED_NOGPS,1.2769663333892822,29.456036856003145,-19.14720941538974,54.06364160779174,58.26526436190697,3.0503914841332294,-12.428494575592715,52.39676263725251,64.95810996753896,0.39043180900876456,-1.8845499372967758,115.62857298746934,0.017327457860967718,-1.3441221549387377,0.7793857397350656,0.513385691211264,-21.030322136072478,52.77551678573391,58.76084358351875,-5.02975657582283,-13.55331838130951,13.606664538383484,2.608223805215861,-5.968795593968362,0
GUIDED_NOGPS,1.3110063076019287,29.38525239079413,-19.457887537792875,53.61163680764716,58.59695540884903,2.897132193707846,-12.350833925230486,52.00032747183311,64.419177872757,0.4743499143899213,-1.996904841596193,115.787088017727,0.05656809872739445,-1.4375386959371355,0.838153213684102,0.5116444449278159,-21.780713510633355,52.13415347366407,59.951406256183915,-5.2088771015405655,-13.437999784946442,12.144386768341064,2.394496678076009,-3.896081629000551,0
GUIDED_NOGPS,1.343726634979248,30.56382304289847,-19.754604699751162,53.19119575645528,58.93545520115943,2.7227221054067856,-12.272292066569182,51.59939399283813,63.86210776547625,0.5252902122718169,-2.2276615020446044,115.96191353972264,-0.012001911100598395,-1.4770106516360084,0.570503540385884,0.5098533051286337,-22.14000798391119,51.7649159461284,60.13254226411912,-4.361892491579056,-11.632177978754044,12.591557204723358,2.267015388881237,-5.240154428405987,0
GUIDED_NOGPS,1.3787858486175537,28.527440538132453,-20.045006558636892,52.77023236860656,59.28532794028237,2.5473512340538678,-12.193025520973777,51.19476119657942,63.28712292070612,0.6562247252175497,-2.3044242905790853,116.08495256743126,-0.02481966754009761,-1.4500899744496376,0.5254330725284122,0.5080035899608475,-22.412960323004782,51.24909495067666,60.62411715572099,-4.361892491579056,-11.632177978754044,12.591557204723358,2.0176795590978553,-5.240154428405987,0
GUIDED_NOGPS,1.4135570526123047,28.764952370501945,-20.267741872026203,52.36664433287545,59.6651233939896,2.3614256862786323,-12.113193028804705,50.78723940669905,62.69447126959204,0.8236190547570752,-2.2751287554552544,116.24747008854254,-0.07080101540771178,-1.381946842076344,0.2881090755932252,0.5060586957512049,-22.579258964964254,51.27742798832004,60.96127643356851,0.18335320055484772,-10.849007219076157,13.543403148651123,2.023559981014804,-5.924587194565454,0
GUIDED_NOGPS,1.4506425857543945,26.967466502070312,-20.53366504503083,51.979468056987635,59.98088041118061,2.1756154956248825,-12.032955056307756,50.37764775698482,62.08442468474485,0.9905971696440529,-2.4232994642149257,116.48270180355777,-0.10621960448058099,-1.3934990934788196,0.3511498432070721,0.5042070885471285,-23.02478842146141,50.88729659578803,61.37362857928112,-3.1462814658880234,-10.944824665784836,9.543783217668533,1.822651902481321,-6.177084347142016,0
GUIDED_NOGPS,1.4787485599517822,35.58566156195648,-20.856494999325815,51.531147937094595,60.43555393772213,1.956689613534795,-11.952473302503979,49.96681167418579,61.45727826557019,0.9518188773530113,-2.3911851953979952,116.69020295054277,0.029342207030762686,-1.8053414327789987,-0.3809312862438161,0.5020434486556961,-23.47124283583161,50.282120732211936,62.20666764159112,-3.375456854701042,-9.795147180557251,14.002123475074768,1.5361574528855155,-6.214046342722363,0
GUIDED_NOGPS,1.512688159942627,29.47073165590461,-21.01228059117583,51.24294987909704,60.69749367365076,1.7722170696780102,-11.871910206079576,49.55556036082774,60.81334962359786,0.9078467598067039,-2.446540890413187,116.82728484718491,-0.3232130432078633,-1.3226145977678814,-0.02462769934548792,0.5002317118998942,-23.833206216179637,49.70241093019496,61.70002026282657,2.568863146007061,-6.662512570619583,8.69382843375206,1.2151732021443555,-6.516975904583007,0
GUIDED_NOGPS,1.5480399131774902,28.29095618389812,-21.22622537362607,50.903665608928556,61.02252081814167,1.553129540736134,-11.7914284522758,49.14472427802872,60.152978167811256,0.8882615658876626,-2.4118066037193215,117.0402774662626,-0.2263462911880752,-1.4416874035952096,-0.31024136043399786,0.49826091469933914,-23.863769628351832,49.56905088472028,61.95664528935653,0.4529152996838093,-6.827474385499954,10.222429037094116,1.1285574330893604,-7.312526883915297,0
GUIDED_NOGPS,1.5810213088989258,30.325385004699587,-21.4522409492689,50.57533358331312,61.42748701752541,1.4214502218867024,-11.711190479778852,48.73513262831449,59.47652438997671,0.8493290607317667,-2.3413367672879497,117.18902532600714,-0.26172850333614894,-1.535321914208515,0.054542385844128516,0.4960980747449026,-23.827146518922575,49.47427537086411,63.93979840916545,-1.0641519911587238,-6.5743230283260345,9.878303855657578,0.8206402662263921,-1.249251417592264,0
GUIDED_NOGPS,1.616499900817871,28.19017918352533,-21.692054466472985,50.2525568827729,61.75833929153859,1.2688495830761912,-11.631357987609778,48.32761083843411,58.78436914997295,0.6802632558362923,-2.251987220773605,117.3632771121125,-0.26741439670324907,-1.5456496087411427,-0.10060484662407365,0.4940520597168687,-24.385841885339673,48.65136589233549,63.10169120400113,-1.8886551260948181,-5.854056030511856,9.28036943078041,0.5815194731850527,-2.868281592886202,0
GUIDED_NOGPS,1.6484925746917725,31.261349492058525,-21.890363871929505,49.93537460508933,62.0626744565096,1.0843350273676855,-11.552091442014374,47.92297804217541,58.07691296112043,0.6431166317049433,-2.3185969331068614,117.4303768905187,-0.30068305150018493,-1.5444639954622115,-0.5001433950798546,0.49202847700922164,-25.085609160497473,48.20567081450153,63.2097911627625,2.2949256002902985,-5.135998502373695,8.00989642739296,0.41411741570597926,-4.797157750349068,0
GUIDED_NOGPS,1.6821882724761963,29.68199960370255,-22.05125713614483,49.635910445685475,62.37549707051262,0.9008689171560381,-11.47354958335307,47.522044563180415,57.354575275510726,0.5251810359668024,-2.2830773881018565,117.52063101021125,-0.33301292364568125,-1.4568731550354586,-0.5478289526222502,0.4899581564099962,-24.739464766653693,47.856489861476454,63.93055649979215,2.2949256002902985,-5.135998502373695,8.00989642739296,0.13178359851622337,-4.797157750349068,0
GUIDED_NOGPS,1.7159373760223389,29.636697662587263,-22.198575093291673,49.32676419590646,62.709544272146104,0.7407528832070408,-11.39588893299084,47.125609397761025,56.617793769335975,0.4750773295365277,-2.1483008937479915,117.6455278493741,-0.3162790548342574,-1.4455804119412494,-0.5043623101806283,0.48781649899437973,-24.611641679234495,47.40750280152579,64.53436504804145,2.678827755153179,-4.40906323492527,7.635661959648132,0.03965302397174887,-3.1183326839662535,0
GUIDED_NOGPS,1.7520883083343506,27.665817975541867,-22.305154909437178,49.05604945226086,62.97045199076663,0.6406631482888119,-11.319263300187101,46.73445769771435,55.86702362821822,0.40758326778831283,-2.1708898234371046,117.68384521061787,-0.3778550366317315,-1.351295540914069,-0.1705754078645097,0.4857931432749032,-24.689914404638305,47.60438628564656,64.28735824286235,4.846492782235146,-3.6058515310287476,4.62743304669857,-0.0035372081286461528,0.19938506798201394,0
GUIDED_NOGPS,1.7857589721679688,29.70154728605318,-22.416091526942846,48.787922516596744,63.336857982544885,0.4884754347486764,-11.243823288985588,46.34935825313825,55.10273683253881,0.2614777040767916,-2.172147218574622,117.69948634381721,-0.39851856796809215,-1.3991531162023718,-0.6104897570606584,0.48353175769998785,-24.7055598628912,47.521959669218354,64.41849445726072,4.7446109354496,-2.758040837943554,10.534607619047165,-0.056487702910525,-2.754676550525261,0
GUIDED_NOGPS,1.82051682472229,28.77560905330031,-22.487270947955018,48.53121378805447,63.652356540471125,0.41909739287551556,-11.169715805104293,45.97106097524697,54.32542144276779,0.2736854399185729,-2.0897021395375135,117.73165653480797,-0.4120700319892622,-1.3178844148749156,-0.1485093990889496,0.48134612980459335,-24.752431112064667,47.29023970219616,64.78508268459866,6.113395467400551,-3.6511480808258057,8.182210475206375,-0.20891831570192065,1.6620821382929978,0
GUIDED_NOGPS,1.8537797927856445,30.066910873913073,-22.57702364097094,48.273448881740705,63.922670580381244,0.29139493956573187,-11.097083562825311,45.60029437918647,53.535580884793326,0.2650386071923219,-1.9591486230814203,117.71731313755095,-0.4171225168376178,-1.381777789390744,-0.5961984924807472,0.4792258206088242,-24.64220344920343,46.98308768396981,65.37556366587238,3.842505067586899,-3.9513640105724335,4.560739919543266,-0.36826379575494694,-1.8151178627324227,0
GUIDED_NOGPS,1.8869304656982422,30.170290819372614,-22.701260178846972,48.04809847890511,64.11606432093235,0.22192648225396214,-11.026064591884792,45.237763066850015,52.733733235251066,0.2924485298575533,-1.929270600887434,117.71751804322604,-0.4753882330938497,-1.467405956783963,-0.28494115237037354,0.4772353378286374,-24.64220344920343,46.98308768396981,65.37556366587238,0.7595153991132975,-3.3661633729934692,1.1196093633770943,-0.36826379575494694,1.0179179263241038,0
GUIDED_NOGPS,1.9236233234405518,27.256625206326927,-22.6967573092943,47.83441183864879,64.41101524133002,0.1453809369743054,-10.956791744362793,44.88414520969371,51.92041050685347,0.24799507073774513,-1.8368942133537158,117.64227667932919,-0.4671829497153367,-1.1845589305528965,-0.328336640868383,0.4750187905310469,-24.731201224093716,46.80093203746914,65.49926983575351,9.143180400133133,-2.75855902582407,7.864454388618469,-0.41681788583210505,0.3452400224479339,0
GUIDED_NOGPS,1.9540235996246338,32.90450227114044,-22.669694362090517,47.63718336904769,64.63106491269536,0.09382806582349637,-10.889392201573198,44.54009003155191,51.096157933719354,0.17617704567766265,-1.7605032432421774,117.5907497322306,-0.5465956195910883,-1.157943795143449,-0.28308728544205697,0.47293018604204795,-24.28522006597945,46.69001833609778,65.81528102973374,8.926497399806976,-2.062057889997959,2.877385914325714,-0.43390474878884705,1.5356666492568747,0
GUIDED_NOGPS,1.9937336444854736,25.184964573075536,-22.67281769421233,47.47243823903134,64.83708675746504,0.028899689815023024,-10.82398698095362,44.20621529145283,50.26153325670315,0.2346632351689678,-1.6430518438831672,117.54695455927248,-0.5249301376713872,-1.192267915426628,-0.3115524196389732,0.4708488929984762,-24.017130103155825,46.62097952523605,65.98843457585014,5.311982706189156,-2.168182097375393,3.7913624197244644,-0.40869572839012214,-0.2932712474874225,0
GUIDED_NOGPS,2.026886224746704,30.167469827524204,-22.617017056203345,47.26428067434478,65.13220656767012,-0.05617682925126411,-10.760690442955282,43.88310476643396,49.41710600872432,0.17495430841409815,-1.6676531180564953,117.42728964501386,-0.4801467801526747,-1.0865921678365442,-0.5422234324219384,0.46856979888210837,-23.666051588195494,46.74251162617912,66.1685879142598,9.08515751361847,-1.4971917495131493,5.370507761836052,-0.38488219078667596,-0.2653067454780978,0
GUIDED_NOGPS,2.060971736907959,29.341261568811255,-22.492214349134297,47.104727563995155,65.39105377256611,-0.07128766030871679,-10.699609797932926,43.57130573435764,48.563456800096795,0.19079535804878245,-1.6461013099041664,117.35346896046437,-0.5587088072389177,-0.9343056221879424,-0.13142567962535653,0.46634480605506134,-22.839033499221593,46.52373749549677,66.53321689491204,10.118857026100159,-1.6274036839604378,5.757082998752594,-0.2747205273050852,2.194520783861468,0
GUIDED_NOGPS,2.10498309135437,22.72387133824908,-22.35230922161718,46.94638366532268,65.56082905008383,-0.04542577343746808,-10.640844613034718,43.271326456726534,47.701176603858315,0.19606535592154975,-1.5441371510447484,117.22178291326652,-0.4916732297106316,-0.927009535073298,0.0924041266222617,0.464280695107549,-22.845690806441787,46.475361500274715,66.554352211479,10.959094762802124,-1.8714599311351776,0.634036585688591,-0.26843547190170947,4.476288269746563,0
GUIDED_NOGPS,2.1357123851776123,32.54880414707206,-22.25765621723881,46.75118821640561,65.73552380125147,-0.0682925841420182,-10.584486319092115,42.98363366149909,46.83086604109987,0.264015039312172,-1.5525205679207044,117.11109286757728,-0.477116388784601,-0.9698050338194493,-0.1862678543168437,0.4621906844796968,-22.845690806441787,46.475361500274715,66.554352211479,7.809150218963623,-1.2441592290997505,-1.8847115337848663,-0.26843547190170947,2.275063441771316,0
GUIDED_NOGPS,2.16908860206604,29.964022917887096,-22.1108669000709,46.6516445536086,65.86907299616841,-0.05569145056975336,-10.530617717509804,42.70865002590514,45.953134666295036,0.24031799147150368,-1.4977221736531035,116.99873625573058,-0.6408637821398154,-0.8517509745143707,0.0421368835415672,0.46016812334025325,-22.684517314455732,46.26288936679295,66.57001466055323,10.547437518835068,-0.11696721194311976,1.0626702569425106,-0.11154835916929606,2.2635742098137084,0
GUIDED_NOGPS,2.2024619579315186,29.97001786352269,-21.88186326683232,46.563752117478266,65.94309603457856,0.021767591076009646,-10.479312487155566,42.44675165926137,45.068600252629395,0.18318854168558485,-1.3499990557274792,116.8811340586013,-0.6566600404690578,-0.651711280648573,0.4864459564873385,0.45825100843610167,-21.773400377389258,46.43147157675602,66.83873827157623,13.272753357887268,0.053924520034343004,-3.202846646308899,-0.03310768665504252,5.93797863420691,0
GUIDED_NOGPS,2.2369728088378906,28.97879602313161,-21.702132930633496,46.479500358419976,66.044215168894,0.07568761023271409,-10.4306346912502,42.198265585786736,44.17788807732993,0.23117762421686633,-1.2240117341749512,116.77030740912868,-0.6258947034245863,-0.7602277818203561,0.35171303614578014,0.4562673458168719,-21.567971883083274,46.489347795638594,66.7479446309516,9.605231881141663,-0.2727621467784047,-0.7306631188839674,0.10708742215757612,3.966380924146084,0
GUIDED_NOGPS,2.269394874572754,30.847048267645306,-21.488655037449774,46.407189956396536,66.11640143173413,0.1630204918654836,-10.38463828425739,41.9634672274181,43.28163020699441,0.13684805604457553,-1.1629086484166056,116.63709139955674,-0.6602954530112848,-0.644882365784255,0.6372393735795793,0.45433045755052054,-21.223977860114154,46.47780026900905,66.76281531826073,10.651784390211105,0.7470955606549978,-2.687356248497963,0.21178663927961344,5.6777919692853835,0
GUIDED_NOGPS,2.3060195446014404,27.30808896296682,-21.203674092409113,46.38155438381711,66.19643173149211,0.19709639731878337,-10.34136661877364,41.74257788662569,42.3804647829208,0.03026013926153657,-1.1173542748603824,116.5193662590224,-0.6953713765481235,-0.5239800211896378,0.30432137617216837,0.45236806610285735,-20.8462612794967,46.47843793642159,66.75497657779425,14.779822528362274,2.278761565685272,-0.7692272309213877,0.3329109920221438,1.9666039880039008,0
GUIDED_NOGPS,2.3379769325256348,31.297039159503342,-20.93645165701021,46.33309166716409,66.26693165516801,0.21613725432385555,-10.300851952418133,41.53576222922849,41.47503530643658,-0.07550648729444803,-0.9019194362676022,116.44073712129722,-0.6903154270783715,-0.4580001434560306,0.25155778496313347,0.4504162073025372,-20.625413201262354,46.49769808554579,66.75134702320369,12.880797684192657,0.9704103693366051,-1.497999019920826,0.3835420800640188,0.9440954275056078,0
GUIDED_NOGPS,2.3718323707580566,29.540888697942712,-20.714677016955566,46.30504975104486,66.29906613893274,0.2518228807853704,-10.263114954722663,41.34312576721002,40.56598992422824,-0.13364380352955363,-0.7432332777547257,116.3132584706281,-0.6833225802706591,-0.5756683018059767,0.3584232513580008,0.448533847570591,-20.625413201262354,46.49769808554579,66.75134702320369,10.892155021429062,1.0419399477541447,-2.609209343791008,0.3835420800640188,1.8816518026545745,0
GUIDED_NOGPS,2.407322883605957,28.183738744792368,-20.500697798418635,46.289011443389505,66.25149971382233,0.2984108490163885,-10.228164214021515,41.16471234153352,39.65398071367058,-0.20119384081245084,-0.5286449557322038,116.2362958990604,-0.6805914611912933,-0.5827074121754252,0.4406176454979034,0.4468049619996965,-19.98690922077249,46.51048256852106,66.83053614895539,8.317437022924423,2.1390823647379875,-7.998006045818329,0.5116278324285128,2.197957436231042,0
GUIDED_NOGPS,2.439195394515991,31.38251116714428,-20.170112833529924,46.27397332465098,66.34140484314628,0.3619195572301008,-10.195995744341358,41.000501604957655,38.739662968156196,-0.2697237434369804,-0.4947485411504289,116.1097461541184,-0.70130216774488,-0.2531503706722682,0.615761300817584,0.4447965162500198,-19.163036538716163,46.526964196915706,66.64192422604185,14.147201180458069,1.599912904202938,1.6470098868012428,0.7510003840243284,2.5197257270396385,0
GUIDED_NOGPS,2.4731714725494385,29.48606297496608,-19.848380376763647,46.28719435812711,66.34679250808209,0.4168844008534557,-10.166592492291157,40.85040650485197,37.823694482424735,-0.3778137815691065,-0.22218298545147358,116.05339709346579,-0.7223578530537074,-0.27919634260785176,0.5747058270143148,0.4429538039486853,-18.84297445817758,46.67283121430067,66.38214033381502,13.866695761680603,2.22834050655365,-2.2374140098690987,0.9089688974644391,1.6292259401774747,0
GUIDED_NOGPS,2.5080413818359375,28.636316465029903,-19.60932761255575,46.26981422330196,66.3790960352847,0.5078829664086766,-10.139923843952053,40.71427076601238,36.906734837892415,-0.41565302957097716,-0.19996395319459898,115.96883935154104,-0.6368278229966462,-0.43965660236887244,0.8252202305509542,0.4410552776052154,-18.84297445817758,46.67283121430067,66.38214033381502,8.405567705631256,0.4176439717411995,-0.5353583954274654,0.9089688974644391,3.8676735915819984,0
GUIDED_NOGPS,2.5410120487213135,30.332622200365932,-19.273635854118666,46.275358150747735,66.3865194825587,0.5862425627894982,-10.115945131767281,40.591866373476726,35.989444687981425,-0.44095279730864484,-0.05703982356338224,115.93016682046043,-0.6801305013685015,-0.17637490065125985,0.8271193820696395,0.4392058504108455,-17.877860707676476,46.75564567443623,66.51399011938858,12.592780590057373,1.4296002686023712,-2.2183964028954506,0.9793313693027152,2.904966325474929,0
GUIDED_NOGPS,2.5745558738708496,29.817044388204852,-18.933227585882992,46.2871070918095,66.38439599758736,0.6663329818581708,-10.094597141432063,40.4828910553402,35.07248504344911,-0.5662198007080009,-0.08667322626750402,115.86276651373073,-0.6709597497821914,-0.14502609792092105,0.8770859774321,0.4373761780917235,-17.565562300591008,46.84216439687741,66.38388741349877,12.592780590057373,1.4296002686023712,-2.2183964028954506,1.0677191861712787,2.904966325474929,0
GUIDED_NOGPS,2.614060401916504,25.31569290197972,-18.54351257454543,46.30672355511035,66.43104353688223,0.7141464280612984,-10.075805618783486,40.38696576557087,34.15651655771765,-0.5281748999790895,0.016329216394775137,115.82670311491307,-0.6361207543060275,-0.12052116749271609,0.670422094958145,0.43545094604167084,-16.93974153669188,47.17911007319311,66.39246692951355,14.433793723583221,0.8475759066641331,0.9896364994347095,1.1985002986833293,0.6655419036582405,0
GUIDED_NOGPS,2.647399663925171,29.999599462134867,-18.178235502435008,46.313424814415015,66.41632277608105,0.7556040670303983,-10.059480776690423,40.303632166825274,33.242198812203256,-0.5299024042305738,0.11261277062101167,115.81480492537891,-0.6301357447463743,-0.012637282035294236,0.7024773459991344,0.43365175207224443,-16.93974153669188,47.17911007319311,66.39246692951355,11.03213056921959,0.5690940655767918,-3.2994963228702545,1.1985002986833293,0.12546310453372952,0
GUIDED_NOGPS,2.6752402782440186,35.92828569225893,-17.86349872353845,46.330045389704594,66.41032238011942,0.7687425503653341,-10.045516801943426,40.2323501132638,32.3301896016456,-0.5034825388298769,0.18586809693413225,115.80757858523704,-0.6672356676026769,0.03732661520161299,0.5557902244548377,0.43183973444305235,-16.156732941076186,47.02173910689364,66.10759395935894,8.822420239448547,0.7171204313635826,-0.9884701110422611,1.25304312074718,-1.292414584608748,0
GUIDED_NOGPS,2.7097272872924805,29.0024408964244,-17.577002166134697,46.355639880353166,66.382899735305,0.7787879292323645,-10.033791362144607,40.172495133366276,31.421144219437238,-0.4415685281901509,0.2546277713912093,115.84156560654702,-0.6275274339417535,-0.1352480216878431,0.5257616801876609,0.43007648896826445,-15.703179257556197,47.01529604692128,65.8281133006392,8.822420239448547,0.7171204313635826,-0.9884701110422611,1.2945346731258989,-1.292414584608748,0
GUIDED_NOGPS,2.748380184173584,25.87223963088159,-17.193184360390717,46.377226925226715,66.2571161803537,0.7837349205235092,-10.024165112597567,40.12335591274746,30.51571474295305,-0.28537805676697364,0.2608972447190463,115.92863685808634,-0.5919234175041486,0.014705005006446987,0.495772126622477,0.4285171971251987,-15.444698812924798,47.04154764127018,65.6409264774249,12.25121021270752,1.0090994648635387,-7.142065465450287,1.3351157454251275,-1.8647957495566294,0
GUIDED_NOGPS,2.776796579360962,35.19744891536945,-16.877800586418818,46.377413849193445,66.14560091899017,0.7967092146981204,-10.016481203197246,40.08413177697246,29.614549318879426,-0.24408833593463006,0.1984671545905877,115.98860591899906,-0.5677066123189002,0.12222449264335138,0.5690577206483579,0.4269378967997785,-15.13000955523474,47.040683378421534,65.41902727874601,5.5441714823246,-0.14129107585176826,-5.604611709713936,1.3274169385379977,-1.347342325583756,0
GUIDED_NOGPS,2.8112001419067383,29.072599986137103,-16.5745994327105,46.40608570261108,66.00469577247831,0.7610144922488151,-10.010564785319891,40.05393017437245,28.718291448543894,-0.1437131832330185,0.23072848591808512,116.08209754835819,-0.593341433010875,0.00560805759779818,0.24653465437968733,0.42542719135213114,-14.521698058987361,47.066800021708104,65.29795375829696,8.959593623876572,0.6847199983894825,-6.728480011224747,1.3021564608521043,-3.86070466419447,0
GUIDED_NOGPS,2.8449409008026123,29.64004861915934,-16.238321623412947,46.432768815834855,65.84639255285293,0.7210874568000767,-10.006222518712873,40.03176415885982,27.827579273244453,0.043069025131771556,0.2840999042576821,116.21958925635055,-0.5788127389280014,0.10468934874505051,0.19858634297540015,0.423962373440783,-14.39153994691507,47.15257526776081,64.85686344372746,8.959593623876572,0.6847199983894825,-6.728480011224747,1.2015106978127368,-3.86070466419447,0
GUIDED_NOGPS,2.8803417682647705,28.2513201853648,-15.947468109987241,46.4643584511515,65.67337048330997,0.6871583728437215,-10.00324207838464,40.016549872744086,26.943044859578805,0.08439859318101127,0.3096461724552785,116.30260337552288,-0.5739700755574068,0.01756441065963179,0.22110700135827846,0.4225393487525377,-14.364581698735394,47.15663304195124,64.68771671581923,6.512033194303513,0.9825930930674076,-7.203076034784317,1.1409586638810525,-3.2422944275430496,0
GUIDED_NOGPS,2.92055082321167,24.87459227365999,-15.624383305123619,46.4983134709577,65.45481168468172,0.6202820461681077,-10.001391661494603,40.00710402954709,26.065313484773952,0.22615007137920806,0.2333564012012475,116.447075536847,-0.5625963686546454,0.04302569066356792,0.03692003805973848,0.42122100360018444,-14.199039227126107,47.13560851064335,64.5539426813207,8.320069313049316,1.1971822939813137,-9.64401587843895,1.0949643543583312,-5.021571726379476,0
GUIDED_NOGPS,2.944988489151001,40.92483022402623,-15.271405303683698,46.527943779477205,65.177846908725,0.5471286967299946,-10.000419494243017,40.00214139681872,25.195002922015505,0.30087575599373256,0.20682175660598268,116.53825856226666,-0.5898038477910555,0.5072846817068053,-0.26298640103120313,0.42003431202658104,-13.644576798462605,47.13152296440162,64.17972798242646,7.141401618719101,1.052358839660883,-11.71066239476204,0.9451497180738576,-4.734756288318185,0
GUIDED_NOGPS,2.9786219596862793,29.741352658375053,-15.082193058708718,46.58108028731354,64.9054654011737,0.46246339791745383,-10.00005333876094,40.00027227895227,24.332722725777046,0.49890583183829235,0.1963834666460578,116.83027647004138,-0.6044159183751893,-0.07630873672144627,-0.22791875259450545,0.4188545146492067,-13.465700861811843,47.22309639221058,64.059644130011,4.728585481643677,1.6804929822683334,-13.148131966590881,0.8795261450279541,-5.848890769315141,0
GUIDED_NOGPS,3.014948844909668,27.531254307600413,-14.79398894295487,46.6694881719957,64.58935573992083,0.37297882965734847,-9.999999999999998,39.999999999999964,23.479073517149544,0.4729760325105438,0.03194155974644314,117.03152116374665,-0.6680984027705543,0.12315428466777276,-0.2798599484253167,0.4177794355544574,-13.13430791487248,47.44001125530558,63.92512720144999,6.4808182418346405,3.6961305886507034,-14.674516022205353,0.7775433945120722,-5.5101249124267335,0
GUIDED_NOGPS,3.046861410140991,31.341004871925158,-14.516686090615973,46.75769851311211,64.26768957935238,0.2792620188204816,-10.0,40.0,22.6346462691707,0.5614190314951283,0.07018909164410055,117.16561143753233,-0.6878002241346411,0.1743591556409393,-0.40499867783173205,0.4167339133796366,-13.155908408630381,47.44274197540959,63.73849326272506,6.4808182418346405,3.6961305886507034,-14.674516022205353,0.6972808970331397,-5.5101249124267335,0
GUIDED_NOGPS,3.0791304111480713,30.995676882034303,-14.285365412647653,46.840316815077,63.960373032944666,0.14099747116580455,-10.0,40.0,21.80002159215445,0.3732706385539902,-0.07216905276071749,117.45327168461658,-0.6845742313655258,0.10498829534931596,-0.7712824829297134,0.41567929711841956,-12.778153023282858,47.244642616537234,63.28706217638033,3.8276445120573044,3.9414625614881516,-13.134059309959412,0.5435781584990984,-7.981663441428521,0
GUIDED_NOGPS,3.1137993335723877,28.849633731127696,-14.12998197279657,46.9336470279855,63.56353279767137,0.008480172010274373,-10.0,40.0,20.97576901902039,0.27667559535158404,-0.07957780697819793,117.68284800299905,-0.7002741223749195,-0.06681095968152803,-0.759732171059707,0.41482447244269804,-12.747542453302145,47.431907019335625,62.48361014579406,-0.5727644078433514,4.158806428313255,-17.049770057201385,0.15284207221707352,-6.685615409624737,0
GUIDED_NOGPS,3.1486165523529053,28.725945305490683,-13.916370787383105,47.043286943186814,63.177957786205354,-0.13201336872313335,-10.0,40.0,20.162446290622796,0.1584326144203662,-0.16609918159858816,117.8723447713319,-0.7381475742028097,0.06985034422509753,-0.8864529044804005,0.4139689770088349,-12.464570114371421,47.469264864182605,62.339331933550895,2.6410428807139397,5.121435970067978,-15.742099285125732,0.0585338938821613,-6.781084805635413,0
GUIDED_NOGPS,3.180119276046753,31.74737160806873,-13.70373408977857,47.15301581992545,62.77675579368231,-0.2838684166210953,-10.0,40.0,19.360598641080486,0.0055631090376960495,-0.09137032868342328,118.16150766003355,-0.769368418556287,0.13755359416994534,-1.1417486722442818,0.41316768569479634,-12.286647922423732,47.478313678445225,61.916424755340046,2.6410428807139397,5.121435970067978,-15.742099285125732,-0.20060302751013903,-6.781084805635413,0
GUIDED_NOGPS,3.2134835720062256,29.976015208473292,-13.496492276396273,47.255491795299776,62.39675129838714,-0.3785249432796533,-10.0,40.0,18.57075808310603,-0.1086307436544678,-0.03981970270637683,118.339338465264,-0.7470677094975958,0.11258027772154418,-0.7900817473355775,0.4123480135694378,-12.260584174503126,47.514965654317564,61.694152763409484,4.161439836025238,4.822628945112228,-15.737862884998322,-0.3095299904262905,-3.722272524530767,0
GUIDED_NOGPS,3.2466540336608887,30.154239907976564,-13.257476580176249,47.367335705628754,62.079997512760194,-0.5243902752440209,-10.0,40.0,17.79344269333501,-0.1383157329631217,0.10958951811899512,118.54061047972594,-0.7754142517441941,0.20897693236772155,-1.193725400607976,0.41142689036114966,-12.148951998902259,47.58280951743048,61.49154180903558,5.51358237862587,5.1622554659843445,-10.797994583845139,-0.4252547798851903,-6.372662972043923,0
GUIDED_NOGPS,3.284696340560913,26.288335944844878,-13.019392127145366,47.480253191509796,61.69916376802881,-0.6586265429734602,-10.0,40.0,17.029155897655613,-0.19573897426484363,0.1357186335725037,118.71551796399163,-0.7579408256373484,0.16594512676877404,-1.1009942080632156,0.4106599842592536,-11.848599270852295,47.75933012481255,60.81391663903058,5.496353656053543,4.875870794057846,-13.764958083629608,-0.7559709686607347,-5.010263921321697,0
GUIDED_NOGPS,3.3153531551361084,32.62577202507818,-12.902624533026819,47.59320085733258,61.20083119746048,-0.8253660852341431,-10.0,40.0,16.278385756537887,-0.31701458586797354,0.2211254800688852,118.87550831511,-0.8177110374622428,0.011150847644797492,-1.5961087746749971,0.4101551091181548,-11.978608052206493,47.969738974980245,59.97026863592565,-2.2883210331201553,4.203544557094574,-18.487919867038727,-1.1311159305403131,-5.836588744846303,0
GUIDED_NOGPS,3.3554606437683105,24.93626078322959,-12.831703211029609,47.706776123143996,60.74606888932374,-0.9219869880002747,-10.0,40.0,15.541604250363122,-0.39098830934356194,0.2747069000450336,119.07231338585476,-0.7688624105916226,-0.12899473386859986,-1.0311380234029925,0.4095910707220788,-12.210070014258646,48.160379270066244,59.71675348090845,-1.7255868762731552,4.471812397241592,-18.50084513425827,-1.236939245885801,-2.481239532057321,0
GUIDED_NOGPS,3.38997745513916,28.976393619299614,-12.656085963032854,47.8597785186607,60.1978302214404,-1.0576229178900578,-10.0,40.0,14.819266564753434,-0.5270609388141427,0.3098245044256393,119.17305867611243,-0.8820385339233552,0.12451204539640313,-1.421448061100691,0.40924287268662607,-11.960197126545385,48.74681639074447,59.05680593919862,1.0535266250371933,4.252728819847107,-17.616869509220123,-1.672639999318898,-2.0563353847815318,0
GUIDED_NOGPS,3.4236092567443848,29.738189604441263,-12.525197672133611,48.001466171699235,59.70250790679147,-1.17506920883606,-10.0,40.0,14.111810375900859,-0.627246953972683,0.2953532012042335,119.27242426815778,-0.8842933689997229,0.058917527901104806,-1.4162413519070594,0.40881860493821875,-11.76710546439043,48.893040514371535,58.48885746525631,1.0535266250371933,4.252728819847107,-17.616869509220123,-1.833441816314875,-2.0563353847815318,0
GUIDED_NOGPS,3.4543769359588623,32.506172935186115,-12.409678463609012,48.12963010017746,59.201294561881454,-1.3000443186844441,-10.0,40.0,13.41965513589713,-0.6461615620534467,0.263959383942607,119.35914034986027,-0.8800626939298198,0.050713958075867246,-1.5744608356068919,0.40843672114803137,-11.517120101875577,48.92491492522693,58.20571017815314,0.3606511512771249,3.76385934650898,-18.798385560512543,-1.9137725571675452,-2.99102948378144,0
GUIDED_NOGPS,3.488582134246826,29.23919469075902,-12.300919009536427,48.26105429523134,58.68524763087857,-1.461385614441806,-10.0,40.0,12.743201358062606,-0.6657407261961114,0.26070653303081487,119.43388994013688,-0.8773181138288718,0.030075600974335412,-1.8271929142655752,0.4081159074543681,-11.519755538953147,48.987063546844595,57.870534354890054,0.2809432800859213,4.049735888838768,-20.005767047405243,-1.970340140358465,-5.478392280429677,0
GUIDED_NOGPS,3.5220184326171875,29.9110293383538,-12.150076959838797,48.37244999361281,58.14853247997567,-1.6154544444681453,-10.0,40.0,12.08282990227599,-0.4968533066318506,0.16153320013843464,119.49299839721418,-0.8461850372902694,0.1343522446442334,-1.883958059937354,0.40786859484460064,-11.476450515575554,48.889058140754685,57.04510705368122,2.741817384958267,2.9653921723365784,-18.393047153949738,-2.1368695170582077,-4.429837433861776,0
GUIDED_NOGPS,3.556802988052368,28.75371220950161,-12.083743584749309,48.47481060790184,57.615611976900524,-1.6714817984209036,-10.0,40.0,11.438901260303652,-0.5807633011633679,0.049104471099043076,119.49059417062634,-0.8353655100278563,-0.039172356845605646,-1.3251409814612058,0.40764657856680625,-11.789402244581224,49.06048989984747,56.669533625514745,-1.286026742309332,2.2500356659293175,-18.482990562915802,-2.142146729442185,1.105312224466827,0
GUIDED_NOGPS,3.5911831855773926,29.094581752346336,-12.032522377022016,48.57588707676749,57.01908999687555,-1.7281476735677512,-10.0,40.0,10.811754841128987,-0.5210425282991565,-0.10149900563466295,119.47280835802762,-0.8442649690890133,-0.06240654277839193,-1.3676504792555304,0.40758532968850686,-11.795196230409505,49.330054942828234,56.45334199806948,-2.0438719540834427,1.476077176630497,-21.958358585834503,-2.157887928874016,0.9555513622910117,0
GUIDED_NOGPS,3.6244235038757324,30.087400648474937,-11.940982901823766,48.68897444890389,56.39552727421383,-1.7789668811377748,-10.0,40.0,10.201708256281847,-0.5065915555627021,-0.2770978931413612,119.42782473215391,-0.8789388233507281,0.035448320980127075,-1.372594745090675,0.407612361964136,-11.945731468731559,49.75295509587771,54.329780253494505,1.9282104447484016,1.6191724687814713,-19.883137941360474,-2.371137483300217,1.3297994115874012,0
GUIDED_NOGPS,3.6581952571868896,29.614516698439598,-11.912906977315451,48.7851242217386,55.687634204066526,-1.8447053743420125,-10.0,40.0,9.609056605167694,-0.42730036973570007,-0.33206333355893636,119.38912488031663,-0.8546323202958412,-0.09619022722111015,-1.4957054572493416,0.40784284480220234,-11.970479921500067,49.72685490002046,53.998601242622826,-1.644800417125225,1.0367260314524174,-25.943371653556824,-2.419257181004844,0.11728594069440944,0
GUIDED_NOGPS,3.690934658050537,30.549575731089988,-11.923037532457668,48.87556071183725,55.00224457642084,-1.8892423926648954,-10.0,40.0,9.03407176039758,-0.23589781854187405,-0.5671976383372235,119.30914336513577,-0.8593211113044419,-0.1761905638721865,-1.4061134953936971,0.40806365436795344,-11.95501109488545,49.96917363182448,52.89380382291258,-3.971010446548462,0.19294465892016888,-22.17584103345871,-2.4528604004880847,1.32411114466925,0
GUIDED_NOGPS,3.7255733013153076,28.87386326869196,-11.939039095252316,48.9648965402955,54.25257646077663,-1.9365411122102918,-10.0,40.0,8.477001653116787,-0.17706686458004192,-0.7849614113544194,119.23060985005897,-0.8548763035217807,-0.18782731342287784,-1.4356406087213949,0.4084488503846803,-12.177694736631457,49.98505351914183,51.999036066230474,-3.3054422587156296,0.5190102383494377,-25.903281569480896,-2.3887183849151437,0.5403087310396171,0
GUIDED_NOGPS,3.758103847503662,30.74416900004398,-12.139738202603436,49.01717113718893,53.50619055923078,-1.9629244161870143,-10.0,40.0,7.938069558334888,-0.2523734087587084,-0.9932175076861048,119.11579437011105,-0.8099727280153377,-0.6074085195991891,-1.3401979094561725,0.40886375799820823,-12.111402733352977,50.0641410220872,51.6470460149241,-15.573035180568695,-1.9586604088544846,-24.801403284072876,-2.356017876232066,1.6693036759581112,0
GUIDED_NOGPS,3.791698694229126,29.77196357209276,-12.300489613529683,49.06472411436098,52.80723064122247,-1.9700536013633487,-10.0,40.0,7.417473380254592,-0.2501286243993014,-1.0427340312911701,119.04667285571053,-0.7977951630801307,-0.5229329994892415,-1.2242585299451392,0.4092204854780642,-11.028768208352476,50.128340320673736,51.60259978647555,-15.573035180568695,-1.9586604088544846,-24.801403284072876,-2.115037663615482,1.6693036759581112,0
GUIDED_NOGPS,3.825693368911743,29.421737117524096,-12.320498207080716,49.140532145465045,52.044450866844464,-1.9619442684951758,-10.0,40.0,6.915384937601345,-0.20955687384260255,-1.152077142331729,118.8796337493687,-0.8473976206409315,-0.2310786979779859,-1.1293282948716352,0.40974186814151375,-12.212818533867832,50.0737713593565,49.86592159429135,-2.7210596948862076,0.2037097467109561,-24.50065314769745,-2.2823123288632376,3.006339566249435,0
GUIDED_NOGPS,3.8594462871551514,29.62937008597122,-12.277312232032674,49.20631667683333,51.25036522082615,-1.960975806781574,-10.0,40.0,6.431949248953117,-0.2342711663023532,-1.3437377999709874,118.74507902271944,-0.8294377647942031,-0.09675073235169007,-1.170837040273454,0.41036316805625395,-11.629256352364182,49.64803709895146,49.63910042477084,-0.09772215271368623,0.9664659388363361,-27.02030837535858,-2.0951241776983545,1.844793540572247,0
GUIDED_NOGPS,3.894010543823242,28.936012859518044,-12.255257897171449,49.27274783120016,50.48870876132197,-1.8345906418502207,-10.0,40.0,5.967283818069177,-0.3187643949559662,-1.4520926680160102,118.59481486097916,-0.8332057146750753,-0.14178538043216124,-0.37277805671298536,0.41095715011349443,-11.720154270604713,49.87370223051366,48.91989407899681,-1.0333914309740067,0.678221695125103,-25.532397627830505,-2.0288031403679123,9.063917160700797,0
GUIDED_NOGPS,3.9366087913513184,23.477246521208592,-12.2224373315666,49.354367921360456,49.66256546716068,-1.7381300462558773,-10.0,40.0,5.521477919219592,-0.3187643949559662,-1.4520926680160102,118.59481486097916,-0.8391643451295928,-0.1305845392525627,-0.589726444919559,0.4117178249041178,-12.033914830051327,50.110581447369555,47.59135943180205,0.6054829806089401,0.997534953057766,-25.565510988235474,-1.7906353358810576,6.451424444684279,0
GUIDED_NOGPS,3.9601826667785645,42.43099645928174,-12.197436930857009,49.45238026783556,48.804185021556926,-1.6236607391386673,-10.0,40.0,5.0945918825152035,-0.6598261025399976,-1.7247647052969088,118.26437030893395,-0.9912569772359825,-0.10544881271787532,-0.003189834754514176,0.4125808137219166,-12.156726396033704,50.19611027025496,47.213607899612654,0.09925649501383305,1.1516362428665161,-19.671034812927246,-1.7222115375279052,7.196250597258645,0
GUIDED_NOGPS,3.993295192718506,30.203096421113273,-12.170285930042315,49.513959747796235,48.184064755378124,-1.4865411523708025,-10.0,40.0,4.686656379235956,-0.92095410626737,-1.9535354882441391,117.8612252233631,-0.8468797918904342,-0.12598249678525994,-0.06367922059750386,0.4130051832477157,-12.142879338000395,50.42698908042554,46.48977783939848,1.3899512588977814,0.6195624358952045,-26.246345043182373,-1.5266127629770005,8.053768040949052,0
GUIDED_NOGPS,4.026961088180542,29.708700179202584,-12.134123463609502,49.59498329775263,47.42149875381961,-1.4066339866971411,-10.0,40.0,4.297671707161669,-1.0275296033118986,-1.9118694133163574,117.60654112959168,-0.8882057768588598,-0.10500950120268163,-0.36852261072180603,0.4137523459066841,-12.64627397569647,50.962957850513995,44.646057123395465,2.9301362112164497,-0.5366882309317589,-20.63024342060089,-1.3941491518470919,4.119623475251314,0
GUIDED_NOGPS,4.060311555862427,29.98908916710162,-12.08952769085785,49.63935060104483,46.64036791350398,-1.2417896990383908,-10.0,40.0,3.927607075899914,-1.1517464117655123,-1.8774943518841525,117.36542179151188,-0.8210928621523185,-0.0863105003639693,0.24797042489186294,0.4145744783247919,-11.941524951831868,50.855245979939916,44.72779300465649,1.493731513619423,-2.3164520040154457,-23.634295165538788,-1.1295855060163968,8.575032710478792,0
GUIDED_NOGPS,4.094517469406128,29.238175569698786,-11.96165028971732,49.692745413516484,45.88179947952429,-1.0983921602062328,-10.0,40.0,3.5763998922166707,-1.278846840709341,-1.6617872662199238,117.03188999396183,-0.835834510692686,0.09008186522971172,0.17615931421164976,0.4153892008253848,-11.732744361523086,50.84021829318223,44.36062852291828,6.497179716825485,-1.4235139824450016,-23.099280893802643,-1.0705251530974853,7.167895920692984,0
GUIDED_NOGPS,4.1337902545928955,25.466481277967688,-11.797740647500738,49.733476896629526,45.19505926478234,-0.8968477019809697,-10.0,40.0,3.243955045365169,-1.2957558277733536,-1.3532035883869789,116.84830816945022,-0.8049220085646072,0.13241033033988364,0.48673692835351823,0.41609779156116566,-11.84120423325685,50.929122661508416,42.28427272392294,9.214525669813156,-2.2866515442728996,-13.835887610912323,-0.4896676009222652,9.06524904758895,0
GUIDED_NOGPS,4.163406133651733,33.77029170457565,-11.629780662197911,49.75056787368242,44.43062990054707,-0.687942356523146,-10.0,40.0,2.930144192415071,-1.3754030905716954,-0.8093804048542729,116.40692768490565,-0.7756625146221353,0.2504985103515641,1.0015755695493294,0.416999028583736,-11.779890468291772,50.928738602550055,41.00998586653253,9.170876443386078,-3.7079866975545883,-13.857977092266083,-0.31711862005528735,8.748996774865372,0
GUIDED_NOGPS,4.200863838195801,26.701536150139102,-11.510048890558851,49.76836347448371,43.79355111822448,-0.4833537986853864,-10.0,40.0,2.6348050435822756,-1.3986776004987487,-0.38735416845743914,116.14891045881926,-0.772671124021672,0.08378267795130083,0.8003599724748183,0.4176825078507156,-11.779890468291772,50.928738602550055,41.00998586653253,6.9023847579956055,-2.941700629889965,-16.833816468715668,-0.31711862005528735,9.76545613563656,0
GUIDED_NOGPS,4.234142780303955,30.05592260838409,-11.379795364467578,49.78522148543084,43.06232822775958,-0.3171461034581589,-10.0,40.0,2.3577406475582166,-1.5247396272453237,-0.06779934585770928,115.81438145365037,-0.7766260636079281,0.14854901537990944,0.8255380042818928,0.41859082483959725,-11.697690761930573,51.110359613137895,40.074824900359125,6.945855915546417,-3.599320352077484,-16.51770770549774,-0.018748068390050554,6.096304126715099,0
GUIDED_NOGPS,4.267476320266724,30.007326007326007,-11.135543925415888,49.784917158360074,42.308157632621956,-0.1175873104206633,-10.0,40.0,2.098718676838928,-1.420766859161393,0.17452795519950126,115.53010898039443,-0.7427045500104473,0.3934260650309604,1.1067020479091385,0.41958112208843396,-11.875831622116895,50.911187481934476,39.13108982395383,15.414230525493622,-3.8310714066028595,-19.424307346343994,0.17418578972992219,8.142597212426008,0
GUIDED_NOGPS,4.300719261169434,30.083732005938845,-10.981780258307841,49.69168625559037,41.53886180574139,0.09098950777380022,-10.0,40.0,1.8574707130549655,-1.475834192127563,0.18638575056802517,115.22400722255115,-0.5553654092933523,0.22423328122942593,1.3091785849331865,0.42063721781462715,-10.382343568555864,49.46047772269233,38.76193923379235,5.153164267539978,-5.544623360037804,-20.37750482559204,1.4061054055430025,5.268010074275414,0
