Mode,Time,Freq,time2delay,actualDelay,North-Desired,East-Desired,Down-Desired,Roll-UAV,Pitch-UAV,Yaw-UAV,Roll-Control,Pitch-Control,Yaw-Control,Thrust-Control,North-Pos,East-Pos,Down-Pos,Yaw-Ang,North-Vel,East-Vel,Down-Vel,Yaw-Vel,North-Acc,East-Acc,Down-Acc,North-Avg,East-Avg,Down-Avg,Yaw-Avg,North-Dif,East-Dif,Down-Dif,Yaw-Dif,North-One,East-One,Down-One,Yaw-One,North-Two,East-Two,Down-Two,Yaw-Two,Landing-State,Q-Size,Kalman-Time,Kalman-Dt
STABILIZE,0.03445863723754883,29.030142371661327,0.03330353101094564,0.03344535827636719,0.0,0.0,0.0,2.0581377009487687,0.4544545338330262,12.085614193855593,-0.03405376445443756,0.03367911172010889,0.048038108977936644,0.4,0.0969782719410926,0.10062122556309872,0.13245283635749366,0.09607621795587329,-0.39191129617393017,-0.014008818834554404,1.4158079400658607,-0.046016878748653525,4.667048156261444,0.9528289549052715,16.138100624084473,0.0,0.0,0.0,0.0,0.0,0.0,0.0,0.0,0.0,0.0,0.0,0.0,0.0,0.0,0.0,0.0,False,0,0.1445140838623047,0.059775146484375
STABILIZE,0.06769132614135742,30.090206684793134,0.032216819127400716,0.03234410285949707,0.0,0.0,0.0,2.0578354650779955,0.454577210433822,12.083081901220812,-0.015368269318853319,0.015056369552075934,0.06372476811761293,0.4,0.12625903694759605,0.13391169082047485,0.18751068132163767,0.12744953623522587,-0.39191129617393017,-0.014008818834554404,1.4158079400658607,-0.046016878748653525,4.667048156261444,0.9528289549052715,16.138100624084473,0.0,0.0,0.0,0.0,0.0,0.0,0.0,0.0,0.0,0.0,0.0,0.0,0.0,0.0,0.0,0.0,False,0,0.17313647270202637,0.059775146484375
STABILIZE,0.10111308097839355,29.919777436958306,0.0324740727742513,0.032613515853881836,0.0,0.0,0.0,2.057338568815877,0.4551376061108804,12.086557613734701,-0.015058496408108147,0.01577299558225317,0.07580529602901342,0.4,0.15341428253078288,0.16233750713091152,0.24386150963055928,0.15161059205802685,0.24304515682160854,0.14827105915173888,1.7747826874256134,-0.16497102644677247,-0.7336109410971403,1.3604814186692238,21.317091584205627,0.0,0.0,0.0,0.0,0.0,0.0,0.0,0.0,0.0,0.0,0.0,0.0,0.0,0.0,0.0,0.0,False,0,0.2020397186279297,0.034924072265625
STABILIZE,0.13463926315307617,29.829131433529383,0.032515557607014973,0.03264808654785156,0.0,0.0,0.0,2.0583551997851512,0.45443991295933417,12.089472396963004,-0.009924702866506586,0.010276824139793623,0.07865944145538487,0.4,0.16085785925858098,0.17226515576051066,0.29103326812048275,0.15731888291076973,-0.06040171720087528,-0.0951586989685893,1.3488071039319038,0.07572958902038415,10.329125076532364,0.8872492238879204,21.666836738586426,0.0,0.0,0.0,0.0,0.0,0.0,0.0,0.0,0.0,0.0,0.0,0.0,0.0,0.0,0.0,0.0,False,0,0.25934505462646484,0.034924072265625
STABILIZE,0.16808509826660156,29.89866271278264,0.032439502080281575,0.032570838928222656,0.0,0.0,0.0,2.0580294851391066,0.4553071335405142,12.086374052400757,-0.008548919135621079,0.01010110292116701,0.08051159626345639,0.4,0.16669060165902194,0.17692712709918273,0.3189192013034457,0.16102319252691277,0.25563323870301247,0.11586686596274376,1.7120862379670143,0.08604942455699822,3.773435577750206,1.166301779448986,21.338801085948944,0.0,0.0,0.0,0.0,0.0,0.0,0.0,0.0,0.0,0.0,0.0,0.0,0.0,0.0,0.0,0.0,False,0,0.2877926826477051,0.034924072265625
STABILIZE,0.20148015022277832,29.943487014006884,0.03243759473164876,0.03256940841674805,0.0,0.0,0.0,2.0586066361239723,0.4553565990511439,12.083882740900995,-0.008133738771025129,0.009115958171222816,0.08334669874694457,0.4,0.16882963531233916,0.1797825759606731,0.34371424182644034,0.16669339749388914,0.016564659017603844,0.061556597938761115,1.4721828512847424,0.3377341247977659,-8.100879192352295,0.9073252789676189,18.730421364307404,0.0,0.0,0.0,0.0,0.0,0.0,0.0,0.0,0.0,0.0,0.0,0.0,0.0,0.0,0.0,0.0,False,0,0.3165743350982666,0.034923828125
STABILIZE,0.23502492904663086,29.81132236397882,0.032490046819051106,0.03266191482543945,0.0,0.0,0.0,2.0574758129295123,0.4555228714687514,12.08866728841459,-0.007614429133234008,0.007214696761501732,0.08703214879216226,0.4,0.16517639540491658,0.1807489002878121,0.3705471067591086,0.1740642975843245,-0.36128524225205183,-0.0038702313759131357,1.6878528520464897,0.5181496763813916,-3.1264226883649826,-2.6951802894473076,25.553324818611145,0.0,0.0,0.0,0.0,0.0,0.0,0.0,0.0,0.0,0.0,0.0,0.0,0.0,0.0,0.0,0.0,False,0,0.34531712532043457,0.02993505859375
STABILIZE,0.27997660636901855,22.245520986920965,0.03242042859395345,0.04414939880371094,0.0,0.0,0.0,2.058235884918088,0.45537202033762936,12.083750405985827,-0.006760853663615049,0.0064626072609099364,0.08941737884676666,0.4,0.15834625931678717,0.17853861895265116,0.3910507751943828,0.17883475769353332,-0.36128524225205183,-0.0038702313759131357,1.6878528520464897,0.5181496763813916,-3.1264226883649826,-2.6951802894473076,25.553324818611145,0.0,0.0,0.0,0.0,0.0,0.0,0.0,0.0,0.0,0.0,0.0,0.0,0.0,0.0,0.0,0.0,False,1,0.3742554187774658,0.02993505859375
STABILIZE,0.3134784698486328,29.849935593147965,0.032503636678059895,0.03264451026916504,0.0,0.0,0.0,2.0575573483127294,0.45601699296651954,12.082279353993334,-0.006876035103158909,0.010398572605043222,0.08740340085183008,0.4,0.16524801250881205,0.17736013974246875,0.43400334504611904,0.17480680170366017,0.40578320622444153,0.013561859668698162,1.6401894390583038,-0.09268450643852266,0.5707783158868551,-1.1186018586158752,18.985432386398315,0.0,0.0,0.0,0.0,0.0,0.0,0.0,0.0,0.0,0.0,0.0,0.0,0.0,0.0,0.0,0.0,False,0,0.43291473388671875,0.034924072265625
STABILIZE,0.34712719917297363,29.719646564490642,0.03234294255574544,0.032480716705322266,0.0,0.0,0.0,2.0557729613920634,0.4557266032050882,12.089371651672746,-0.0065690160993036525,0.007450578139629792,0.08874516880663666,0.4,0.16267164617735422,0.17540220320617408,0.4614890181466575,0.17749033761327332,-0.08198287105187774,-0.02948279434349388,1.8549548462033272,0.2812245013388125,-3.0011773109436035,1.22288903221488,28.375983238220215,0.0,0.0,0.0,0.0,0.0,0.0,0.0,0.0,0.0,0.0,0.0,0.0,0.0,0.0,0.0,0.0,False,0,0.46175527572631836,0.02993408203125
STABILIZE,0.38037919998168945,30.07186899538272,0.03228429158528646,0.032407522201538086,0.0,0.0,0.0,2.0561078541048055,0.45540360996254065,12.082970056873153,-0.006126922948885324,0.007482906024823537,0.0819790171736642,0.4,0.16052800216507707,0.17235267861370196,0.4780539101163057,0.1639580343473284,0.0948746339417994,0.04856728482991457,1.5511833131313324,-0.7139694923383647,2.675865776836872,2.7689363807439804,19.83385682106018,0.0,0.0,0.0,0.0,0.0,0.0,0.0,0.0,0.0,0.0,0.0,0.0,0.0,0.0,0.0,0.0,False,0,0.49036717414855957,0.034924072265625
STABILIZE,0.41388559341430664,29.848448619413606,0.03247502644856771,0.03260946273803711,0.0,0.0,0.0,2.0553802255147877,0.45648800921498595,12.086668604308715,-0.006168045843144458,0.009620155158116643,0.08470594457422762,0.4,0.16478218874315426,0.16972349558322533,0.5006761212094879,0.16941188914845523,0.4460484255105257,-0.017006132111418992,1.587267592549324,0.5389558733362786,0.7152930833399296,-0.9244143962860107,18.016402423381805,0.0,0.0,0.0,0.0,0.0,0.0,0.0,0.0,0.0,0.0,0.0,0.0,0.0,0.0,0.0,0.0,False,0,0.5190131664276123,0.034924072265625
STABILIZE,0.44741177558898926,29.828070774307335,0.03239873250325521,0.03253793716430664,0.0,0.0,0.0,2.055088661814593,0.4570226316000981,12.088378712922156,-0.005918722962374537,0.00981324334201114,0.08742486326797179,0.4,0.16894734325840896,0.16663161099632617,0.5224171041731904,0.17484972653594358,0.4460484255105257,-0.017006132111418992,1.587267592549324,0.5389558733362786,0.7152930833399296,-0.9244143962860107,18.016402423381805,0.0,0.0,0.0,0.0,0.0,0.0,0.0,0.0,0.0,0.0,0.0,0.0,0.0,0.0,0.0,0.0,False,0,0.547541618347168,0.034924072265625
STABILIZE,0.48084521293640137,29.908683157797157,0.03234246571858724,0.032469987869262695,0.0,0.0,0.0,2.054988983741393,0.45559181369068624,12.085399042896737,-0.004896315920387988,0.005911414151338299,0.08169373122448191,0.4,0.16129178230656224,0.16089550124189725,0.5660194636408636,0.16338746244896382,-0.0810370605904609,0.12477469863370061,1.91819928586483,0.13609329346086269,4.598339647054672,-2.4493398144841194,32.13706612586975,0.0,0.0,0.0,0.0,0.0,0.0,0.0,0.0,0.0,0.0,0.0,0.0,0.0,0.0,0.0,0.0,False,0,0.605513334274292,0.034924072265625
STABILIZE,0.5142123699188232,29.968090655120427,0.032360347112019856,0.032492637634277344,0.0,0.0,0.0,2.0534404517905043,0.45784060011406,12.086404788252022,-0.004555874280157042,0.007941447366398844,0.08124609783505547,0.4,0.16051661852510693,0.15478526160927122,0.5849015727733188,0.16249219567011094,0.15967111103236675,-0.1641727052628994,1.5342587605118752,0.16161785713154578,6.8358443677425385,-4.988778010010719,22.233453392982483,0.0,0.0,0.0,0.0,0.0,0.0,0.0,0.0,0.0,0.0,0.0,0.0,0.0,0.0,0.0,0.0,False,0,0.6342532634735107,0.034924072265625
STABILIZE,0.5476799011230469,29.879067646891208,0.032405885060628255,0.032529354095458984,0.0,0.0,0.0,2.0540664813166183,0.4598491559777198,12.07858166033142,-0.006176691375031685,0.0070465287613015095,0.07756161144304932,0.4,0.15726915432828076,0.15415689153912338,0.6011623016362139,0.15512322288609864,0.014761523925699294,0.20761487539857626,1.4303776435554028,-0.2395756352860879,-5.201111733913422,8.685135841369629,19.687259197235107,0.0,0.0,0.0,0.0,0.0,0.0,0.0,0.0,0.0,0.0,0.0,0.0,0.0,0.0,0.0,0.0,False,0,0.6629719734191895,0.029954345703125
STABILIZE,0.5811657905578613,29.863112402190087,0.032421382268269856,0.03255915641784668,0.0,0.0,0.0,2.053448349196732,0.4590011453035804,12.081452901103763,-0.005824889438895147,0.006471486986865747,0.0732782074414074,0.4,0.15280257953804038,0.15254145743071945,0.6106096023689982,0.1465564148828148,0.014761523925699294,0.20761487539857626,1.4303776435554028,-0.2395756352860879,-5.201111733913422,8.685135841369629,19.687259197235107,0.0,0.0,0.0,0.0,0.0,0.0,0.0,0.0,0.0,0.0,0.0,0.0,0.0,0.0,0.0,0.0,False,0,0.6916482448577881,0.029954345703125
STABILIZE,0.6145744323730469,29.93152073075002,0.03239396413167318,0.03257560729980469,0.0,0.0,0.0,2.0534133444772356,0.4577166428527949,12.08858532614455,-0.0030973612910890178,0.0035308690820701634,0.07005187049476763,0.4,0.14049285191180158,0.14305771492555444,0.6234887468993187,0.14010374098953526,-0.4909724462777376,-0.301312655210495,1.6752809286117554,-0.10810688682142633,2.610902301967144,-2.8879646211862564,19.909371435642242,0.0,0.0,0.0,0.0,0.0,0.0,0.0,0.0,0.0,0.0,0.0,0.0,0.0,0.0,0.0,0.0,False,0,0.7203021049499512,0.0698466796875
STABILIZE,0.6480515003204346,29.87161974489178,0.03248766263326009,0.03260087966918945,0.0,0.0,0.0,2.053364252492576,0.4583062269163845,12.075742009183987,-0.00437387679059827,0.004483413556612664,0.06929832976574488,0.4,0.1326731172803474,0.13843523580085268,0.6817511755652343,0.13859665953148975,-0.4909724462777376,-0.301312655210495,1.6752809286117554,-0.10810688682142633,2.610902301967144,-2.8879646211862564,19.909371435642242,0.0,0.0,0.0,0.0,0.0,0.0,0.0,0.0,0.0,0.0,0.0,0.0,0.0,0.0,0.0,0.0,False,0,0.74904465675354,0.0698466796875
STABILIZE,0.6824033260345459,29.114171479342513,0.032430442174275716,0.03340601921081543,0.0,0.0,0.0,2.0496908913795786,0.4581674886988686,12.095425760598317,-0.003569323506254167,0.011439850795936806,0.06269724249263213,0.4,0.1461524069758684,0.13176950354374434,0.7332714690939699,0.12539448498526426,-0.1185291213914752,-0.4679032601416111,1.5355752781033516,0.40498187284903714,-26.643449068069458,-22.75993824005127,19.51301544904709,0.0,0.0,0.0,0.0,0.0,0.0,0.0,0.0,0.0,0.0,0.0,0.0,0.0,0.0,0.0,0.0,False,0,0.8066222667694092,0.034924072265625
STABILIZE,0.7158405780792236,29.90420510773004,0.0323665459950765,0.03253030776977539,0.0,0.0,0.0,2.0488471495736706,0.4577190974520279,12.102905671513128,-0.0048057258950126,-0.004413944721251396,0.05942571559917776,0.4,0.11194764329895793,0.12975647691690895,0.7467417268456875,0.11885143119835552,-1.5057492069900036,0.19666508305817842,1.8785735592246056,-0.045835505209677954,-22.360235452651978,13.140496611595154,25.0771164894104,0.0,0.0,0.0,0.0,0.0,0.0,0.0,0.0,0.0,0.0,0.0,0.0,0.0,0.0,0.0,0.0,False,0,0.8352823257446289,0.034924072265625
STABILIZE,0.7503566741943359,28.972390497965726,0.03243068059285482,0.03350710868835449,0.0,0.0,0.0,2.050861201605178,0.4589913802675014,12.079782919851695,-0.00479802886719226,-0.005812393619481773,0.05623547838134714,0.4,0.07777666654785295,0.12789168695472536,0.7598012208701678,0.11247095676269428,-1.5057492069900036,0.19666508305817842,1.8785735592246056,-0.045835505209677954,-22.360235452651978,13.140496611595154,25.0771164894104,0.0,0.0,0.0,0.0,0.0,0.0,0.0,0.0,0.0,0.0,0.0,0.0,0.0,0.0,0.0,0.0,False,0,0.8638908863067627,0.034924072265625
STABILIZE,0.7836933135986328,29.997239366913885,0.03231004079182943,0.03243136405944824,0.0,0.0,0.0,2.0468988381129245,0.4598214616950695,12.102364379021404,-0.007547264682467353,0.010442883361193943,0.04559597375674604,0.4,0.09590000832081724,0.13428352931634022,0.7637207176896057,0.09119194751349208,1.243268232792616,0.6257941946387291,1.4196593314409256,-0.84195923325647,44.554659724235535,5.410060286521912,26.096370816230774,0.0,0.0,0.0,0.0,0.0,0.0,0.0,0.0,0.0,0.0,0.0,0.0,0.0,0.0,0.0,0.0,False,0,0.8924942016601562,0.029934814453125
STABILIZE,0.8170807361602783,29.9507569265924,0.03241422971089681,0.03254294395446777,0.0,0.0,0.0,2.046205147025345,0.4578875576646039,12.107734615256327,-0.00709856256178645,-0.0035314869011788784,0.040489397291556393,0.4,0.07140358535128125,0.13864659676735955,0.7606656012450419,0.08097879458311279,-1.0487524792551994,0.5472478456795216,1.355850137770176,-0.2795418202037564,-2.5227416306734085,26.98143720626831,31.113994121551514,0.0,0.0,0.0,0.0,0.0,0.0,0.0,0.0,0.0,0.0,0.0,0.0,0.0,0.0,0.0,0.0,False,0,0.9211063385009766,0.034924072265625
STABILIZE,0.8506515026092529,29.787609990980563,0.03248313268025716,0.032656192779541016,0.0,0.0,0.0,2.0496095694397733,0.45613748177234675,12.084037273930967,-0.007205342295348129,0.003785076711304915,0.030826344651397764,0.4,0.07135906914961454,0.14276535612208313,0.7698096890502221,0.06165268930279553,0.2590663032606244,0.49693677574396133,1.7165113240480423,-0.7779445659209949,23.153167963027954,-0.5341682583093643,28.957191109657288,0.0,0.0,0.0,0.0,0.0,0.0,0.0,0.0,0.0,0.0,0.0,0.0,0.0,0.0,0.0,0.0,False,0,0.9497926235198975,0.02993505859375
STABILIZE,0.8840913772583008,29.903991900697996,0.032407553990681966,0.03256988525390625,0.0,0.0,0.0,2.046772052726456,0.4553984873206631,12.106688742539667,-0.003669466118546315,0.0038543265139582947,0.02983868182479319,0.4,0.07149447212395453,0.13593228875060936,0.7716960158721425,0.05967736364958638,-0.16856812871992588,0.827441830188036,1.4716116711497307,-0.40029961809043474,-6.41862228512764,36.14533841609955,17.002257704734802,0.0,0.0,0.0,0.0,0.0,0.0,0.0,0.0,0.0,0.0,0.0,0.0,0.0,0.0,0.0,0.0,False,0,1.0071845054626465,0.034923583984375
STABILIZE,0.9177525043487549,29.707437653608334,0.03244164784749349,0.0328516960144043,0.0,0.0,0.0,2.0454273592336096,0.45418869006392465,12.098380671187993,-0.009150208660698133,0.001335634644639641,0.024129759799545656,0.4,0.06434183762279536,0.14612505724508493,0.7755808125811882,0.04825951959909131,-0.16856812871992588,0.827441830188036,1.4716116711497307,-0.40029961809043474,-6.41862228512764,36.14533841609955,17.002257704734802,0.0,0.0,0.0,0.0,0.0,0.0,0.0,0.0,0.0,0.0,0.0,0.0,0.0,0.0,0.0,0.0,False,0,1.0358495712280273,0.034923583984375
STABILIZE,0.9529051780700684,28.447145318159006,0.03252127965291341,0.03432345390319824,0.0,0.0,0.0,2.045889677663055,0.4548230438830896,12.088716807286072,-0.006168951143168793,0.004349364187488266,0.01383831848240345,0.4,0.06698011630668903,0.1462175178251923,0.7796344764229101,0.0276766369648069,0.3628434147685766,0.26746129151433706,1.5033631585538387,-0.921252927043558,13.94117921590805,-20.443515479564667,21.455372869968414,0.0,0.0,0.0,0.0,0.0,0.0,0.0,0.0,0.0,0.0,0.0,0.0,0.0,0.0,0.0,0.0,False,0,1.0646259784698486,0.034924072265625
STABILIZE,0.9869484901428223,29.377225545267347,0.032490046819051106,0.03312182426452637,0.0,0.0,0.0,2.0404050357595347,0.4540790335112342,12.117088559324658,0.0007667799358936203,0.006107719379578469,0.024177954917768918,0.4,0.07423818304811063,0.12553253623086036,0.7841205156367931,0.048355909835537836,0.6084667518734932,-0.8842058479785919,1.548260636627674,1.3540275866773175,4.956955090165138,-24.468199908733368,21.431873738765717,0.0,0.0,0.0,0.0,0.0,0.0,0.0,0.0,0.0,0.0,0.0,0.0,0.0,0.0,0.0,0.0,False,0,1.093397617340088,0.02993505859375
STABILIZE,1.020507574081421,29.79586269606729,0.032386096318562825,0.0327608585357666,0.0,0.0,0.0,2.0404050357595347,0.4540790335112342,12.117088559324658,-0.00452280951033862,0.0021828367964918083,0.014399704502963526,0.4,0.06908421538197929,0.12313430618372195,0.7847423657151312,0.028799409005927052,-0.08980684215202928,0.1593785360455513,1.6222503036260605,-0.9306026022436592,-3.505643457174301,24.416933953762054,21.287131309509277,0.0,0.0,0.0,0.0,0.0,0.0,0.0,0.0,0.0,0.0,0.0,0.0,0.0,0.0,0.0,0.0,False,0,1.1220462322235107,0.034923095703125
STABILIZE,1.0540931224822998,29.77386563689023,0.032544883092244466,0.03277707099914551,0.0,0.0,0.0,2.042235099570275,0.45685507852202123,12.086058156151644,-0.0072552069238140835,-0.0023799210777641073,0.016214545822955655,0.4,0.05156839910042249,0.12909290272901555,0.7948210337777255,0.03242909164591131,-0.799266342073679,0.5989584606140852,1.8741775304079056,0.38714341976894723,-16.945362091064453,1.2313811108469963,26.55330002307892,0.0,0.0,0.0,0.0,0.0,0.0,0.0,0.0,0.0,0.0,0.0,0.0,0.0,0.0,0.0,0.0,False,1,1.1506564617156982,0.03490771484375
STABILIZE,1.0875892639160156,29.855247423267468,0.032515557607014973,0.03263998031616211,0.0,0.0,0.0,2.043988537196264,0.45366799486141696,12.116522507397194,-0.003950095143202833,-0.0007278027049886367,0.02532462925543784,0.4,0.04133418838689222,0.12455277064383251,0.8152234481177909,0.05064925851087568,0.5881344899535179,-0.3439652966335416,1.9473837688565254,0.9656643111308618,20.477135479450226,-18.083009123802185,32.170113921165466,0.0,0.0,0.0,0.0,0.0,0.0,0.0,0.0,0.0,0.0,0.0,0.0,0.0,0.0,0.0,0.0,False,0,1.208890438079834,0.034924072265625
STABILIZE,1.120985984802246,29.941563216093318,0.032462151845296223,0.032587289810180664,0.0,0.0,0.0,2.0426551562042308,0.4463526488169217,12.13958976377162,-0.003591611948059099,-0.0010793621762551118,0.024195018259679908,0.4,0.03155630277407844,0.11947041538420371,0.8196150876788637,0.048390036519359816,-0.38911737501621246,-0.03129727556370199,1.6087839379906654,0.013028118934336528,-18.768393993377686,5.020775645971298,26.94515883922577,0.0,0.0,0.0,0.0,0.0,0.0,0.0,0.0,0.0,0.0,0.0,0.0,0.0,0.0,0.0,0.0,False,0,1.237396001815796,0.029934814453125
STABILIZE,1.154609203338623,29.74620398147557,0.03251245816548665,0.03265571594238281,0.0,0.0,0.0,2.0568292928358884,0.4726499976993815,12.15084335420286,-0.003281993414592097,-0.001353465237018103,0.02311369905996042,0.4,0.02238176090856566,0.11404847000700533,0.8187709684185965,0.04622739811992084,-0.38911737501621246,-0.03129727556370199,1.6087839379906654,0.013028118934336528,-18.768393993377686,5.020775645971298,26.94515883922577,0.0,0.0,0.0,0.0,0.0,0.0,0.0,0.0,0.0,0.0,0.0,0.0,0.0,0.0,0.0,0.0,False,0,1.2662684917449951,0.029934814453125
STABILIZE,1.1879265308380127,30.010761305094448,0.032326491673787434,0.03246426582336426,0.0,0.0,0.0,2.0486559042769104,0.4444294169570342,12.139886023226868,-0.006688767348030737,0.0131052687891829,0.01273686141725644,0.4,0.055944804632546224,0.11927474290189846,0.8159026090336299,0.02547372283451288,2.0887689664959908,0.5787827540189028,1.4780811965465546,-1.079141821053394,12.015494704246521,18.692253530025482,28.93640100955963,0.0,0.0,0.0,0.0,0.0,0.0,0.0,0.0,0.0,0.0,0.0,0.0,0.0,0.0,0.0,0.0,False,0,1.294818639755249,0.064859130859375
STABILIZE,1.2213797569274902,29.893335423957122,0.032488139470418294,0.03261375427246094,0.0,0.0,0.0,2.0546673245201674,0.42686505189781754,12.168057138458586,-0.016557298528763566,-0.001966904607678944,-0.016139979783551264,0.4,0.04146980646864442,0.15298093702379495,0.8721818478138044,-0.03227995956710253,-0.698577705770731,1.9158923998475075,2.8876516968011856,-2.906030767768393,-36.2903892993927,47.85534143447876,74.2838442325592,0.0,0.0,0.0,0.0,0.0,0.0,0.0,0.0,0.0,0.0,0.0,0.0,0.0,0.0,0.0,0.0,False,0,1.3235249519348145,0.034924072265625
STABILIZE,1.2551262378692627,29.631463309525323,0.03248647054036458,0.03295564651489258,0.0,0.0,0.0,2.044914027828801,0.4290799541796057,12.205962127031219,-0.011288191515241288,-0.01082308663234608,-0.0248469232079414,0.4,0.003378836215526943,0.16722761848233011,0.8708860817559869,-0.0496938464158828,-1.1069977656006813,-0.6399412639439106,0.15299413353204727,2.1894690051965973,16.98072850704193,-13.911624252796173,-47.78502285480499,0.0,0.0,0.0,0.0,0.0,0.0,0.0,0.0,0.0,0.0,0.0,0.0,0.0,0.0,0.0,0.0,False,0,1.380863904953003,0.034923583984375
STABILIZE,1.2886476516723633,29.833587026104276,0.0325351079305013,0.03265738487243652,0.0,0.0,0.0,2.0675923903073588,0.4298426942108257,12.131224489585646,-0.005721141334855619,0.01862477178089353,-0.05433394429099524,0.4,0.05545969161205143,0.16334759075367783,0.8599591650564997,-0.10866788858199047,2.9658062383532524,0.05285724764689803,0.9799697436392307,-3.149128299386548,56.38066530227661,8.157888799905777,13.912686705589294,0.0,0.0,0.0,0.0,0.0,0.0,0.0,0.0,0.0,0.0,0.0,0.0,0.0,0.0,0.0,0.0,False,0,1.4095137119293213,0.029935302734375
STABILIZE,1.3221752643585205,29.824677171625236,0.03244903882344564,0.0326695442199707,0.0,0.0,0.0,2.071846104056396,0.432686507504784,12.13642823995955,-0.005187644229133655,0.020926335022811594,-0.08223824973829372,0.4,0.10670153287039141,0.15838645196286968,0.8444430196444827,-0.16447649947658743,2.9658062383532524,0.05285724764689803,0.9799697436392307,-3.149128299386548,56.38066530227661,8.157888799905777,13.912686705589294,0.0,0.0,0.0,0.0,0.0,0.0,0.0,0.0,0.0,0.0,0.0,0.0,0.0,0.0,0.0,0.0,False,0,1.4382524490356445,0.029935302734375
STABILIZE,1.3556678295135498,29.858010322121373,0.0323667844136556,0.03250288963317871,0.0,0.0,0.0,2.0685003785801475,0.4397753367287581,12.128300314847234,-0.003016533742485549,0.0001254673937413028,-0.07952942302748806,0.4,0.09089662305139479,0.14740513447850492,0.8486445313532317,-0.1590588460549761,-0.7367237936705351,-0.29724997002631426,2.047908306121826,0.2075502789902865,5.04889078438282,34.00338292121887,38.15681338310242,0.0,0.0,0.0,0.0,0.0,0.0,0.0,0.0,0.0,0.0,0.0,0.0,0.0,0.0,0.0,0.0,False,0,1.4670159816741943,0.069847900390625
STABILIZE,1.389113187789917,29.899941544647056,0.03242376645406087,0.03256583213806152,0.0,0.0,0.0,2.0655444007734127,0.45680139750401316,12.050796450787807,-0.004460102945366438,0.016130216855235472,-0.1137618019305445,0.4,0.12318192386368473,0.14214160390068806,0.8780209559283149,-0.227523603861089,1.4895129017531872,-0.2828579396009445,1.4365828596055508,-2.6475907102836853,66.44749045372009,-13.299494981765747,23.82027357816696,0.0,0.0,0.0,0.0,0.0,0.0,0.0,0.0,0.0,0.0,0.0,0.0,0.0,0.0,0.0,0.0,False,0,1.4956040382385254,0.029933837890625
STABILIZE,1.4226536750793457,29.814924863873525,0.032444270451863606,0.032566070556640625,0.0,0.0,0.0,2.064181137703761,0.45839347191086083,12.159092515172944,0.009882548779674405,-0.01031887620808467,-0.05888678565246071,0.4,0.07514614139966047,0.09492668377438147,0.8631918740983819,-0.11777357130492142,-2.3279568180441856,-2.1611325442790985,1.1901955120265484,5.509111056221809,-110.3093147277832,-83.79507660865784,-53.461843729019165,0.0,0.0,0.0,0.0,0.0,0.0,0.0,0.0,0.0,0.0,0.0,0.0,0.0,0.0,0.0,0.0,False,0,1.524226188659668,0.034924072265625
STABILIZE,1.4573159217834473,28.850030608805707,0.032341988881429036,0.03378009796142578,0.0,0.0,0.0,2.071115914145439,0.45144556869937114,12.112144356139215,0.01096493520466672,-0.011716574160382359,-0.0055853926976299414,0.4,0.028426409290513648,0.04860133522086868,0.8535775834727142,-0.011170785395259883,-2.3279568180441856,-2.1611325442790985,1.1901955120265484,5.509111056221809,-110.3093147277832,-83.79507660865784,-53.461843729019165,0.0,0.0,0.0,0.0,0.0,0.0,0.0,0.0,0.0,0.0,0.0,0.0,0.0,0.0,0.0,0.0,False,1,1.5531857013702393,0.034924072265625
STABILIZE,1.4909327030181885,29.74599302147457,0.032442363103230794,0.03273797035217285,0.0,0.0,0.0,2.0712290391535677,0.4618235608955295,12.122673946518436,-0.025875993546375795,0.009802362377984132,-0.05700539429085498,0.4,0.0515132736909197,0.1183593642319243,0.8575236554469515,-0.11401078858170996,2.705708332359791,1.951470971107483,1.8445901572704315,-2.91513946535684,62.604522705078125,-85.10950207710266,30.65425157546997,0.0,0.0,0.0,0.0,0.0,0.0,0.0,0.0,0.0,0.0,0.0,0.0,0.0,0.0,0.0,0.0,False,0,1.6108903884887695,0.02993505859375
STABILIZE,1.524369239807129,29.907403578075197,0.03244045575459798,0.032591819763183594,0.0,0.0,0.0,2.06759665917559,0.4592541291071353,12.1518593448419,0.02703084959112721,-0.009019002699954306,-0.011595359848067775,0.4,0.017414463131175707,0.02336075778930341,0.8395933484595759,-0.02319071969613555,-1.7297837883234024,-4.909404367208481,0.9258963167667389,4.76342814179343,-58.36570858955383,-96.881103515625,53.85778546333313,0.0,0.0,0.0,0.0,0.0,0.0,0.0,0.0,0.0,0.0,0.0,0.0,0.0,0.0,0.0,0.0,False,0,1.6397149562835693,0.0399130859375
STABILIZE,1.5578763484954834,29.8437762377083,0.03248289426167806,0.032628536224365234,0.0,0.0,0.0,2.074086832990983,0.4587885023048109,12.086148656158146,-0.022068465113915886,-0.012084641540629553,-0.039206608916128816,0.4,-0.020705101897604224,0.08438752043991743,0.8339541177530383,-0.07841321783225763,-1.9151214510202408,3.6023709923028946,1.116554532200098,-3.1541625756916707,-39.156004786491394,177.12465524673462,38.191357254981995,0.0,0.0,0.0,0.0,0.0,0.0,0.0,0.0,0.0,0.0,0.0,0.0,0.0,0.0,0.0,0.0,True,0,1.6760151386260986,0.02993505859375
STABILIZE,1.5913047790527344,29.916362936070357,0.03243544896443685,0.032556772232055664,0.0,0.0,0.0,2.0740578046870106,0.453682615735109,12.135270522895233,-0.005675153157329026,-0.002274208688745534,-0.02476482362030687,0.4,-0.025157446819565454,0.08985255382685259,0.841887610472039,-0.04952964724061374,-0.18419955158606172,0.527478288859129,2.3120570927858353,1.4319382738791835,44.51541006565094,-98.34830164909363,44.24377679824829,0.0,0.0,0.0,0.0,0.0,0.0,0.0,0.0,0.0,0.0,0.0,0.0,0.0,0.0,0.0,0.0,True,0,1.7047913074493408,0.034923828125
STABILIZE,1.6247265338897705,29.918923738667086,0.03245094617207845,0.03258776664733887,0.0,0.0,0.0,2.0704743032502813,0.457246800543092,12.155621071527285,0.010611504491028314,0.0036408255521753682,-0.02636690388228674,0.4,-0.011983387785700461,0.046638531885148674,0.8386320767806582,-0.05273380776457348,0.8303830400109291,-2.175188437104225,1.4452094212174416,-0.3090912462656414,-36.97584569454193,83.73050093650818,9.59387868642807,0.0,0.0,0.0,0.0,0.0,0.0,0.0,0.0,0.0,0.0,0.0,0.0,0.0,0.0,0.0,0.0,True,0,1.7334656715393066,0.0399130859375
STABILIZE,1.6581597328186035,29.90889643172937,0.03248790105183919,0.03261375427246094,0.0,0.0,0.0,2.077248783689876,0.46325112379291505,12.073342051464373,-0.021543492258403678,-0.007070247188287763,-0.0613194248346914,0.4,-0.03154101118844048,0.10330003171525919,0.8613935279641294,-0.1226388496693828,-0.9518943727016449,3.3321183174848557,2.64297928661108,-3.943740127707961,-41.14963412284851,142.4102544784546,55.885761976242065,0.0,0.0,0.0,0.0,0.0,0.0,0.0,0.0,0.0,0.0,0.0,0.0,0.0,0.0,0.0,0.0,True,0,1.7637145519256592,0.024946044921875
STABILIZE,1.6916759014129639,29.837831685281355,0.0324743111928304,0.03275036811828613,0.0,0.0,0.0,2.074129948560119,0.45551294635011375,12.135396881394877,-0.02302710538108311,-0.0069026704948754345,-0.09393173920147747,0.4,-0.047941669248642245,0.15776955724674632,0.8703382135832439,-0.18786347840295495,-0.9518943727016449,3.3321183174848557,2.64297928661108,-3.943740127707961,-41.14963412284851,142.4102544784546,55.885761976242065,0.0,0.0,0.0,0.0,0.0,0.0,0.0,0.0,0.0,0.0,0.0,0.0,0.0,0.0,0.0,0.0,True,0,1.7929623126983643,0.024946044921875
STABILIZE,1.7252264022827148,29.80581434185374,0.03258636792500814,0.032716989517211914,0.0,0.0,0.0,2.0705131499511857,0.455833164828311,12.159731991633986,-0.012327844622736653,-0.01694289001846614,-0.1132395330498129,0.4,-0.09064904924201792,0.173932322042084,0.8494628786280917,-0.2264790660996258,0.03265832783654332,1.7009720206260681,1.6661997884511948,-4.102951837260958,-57.163023948669434,28.822961449623108,9.177456796169281,0.0,0.0,0.0,0.0,0.0,0.0,0.0,0.0,0.0,0.0,0.0,0.0,0.0,0.0,0.0,0.0,True,0,1.8492867946624756,0.069847900390625
STABILIZE,1.758758783340454,29.823828891606702,0.03248480161031087,0.03259849548339844,0.0,0.0,0.0,2.07786798302682,0.4629004362677172,12.057945951301518,-0.0030002881611126985,-0.024318086613771793,-0.09529616800753607,0.4,-0.14818771119227656,0.16059163992014835,0.8763250999986776,-0.19059233601507214,-2.477623149752617,-1.1442845687270164,1.3028672896325588,2.8246403126278175,-35.02660691738129,-86.13448739051819,20.0783908367157,0.0,0.0,0.0,0.0,0.0,0.0,0.0,0.0,0.0,0.0,0.0,0.0,0.0,0.0,0.0,0.0,True,0,1.8779263496398926,0.034924072265625
STABILIZE,1.7920856475830078,30.004964696287924,0.03236392339070638,0.03247857093811035,0.0,0.0,0.0,2.073622166684011,0.4570068901484953,12.11918798872079,0.0018715321972174938,-0.022921558042784524,-0.06665976688320452,0.4,-0.19338583951709756,0.1345237616755301,0.8686438924820137,-0.13331953376640904,-2.477623149752617,-1.1442845687270164,1.3028672896325588,2.8246403126278175,-35.02660691738129,-86.13448739051819,20.0783908367157,0.0,0.0,0.0,0.0,0.0,0.0,0.0,0.0,0.0,0.0,0.0,0.0,0.0,0.0,0.0,0.0,True,0,1.9066901206970215,0.034924072265625
STABILIZE,1.8267433643341064,28.853602999346474,0.0324890931447347,0.03378033638000488,0.0,0.0,0.0,2.0752460441591816,0.459477444276483,12.100828440231798,-0.0022052916504095876,-0.008825689109601943,-0.057929850415948,0.4,-0.19168832291269933,0.1232877901844427,0.8646750709683737,-0.115859700831896,0.03892157401423901,-0.33428813330829144,1.4925604686141014,0.6518622086894685,52.393555641174316,63.22990655899048,25.55341124534607,0.0,0.0,0.0,0.0,0.0,0.0,0.0,0.0,0.0,0.0,0.0,0.0,0.0,0.0,0.0,0.0,True,0,1.9352483749389648,0.02993505859375
STABILIZE,1.8602228164672852,29.86842892341874,0.03244522412618001,0.03263664245605469,0.0,0.0,0.0,2.0782854783398372,0.45968443102484613,12.070043070095256,-0.014446647235808923,-0.0006420739910109876,-0.08004981864055656,0.4,-0.1668538882639405,0.1498929304776303,0.8516938374148968,-0.16009963728111312,1.1448713950812817,1.764984056353569,1.2131614610552788,-2.7443172879884674,-10.375003516674042,11.796645820140839,16.770440340042114,0.0,0.0,0.0,0.0,0.0,0.0,0.0,0.0,0.0,0.0,0.0,0.0,0.0,0.0,0.0,0.0,True,0,1.9639112949371338,0.034924072265625
STABILIZE,1.8936545848846436,29.91209590574878,0.032477649052937825,0.032610177993774414,0.0,0.0,0.0,2.0750215016902174,0.45746195150194746,12.114762879912268,-0.015749575804290813,-0.00013252203786026198,-0.10241180155252387,0.4,-0.14418415366419104,0.17711757735690906,0.8435259473002336,-0.20482360310504774,1.1448713950812817,1.764984056353569,1.2131614610552788,-2.7443172879884674,-10.375003516674042,11.796645820140839,16.770440340042114,0.0,0.0,0.0,0.0,0.0,0.0,0.0,0.0,0.0,0.0,0.0,0.0,0.0,0.0,0.0,0.0,True,1,1.99251389503479,0.034924072265625
STABILIZE,1.9271225929260254,29.878641952442692,0.0325048287709554,0.03266501426696777,0.0,0.0,0.0,2.0770385419294866,0.4570693223463775,12.101731732749531,-0.0056115731422069935,-0.00672372722493305,-0.09177382248316113,0.4,-0.14351231872441192,0.17112079001579453,0.8425057640473274,-0.18354764496632225,1.0263320989906788,1.0883298702538013,1.5277420170605183,-1.8712583891719308,32.2878360748291,-5.527951568365097,24.89726096391678,0.0,0.0,0.0,0.0,0.0,0.0,0.0,0.0,0.0,0.0,0.0,0.0,0.0,0.0,0.0,0.0,True,0,2.051053762435913,0.064859130859375
STABILIZE,1.960744857788086,29.74282898049199,0.0325198491414388,0.03271889686584473,0.0,0.0,0.0,2.0788327472470844,0.4578546340183703,12.085664566500721,-0.015035871704706617,-0.0013768403740229104,-0.1108348313405867,0.4,-0.1276642414943458,0.19370957047911447,0.8640061822438643,-0.2216696626811734,1.0263320989906788,1.0883298702538013,1.5277420170605183,-1.8712583891719308,32.2878360748291,-5.527951568365097,24.89726096391678,0.0,0.0,0.0,0.0,0.0,0.0,0.0,0.0,0.0,0.0,0.0,0.0,0.0,0.0,0.0,0.0,True,0,2.0796213150024414,0.064859130859375
STABILIZE,1.9942808151245117,29.823404769692402,0.03241422971089681,0.0325469970703125,0.0,0.0,0.0,2.0760748449262802,0.45827933304652757,12.11339171943639,0.0047481715880653575,-0.011380959628693933,-0.09510895718621941,0.4,-0.1425471794800674,0.1551062769227075,0.8898497959805123,-0.19021791437243882,-0.7183434441685677,-1.9057344645261765,1.8788468092679977,1.6398121997824655,-36.510688066482544,-52.81705856323242,28.42763364315033,0.0,0.0,0.0,0.0,0.0,0.0,0.0,0.0,0.0,0.0,0.0,0.0,0.0,0.0,0.0,0.0,True,0,2.108527660369873,0.034924072265625
STABILIZE,2.027587413787842,30.01913813957816,0.03231004079182943,0.032434940338134766,0.0,0.0,0.0,2.0685966415587624,0.46397074825499934,12.110288252232264,-0.010841659476915913,-0.013179935557484564,-0.09056622291136689,0.4,-0.16057865769559015,0.16698193059031305,0.8876637922853587,-0.18113244582273377,-1.1367278173565865,0.9326815605163574,1.7864886671304703,0.041153223770649096,-19.570963084697723,59.073466062545776,28.45233380794525,0.0,0.0,0.0,0.0,0.0,0.0,0.0,0.0,0.0,0.0,0.0,0.0,0.0,0.0,0.0,0.0,True,0,2.137350082397461,0.029933837890625
STABILIZE,2.0611040592193604,29.836133676677715,0.032468350728352864,0.032611846923828125,0.0,0.0,0.0,2.070878138184958,0.44952884686353634,12.208174254548656,-0.004572476990196026,-0.0016350580101982728,-0.09384357465531014,0.4,-0.14285867047007036,0.15903521224350692,0.8768221274256044,-0.18768714931062028,0.5511785391718149,-0.002160018266295083,1.5376877970993519,-0.7567651098001374,17.21085011959076,-58.831024169921875,18.500924110412598,0.0,0.0,0.0,0.0,0.0,0.0,0.0,0.0,0.0,0.0,0.0,0.0,0.0,0.0,0.0,0.0,True,0,2.1666667461395264,0.039914306640625
STABILIZE,2.09454083442688,29.905910873440284,0.03241685231526693,0.03253769874572754,0.0,0.0,0.0,2.0674111768509422,0.4442363040304227,12.255416965490342,0.008511866342148977,-0.0012339530270038157,-0.0797960131848447,0.4,-0.1264005005539788,0.11343247811784124,0.8714667908945698,-0.1595920263696894,0.6015577353537083,-1.9518863409757614,1.352311484515667,1.0571703831539325,4.681888595223427,-43.37299168109894,16.206005215644836,0.0,0.0,0.0,0.0,0.0,0.0,0.0,0.0,0.0,0.0,0.0,0.0,0.0,0.0,0.0,0.0,True,0,2.194530963897705,0.029934814453125
STABILIZE,2.1280276775360107,29.863750284802915,0.03242662747701009,0.03255343437194824,0.0,0.0,0.0,2.0749367646558268,0.45399829854081053,12.17068249242081,0.015892940852502372,-0.012902256748290465,-0.01847739684539653,0.4,-0.14574375674204643,0.051373060894317375,0.8669771319889743,-0.03695479369079306,-2.196500450372696,-0.6395800970494747,2.456279844045639,4.55440130130259,-130.94884157180786,-82.62525200843811,34.17704999446869,0.0,0.0,0.0,0.0,0.0,0.0,0.0,0.0,0.0,0.0,0.0,0.0,0.0,0.0,0.0,0.0,True,0,2.2520365715026855,0.064858154296875
STABILIZE,2.161442995071411,29.92660877755025,0.03237965901692708,0.03251457214355469,0.0,0.0,0.0,2.0735269709224537,0.4473472951148048,12.221330052663747,0.005613592779556927,-0.009086391398118102,-0.012313123445509732,0.4,-0.15137167084012212,0.02697646539960038,0.8969102882921186,-0.024626246891019464,-0.248235953040421,-0.6583541166037321,1.9805941730737686,-0.10655457959019549,71.62866592407227,63.36490511894226,33.69399607181549,0.0,0.0,0.0,0.0,0.0,0.0,0.0,0.0,0.0,0.0,0.0,0.0,0.0,0.0,0.0,0.0,True,0,2.280557632446289,0.034923828125
STABILIZE,2.19486141204834,29.92361968223619,0.03242519696553548,0.03255963325500488,0.0,0.0,0.0,2.0763608590977745,0.45623438508119635,12.193141861959104,-0.012969252759825169,0.01569083894637423,-0.03434576732448596,0.4,-0.08525692949351038,0.06032736136190406,0.897218510116814,-0.06869153464897192,2.983928471803665,1.8744682893157005,1.9001087173819542,-2.4235214453629514,67.11265444755554,51.18102431297302,23.48179966211319,0.0,0.0,0.0,0.0,0.0,0.0,0.0,0.0,0.0,0.0,0.0,0.0,0.0,0.0,0.0,0.0,True,0,2.311480760574341,0.029934814453125
STABILIZE,2.2283167839050293,29.890352971358936,0.032456429799397786,0.03258466720581055,0.0,0.0,0.0,2.0833549728078675,0.4611332315416822,12.12324255976684,-0.014104959165119415,0.018137958119967806,-0.055939296359669044,0.4,-0.02158197688445454,0.09315038587514396,0.893468696592595,-0.11187859271933809,2.983928471803665,1.8744682893157005,1.9001087173819542,-2.4235214453629514,67.11265444755554,51.18102431297302,23.48179966211319,0.0,0.0,0.0,0.0,0.0,0.0,0.0,0.0,0.0,0.0,0.0,0.0,0.0,0.0,0.0,0.0,True,0,2.3398354053497314,0.029934814453125
STABILIZE,2.262030839920044,29.663526549548784,0.03245499928792318,0.03270292282104492,0.0,0.0,0.0,2.0776276457454004,0.4458051664662629,12.137873678742654,0.007474051685495373,-0.01715677362783931,-0.021149174668214775,0.4,-0.06820963511499675,0.05817708542971738,0.8870637118878131,-0.04229834933642955,-2.6140477508306503,-1.5877831727266312,1.7231227830052376,3.360634925432925,-70.15206217765808,-36.507415771484375,8.616182208061218,0.0,0.0,0.0,0.0,0.0,0.0,0.0,0.0,0.0,0.0,0.0,0.0,0.0,0.0,0.0,0.0,True,0,2.368481397628784,0.0399140625
STABILIZE,2.2955291271209717,29.852909985124448,0.03228262265523275,0.032530784606933594,0.0,0.0,0.0,2.076426386225124,0.45606795258103017,12.09731772299841,0.0007392014285710774,-0.005709167310829528,-0.011366292499007929,0.4,-0.07524705709223505,0.04728441405500587,0.8698797538555092,-0.022732584998015858,-0.6119187455624342,-0.3428814699873328,0.656466418877244,0.7586251090493494,50.826966762542725,48.92681539058685,28.76739799976349,0.0,0.0,0.0,0.0,0.0,0.0,0.0,0.0,0.0,0.0,0.0,0.0,0.0,0.0,0.0,0.0,True,0,2.39723801612854,0.02993408203125
STABILIZE,2.328789472579956,30.061308009317326,0.032352717717488606,0.03246045112609863,0.0,0.0,0.0,2.0791430939674966,0.45963731339174363,12.090215180035242,0.003943728917698216,-0.009305278260766886,0.0007464485591032223,0.4,-0.09152336069450388,0.02828356564940657,0.8383022419508858,0.0014928971182064446,-1.8163034692406654,-0.6769465748220682,1.1769944801926613,2.222983249349969,-14.005562663078308,-17.866338789463043,-16.197805106639862,0.0,0.0,0.0,0.0,0.0,0.0,0.0,0.0,0.0,0.0,0.0,0.0,0.0,0.0,0.0,0.0,True,0,2.4548189640045166,0.034923828125
STABILIZE,2.362636089324951,29.54775625220148,0.032552512486775716,0.032855987548828125,0.0,0.0,0.0,2.0782101328155553,0.45251043787965844,12.131376461294678,-0.00468048421187463,-0.00047795685407934347,-0.0354961453533124,0.4,-0.08013716397778026,0.03697775306908163,0.851097833692675,-0.0709922907066248,0.41355323046445847,0.6536906585097313,2.4099934846162796,-4.145374142195908,-8.589407801628113,35.6248140335083,-7.936401665210724,0.0,0.0,0.0,0.0,0.0,0.0,0.0,0.0,0.0,0.0,0.0,0.0,0.0,0.0,0.0,0.0,True,0,2.483381509780884,0.034924072265625
STABILIZE,2.3964290618896484,29.5896549534741,0.03231552441914876,0.032938241958618164,0.0,0.0,0.0,2.0773399240266133,0.4584816774006892,12.108795855898617,-7.542864895630242e-05,0.000597859397576323,-0.0468559634728951,0.4,-0.06716446210343469,0.030938395971637594,0.8629915248930673,-0.0937119269457902,0.5083613097667694,-0.16614588676020503,2.350614219903946,-1.4155411241160984,-38.495272397994995,-29.115355014801025,37.293875217437744,0.0,0.0,0.0,0.0,0.0,0.0,0.0,0.0,0.0,0.0,0.0,0.0,0.0,0.0,0.0,0.0,True,0,2.5127789974212646,0.02993505859375
STABILIZE,2.429870367050171,29.90335229784261,0.03246954282124837,0.032602787017822266,0.0,0.0,0.0,2.078284624566191,0.45473185018549933,12.112009459903108,0.0007841765659898673,-0.009004707809389228,-0.03802420240425404,0.4,-0.08370836637256489,0.023110524904320077,0.8445764084567576,-0.07604840480850808,-1.124411914497614,-0.30151556711643934,0.8992732502520084,0.7930988880594021,-41.367197036743164,13.828878104686737,-8.423420041799545,0.0,0.0,0.0,0.0,0.0,0.0,0.0,0.0,0.0,0.0,0.0,0.0,0.0,0.0,0.0,0.0,True,0,2.541626453399658,0.034924072265625
STABILIZE,2.463371753692627,29.848873453934726,0.0324890931447347,0.032660722732543945,0.0,0.0,0.0,2.0778028827862935,0.4554677497077153,12.12121740867793,0.0011578850113255702,-0.009858933091486385,-0.029517265811876692,0.4,-0.10032980451983067,0.015096398934941024,0.831118572296943,-0.059034531623753383,-1.124411914497614,-0.30151556711643934,0.8992732502520084,0.7930988880594021,-41.367197036743164,13.828878104686737,-8.423420041799545,0.0,0.0,0.0,0.0,0.0,0.0,0.0,0.0,0.0,0.0,0.0,0.0,0.0,0.0,0.0,0.0,True,0,2.5702617168426514,0.034924072265625
STABILIZE,2.496973752975464,29.76140096926865,0.03247693379720052,0.03272604942321777,0.0,0.0,0.0,2.0784229358968838,0.4568093482710939,12.114496502534639,-0.003830752556936972,-0.007920569947391855,-0.033961611753531185,0.4,-0.10901952117865835,0.02277779614066518,0.8302187332890459,-0.06792322350706237,-0.675052497535944,0.570960296317935,1.5988238155841827,-0.6633780143518159,17.925965785980225,15.434740483760834,17.819979786872864,0.0,0.0,0.0,0.0,0.0,0.0,0.0,0.0,0.0,0.0,0.0,0.0,0.0,0.0,0.0,0.0,True,0,2.599074363708496,0.034924072265625
STABILIZE,2.530407190322876,29.91081603400201,0.03244188626607259,0.032549381256103516,0.0,0.0,0.0,2.076879099701049,0.4577374002245694,12.112934096761999,0.0038821817719141864,0.0008871507040115408,-0.03685228690112252,0.4,-0.09117302764784142,0.006822119341963645,0.8064739256207558,-0.07370457380224504,-0.2784245181828737,-0.18998500891029835,0.899443868547678,-0.1674115650950091,-15.973284840583801,10.88155210018158,-1.454969123005867,0.0,0.0,0.0,0.0,0.0,0.0,0.0,0.0,0.0,0.0,0.0,0.0,0.0,0.0,0.0,0.0,True,0,2.656276226043701,0.02993505859375
STABILIZE,2.5671145915985107,27.240870033967436,0.03242662747701009,0.03591275215148926,0.0,0.0,0.0,2.0768818744653994,0.4601420003383841,12.112913606194487,-0.005725656243385455,-0.011638066379056186,-0.03703265005235832,0.4,-0.11350974582320784,0.02226248455645046,0.7990165265277663,-0.07406530010471664,-1.4957726001739502,0.9721833281219006,1.4047663658857346,-0.18964955379487314,-33.851924538612366,15.610015392303467,14.330452680587769,0.0,0.0,0.0,0.0,0.0,0.0,0.0,0.0,0.0,0.0,0.0,0.0,0.0,0.0,0.0,0.0,True,0,2.684908390045166,0.03486572265625
STABILIZE,2.6006295680999756,29.838680762061948,0.0325501283009847,0.03267526626586914,0.0,0.0,0.0,2.0784566599559104,0.45621554870012593,12.119353620808164,-0.0066797727403056385,-0.013550311872876017,-0.037401482488729335,0.4,-0.13636912749458657,0.037445922638519105,0.7957201762461268,-0.07480296497745867,-1.4957726001739502,0.9721833281219006,1.4047663658857346,-0.18964955379487314,-33.851924538612366,15.610015392303467,14.330452680587769,0.0,0.0,0.0,0.0,0.0,0.0,0.0,0.0,0.0,0.0,0.0,0.0,0.0,0.0,0.0,0.0,True,0,2.716736316680908,0.03486572265625
STABILIZE,2.634075880050659,29.896957773786102,0.03247025807698568,0.03260350227355957,0.0,0.0,0.0,2.0783194158422758,0.4583607617080388,12.118166875439874,0.00046271274717614685,-0.0013068978782428912,-0.037734039582026785,0.4,-0.12080835988907569,0.029800751656930226,0.7833830863006312,-0.07546807916405357,0.7206665351986885,-0.35378660541027784,0.873316265642643,-0.1844240055125638,4.194967821240425,11.502904444932938,7.3715172708034515,0.0,0.0,0.0,0.0,0.0,0.0,0.0,0.0,0.0,0.0,0.0,0.0,0.0,0.0,0.0,0.0,True,0,2.7462778091430664,0.059869873046875
STABILIZE,2.6675009727478027,29.917643282570705,0.03247812589009603,0.032677412033081055,0.0,0.0,0.0,2.079910209588654,0.45944841597251046,12.107558737885197,0.0005687231657918854,-0.001271514167139462,-0.044503219351732966,0.4,-0.1073387455913779,0.02273129352589638,0.7880441847186834,-0.08900643870346593,0.7509069051593542,-0.29652772936969995,0.9057972580194473,-0.7813586466497964,4.453247785568237,11.498991400003433,7.253946363925934,0.0,0.0,0.0,0.0,0.0,0.0,0.0,0.0,0.0,0.0,0.0,0.0,0.0,0.0,0.0,0.0,True,0,2.7748541831970215,0.004989013671875
STABILIZE,2.701078414916992,29.784648596445134,0.03258851369222005,0.03272438049316406,0.0,0.0,0.0,2.0791960279335644,0.4582626844604257,12.119151276454001,-0.004387999257869884,-0.00843135752345464,-0.03919324706121161,0.4,-0.11633792194068948,0.03110090811134076,0.7655241009316165,-0.07838649412242323,-0.9338909760117531,0.5522367544472218,1.5201669186353683,0.28135798351231867,-29.760146141052246,-7.571761310100555,21.932025253772736,0.0,0.0,0.0,0.0,0.0,0.0,0.0,0.0,0.0,0.0,0.0,0.0,0.0,0.0,0.0,0.0,True,0,2.8033814430236816,0.0399130859375
STABILIZE,2.7347354888916016,29.709541922551125,0.03244903882344564,0.03277993202209473,0.0,0.0,0.0,2.0778504806670717,0.45910792037021475,12.122023370999992,0.0011149203566523805,-0.004380775771004333,-0.04097826400017916,0.4,-0.11237211635259625,0.022212363837915316,0.7668445553770239,-0.08195652800035833,0.2708036685362458,-0.12044747127220035,1.491918321698904,-0.5937861773939079,10.90390607714653,13.919118046760559,14.9258092045784,0.0,0.0,0.0,0.0,0.0,0.0,0.0,0.0,0.0,0.0,0.0,0.0,0.0,0.0,0.0,0.0,True,0,2.8608264923095703,0.02993505859375
STABILIZE,2.768200159072876,29.883112349223765,0.032456429799397786,0.032594919204711914,0.0,0.0,0.0,2.0788999819217264,0.46042294522885374,12.105031567892294,-0.0022246991252210437,-0.005873909368769352,-0.037406983233759294,0.4,-0.11326258858450221,0.024258098468951945,0.7657456375537333,-0.07481396646751859,-0.28987214900553226,0.1967886695638299,1.640736497938633,0.2609118122318855,-14.645177125930786,-7.34800398349762,21.646614372730255,0.0,0.0,0.0,0.0,0.0,0.0,0.0,0.0,0.0,0.0,0.0,0.0,0.0,0.0,0.0,0.0,True,0,2.889549732208252,0.034924072265625
STABILIZE,2.8016018867492676,29.93857113285795,0.03244522412618001,0.03258180618286133,0.0,0.0,0.0,2.078005654027278,0.4594777644416004,12.115992313962872,-0.0007466140013750683,-0.009107850427381341,-0.031350240205399074,0.4,-0.12326281911606556,0.021688876068817843,0.7698336910838992,-0.06270048041079815,-0.790739431977272,-0.07993624894879758,1.7067600041627884,0.5790128517451406,-4.739759117364883,-3.421802818775177,18.775828182697296,0.0,0.0,0.0,0.0,0.0,0.0,0.0,0.0,0.0,0.0,0.0,0.0,0.0,0.0,0.0,0.0,True,0,2.918250560760498,0.034923828125
STABILIZE,2.835641384124756,29.377842839232056,0.032503636678059895,0.03322339057922363,0.0,0.0,0.0,2.0778417294871976,0.4592404153679424,12.111720030637029,-0.0016169388017765317,-0.004602747490203506,-0.03388589952794029,0.4,-0.11883636801481763,0.02200413525567108,0.7626601033875559,-0.06777179905588059,0.06836794782429934,0.08898683008737862,1.0312486439943314,-0.44602893520286013,17.05198734998703,8.328551054000854,16.08535200357437,0.0,0.0,0.0,0.0,0.0,0.0,0.0,0.0,0.0,0.0,0.0,0.0,0.0,0.0,0.0,0.0,True,0,2.9469106197357178,0.02993505859375
STABILIZE,2.8691320419311523,29.858010322121373,0.032500298817952473,0.03263139724731445,0.0,0.0,0.0,2.079291437138533,0.4590292664730538,12.105527610380765,-0.0016567921599989544,-0.004108656874663873,-0.036319641273706925,0.4,-0.11366779651424706,0.022391590208866163,0.752028685797357,-0.07263928254741385,0.06836794782429934,0.08898683008737862,1.0312486439943314,-0.44602893520286013,17.05198734998703,8.328551054000854,16.08535200357437,0.0,0.0,0.0,0.0,0.0,0.0,0.0,0.0,0.0,0.0,0.0,0.0,0.0,0.0,0.0,0.0,True,0,2.977332830429077,0.02993505859375
STABILIZE,2.902580976486206,29.89631847179158,0.03246954282124837,0.03259396553039551,0.0,0.0,0.0,2.0775068367744556,0.45979312708218456,12.115442483734686,-0.0008647989087490448,-0.0016199951603907995,-0.03633624252477305,0.4,-0.10209014607228473,0.020402197809508155,0.7505010495881107,-0.0726724850495461,0.4607892129570246,-0.05584360333159566,1.5470972284674644,-0.15682642606792893,-10.563775151968002,-9.253577888011932,17.09921807050705,0.0,0.0,0.0,0.0,0.0,0.0,0.0,0.0,0.0,0.0,0.0,0.0,0.0,0.0,0.0,0.0,True,0,3.0063343048095703,0.034924072265625
STABILIZE,2.9371984004974365,28.888181774352404,0.03246572812398275,0.03375101089477539,0.0,0.0,0.0,2.0772270124618966,0.4590513045052977,12.122615036136844,-6.613146544458444e-05,-0.008145795292813689,-0.03091091853589505,0.4,-0.11110316527573312,0.016142340553697065,0.7484099706292313,-0.0618218370717901,-0.7447086274623871,-0.19321730360388756,1.2804730795323849,0.5183289688471046,-22.205662727355957,0.5851766094565392,16.9635146856308,0.0,0.0,0.0,0.0,0.0,0.0,0.0,0.0,0.0,0.0,0.0,0.0,0.0,0.0,0.0,0.0,True,0,3.0347039699554443,0.034924072265625
STABILIZE,2.9707436561584473,29.810474843460153,0.032450230916341145,0.03258538246154785,0.0,0.0,0.0,2.0796470338621966,0.4586941603169001,12.108997346479132,-0.0014183423017262468,-0.001917000880770515,-0.031437561774015084,0.4,-0.10069886118266333,0.016516564081863368,0.7493875848213861,-0.06287512354803017,0.597763154655695,-0.15138416783884168,1.477501355111599,0.10216578284206561,13.880574703216553,-10.766711086034775,20.123770833015442,0.0,0.0,0.0,0.0,0.0,0.0,0.0,0.0,0.0,0.0,0.0,0.0,0.0,0.0,0.0,0.0,True,0,3.0921430587768555,0.034924072265625
STABILIZE,3.0041303634643555,29.954821062554903,0.0323362668355306,0.03250265121459961,0.0,0.0,0.0,2.0781181387051717,0.45836017473865703,12.120165559545748,-0.00013641919679402024,-0.0003643867626589902,-0.029480389189966125,0.4,-0.08731691708868437,0.013066650803725653,0.7510209486974997,-0.05896077837993225,0.597763154655695,-0.15138416783884168,1.477501355111599,0.10216578284206561,13.880574703216553,-10.766711086034775,20.123770833015442,0.0,0.0,0.0,0.0,0.0,0.0,0.0,0.0,0.0,0.0,0.0,0.0,0.0,0.0,0.0,0.0,True,0,3.1207926273345947,0.034924072265625
STABILIZE,3.0376367568969727,29.842926870917708,0.03243759473164876,0.032602787017822266,0.0,0.0,0.0,2.0781181387051717,0.45836017473865703,12.120165559545748,-0.00035796933375460054,-0.005188330607929948,-0.025375493272613354,0.4,-0.08966531504554731,0.010658908303905588,0.7455894931998192,-0.05075098654522671,-0.34872526302933693,-0.08943700813688338,1.0576613247394562,0.35655041550707833,-15.888720750808716,0.9333631955087185,18.279609084129333,0.0,0.0,0.0,0.0,0.0,0.0,0.0,0.0,0.0,0.0,0.0,0.0,0.0,0.0,0.0,0.0,True,0,3.151207447052002,0.034924072265625
STABILIZE,3.0710792541503906,29.901220485913083,0.03243234952290853,0.03256845474243164,0.0,0.0,0.0,2.078992616362345,0.4575393780994919,12.110921752277783,-0.0035491642778600774,-0.006190374529612479,-0.027345973844791482,0.4,-0.09453350066156828,0.017944358916727444,0.746502233531164,-0.054691947689582965,-0.4905048292130232,0.4836447536945343,1.4411095529794693,-0.3678812991337328,-9.00810956954956,8.841037005186081,16.909748315811157,0.0,0.0,0.0,0.0,0.0,0.0,0.0,0.0,0.0,0.0,0.0,0.0,0.0,0.0,0.0,0.0,True,0,3.1832969188690186,0.02993505859375
STABILIZE,3.1044769287109375,29.940922005054038,0.03244736989339193,0.03258490562438965,0.0,0.0,0.0,2.0779360714751087,0.458408519671376,12.115635436578739,-0.0038488783771575773,-0.006338571795438432,-0.02928451600519008,0.4,-0.09911285085555821,0.025249815943880517,0.7439267022013168,-0.05856903201038016,-0.4905048292130232,0.4836447536945343,1.4411095529794693,-0.3678812991337328,-9.00810956954956,8.841037005186081,16.909748315811157,0.0,0.0,0.0,0.0,0.0,0.0,0.0,0.0,0.0,0.0,0.0,0.0,0.0,0.0,0.0,0.0,True,0,3.2120184898376465,0.02993505859375
STABILIZE,3.138453245162964,29.43453851336178,0.03251198132832845,0.033090829849243164,0.0,0.0,0.0,2.0785354205747772,0.45758633565003576,12.114557120463523,-0.0013629155424695362,-0.003497503561008047,-0.028293970722435603,0.4,-0.09482047540032647,0.024353148185783328,0.7442652638169436,-0.056587941444871205,0.04506085824687034,-0.006682265666313469,1.598009467124939,-0.014443902423446457,-13.924066722393036,9.339381754398346,27.771198749542236,0.0,0.0,0.0,0.0,0.0,0.0,0.0,0.0,0.0,0.0,0.0,0.0,0.0,0.0,0.0,0.0,True,0,3.2406320571899414,0.06984814453125
STABILIZE,3.172868013381958,29.054877457432216,0.032433541615804036,0.03363513946533203,0.0,0.0,0.0,2.0779687283170776,0.45667824065554136,12.113976554384072,-0.004472703746231095,-0.009706494328851843,-0.030210546809020584,0.4,-0.10935140764568943,0.03295133311698184,0.7842524297610763,-0.06042109361804117,-0.5214804783463478,0.25234411004930735,1.8543893471360207,-0.1911487669774777,-12.919588387012482,-2.4327801540493965,26.091045141220093,0.0,0.0,0.0,0.0,0.0,0.0,0.0,0.0,0.0,0.0,0.0,0.0,0.0,0.0,0.0,0.0,True,0,3.2982845306396484,0.034923583984375
STABILIZE,3.2150208950042725,23.72437822764476,0.03255322774251302,0.04132509231567383,0.0,0.0,0.0,2.077166181089601,0.4572680915233954,12.113896299661324,-0.00181028906339336,-0.004778913950494768,-0.026897537032470657,0.4,-0.10681989263953406,0.032348971092796344,0.7810626729825418,-0.053795074064941314,-0.05693939165212214,0.01123468391597271,1.3160262256860733,0.24220339048669165,13.677345216274261,-4.620351642370224,15.727397799491882,0.0,0.0,0.0,0.0,0.0,0.0,0.0,0.0,0.0,0.0,0.0,0.0,0.0,0.0,0.0,0.0,True,0,3.3270256519317627,0.02993408203125
STABILIZE,3.248584747314453,29.796709385922536,0.03248766263326009,0.032616376876831055,0.0,0.0,0.0,2.078259011356803,0.4573047504293314,12.115814729044452,-0.0032921462943196044,-0.006087994207273865,-0.02411698937249187,0.4,-0.10883047348447762,0.03628870122933598,0.7745971573703351,-0.04823397874498374,-0.34058208111673594,0.2796637127175927,1.3383391313254833,0.1788540529454845,-11.939798295497894,-0.7737526670098305,15.517348051071167,0.0,0.0,0.0,0.0,0.0,0.0,0.0,0.0,0.0,0.0,0.0,0.0,0.0,0.0,0.0,0.0,True,0,3.3557324409484863,0.06984912109375
STABILIZE,3.2819576263427734,29.96252455620245,0.03236273129781087,0.03250527381896973,0.0,0.0,0.0,2.079080555047909,0.4576139765718331,12.11812247921027,-0.003102546518312139,-0.007355560510495767,-0.020808687014960272,0.4,-0.11416598656768714,0.03919877059690094,0.8037882566560568,-0.041617374029920544,-0.2600109204649925,0.09083524928428233,1.633954793214798,0.24409449911313894,3.7174299359321594,-2.464197389781475,21.751496195793152,0.0,0.0,0.0,0.0,0.0,0.0,0.0,0.0,0.0,0.0,0.0,0.0,0.0,0.0,0.0,0.0,True,0,3.384281873703003,0.029934814453125
STABILIZE,3.3166325092315674,28.837335936801722,0.03246000607808431,0.03390049934387207,0.0,0.0,0.0,2.0804572650524897,0.4578204830725202,12.112305719358357,-0.002321373574971249,-0.005825401856212164,-0.017329250039018435,0.4,-0.11432857660373451,0.039464787699849346,0.800277071104111,-0.03465850007803687,-0.2600109204649925,0.09083524928428233,1.633954793214798,0.24409449911313894,3.7174299359321594,-2.464197389781475,21.751496195793152,0.0,0.0,0.0,0.0,0.0,0.0,0.0,0.0,0.0,0.0,0.0,0.0,0.0,0.0,0.0,0.0,True,0,3.412994861602783,0.029934814453125
STABILIZE,3.3530681133270264,27.446579896215734,0.03255346616109212,0.03563189506530762,0.0,0.0,0.0,2.0806056082235256,0.45785788903039665,12.115419431846236,-0.0016305875706851334,-0.0024399012519571864,-0.01469531165932871,0.4,-0.10401889396929268,0.03751123078901363,0.7813920149300033,-0.02939062331865742,0.11208171490579844,-0.006779337127227336,1.1136101558804512,-0.0010384455529464747,-3.458244726061821,-4.858853667974472,12.885916233062744,0.0,0.0,0.0,0.0,0.0,0.0,0.0,0.0,0.0,0.0,0.0,0.0,0.0,0.0,0.0,0.0,True,0,3.4704713821411133,0.034924072265625
STABILIZE,3.3866708278656006,29.761612147874832,0.032512696584065755,0.03262925148010254,0.0,0.0,0.0,2.0794696623871882,0.4584063318764075,12.117225163108058,-0.0017321905102753686,-0.003165664804761615,-0.01372531501114431,0.4,-0.09795660671660777,0.03621813617710391,0.773363300232717,-0.02745063002228862,0.11208171490579844,-0.006779337127227336,1.1136101558804512,-0.0010384455529464747,-3.458244726061821,-4.858853667974472,12.885916233062744,0.0,0.0,0.0,0.0,0.0,0.0,0.0,0.0,0.0,0.0,0.0,0.0,0.0,0.0,0.0,0.0,True,0,3.4991397857666016,0.034924072265625
STABILIZE,3.420043706893921,29.96252455620245,0.032332690556844075,0.0324709415435791,0.0,0.0,0.0,2.079615657680697,0.4576619479785819,12.113440384534226,-0.0012342817447276088,-0.005344251198395178,-0.010424219381781905,0.4,-0.09899400765807788,0.033606998587982675,0.7687958988131778,-0.02084843876356381,-0.2659497316926718,-0.0768133089877665,1.2896313332021236,0.2551247210141806,-6.519678235054016,-0.7760129403322935,17.020125687122345,0.0,0.0,0.0,0.0,0.0,0.0,0.0,0.0,0.0,0.0,0.0,0.0,0.0,0.0,0.0,0.0,True,0,3.527857780456543,0.02993408203125
STABILIZE,3.4558322429656982,27.94190849255203,0.03243449529012044,0.034952640533447266,0.0,0.0,0.0,2.0803230091466163,0.45882489440648233,12.116005974341212,-0.0017790830365572896,-0.004321135819173235,-0.010291188401992531,0.4,-0.09680874314382887,0.0328574991371774,0.7696693044472642,-0.020582376803985062,-0.10976077755913138,0.032289064256474376,1.7687126994132996,-0.06920798566263846,2.3033417761325836,1.2870058417320251,17.96717196702957,0.0,0.0,0.0,0.0,0.0,0.0,0.0,0.0,0.0,0.0,0.0,0.0,0.0,0.0,0.0,0.0,True,0,3.5566065311431885,0.0399140625
STABILIZE,3.489295482635498,29.884176926584587,0.03243997891743978,0.0325777530670166,0.0,0.0,0.0,2.0805170292077273,0.4573778547977917,12.118804644353624,-0.0020974840444425366,-0.0016988850862040045,-0.005981157686063538,0.4,-0.08752721846351166,0.033176755963799924,0.7605473776671325,-0.011962315372127077,-0.1508241635747254,-0.05760234780609608,1.2142537161707878,0.2998072582754487,-4.820997640490532,-0.5980395711958408,17.9317906498909,0.0,0.0,0.0,0.0,0.0,0.0,0.0,0.0,0.0,0.0,0.0,0.0,0.0,0.0,0.0,0.0,True,0,3.613820791244507,0.02993505859375
STABILIZE,3.5228078365325928,29.839105318573747,0.032480510075887044,0.032622575759887695,0.0,0.0,0.0,2.0804485138726156,0.45595824266748686,12.11596072433796,-0.002086026485962465,-0.005687842870676526,-0.006071626048614837,0.4,-0.09099219954669807,0.03341544424282069,0.7590519373193452,-0.012143252097229674,-0.4077453166246414,0.08568204939365387,1.603107899427414,-0.07681610936673186,-3.548407182097435,3.3685848116874695,18.30870360136032,0.0,0.0,0.0,0.0,0.0,0.0,0.0,0.0,0.0,0.0,0.0,0.0,0.0,0.0,0.0,0.0,True,0,3.64264178276062,0.034924072265625
STABILIZE,3.5562682151794434,29.886306308874037,0.03243091901143392,0.03256416320800781,0.0,0.0,0.0,2.079581506734847,0.4561551975755065,12.122107040817324,-0.001317298564093866,-0.004389598641048108,-0.00440490205770247,0.4,-0.09022112872071006,0.031353091120412596,0.7582045889222617,-0.00880980411540494,-0.1495538162998855,-0.05383364041335881,1.4136276207864285,0.11179971797562231,1.8634671345353127,-2.3425983265042305,20.02093642950058,0.0,0.0,0.0,0.0,0.0,0.0,0.0,0.0,0.0,0.0,0.0,0.0,0.0,0.0,0.0,0.0,True,0,3.6713366508483887,0.034924072265625
STABILIZE,3.589669942855835,29.936861639484672,0.03241756757100423,0.032572269439697266,0.0,0.0,0.0,2.07899197603211,0.4563518323184088,12.121698083240771,-0.0019374921696668768,-0.0041531028393373874,-0.00104520958750158,0.4,-0.08886481280686868,0.031359428244366966,0.7560537527723028,-0.00209041917500316,-0.11434488696977496,0.06285923882387578,1.3376658782362938,0.30806551727094944,-10.576409101486206,5.34498356282711,15.716998279094696,0.0,0.0,0.0,0.0,0.0,0.0,0.0,0.0,0.0,0.0,0.0,0.0,0.0,0.0,0.0,0.0,True,0,3.699920415878296,0.029934814453125
STABILIZE,3.6232523918151855,29.7806305026981,0.03250149091084798,0.03261709213256836,0.0,0.0,0.0,2.0783930538192648,0.45676014956472866,12.119113710413567,-0.0025778734983343556,-0.007554548153055531,-0.00024667991498915175,0.4,-0.09743080004174176,0.03324767118784677,0.7546548791565715,-0.0004933598299783035,-0.6973959039896727,0.17806169344112277,1.5806742012500763,0.042696553038381074,-10.809531807899475,-0.5623985547572374,14.905476570129395,0.0,0.0,0.0,0.0,0.0,0.0,0.0,0.0,0.0,0.0,0.0,0.0,0.0,0.0,0.0,0.0,True,0,3.728712797164917,0.034929931640625
STABILIZE,3.6565093994140625,30.066048758808055,0.03231027921040853,0.03242158889770508,0.0,0.0,0.0,2.078171713001474,0.4575175535106596,12.121471833224515,-0.0024047615806398865,-0.002226364308830952,0.001836912501479976,0.4,-0.08949448803932934,0.03439498380721836,0.7550834918430809,0.003673825002959952,0.2715558046475053,0.12614044826477766,1.4559636823832989,0.1771306041188199,2.712221071124077,-2.208869159221649,21.15464359521866,0.0,0.0,0.0,0.0,0.0,0.0,0.0,0.0,0.0,0.0,0.0,0.0,0.0,0.0,0.0,0.0,True,0,3.7573587894439697,0.034924072265625
