Mode,Time,Freq,time2delay,actualDelay,North-Desired,East-Desired,Down-Desired,Roll-UAV,Pitch-UAV,Yaw-UAV,Roll-Control,Pitch-Control,Yaw-Control,Thrust-Control,North-Pos,East-Pos,Down-Pos,Yaw-Ang,North-Vel,East-Vel,Down-Vel,Yaw-Vel,North-Acc,East-Acc,Down-Acc,North-Avg,East-Avg,Down-Avg,Yaw-Avg,North-Dif,East-Dif,Down-Dif,Yaw-Dif,North-One,East-One,Down-One,Yaw-One,North-Two,East-Two,Down-Two,Yaw-Two,Landing-State,Q-Size,Kalman-Time,Kalman-Dt
STABILIZE,0.03432130813598633,29.14552946653788,0.032726319630940755,0.0328516960144043,-10.0,40.0,10.0,-0.5412051933681813,-1.1071502924055008,-8.406460226668294,4.007045300667969,3.9929422683523415,-0.02026771775141996,0.5186973692782312,0.04961123750226969,0.0029910411514333475,0.6636278832521055,-0.10100558106936387,-0.4779794253408909,-0.4003123380243778,1.7064707353711128,-0.3856110561564843,-40.95053970813751,-50.34455060958862,31.459766626358032,0.0,0.0,0.0,0.0,0.0,0.0,0.0,0.0,0.0,0.0,0.0,0.0,0.0,0.0,0.0,0.0,False,0,3.5340118408203125,0.02993310546875
STABILIZE,0.0676870346069336,29.97087448015663,0.03233292897542318,0.03245139122009277,-10.0,40.0,10.0,-0.5223170522704514,-1.0724600817761234,-8.397834551520214,4.0038273716943005,3.9961689626029964,-0.01107313828606413,0.5187417743560645,0.046185021500870824,-0.011817667554016914,0.6539228667395446,-0.054849323217098615,-0.09367355378344655,-0.8621640503406525,0.7977019064128399,2.638845293381719,2.2985754534602165,2.960432879626751,-25.34695267677307,0.0,0.0,0.0,0.0,0.0,0.0,0.0,0.0,0.0,0.0,0.0,0.0,0.0,0.0,0.0,0.0,False,0,3.5625722408294678,0.0349208984375
STABILIZE,0.1012120246887207,29.829131433529383,0.032440932591756184,0.03262829780578613,-10.0,40.0,10.0,-0.5231507622360162,-1.0870246064075293,-8.421297105092854,4.005655787792099,3.994336203892664,-0.01637171899264589,0.5187409327208016,0.06622071037664115,-0.0026857790832804564,0.6668531110907242,-0.0810705749618475,1.298088114708662,0.5848589353263378,1.9377300515770912,-1.6706374838369678,12.07333728671074,-21.038755774497986,33.39436054229736,0.0,0.0,0.0,0.0,0.0,0.0,0.0,0.0,0.0,0.0,0.0,0.0,0.0,0.0,0.0,0.0,False,0,3.591249942779541,0.069843017578125
STABILIZE,0.13454747200012207,29.995737681470356,0.032361539204915364,0.03249335289001465,-10.0,40.0,10.0,-0.5200769103052459,-1.0953009814125865,-8.439934983790526,4.007984016103915,3.992000015863669,-0.023129450573726153,0.5186896680194624,0.09154988737958457,0.0064560389840860495,0.70489833208595,-0.11447704535333036,1.298088114708662,0.5848589353263378,1.9377300515770912,-1.6706374838369678,12.07333728671074,-21.038755774497986,33.39436054229736,0.0,0.0,0.0,0.0,0.0,0.0,0.0,0.0,0.0,0.0,0.0,0.0,0.0,0.0,0.0,0.0,False,0,3.6200528144836426,0.069843017578125
STABILIZE,0.1679987907409668,29.893548479060353,0.032488139470418294,0.0326075553894043,-10.0,40.0,10.0,-0.5260606362658532,-1.0924682671760295,-8.42215002496546,4.007786847684015,3.7354549476635155,-0.02417470394360163,0.51869171584864,0.06532274743633971,-0.01214186167252303,0.7162926120956274,-0.1193043485788023,-1.477268896996975,-0.928178895264864,0.6317027378827333,0.017820497153092175,-40.79957902431488,-15.943557024002075,-22.924797236919403,0.0,0.0,0.0,0.0,0.0,0.0,0.0,0.0,0.0,0.0,0.0,0.0,0.0,0.0,0.0,0.0,False,0,3.6485652923583984,0.02993310546875
STABILIZE,0.20154380798339844,29.81216993268937,0.032475980122884114,0.032731056213378906,-10.0,40.0,10.0,-0.5219482220552708,-1.0894173070511495,-8.430077313270905,4.004153388659396,1.7652474912275542,-0.027294376271038683,0.5187244756451905,0.10515104559828733,0.0042894527543030705,0.7123798975773769,-0.13445150967724215,2.0735185593366623,1.0134781710803509,0.8582773618400097,-2.4019500004167584,33.25737714767456,23.86648952960968,2.010839618742466,0.0,0.0,0.0,0.0,0.0,0.0,0.0,0.0,0.0,0.0,0.0,0.0,0.0,0.0,0.0,0.0,False,0,3.706019163131714,0.02993310546875
STABILIZE,0.2350907325744629,29.80899179850184,0.032502206166585286,0.03264260292053223,-10.0,40.0,10.0,-0.5215039929549555,-1.0909584752043393,-8.44387429539433,4.00333490675688,1.7587124193127806,-0.02215906391306996,0.5187506524983806,0.0819136568020079,-0.005058922739568599,0.7117286146146419,-0.10841203427682877,-1.0217521339654922,-0.4809770733118057,1.5757868066430092,1.118359913493961,-24.90535080432892,-20.57778388261795,24.907739460468292,0.0,0.0,0.0,0.0,0.0,0.0,0.0,0.0,0.0,0.0,0.0,0.0,0.0,0.0,0.0,0.0,False,0,3.734696388244629,0.0399111328125
STABILIZE,0.26858949661254883,29.852485035693697,0.0324132760365804,0.0325624942779541,-10.0,40.0,10.0,-0.5135374844226348,-1.0831521025915436,-8.438498082743886,4.002488315070152,1.7512351130550177,-0.01678694303898261,0.5187798514319035,0.0744064041461676,-0.011895649212341139,0.7095689175529096,-0.08127934985312388,-0.26861235965043306,-0.3422379260882735,1.099197380244732,1.2627069969788949,18.505099415779114,18.570077419281006,23.55271875858307,0.0,0.0,0.0,0.0,0.0,0.0,0.0,0.0,0.0,0.0,0.0,0.0,0.0,0.0,0.0,0.0,False,0,3.763306140899658,0.029931884765625
STABILIZE,0.3021836280822754,29.768582723549827,0.03237584431966146,0.03250932693481445,-10.0,40.0,10.0,-0.5148919963124129,-1.0822979020584689,-8.41402039230585,4.002583300395711,1.73967490731777,-0.017575037546809925,0.5188606741319933,0.06789515050030862,0.007838791378629799,0.6816317232834044,-0.08493557210138267,-0.17673239344730973,1.0369913652539253,0.11453102342784405,-0.3930263737588703,8.097343146800995,24.44969117641449,17.261749505996704,0.0,0.0,0.0,0.0,0.0,0.0,0.0,0.0,0.0,0.0,0.0,0.0,0.0,0.0,0.0,0.0,False,0,3.7920148372650146,0.029932861328125
STABILIZE,0.33551573753356934,30.000243188922028,0.0322149117787679,0.03236198425292969,-10.0,40.0,10.0,-0.5175104133637608,-1.0890171006544689,-8.435509874982005,4.0027670586995985,1.7533629871319747,-0.01870001889161657,0.5189318009054406,0.06244467417639973,0.00811415506962733,0.6585610821584946,-0.0902587107782941,-0.13428406091406941,0.02326154353795573,0.30272018630057573,-0.4871134035145595,-11.026620864868164,-32.024142146110535,22.03175723552704,0.0,0.0,0.0,0.0,0.0,0.0,0.0,0.0,0.0,0.0,0.0,0.0,0.0,0.0,0.0,0.0,False,0,3.8207342624664307,0.034922119140625
STABILIZE,0.36960649490356445,29.33120742947454,0.032346518834431966,0.033229827880859375,-10.0,40.0,10.0,-0.5185972672154391,-1.0915848248955706,-8.453480956461954,4.002913403567686,1.7358758515949249,-0.01990929674796403,0.5189960969342896,0.05733945022169072,0.008489514856016279,0.6392160137881086,-0.09597692578396003,-0.13428406091406941,0.02326154353795573,0.30272018630057573,-0.4871134035145595,-11.026620864868164,-32.024142146110535,22.03175723552704,0.0,0.0,0.0,0.0,0.0,0.0,0.0,0.0,0.0,0.0,0.0,0.0,0.0,0.0,0.0,0.0,False,1,3.849612236022949,0.034922119140625
STABILIZE,0.4031240940093994,29.836770407255912,0.032480748494466145,0.03262925148010254,-10.0,40.0,10.0,-0.5182101875885697,-1.0838984074800733,-8.41736889254645,4.002264845732568,1.749472604122079,-0.01557646393326389,0.5190380307875386,0.05103579803277678,0.0011513835612089792,0.6307899626517004,-0.07406491826520133,0.3451387397944927,0.6271728780120611,1.3249815441668034,-0.3571655060583497,3.9067164063453674,30.78029453754425,32.65903294086456,0.0,0.0,0.0,0.0,0.0,0.0,0.0,0.0,0.0,0.0,0.0,0.0,0.0,0.0,0.0,0.0,False,0,3.9067351818084717,0.02993310546875
STABILIZE,0.43660426139831543,29.86779084092317,0.0324282964070638,0.03255009651184082,-10.0,40.0,10.0,-0.517835541040424,-1.0850087401070234,-8.423493864684659,4.002638403235007,1.756063858972537,-0.01800844461587269,0.5190718111637591,0.049169182687523946,0.016176438652319446,0.6264423572987856,-0.08593734378366262,0.032078460208140314,0.8404551073908806,1.2158391997218132,-0.8459872839586322,-14.359535276889801,-2.9908308759331703,11.09224408864975,0.0,0.0,0.0,0.0,0.0,0.0,0.0,0.0,0.0,0.0,0.0,0.0,0.0,0.0,0.0,0.0,False,0,3.935457468032837,0.0349208984375
STABILIZE,0.4716320037841797,28.55035430096182,0.032387526830037434,0.034102439880371094,-10.0,40.0,10.0,-0.5190990193151706,-1.0877343057509758,-8.458949376666196,4.003023391553888,1.762529425533706,-0.02050824397050795,0.5191005417349636,0.04745335821992833,0.031194309465576477,0.625208249491674,-0.09809284636509268,0.032078460208140314,0.8404551073908806,1.2158391997218132,-0.8459872839586322,-14.359535276889801,-2.9908308759331703,11.09224408864975,0.0,0.0,0.0,0.0,0.0,0.0,0.0,0.0,0.0,0.0,0.0,0.0,0.0,0.0,0.0,0.0,False,0,3.964176654815674,0.0349208984375
STABILIZE,0.5052306652069092,29.761823329477963,0.0323822816212972,0.03254199028015137,-10.0,40.0,10.0,-0.5234666584851293,-1.0880763488180054,-8.436392676932229,4.002568762145765,1.7628249522801462,-0.01761623080558841,0.519121520532193,0.03446679414223723,0.01576906763716253,0.6273065786501962,-0.08335291865821458,-0.6034370977431536,-0.8618542924523354,1.3914510607719421,0.6613246887325808,-8.652476966381073,-26.41262412071228,15.426503121852875,0.0,0.0,0.0,0.0,0.0,0.0,0.0,0.0,0.0,0.0,0.0,0.0,0.0,0.0,0.0,0.0,False,0,3.992798328399658,0.034922119140625
STABILIZE,0.5385608673095703,30.0028183723542,0.03226188023885091,0.03244757652282715,-10.0,40.0,10.0,-0.5407238251142541,-1.1047943040286696,-8.420235010676917,4.002099911088308,1.7736431342532815,-0.014539954187664166,0.5191485695116316,0.038024060568040786,0.01841246473524371,0.6263097414724463,-0.06774518710230837,0.3220169572159648,0.15941197052598,1.2074188329279423,0.7077927601728519,15.101267397403717,20.677316188812256,17.750363051891327,0.0,0.0,0.0,0.0,0.0,0.0,0.0,0.0,0.0,0.0,0.0,0.0,0.0,0.0,0.0,0.0,False,0,4.021798372268677,0.034921875
STABILIZE,0.5720264911651611,29.88140918320094,0.032448800404866536,0.03256869316101074,-10.0,40.0,10.0,-0.5496051521085333,-1.1139306425389137,-8.428149492377669,4.0024801496136995,1.7840007671040545,-0.01695006678774822,0.5191609382174548,0.04284977061462021,0.03168049926204608,0.6326551021280072,-0.07952980343694914,0.38700501900166273,0.7597122341394424,1.6123155131936073,-0.833513384182632,0.510339206084609,10.906609147787094,22.79055416584015,0.0,0.0,0.0,0.0,0.0,0.0,0.0,0.0,0.0,0.0,0.0,0.0,0.0,0.0,0.0,0.0,False,0,4.058082580566406,0.02993212890625
STABILIZE,0.6054983139038086,29.875662430907745,0.032425912221272786,0.0325474739074707,-10.0,40.0,10.0,-0.5447356541171374,-1.0984212039245187,-8.438230851592609,4.002523743997085,1.7842524681808347,-0.01728105963349348,0.5192027694469917,0.03424577329980177,0.03536596495066001,0.6242829924190553,-0.08091413586445453,-0.37840413860976696,0.24607947561889887,0.9331776760518551,-0.26161652233558685,-16.585077345371246,-9.058710932731628,9.277958422899246,0.0,0.0,0.0,0.0,0.0,0.0,0.0,0.0,0.0,0.0,0.0,0.0,0.0,0.0,0.0,0.0,False,0,4.086640357971191,0.034921875
STABILIZE,0.6389689445495605,29.879280498664293,0.032396825154622395,0.03252387046813965,-10.0,40.0,10.0,-0.5531277688121146,-1.0983090394117425,-8.437408667571267,4.00260220301815,1.7914184075212507,-0.017772382728331808,0.5192593578228153,0.0365587054538227,0.04849575972325148,0.6085506704775113,-0.08309289173136272,0.5384382326155901,0.4925185814499855,0.7357922848314047,-1.1151036208071574,-24.886226654052734,-21.32546752691269,11.354628950357437,0.0,0.0,0.0,0.0,0.0,0.0,0.0,0.0,0.0,0.0,0.0,0.0,0.0,0.0,0.0,0.0,False,0,4.144011497497559,0.034921142578125
STABILIZE,0.6724667549133301,29.85078535894498,0.03231504758199056,0.03253769874572754,-10.0,40.0,10.0,-0.551973146677265,-1.0977932534077006,-8.41456509989216,4.002096931112019,1.7998922123579826,-0.014531548217863514,0.5192834818531555,0.030520222553211136,0.04148537297758052,0.6090850925873303,-0.06666516705342272,-0.24930627550929785,-0.3781397361308336,1.2476037256419659,0.7879615719473476,-8.357666432857513,1.516361441463232,-5.430212616920471,0.0,0.0,0.0,0.0,0.0,0.0,0.0,0.0,0.0,0.0,0.0,0.0,0.0,0.0,0.0,0.0,False,0,4.1727454662323,0.029932861328125
STABILIZE,0.7064986228942871,29.384017205988467,0.03240207036336263,0.03308367729187012,-10.0,40.0,10.0,-0.5445187956109895,-1.0945596924442285,-8.416469015123301,4.002449997166889,1.8003682658313136,-0.016821922322011146,0.5192850437884907,0.02715861101465699,0.04855469213285475,0.6210605258855938,-0.07785231804275301,-0.10199930984526873,0.46875509433448315,2.061864174902439,-0.8191962404652274,14.546197652816772,16.02354347705841,29.342511296272278,0.0,0.0,0.0,0.0,0.0,0.0,0.0,0.0,0.0,0.0,0.0,0.0,0.0,0.0,0.0,0.0,False,0,4.201483249664307,0.0348427734375
STABILIZE,0.7399623394012451,29.883538171066224,0.03238800366719564,0.03253006935119629,-10.0,40.0,10.0,-0.5471218447367049,-1.0926757341720685,-8.4572401218264,4.001688136889529,1.8050801209535423,-0.01199297942667765,0.519311658768069,0.027600878101066185,0.05995011061338038,0.6203127659126103,-0.05352841251687524,0.11827886337414384,0.6962849292904139,1.140906661748886,1.2636651444534008,-25.145304203033447,-7.964378595352173,6.776934117078781,0.0,0.0,0.0,0.0,0.0,0.0,0.0,0.0,0.0,0.0,0.0,0.0,0.0,0.0,0.0,0.0,False,0,4.230143308639526,0.034921875
STABILIZE,0.7733752727508545,29.927249375668925,0.03237799008687337,0.032500267028808594,-10.0,40.0,10.0,-0.5425462583230309,-1.0955701335545673,-8.443153710436894,4.001040152777114,1.801716506149189,-0.00792067733852404,0.5193691998752445,0.006124736387777625,0.052953844874308424,0.6041087652360299,-0.03305637379837074,-1.1604161001741886,-0.3703093156218529,0.23875001352280378,1.0318262191866596,13.688014447689056,-4.340587556362152,0.315798819065094,0.0,0.0,0.0,0.0,0.0,0.0,0.0,0.0,0.0,0.0,0.0,0.0,0.0,0.0,0.0,0.0,False,0,4.258708715438843,0.029932861328125
STABILIZE,0.806934118270874,29.79903803116097,0.032416613896687825,0.032564640045166016,-10.0,40.0,10.0,-0.576942717457245,-1.114246858953144,-8.449533960895332,4.001763085379611,1.8233168040608974,-0.012415327368038338,0.5194016570023993,0.035789057305606914,0.05308979645678866,0.6004623883408549,-0.05534441436910478,1.8173282966017723,0.08468230371363461,1.127677597105503,-1.4535133473633728,37.233152985572815,9.420213848352432,14.460805058479309,0.0,0.0,0.0,0.0,0.0,0.0,0.0,0.0,0.0,0.0,0.0,0.0,0.0,0.0,0.0,0.0,False,0,4.287551641464233,0.034921142578125
STABILIZE,0.8404293060302734,29.85503491376549,0.03232291539510091,0.03248262405395508,-10.0,40.0,10.0,-0.5951930896412249,-1.1330584805878285,-8.444722092625058,4.002511012089506,1.862711285450927,-0.016823200384600463,0.5194373713693067,0.08667467307347353,0.040738888408483526,0.5951997279260678,-0.07712557094348456,1.3046874664723873,-0.7039165124297142,0.8865195326507092,-0.09551811446936559,-2.7462927624583244,-23.343151807785034,-29.877033829689026,0.0,0.0,0.0,0.0,0.0,0.0,0.0,0.0,0.0,0.0,0.0,0.0,0.0,0.0,0.0,0.0,False,0,4.345074892044067,0.029932861328125
STABILIZE,0.8737998008728027,29.965521429438954,0.03229859670003255,0.03243303298950195,-10.0,40.0,10.0,-0.610924082516822,-1.1517403286282828,-8.421583119264348,4.002943373780471,1.8765399268771983,-0.019401970608276996,0.5194775609861507,0.09910604074067084,0.026449227019171878,0.5877006882068472,-0.08971926079951784,0.8501334115862846,-0.7682787720113993,0.8693673647940159,-0.9037774611652573,-13.086801767349243,23.817196488380432,-2.564229443669319,0.0,0.0,0.0,0.0,0.0,0.0,0.0,0.0,0.0,0.0,0.0,0.0,0.0,0.0,0.0,0.0,False,0,4.373900890350342,0.034922119140625
STABILIZE,0.9133386611938477,25.292946348346792,0.03238538106282552,0.03851819038391113,-10.0,40.0,10.0,-0.6049336330887506,-1.1469257923153642,-8.418561614330264,4.00347767492514,1.882000286936821,-0.022674959984713437,0.5194809604166988,0.10051329847336007,0.02107572455177546,0.6008303265825256,-0.10566742098418454,0.14292512787505984,-0.24629579856991768,1.9171837717294693,-1.0679436191874525,-36.237508058547974,-7.597584277391434,25.18289089202881,0.0,0.0,0.0,0.0,0.0,0.0,0.0,0.0,0.0,0.0,0.0,0.0,0.0,0.0,0.0,0.0,False,0,4.40248966217041,0.034921142578125
STABILIZE,0.9467494487762451,29.92981204241533,0.03228810628255208,0.03241848945617676,-10.0,40.0,10.0,-0.6169614361345843,-1.1506276481238054,-8.453943701778222,4.0030790306997375,1.899954533214072,-0.02014238616186261,0.5195053219802319,0.10313889884758091,0.015914235740551105,0.6012236314373506,-0.09269452507974633,0.2294223988428712,-0.23325167130678892,1.1527704074978828,0.6445809602299706,-5.987851321697235,3.87047678232193,17.3021137714386,0.0,0.0,0.0,0.0,0.0,0.0,0.0,0.0,0.0,0.0,0.0,0.0,0.0,0.0,0.0,0.0,False,0,4.431086301803589,0.029932861328125
STABILIZE,0.9802920818328857,29.814077138510967,0.032335551579793294,0.03251051902770996,-10.0,40.0,10.0,-0.6202217308853547,-1.1539534166410728,-8.45558636227361,4.003004172645518,1.8931505868751857,-0.019817986461477966,0.5195285083663248,0.1064863598509486,0.02376904404305679,0.6022162821419872,-0.09076862520897928,0.344329047948122,0.5330521147698164,1.3565698638558388,-0.05757379894815311,28.653204441070557,7.968783378601074,11.944779753684998,0.0,0.0,0.0,0.0,0.0,0.0,0.0,0.0,0.0,0.0,0.0,0.0,0.0,0.0,0.0,0.0,False,1,4.459795951843262,0.034921875
STABILIZE,1.0145516395568848,29.18670062488692,0.032250197728474934,0.03326225280761719,-10.0,40.0,10.0,-0.6319845439357332,-1.167799917635981,-8.406755632349897,4.002288069957859,1.8849071459972566,-0.0156042374269941,0.5195555417416965,0.12122569203558903,0.004305306279076458,0.6016071296169245,-0.06946138838027431,0.7239663973450661,-1.567724160850048,0.8289185352623463,1.042105120279,19.681130349636078,-43.03979277610779,12.962965667247772,0.0,0.0,0.0,0.0,0.0,0.0,0.0,0.0,0.0,0.0,0.0,0.0,0.0,0.0,0.0,0.0,False,0,4.518044710159302,0.034921142578125
STABILIZE,1.048445701599121,29.50493823686654,0.0323522408803304,0.03291440010070801,-10.0,40.0,10.0,-0.5939566653188938,-1.1338010502166558,-8.426548666790948,4.0032199135808995,1.8801502072533358,-0.021367443798939508,0.5195793572570728,0.11816809223667145,-0.0012705789160811815,0.6024348608337537,-0.09794558298563388,-0.07086896803230047,-0.26002521626651287,1.165391132235527,-1.8402892442580352,-23.13583940267563,29.389643669128418,18.73503178358078,0.0,0.0,0.0,0.0,0.0,0.0,0.0,0.0,0.0,0.0,0.0,0.0,0.0,0.0,0.0,0.0,False,0,4.546720266342163,0.029932861328125
STABILIZE,1.0853044986724854,27.13038978512012,0.03234270413716634,0.03589582443237305,-10.0,40.0,10.0,-0.6078285660797782,-1.1480962092626694,-8.487435534373379,4.003969831583154,1.8750319926601042,-0.02607443866656785,0.5196154505926847,0.1040509088924472,0.03743871286304712,0.598258723842384,-0.12103414855813424,-0.6601993925869465,2.3618077859282494,1.0382507927715778,-1.5588647464425882,-24.35329109430313,52.77681350708008,0.2535383217036724,0.0,0.0,0.0,0.0,0.0,0.0,0.0,0.0,0.0,0.0,0.0,0.0,0.0,0.0,0.0,0.0,False,0,4.575277090072632,0.0349208984375
STABILIZE,1.1221916675567627,27.1095225476192,0.03235677083333333,0.036005258560180664,-10.0,40.0,10.0,-0.6638940137992692,-1.183024622739351,-8.37854097466222,4.001637331362541,1.8751551921710943,-0.011901044325967263,0.5196361903810989,0.08883468787181883,0.006133416538014171,0.6017786360298333,-0.049982501679755056,-0.7694406434893608,-1.8258020281791687,1.3121386989951134,4.106145377584762,50.43520927429199,-53.73013615608215,26.253172755241394,0.0,0.0,0.0,0.0,0.0,0.0,0.0,0.0,0.0,0.0,0.0,0.0,0.0,0.0,0.0,0.0,False,0,4.60403037071228,0.03492236328125
STABILIZE,1.1556353569030762,29.901007321437483,0.03243568738301595,0.032556772232055664,-10.0,40.0,10.0,-0.6785087509932453,-1.1914404830138645,-8.409573085382528,4.004242264178328,1.90159203146159,-0.027494313034940994,0.5196721465033167,0.132580498347781,-0.004560545319996738,0.5963760351078512,-0.1275225058152616,0.3934411332011223,-0.24893332738429308,1.1512832716107368,-2.1145862262311623,-59.43073034286499,-77.23918557167053,58.39692950248718,0.0,0.0,0.0,0.0,0.0,0.0,0.0,0.0,0.0,0.0,0.0,0.0,0.0,0.0,0.0,0.0,False,0,4.661420106887817,0.0349208984375
STABILIZE,1.1891920566558838,29.802849326748856,0.032433303197224934,0.032575368881225586,-10.0,40.0,10.0,-0.6755949816211473,-1.1915147613210884,-8.389646008479014,4.002307074777773,1.886834101296419,-0.016029926668141743,0.5197323826429266,0.10635396505227837,-0.03570920158305788,0.5788789266772801,-0.0699662490744397,-1.42991803586483,-1.8069267272949219,0.046787745668552816,3.313114524612796,-24.716567993164062,7.360249757766724,-11.747628450393677,0.0,0.0,0.0,0.0,0.0,0.0,0.0,0.0,0.0,0.0,0.0,0.0,0.0,0.0,0.0,0.0,False,0,4.691481828689575,0.034922119140625
STABILIZE,1.2225797176361084,29.94840450978572,0.032324822743733723,0.03246140480041504,-10.0,40.0,10.0,-0.6493461911148181,-1.1769234495415313,-8.419726161583752,4.005029976697639,1.8861679870880816,-0.0326115565592398,0.5197390913094725,0.10415960204796688,0.02606523533285874,0.5881189048524796,-0.15236468948937587,0.03418083069846034,3.7393875420093536,1.6547486186027527,-5.074262793844716,4.873283952474594,120.62808275222778,42.84967482089996,0.0,0.0,0.0,0.0,0.0,0.0,0.0,0.0,0.0,0.0,0.0,0.0,0.0,0.0,0.0,0.0,False,0,4.719436883926392,0.034921142578125
STABILIZE,1.2560901641845703,29.841440595362602,0.03240540822347005,0.03254532814025879,-10.0,40.0,10.0,-0.6048613291330837,-1.1550717533959565,-8.52256661236934,4.0078143917162485,1.890036637456684,-0.04946880577937535,0.5197454803265139,0.10186500490901214,0.0888739063749667,0.5975093702144467,-0.2358616996718359,0.03418083069846034,3.7393875420093536,1.6547486186027527,-5.074262793844716,4.873283952474594,120.62808275222778,42.84967482089996,0.0,0.0,0.0,0.0,0.0,0.0,0.0,0.0,0.0,0.0,0.0,0.0,0.0,0.0,0.0,0.0,False,0,4.747993469238281,0.034921142578125
STABILIZE,1.2895276546478271,29.90719032543282,0.03234747250874837,0.03251457214355469,-10.0,40.0,10.0,-0.6195630978781245,-1.15041046945254,-8.50021311076318,4.005816591801467,1.867576501049537,-0.037986781365551864,0.5197952857692625,0.04302855467239605,0.0820173580016837,0.5852036939922064,-0.1778566448731,-3.302033245563507,-0.41693970561027527,0.3670355072245002,3.325358919360513,-53.991931676864624,-115.32267332077026,2.538176439702511,0.0,0.0,0.0,0.0,0.0,0.0,0.0,0.0,0.0,0.0,0.0,0.0,0.0,0.0,0.0,0.0,False,0,4.776674270629883,0.0299326171875
STABILIZE,1.3229198455810547,29.945197264146902,0.032390864690144856,0.03251361846923828,-10.0,40.0,10.0,-0.6384340567812236,-1.1647869504383592,-8.474061170204848,4.006156299740995,1.8500083667524334,-0.04053892713508543,0.5198050316630842,0.04176430505274335,0.0836490180266145,0.5929095869650406,-0.18998227918947697,0.10797932045534253,0.17079979879781604,1.7220618203282356,-0.9878077844200431,93.05247068405151,37.47074902057648,51.13350749015808,0.0,0.0,0.0,0.0,0.0,0.0,0.0,0.0,0.0,0.0,0.0,0.0,0.0,0.0,0.0,0.0,False,0,4.80585503578186,0.03492236328125
STABILIZE,1.3566324710845947,29.66520496788978,0.032445700963338216,0.03257894515991211,-10.0,40.0,10.0,-0.6652909475670954,-1.1872309520510211,-8.487528595700821,4.0072654271001795,1.8571768744388755,-0.04733346596396663,0.5198798447778322,0.029314089277835846,0.08305739242995976,0.5681254441101607,-0.22320819010355789,-0.47140447422862053,-0.14666825300082564,-1.0268893092870712,-1.3467713644578252,-12.575578689575195,-53.23706865310669,-61.805468797683716,0.0,0.0,0.0,0.0,0.0,0.0,0.0,0.0,0.0,0.0,0.0,0.0,0.0,0.0,0.0,0.0,False,0,4.862759828567505,0.0349208984375
STABILIZE,1.3899250030517578,30.03504550760131,0.03217008908589681,0.03232240676879883,-10.0,40.0,10.0,-0.6186427298874653,-1.140334126157773,-8.566266162679081,4.007525683230923,1.859299131881378,-0.04902798943192303,0.5198795299001573,0.02402994446449889,0.0683629035495889,0.5808982646435162,-0.2309076476999598,-0.13898489996790886,-0.8138034492731094,1.8589356914162636,-0.6581147666269392,-22.330978512763977,12.206284701824188,-12.203146517276764,0.0,0.0,0.0,0.0,0.0,0.0,0.0,0.0,0.0,0.0,0.0,0.0,0.0,0.0,0.0,0.0,False,0,4.891406059265137,0.029932861328125
STABILIZE,1.4236185550689697,29.68241971324643,0.032363208134969075,0.032502174377441406,-10.0,40.0,10.0,-0.5620658183930167,-1.10886274889647,-8.59859600934169,4.006656084129361,1.8624590200936826,-0.04378001107385068,0.5198887981032682,0.016523585631681464,0.10428222613386406,0.5888862579100487,-0.20398380314481354,-0.3114034188911319,2.250947244465351,1.7275679856538773,1.262881807132965,-89.90098834037781,68.43395829200745,-26.692840456962585,0.0,0.0,0.0,0.0,0.0,0.0,0.0,0.0,0.0,0.0,0.0,0.0,0.0,0.0,0.0,0.0,False,0,4.92026686668396,0.034922119140625
STABILIZE,1.461435079574585,26.440799344386306,0.032123597462972005,0.03693842887878418,-10.0,40.0,10.0,-0.5519674904268587,-1.0551031837129459,-8.116464054887892,4.004235363099148,1.8816363442336952,-0.028813028024365608,0.5198977632419723,-0.01722149795317371,0.07103206193669892,0.5987106338630607,-0.12865940104562318,-1.8515059724450111,-1.9198330119252205,1.6564011573791504,4.228389115141889,-37.27492094039917,-95.84800004959106,-12.3812735080719,0.0,0.0,0.0,0.0,0.0,0.0,0.0,0.0,0.0,0.0,0.0,0.0,0.0,0.0,0.0,0.0,False,0,4.948709011077881,0.034921142578125
STABILIZE,1.494899034500122,29.883112349223765,0.032451661427815755,0.032593727111816406,-10.0,40.0,10.0,-0.5525366906446441,-1.0662368189468898,-7.953745043196093,4.007615189064865,1.7590347653571443,-0.052613006661295494,0.5199501792197687,-0.20211922818475006,0.16793985936586292,0.5851015327709966,-0.2468335211614665,-10.7964888215065,5.832140147686005,0.2654740121215582,-7.305853789096194,-330.10857105255127,274.3306875228882,-52.26055383682251,0.0,0.0,0.0,0.0,0.0,0.0,0.0,0.0,0.0,0.0,0.0,0.0,0.0,0.0,0.0,0.0,False,0,4.977583885192871,0.0299326171875
STABILIZE,1.5283794403076172,29.869279742490495,0.03244617780049642,0.03257489204406738,-10.0,40.0,10.0,-0.5384505994202563,-1.164943724624152,-8.219656260415737,4.003573882875084,1.804884657745626,-0.0259628857609752,0.5200776699911809,-0.16261126915898758,0.2234635839450954,0.5340180678584803,-0.11320435462003663,0.33591759856790304,-4.254519566893578,-1.5217864885926247,6.055498015292503,100.30879974365234,-436.9741439819336,87.30696439743042,0.0,0.0,0.0,0.0,0.0,0.0,0.0,0.0,0.0,0.0,0.0,0.0,0.0,0.0,0.0,0.0,False,0,5.034999847412109,0.029931884765625
STABILIZE,1.5618877410888672,29.844838014188433,0.03241470654805501,0.03254222869873047,-10.0,40.0,10.0,-0.6372470446086693,-1.1673607578166905,-8.308245521498096,4.0013365670134435,1.8819943260199261,-0.01148122439730738,0.5199272588301871,-0.06306653330271167,0.024029965610587872,0.6217735516074252,-0.04066002013119939,5.850663408637047,-11.58975139260292,6.444972008466721,3.9726173137451286,-89.63408470153809,-243.6095952987671,149.52237606048584,0.0,0.0,0.0,0.0,0.0,0.0,0.0,0.0,0.0,0.0,0.0,0.0,0.0,0.0,0.0,0.0,False,0,5.063735485076904,0.029932861328125
STABILIZE,1.5953052043914795,29.923192717362614,0.03233388264973958,0.03246283531188965,-10.0,40.0,10.0,-0.5432935237069126,-1.1237963171864682,-8.199594287276117,3.9989176054252353,1.8566206555060427,0.003357928614612575,0.5199182716412356,-0.12333771587004616,0.07974877144243597,0.6387894578459824,0.0334239684249544,-3.6673441529273987,3.5485967993736267,2.2649571299552917,4.14680848192161,-216.34628772735596,495.0298309326172,-45.70050537586212,0.0,0.0,0.0,0.0,0.0,0.0,0.0,0.0,0.0,0.0,0.0,0.0,0.0,0.0,0.0,0.0,False,0,5.092463731765747,0.034922119140625
STABILIZE,1.6287474632263184,29.900367846245974,0.03238037427266439,0.0325014591217041,-10.0,40.0,10.0,-0.5279263451263244,-1.1021504872113457,-8.336262103699841,4.006934583527901,1.7466666695778068,-0.04876805466283762,0.5199746757489244,-0.2942992667179358,0.17495557456012517,0.6231306622349554,-0.22644865789822982,-10.19454151391983,5.893578380346298,0.08777049370110035,-15.923090238456496,-293.7882661819458,-125.28858184814453,-161.07540130615234,0.0,0.0,0.0,0.0,0.0,0.0,0.0,0.0,0.0,0.0,0.0,0.0,0.0,0.0,0.0,0.0,False,0,5.121179580688477,0.034921142578125
STABILIZE,1.6621685028076172,29.92212535848303,0.03237965901692708,0.03251194953918457,-10.0,40.0,10.0,-0.5124525515616606,-1.1010079246292495,-8.41963310025631,4.014788243054844,1.7094111389331328,-0.10195468211743978,0.5200322910307329,-0.46700811163286204,0.2715448091912679,0.6068916749120289,-0.49074018114906953,-10.19454151391983,5.893578380346298,0.08777049370110035,-15.923090238456496,-293.7882661819458,-125.28858184814453,-161.07540130615234,0.0,0.0,0.0,0.0,0.0,0.0,0.0,0.0,0.0,0.0,0.0,0.0,0.0,0.0,0.0,0.0,False,0,5.150835275650024,0.034921142578125
STABILIZE,1.6956915855407715,29.830828645192494,0.032407553990681966,0.03256797790527344,-10.0,40.0,10.0,-0.5459783750201095,-1.1016989476741843,-8.25819645658118,4.009649225648946,1.6913106190690854,-0.06896465335639348,0.5198464571979443,-0.4910843990333904,0.21441172859303842,0.7122454857146148,-0.3247030422460861,-1.3286590576171875,-3.272707015275955,7.32518807053566,9.767436890495864,-82.05165266990662,-8.600525557994843,-222.07822799682617,0.0,0.0,0.0,0.0,0.0,0.0,0.0,0.0,0.0,0.0,0.0,0.0,0.0,0.0,0.0,0.0,False,0,5.178616762161255,0.0299326171875
STABILIZE,1.729156494140625,29.883538171066224,0.03234866460164388,0.03247666358947754,-10.0,40.0,10.0,-0.5691569421336651,-1.074598571316572,-8.272206028342524,4.0142621638632985,1.6534480811555317,-0.10218211978340114,0.5196947070875217,-0.4656660998932014,0.2545241698199758,0.8004352201743045,-0.4891534036619869,-0.15832327771931887,1.837448589503765,3.355378657579422,-7.346522442961742,-85.18458604812622,-75.41172504425049,103.40545177459717,0.0,0.0,0.0,0.0,0.0,0.0,0.0,0.0,0.0,0.0,0.0,0.0,0.0,0.0,0.0,0.0,False,0,5.235861539840698,0.034921142578125
STABILIZE,1.7625031471252441,29.985873201978894,0.03233149846394857,0.032456398010253906,-10.0,40.0,10.0,-0.5517147734275681,-1.1152491892138434,-8.33386385352752,4.007224743073775,1.709193477618888,-0.052712692282183546,0.5197730425404649,-0.45833487966948155,0.20857454051318608,0.7735982116841792,-0.24100104544451267,0.2537882886826992,-2.5189680978655815,-0.5540884099900723,14.491600409185006,-49.26665127277374,-78.24299931526184,-121.49178981781006,0.0,0.0,0.0,0.0,0.0,0.0,0.0,0.0,0.0,0.0,0.0,0.0,0.0,0.0,0.0,0.0,False,0,5.264581203460693,0.0299326171875
STABILIZE,1.7960119247436523,29.8422898775516,0.03242472012837728,0.03256487846374512,-10.0,40.0,10.0,-0.5464489643817528,-1.0996807334961514,-8.349218972555356,3.9997068328411722,1.8219604623470071,-0.0026621219808894976,0.5198632871016775,-0.4449242539291682,0.16065515204176056,0.7408689338442018,0.009220951310501158,0.2537882886826992,-2.5189680978655815,-0.5540884099900723,14.491600409185006,-49.26665127277374,-78.24299931526184,-121.49178981781006,0.0,0.0,0.0,0.0,0.0,0.0,0.0,0.0,0.0,0.0,0.0,0.0,0.0,0.0,0.0,0.0,False,0,5.293869256973267,0.0299326171875
STABILIZE,1.829439640045166,29.915509432616524,0.032395156224568684,0.032518625259399414,-10.0,40.0,10.0,-0.5469462341698414,-1.0919475719735219,-8.313715649249628,4.000712517397195,1.8929840991305174,-0.008832233071742815,0.5198387649671941,-0.46684994983032496,0.14369342909453175,0.7654838049903236,-0.02155750583505856,-1.898425817489624,-0.6849023979157209,2.8922701254487038,-2.2956982970275708,-4.994212836027145,81.61556720733643,0.8675571531057358,0.0,0.0,0.0,0.0,0.0,0.0,0.0,0.0,0.0,0.0,0.0,0.0,0.0,0.0,0.0,0.0,False,0,5.322588920593262,0.03492236328125
STABILIZE,1.8629193305969238,29.87013061003575,0.03240779240926107,0.03254413604736328,-10.0,40.0,10.0,-0.5410827302107971,-1.0976327439622053,-8.359593176130959,4.00030202205969,1.936709033554652,-0.0063134305692788915,0.5198344212701677,-0.42592498103687937,0.20028699915659012,0.7799921586319286,-0.00893361007091553,2.135608345270157,3.7151869386434555,1.9942162558436394,0.23534942905671608,47.37443029880524,70.02869844436646,-0.7200145162642002,0.0,0.0,0.0,0.0,0.0,0.0,0.0,0.0,0.0,0.0,0.0,0.0,0.0,0.0,0.0,0.0,False,0,5.351433277130127,0.0349208984375
STABILIZE,1.8963243961334229,29.933443238344,0.0323827584584554,0.032509803771972656,-10.0,40.0,10.0,-0.5388156943757346,-1.0932126510738551,-8.355185142795362,4.002971705582223,1.9289008784904211,-0.022211745864630334,0.5198556550848739,-0.4181074697276532,0.20962910446676133,0.7817061224236204,-0.08813046676437208,0.045473274076357484,0.8272879756987095,1.2541833333671093,-5.221960938891188,3.6763574928045273,-22.18058407306671,5.546180903911591,0.0,0.0,0.0,0.0,0.0,0.0,0.0,0.0,0.0,0.0,0.0,0.0,0.0,0.0,0.0,0.0,False,0,5.379876613616943,0.029932861328125
STABILIZE,1.9322113990783691,27.86690762198363,0.032393725713094075,0.03501176834106445,-10.0,40.0,10.0,-0.5497760135594895,-1.1027575202738307,-8.329839164559091,3.9999074099024465,1.9363914705302623,-0.004035728835673836,0.519928331799942,-0.4189302026271126,0.1929512208858209,0.758643771380318,0.002739778559005168,2.146691456437111,1.7179343849420547,0.8772452361881733,0.236212807656488,56.03483319282532,36.67589724063873,-12.999939918518066,0.0,0.0,0.0,0.0,0.0,0.0,0.0,0.0,0.0,0.0,0.0,0.0,0.0,0.0,0.0,0.0,False,0,5.438352346420288,0.039909912109375
STABILIZE,1.965747594833374,29.817680304269008,0.0324740727742513,0.032602787017822266,-10.0,40.0,10.0,-0.5485833451365288,-1.0990953649399402,-8.362021308380898,4.000297696889875,1.926382044252928,-0.006360187860606984,0.5199344830346283,-0.4306457508147901,0.18539752706607698,0.7679282845365467,-0.008852885399923568,-1.0592613369226456,-0.22310037165880203,1.537174079567194,-1.135833351659852,-52.65641212463379,-74.81796741485596,27.647051215171814,0.0,0.0,0.0,0.0,0.0,0.0,0.0,0.0,0.0,0.0,0.0,0.0,0.0,0.0,0.0,0.0,False,0,5.465923309326172,0.02993310546875
STABILIZE,1.999187707901001,29.903991900697996,0.032390626271565755,0.03252291679382324,-10.0,40.0,10.0,-0.5450955730698853,-1.0972682893369616,-8.362496006528215,4.000817978863342,1.9373535776077988,-0.00944190246202074,0.5199589547676472,-0.4356530866872688,0.17543726689738642,0.7680446449748819,-0.024180575229626897,-1.0592613369226456,-0.22310037165880203,1.537174079567194,-1.135833351659852,-52.65641212463379,-74.81796741485596,27.647051215171814,0.0,0.0,0.0,0.0,0.0,0.0,0.0,0.0,0.0,0.0,0.0,0.0,0.0,0.0,0.0,0.0,False,0,5.49468469619751,0.02993310546875
STABILIZE,2.0326499938964844,29.885028643087182,0.03239897092183431,0.03253483772277832,-10.0,40.0,10.0,-0.5387481928968278,-1.0974590010251932,-8.323104598037459,4.000048201797076,1.9217951934605217,-0.004894155902806288,0.5200068158468883,-0.43930645554065273,0.13982877793372722,0.7564826835749582,-0.001437035258323064,-0.9855951182544231,-1.7807075753808022,0.8253558538854122,1.1616552019822026,-49.15413856506348,-36.420390009880066,1.7779204994440079,0.0,0.0,0.0,0.0,0.0,0.0,0.0,0.0,0.0,0.0,0.0,0.0,0.0,0.0,0.0,0.0,False,0,5.523225545883179,0.02993310546875
STABILIZE,2.0660572052001953,29.933229614193344,0.032395394643147786,0.032518625259399414,-10.0,40.0,10.0,-0.5417462190556404,-1.100412844397812,-8.338072957603542,4.000675861312964,1.9339373318710589,-0.008623366578989187,0.5200614231464034,-0.42022527829431083,0.1604504001320949,0.7415606918392019,-0.020016167710329703,0.3902505151927471,1.6061635687947273,0.6040826439857483,-1.3192668330004185,27.796080708503723,59.57551598548889,-14.691852033138275,0.0,0.0,0.0,0.0,0.0,0.0,0.0,0.0,0.0,0.0,0.0,0.0,0.0,0.0,0.0,0.0,False,0,5.552047967910767,0.039909912109375
STABILIZE,2.099402666091919,29.988017102083422,0.032433303197224934,0.032547950744628906,-10.0,40.0,10.0,-0.5434659859834555,-1.101543347427155,-8.368841252267156,4.00124143104385,1.9457176259852833,-0.011951078598783842,0.5200535826496526,-0.40826561611935547,0.16504805226948593,0.7578374813504953,-0.03653261980198448,0.25599196087569,0.5449009593576193,2.0198628306388855,-1.248658151629825,-23.485808074474335,-24.1502046585083,15.370984375476837,0.0,0.0,0.0,0.0,0.0,0.0,0.0,0.0,0.0,0.0,0.0,0.0,0.0,0.0,0.0,0.0,False,0,5.581327676773071,0.02993310546875
STABILIZE,2.1330106258392334,29.755911377228518,0.032527955373128255,0.032656192779541016,-10.0,40.0,10.0,-0.5457860625062914,-1.1004732488832845,-8.348000637562155,4.000402088620141,1.9718315513908953,-0.006988598320350828,0.5201065604223202,-0.38673773805622885,0.13303482284021562,0.7437387276911388,-0.011681128455707488,0.7965271361172199,0.17931116744875908,1.3129819184541702,1.3302334487648144,31.119325757026672,38.9415979385376,36.35254204273224,0.0,0.0,0.0,0.0,0.0,0.0,0.0,0.0,0.0,0.0,0.0,0.0,0.0,0.0,0.0,0.0,False,0,5.638652563095093,0.034921142578125
STABILIZE,2.166426420211792,29.925754689384046,0.03235462506612142,0.03248262405395508,-10.0,40.0,10.0,-0.5452017611671379,-1.0966688335155874,-8.329942471170288,4.000969190499685,1.9851359336240333,-0.010262956197876275,0.5201424315742467,-0.3756064276980719,0.14339266719089647,0.7381930232130998,-0.027959411921278952,0.004001417255494744,0.9408893063664436,0.9508710354566574,-1.1611718593767184,5.558374896645546,10.334862768650055,3.424454852938652,0.0,0.0,0.0,0.0,0.0,0.0,0.0,0.0,0.0,0.0,0.0,0.0,0.0,0.0,0.0,0.0,False,0,5.667348861694336,0.034921875
STABILIZE,2.1998744010925293,29.897383990305794,0.032395156224568684,0.032540321350097656,-10.0,40.0,10.0,-0.5406561101919357,-1.1032292302133846,-8.369964818385624,4.0015044634688035,1.9922331602013057,-0.013346999574105557,0.5201710280090137,-0.3731610851834964,0.12759871603795322,0.7362928733357215,-0.04323497017076955,-0.5357139278203249,-0.6487516220659018,1.1890428140759468,-1.065786560070198,-33.251217007637024,-38.7581467628479,12.294237315654755,0.0,0.0,0.0,0.0,0.0,0.0,0.0,0.0,0.0,0.0,0.0,0.0,0.0,0.0,0.0,0.0,False,0,5.6960999965667725,0.029903564453125
STABILIZE,2.2333052158355713,29.912522554004806,0.032412322362264,0.03253674507141113,-10.0,40.0,10.0,-0.5419488835749193,-1.1035743682098818,-8.367232742717619,4.002041524613073,1.9895724691501853,-0.01648556536517559,0.5202070514841006,-0.3689640280426008,0.11158149288896696,0.73068238053635,-0.05873136018591886,-0.5357139278203249,-0.6487516220659018,1.1890428140759468,-1.065786560070198,-33.251217007637024,-38.7581467628479,12.294237315654755,0.0,0.0,0.0,0.0,0.0,0.0,0.0,0.0,0.0,0.0,0.0,0.0,0.0,0.0,0.0,0.0,False,0,5.724857568740845,0.029903564453125
STABILIZE,2.2666983604431152,29.945838658318042,0.03241852124532064,0.032534122467041016,-10.0,40.0,10.0,-0.5466828983608257,-1.1007648125834792,-8.335589330066595,4.000913394449243,1.995756813961429,-0.009998899927438262,0.5202542750646462,-0.3615553920160334,0.09988656948111303,0.7194765603702474,-0.026210439358447038,-0.3284937236458063,-0.4040841944515705,0.8300741203129292,1.861292289399236,19.31554824113846,4.58502322435379,22.315795719623566,0.0,0.0,0.0,0.0,0.0,0.0,0.0,0.0,0.0,0.0,0.0,0.0,0.0,0.0,0.0,0.0,False,0,5.753569841384888,0.034921142578125
STABILIZE,2.300220251083374,29.830828645192494,0.03246501286824544,0.03260159492492676,-10.0,40.0,10.0,-0.5455382547054668,-1.1036537691589832,-8.360884935657737,4.001785724926239,2.006890664523119,-0.014978198675578926,0.5202920077230527,-0.333316681899174,0.1073072018928837,0.7130426925062371,-0.05093646133822338,1.0411905124783516,0.753794563934207,0.9028639644384384,-1.634201306101006,21.046267449855804,27.54633128643036,5.1979683339595795,0.0,0.0,0.0,0.0,0.0,0.0,0.0,0.0,0.0,0.0,0.0,0.0,0.0,0.0,0.0,0.0,False,0,5.7822465896606445,0.034921875
STABILIZE,2.3336334228515625,29.928103549155882,0.03239920934041341,0.032523393630981445,-10.0,40.0,10.0,-0.5436262286246863,-1.1039889820368427,-8.37542982349528,4.001679680532473,2.012052141675694,-0.014381153125587534,0.5203363621779331,-0.3249672669529033,0.08194093024020288,0.70329962095612,-0.047791433307594736,0.009204406524077058,-0.727491732686758,0.544028403237462,1.6196033775756902,-5.351271480321884,-7.844295352697372,12.102344632148743,0.0,0.0,0.0,0.0,0.0,0.0,0.0,0.0,0.0,0.0,0.0,0.0,0.0,0.0,0.0,0.0,False,0,5.839479923248291,0.0349208984375
STABILIZE,2.367097854614258,29.883538171066224,0.03243258794148763,0.03255915641784668,-10.0,40.0,10.0,-0.5477717265640609,-1.1013765414010186,-8.344193660873518,4.001729115194303,2.022866190203419,-0.014642451749047311,0.5203680606517705,-0.3138567234300415,0.0847300884300557,0.6998950359054404,-0.04893422681625671,-0.0036356999771669507,0.4474351182579994,1.0923665016889572,-0.17861705071737036,12.990926206111908,21.461012959480286,15.64900279045105,0.0,0.0,0.0,0.0,0.0,0.0,0.0,0.0,0.0,0.0,0.0,0.0,0.0,0.0,0.0,0.0,False,0,5.868165016174316,0.034922119140625
STABILIZE,2.4005815982818604,29.865451438336656,0.03241017659505208,0.03253531455993652,-10.0,40.0,10.0,-0.5482354857365342,-1.1043566383132597,-8.35154123687316,4.0020182884748365,2.0271389884973927,-0.016291647489142025,0.5203932356736843,-0.3107973076306657,0.08110670707735158,0.6997443959175024,-0.05698968029608634,-0.4908409435302019,0.04270300851203501,1.2943094596266747,-0.5912588473184446,-8.323784172534943,-6.138698384165764,23.083214461803436,0.0,0.0,0.0,0.0,0.0,0.0,0.0,0.0,0.0,0.0,0.0,0.0,0.0,0.0,0.0,0.0,False,0,5.896961450576782,0.029932861328125
STABILIZE,2.4339427947998047,29.97387302404025,0.03236869176228841,0.03249001502990723,-10.0,40.0,10.0,-0.54475785223194,-1.1019079087741044,-8.384610451513423,4.001225425711301,2.0367018057146926,-0.011807333285612773,0.5204519298100014,-0.300510701361453,0.06713755246646563,0.6828600651297049,-0.03445289757796753,-0.10166444117203355,-0.6025032140314579,0.4662754014134407,1.252391810506589,2.8157582506537437,-8.38799849152565,10.072143375873566,0.0,0.0,0.0,0.0,0.0,0.0,0.0,0.0,0.0,0.0,0.0,0.0,0.0,0.0,0.0,0.0,False,0,5.93467116355896,0.034921142578125
STABILIZE,2.4674551486968994,29.841015972395148,0.032453330357869466,0.0325772762298584,-10.0,40.0,10.0,-0.5465488025375114,-1.1025948763942197,-8.36058611488155,4.00115192446372,2.036833047062432,-0.011415512648432477,0.5204684403797366,-0.2872246938237114,0.06451028149291152,0.6870650902745359,-0.03238546845059219,0.14570021303370595,0.08990568458102643,1.5499222092330456,0.01185096517935392,11.022137850522995,13.37122768163681,26.705631613731384,0.0,0.0,0.0,0.0,0.0,0.0,0.0,0.0,0.0,0.0,0.0,0.0,0.0,0.0,0.0,0.0,False,0,5.963214635848999,0.034921875
STABILIZE,2.5009942054748535,29.815348744633056,0.03237775166829427,0.03250932693481445,-10.0,40.0,10.0,-0.5463178567662003,-1.1025628598824853,-8.348060401717392,4.001081177427273,2.046608551685157,-0.01100914619165072,0.5205133250593955,-0.2737417306378974,0.060392018464866595,0.6770940895674127,-0.030252463652148846,0.15660520875826478,-0.012675202742684633,0.6927592679858208,0.019947834275286694,-3.4655824303627014,-4.874218255281448,7.561083137989044,0.0,0.0,0.0,0.0,0.0,0.0,0.0,0.0,0.0,0.0,0.0,0.0,0.0,0.0,0.0,0.0,False,0,5.992587327957153,0.02993310546875
STABILIZE,2.5370359420776367,27.745243828222158,0.032276423772176106,0.03513360023498535,-10.0,40.0,10.0,-0.5428824316962425,-1.1022648928799434,-8.390725178367877,4.001015127642404,2.05521379923921,-0.010636379787295366,0.5205659415882397,-0.2598661716710985,0.056717305502402504,0.6642824157599195,-0.028286397943043218,0.15660520875826478,-0.012675202742684633,0.6927592679858208,0.019947834275286694,-3.4655824303627014,-4.874218255281448,7.561083137989044,0.0,0.0,0.0,0.0,0.0,0.0,0.0,0.0,0.0,0.0,0.0,0.0,0.0,0.0,0.0,0.0,False,0,6.021360874176025,0.02993310546875
STABILIZE,2.5704855918884277,29.897383990305794,0.03243211110432943,0.03255295753479004,-10.0,40.0,10.0,-0.5438727557650415,-1.102350590409686,-8.38255456457325,4.001591326974094,2.060279852607044,-0.01385293020599858,0.5206031139052891,-0.2556195468224896,0.04372169575487023,0.6581983969061891,-0.04422119688913248,-0.4067683592438698,-0.592883862555027,1.0773561894893646,-1.0686061475369437,-13.703414797782898,-16.554652154445648,14.793440699577332,0.0,0.0,0.0,0.0,0.0,0.0,0.0,0.0,0.0,0.0,0.0,0.0,0.0,0.0,0.0,0.0,False,1,6.050135850906372,0.034921875
STABILIZE,2.6038782596588135,29.94498347219545,0.03242209752400716,0.032533884048461914,-10.0,40.0,10.0,-0.5468898317483359,-1.1025208115304073,-8.361846284783416,4.000784085355419,2.0781415812279525,-0.00934512088168242,0.5206438682632658,-0.23048257991245188,0.033286273992292406,0.6503211490507039,-0.02160992250779647,0.10559571674093604,-0.06280883098952472,1.2888714671134949,-0.9580801331095031,-3.297989070415497,4.8140134662389755,15.165440738201141,0.0,0.0,0.0,0.0,0.0,0.0,0.0,0.0,0.0,0.0,0.0,0.0,0.0,0.0,0.0,0.0,False,0,6.1074206829071045,0.029932861328125
STABILIZE,2.6374282836914062,29.80962737112926,0.032470019658406575,0.03258776664733887,-10.0,40.0,10.0,-0.5446712475676984,-1.102253366935719,-8.386757692233745,4.001059581503331,2.08257199499362,-0.010870029070164844,0.5206748176650139,-0.22060411638807578,0.031411655659249194,0.6473597929909782,-0.029137003970993287,-0.013856776058673859,0.04821649636141956,1.2410898692905903,-0.5389864491049849,-3.638162463903427,-12.67920434474945,21.42285704612732,0.0,0.0,0.0,0.0,0.0,0.0,0.0,0.0,0.0,0.0,0.0,0.0,0.0,0.0,0.0,0.0,False,0,6.136126756668091,0.034922119140625
STABILIZE,2.6708083152770996,29.955034995000712,0.03233030637105306,0.03245043754577637,-10.0,40.0,10.0,-0.5436494405956939,-1.1006351457109549,-8.396087730639984,4.000478095119365,2.086645905485199,-0.0076763638322148876,0.5207129978162413,-0.2136674196947979,0.022026360814403557,0.6407840948227027,-0.013124804246350277,-0.16366821946576238,-0.39237067103385925,0.8423286490142345,0.8912369136839965,-1.127677969634533,-5.092485621571541,12.068283557891846,0.0,0.0,0.0,0.0,0.0,0.0,0.0,0.0,0.0,0.0,0.0,0.0,0.0,0.0,0.0,0.0,False,0,6.16478419303894,0.0349208984375
STABILIZE,2.7045187950134277,29.66709341557091,0.03240636189778646,0.032753944396972656,-10.0,40.0,10.0,-0.5472952675085997,-1.1007558479601938,-8.362671030125696,4.000532184661577,2.0909865844686855,-0.007977018998698565,0.5207472581414171,-0.20492885234301456,0.017395638552328525,0.6362604431312661,-0.014579010353003822,-0.04051346913911402,-0.11194220278412104,0.9691391140222549,-0.17246603848295075,-2.4358736351132393,0.6559126079082489,13.941064476966858,0.0,0.0,0.0,0.0,0.0,0.0,0.0,0.0,0.0,0.0,0.0,0.0,0.0,0.0,0.0,0.0,False,0,6.193476915359497,0.03988623046875
STABILIZE,2.737945318222046,29.913802571801472,0.032353909810384114,0.032514095306396484,-10.0,40.0,10.0,-0.5447626013478473,-1.1000788054587163,-8.375567281052327,4.0005884483396565,2.099266285642934,-0.008283247500019839,0.5207764243257506,-0.1964553142011554,0.01245306417468114,0.6342249721354515,-0.016056374793277026,-0.04051346913911402,-0.11194220278412104,0.9691391140222549,-0.17246603848295075,-2.4358736351132393,0.6559126079082489,13.941064476966858,0.0,0.0,0.0,0.0,0.0,0.0,0.0,0.0,0.0,0.0,0.0,0.0,0.0,0.0,0.0,0.0,False,0,6.22240948677063,0.03988623046875
STABILIZE,2.7716705799102783,29.6530407363941,0.03242495854695638,0.03274846076965332,-10.0,40.0,10.0,-0.5447069993391351,-1.101081455884533,-8.39276057474054,4.001184375491462,2.098093189082891,-0.011558946731196031,0.5208017482975675,-0.18554519566770283,0.005407410981844295,0.6341651724457461,-0.032326129999342784,0.10685122106224298,-0.24606252554804087,1.1023380793631077,-1.0177500530809096,-1.4962045475840569,-1.2681793421506882,17.234712839126587,0.0,0.0,0.0,0.0,0.0,0.0,0.0,0.0,0.0,0.0,0.0,0.0,0.0,0.0,0.0,0.0,False,1,6.250792026519775,0.0249443359375
STABILIZE,2.805065155029297,29.942418206868982,0.032303603490193684,0.032449960708618164,-10.0,40.0,10.0,-0.5468814007335793,-1.1008396244992322,-8.374285766809303,4.000513515329876,2.111915076459318,-0.007888715857475375,0.5208576631941432,-0.16652408939723537,-0.0090486703781597,0.6187697884740002,-0.013928348268756097,0.09111598483286798,-0.22270120680332184,0.8137989789247513,0.2080000976399421,-7.8344568610191345,-1.696406677365303,9.501591324806213,0.0,0.0,0.0,0.0,0.0,0.0,0.0,0.0,0.0,0.0,0.0,0.0,0.0,0.0,0.0,0.0,False,0,6.308251857757568,0.034921875
STABILIZE,2.8386147022247314,29.808779946982025,0.032408746083577473,0.03255295753479004,-10.0,40.0,10.0,-0.5469500761512496,-1.1010487990425637,-8.373754719601333,4.000812655633399,2.1170537252400474,-0.009514893869865142,0.5208900410031213,-0.16022498446482186,-0.011701052655364459,0.615140826634538,-0.021985678659224635,-0.11683647753670812,-0.04749562358483672,1.007907371968031,-0.5356207133089025,1.83945894241333,0.4497463349252939,17.380888760089874,0.0,0.0,0.0,0.0,0.0,0.0,0.0,0.0,0.0,0.0,0.0,0.0,0.0,0.0,0.0,0.0,False,0,6.3368821144104,0.02993310546875
STABILIZE,2.871978759765625,29.970446165718695,0.032317193349202473,0.03245091438293457,-10.0,40.0,10.0,-0.5442472955914816,-1.1022683079745283,-8.401797768786114,4.000924024852157,2.125268877726899,-0.010114587454305362,0.5209290531206172,-0.1484569574938372,-0.015468577584358136,0.6081961228551532,-0.02490088545679366,0.2344399457797408,-0.16418753657490015,0.948874931782484,-0.22855765970078465,0.27973917312920094,-9.482966363430023,14.877866208553314,0.0,0.0,0.0,0.0,0.0,0.0,0.0,0.0,0.0,0.0,0.0,0.0,0.0,0.0,0.0,0.0,False,0,6.365633010864258,0.0349208984375
STABILIZE,2.905421733856201,29.902712722346987,0.03240230878194173,0.03252220153808594,-10.0,40.0,10.0,-0.5466433579688337,-1.1019441941540702,-8.3910615651845,4.000300824664283,2.134068606670251,-0.006754913860769252,0.5209584560729452,-0.1380847518153495,-0.02416758515131294,0.6060581444633346,-0.008075516912491656,0.15774681232869625,-0.4288633819669485,1.0708612389862537,0.95012797864661,3.4434378147125244,-5.7968128472566605,9.520979225635529,0.0,0.0,0.0,0.0,0.0,0.0,0.0,0.0,0.0,0.0,0.0,0.0,0.0,0.0,0.0,0.0,False,0,6.394488573074341,0.034922119140625
STABILIZE,2.9389095306396484,29.861198917841378,0.03240016301472982,0.032534122467041016,-10.0,40.0,10.0,-0.5454983941483574,-1.1023113168219583,-8.389394145253371,4.000406335341185,2.1382962687837526,-0.00732426316903593,0.520990192141859,-0.13089518794535887,-0.030395344752224395,0.602765181322665,-0.010885845749765689,-0.016155419871211052,-0.2906047971919179,0.9976522997021675,-0.2234599640220015,8.715049177408218,2.0350974053144455,15.367230772972107,0.0,0.0,0.0,0.0,0.0,0.0,0.0,0.0,0.0,0.0,0.0,0.0,0.0,0.0,0.0,0.0,False,0,6.422958135604858,0.02993310546875
STABILIZE,2.9729559421539307,29.373728036080706,0.0323670228322347,0.03284311294555664,-10.0,40.0,10.0,-0.5450006974734456,-1.1014327837399653,-8.402751433948977,4.00051757533134,2.1382458377927054,-0.00792959518005755,0.521026821908661,-0.12430157865411078,-0.035675370470447325,0.5971599358844719,-0.013865650970920103,-0.016155419871211052,-0.2906047971919179,0.9976522997021675,-0.2234599640220015,8.715049177408218,2.0350974053144455,15.367230772972107,0.0,0.0,0.0,0.0,0.0,0.0,0.0,0.0,0.0,0.0,0.0,0.0,0.0,0.0,0.0,0.0,False,1,6.451971054077148,0.02993310546875
STABILIZE,3.0061099529266357,30.159877470895744,0.03210953076680501,0.03223848342895508,-10.0,40.0,10.0,-0.5464375451592342,-1.1011835885569659,-8.40104474043012,4.0003327263961586,2.1523831378261544,-0.006933548993566056,0.5210654385659217,-0.10604711698738753,-0.0448176535873268,0.5904393139694657,-0.008855802755696479,-0.09915486443787813,-0.39387126453220844,1.1330097913742065,0.2627819767235732,-4.300461709499359,-11.702434718608856,18.976573646068573,0.0,0.0,0.0,0.0,0.0,0.0,0.0,0.0,0.0,0.0,0.0,0.0,0.0,0.0,0.0,0.0,False,0,6.5092668533325195,0.034921875
STABILIZE,3.0395734310150146,29.88438985115888,0.03241160710652669,0.03255772590637207,-10.0,40.0,10.0,-0.5447777024692153,-1.1004628968778236,-8.391055588768976,4.00039977164497,2.1552167667170044,-0.007294695070477855,0.5210889366102727,-0.10046265034433577,-0.05093925463760076,0.5912830610483019,-0.010625978214799433,-0.04339165170677006,-0.32570562325417995,1.1972994543612003,-0.15053043239620523,2.1652299910783768,-1.9495252519845963,21.986843645572662,0.0,0.0,0.0,0.0,0.0,0.0,0.0,0.0,0.0,0.0,0.0,0.0,0.0,0.0,0.0,0.0,False,0,6.537765026092529,0.02993310546875
STABILIZE,3.0731117725372314,29.816620459230823,0.03240803082784017,0.032546281814575195,-10.0,40.0,10.0,-0.5430004659028368,-1.100653608566055,-8.402029141444247,4.000486485926757,2.167667706455356,-0.007749329038739444,0.5211244394929647,-0.08103627301880058,-0.05162744250478595,0.5861311945151666,-0.012856131260630003,0.8314657956361771,-0.05979561246931553,0.9796237573027611,-0.17222316656101863,13.3501797914505,1.8262017518281937,16.669918596744537,0.0,0.0,0.0,0.0,0.0,0.0,0.0,0.0,0.0,0.0,0.0,0.0,0.0,0.0,0.0,0.0,False,0,6.5668134689331055,0.039909912109375
STABILIZE,3.1064202785491943,30.021716568009218,0.03232887585957845,0.03244829177856445,-10.0,40.0,10.0,-0.5429189838804727,-1.1016926510935432,-8.40393049535445,4.000408888815546,2.1741464804090915,-0.007340040212450966,0.5211477475877228,-0.07364422589923247,-0.057238223481273054,0.587062010823448,-0.010773676785257397,0.05490757175721228,-0.2698443830013275,1.0364682413637638,0.08628919487935609,-3.0594874173402786,-9.993162006139755,18.09973120689392,0.0,0.0,0.0,0.0,0.0,0.0,0.0,0.0,0.0,0.0,0.0,0.0,0.0,0.0,0.0,0.0,False,0,6.595600843429565,0.02993310546875
STABILIZE,3.1401374340057373,29.65891187826161,0.03246668179829915,0.032800912857055664,-10.0,40.0,10.0,-0.5432224470508622,-1.1007632117578927,-8.400422339442002,4.000332830807909,2.179960860228158,-0.006940503368448253,0.5211814018725751,-0.06778735084523918,-0.06103839636824728,0.5829160713046737,-0.00874654694878852,0.05490757175721228,-0.2698443830013275,1.0364682413637638,0.08628919487935609,-3.0594874173402786,-9.993162006139755,18.09973120689392,0.0,0.0,0.0,0.0,0.0,0.0,0.0,0.0,0.0,0.0,0.0,0.0,0.0,0.0,0.0,0.0,False,0,6.624211311340332,0.02993310546875
STABILIZE,3.1740000247955322,29.533400460501763,0.032396586736043294,0.03287196159362793,-10.0,40.0,10.0,-0.544016083015906,-1.0997935383391624,-8.402625929222978,4.0001447102744185,2.179430485755141,-0.005954585295403763,0.521212216473115,-0.0634020837420557,-0.06582489719332249,0.5802378685439005,-0.0038041051906034327,-0.016118701023515314,-0.33791514579206705,1.1064869351685047,0.2652474882509626,-4.9496278166770935,-6.140012666583061,18.380124866962433,0.0,0.0,0.0,0.0,0.0,0.0,0.0,0.0,0.0,0.0,0.0,0.0,0.0,0.0,0.0,0.0,False,1,6.653048276901245,0.02993310546875
STABILIZE,3.213315010070801,25.434051507194877,0.032311232884724934,0.03838062286376953,-10.0,40.0,10.0,-0.5448296759399308,-1.1004599086700617,-8.410360264684371,4.000461495790664,2.191352491842016,-0.0076160865136700555,0.5212499265012159,-0.0472816970357365,-0.06880525861078568,0.5762302599621517,-0.012064093015478408,0.34773743245750666,-0.18771629547700286,0.954973604530096,-0.15143754021492112,0.864405557513237,-4.229837656021118,15.978533029556274,0.0,0.0,0.0,0.0,0.0,0.0,0.0,0.0,0.0,0.0,0.0,0.0,0.0,0.0,0.0,0.0,False,0,6.712306976318359,0.034958251953125
STABILIZE,3.246767520904541,29.890992018244013,0.03240350087483724,0.03253650665283203,-10.0,40.0,10.0,-0.5444720515038572,-1.1005743143386595,-8.409945330692292,4.0002330174583465,2.1915749011141337,-0.006425611076574217,0.521285941927264,-0.040961621876171236,-0.07724721789260824,0.5708406982441178,-0.006091337180181268,0.1123801339417696,-0.5356824956834316,0.7618411909788847,0.33197024555106847,-2.4227017536759377,-14.117224514484406,11.326444149017334,0.0,0.0,0.0,0.0,0.0,0.0,0.0,0.0,0.0,0.0,0.0,0.0,0.0,0.0,0.0,0.0,False,0,6.739559888839722,0.02993310546875
STABILIZE,3.2802648544311523,29.853972411633237,0.032386096318562825,0.032517433166503906,-10.0,40.0,10.0,-0.5425045834969233,-1.1005816781363584,-8.409607236328377,4.00027813597523,2.201599010713402,-0.00665969699167465,0.521314350874921,-0.02763611750238526,-0.07972970551492238,0.5692568549833801,-0.007237552736201121,0.5945308599621058,-0.2354439813643694,1.140207052230835,-0.0967935589153729,10.79958975315094,3.542870655655861,18.686437606811523,0.0,0.0,0.0,0.0,0.0,0.0,0.0,0.0,0.0,0.0,0.0,0.0,0.0,0.0,0.0,0.0,False,0,6.767553806304932,0.039909912109375
STABILIZE,3.3137872219085693,29.831889500561886,0.03231814702351888,0.03246283531188965,-10.0,40.0,10.0,-0.5430159405501751,-1.1013432442288147,-8.412679967681237,4.000446318254202,2.2099186285902457,-0.007533815750700454,0.5213483384437659,-0.017769383970310006,-0.08282088161394024,0.564895566266116,-0.01156942129362076,0.3051827661693096,-0.17720074392855167,0.6681980099529028,-0.2880097606706913,3.803735226392746,-6.509670615196228,7.795804738998413,0.0,0.0,0.0,0.0,0.0,0.0,0.0,0.0,0.0,0.0,0.0,0.0,0.0,0.0,0.0,0.0,False,0,6.796228647232056,0.02993310546875
STABILIZE,3.347852945327759,29.355020226480594,0.032285483678181966,0.03317880630493164,-10.0,40.0,10.0,-0.5423764107282798,-1.1015639447163708,-8.417837614278243,4.000505346432355,2.220904315226877,-0.007835732617244493,0.5214120937871656,-0.005168973827087236,-0.08713904025975398,0.5459419220199815,-0.013034459224290777,0.12325842399150133,-0.30223296489566565,0.6349640432745218,0.14835405665020415,2.157648093998432,-6.500069051980972,10.176794975996017,0.0,0.0,0.0,0.0,0.0,0.0,0.0,0.0,0.0,0.0,0.0,0.0,0.0,0.0,0.0,0.0,False,0,6.853628873825073,0.02993310546875
STABILIZE,3.3813488483428955,29.85375992028186,0.03243139584859212,0.03256058692932129,-10.0,40.0,10.0,-0.5417020896302998,-1.1020709795405386,-8.41543509523769,4.000516998951631,2.2241792743399165,-0.007900811858841023,0.5214364968823989,0.0022725457197674296,-0.08827802611295903,0.5463868323258588,-0.01331532439248274,0.30898016411811113,-0.1854729256592691,1.2257032096385956,-0.0436341599195773,8.314236998558044,-0.7491452619433403,6.545007228851318,0.0,0.0,0.0,0.0,0.0,0.0,0.0,0.0,0.0,0.0,0.0,0.0,0.0,0.0,0.0,0.0,False,0,6.882415056228638,0.034921875
STABILIZE,3.41481351852417,29.88204784770807,0.03238704999287923,0.03255772590637207,-10.0,40.0,10.0,-0.5425755000704151,-1.102774915911873,-8.415785142432654,4.000542255280225,2.231037706943002,-0.008031621612717326,0.5214652799049808,0.009829436925340801,-0.08955881040785625,0.5446615804804361,-0.013922746296446848,0.27777059003710747,-0.1505844877101481,0.939825177192688,-0.05901737010140588,-0.4147808998823166,-2.6879362761974335,11.234772950410843,0.0,0.0,0.0,0.0,0.0,0.0,0.0,0.0,0.0,0.0,0.0,0.0,0.0,0.0,0.0,0.0,False,0,6.911110162734985,0.034922119140625
STABILIZE,3.448458433151245,29.72449080832849,0.032410653432210286,0.03253006935119629,-10.0,40.0,10.0,-0.54015446481391,-1.1049358170105357,-8.425577072381513,4.000549516519748,2.2332142894561553,-0.008075578739682244,0.5214975133475038,0.015284958455118503,-0.0961265214965402,0.5411969968952752,-0.01409539676511559,0.1667931443080306,-0.4806595854461193,0.8339687250554562,-0.032494978491986064,-2.51929871737957,-10.448075085878372,12.398645281791687,0.0,0.0,0.0,0.0,0.0,0.0,0.0,0.0,0.0,0.0,0.0,0.0,0.0,0.0,0.0,0.0,False,0,6.939619541168213,0.0349208984375
STABILIZE,3.481785535812378,30.003247612575557,0.032195361455281575,0.032399892807006836,-10.0,40.0,10.0,-0.5410820898805624,-1.1035482213919654,-8.424893199690866,4.0003958694619834,2.238732829273353,-0.007289263251753653,0.521521569670975,0.022883452052685934,-0.10002262366861107,0.5418489647471956,-0.010129867648762319,0.3134012222290039,-0.32449159771203995,1.0820960626006126,0.21588356334495162,5.463216453790665,-4.4878605753183365,15.012112259864807,0.0,0.0,0.0,0.0,0.0,0.0,0.0,0.0,0.0,0.0,0.0,0.0,0.0,0.0,0.0,0.0,False,0,6.968374252319336,0.02993310546875
STABILIZE,3.5152175426483154,29.91316254920979,0.0323970635732015,0.032525062561035156,-10.0,40.0,10.0,-0.5417220465892808,-1.105170498041549,-8.423359822222197,4.000441475029451,2.242308157024224,-0.007526563743906643,0.5215560126024934,0.029859242921948054,-0.10225504721944087,0.5372853201582143,-0.011278652822443778,0.34722844138741493,-0.28430139645934105,0.8995701558887959,-0.09602672343869352,9.023471176624298,-0.6458653137087822,12.71013617515564,0.0,0.0,0.0,0.0,0.0,0.0,0.0,0.0,0.0,0.0,0.0,0.0,0.0,0.0,0.0,0.0,False,0,6.997056484222412,0.034921875
STABILIZE,3.549738883972168,28.966787985938936,0.03240969975789388,0.03364825248718262,-10.0,40.0,10.0,-0.5406000279355476,-1.1045458558976102,-8.430277950077775,4.00093397656333,2.2522721181625642,-0.010037399860767115,0.5215748081421878,0.044374214102991895,-0.10758942492640908,0.5409589344403335,-0.023750780803026422,0.3281502518802881,-0.2677205018699169,1.1332737281918526,-0.39669797396372236,7.442903518676758,-6.498391181230545,17.066745460033417,0.0,0.0,0.0,0.0,0.0,0.0,0.0,0.0,0.0,0.0,0.0,0.0,0.0,0.0,0.0,0.0,False,0,7.05469536781311,0.0349208984375
