E-kp,E-ki,E-kd,E-I-Tot,E-P,E-I,E-D,E-PID,N-kp,N-ki,N-kd,N-I-Tot,N-P,N-I,N-D,N-PID,Y-kp,Y-ki,Y-kd,Y-I-Tot,Y-P,Y-I,Y-D,Y-PID,D-kp,D-ki,D-kd,D-I-Tot,D-P,D-I,D-D,D-PID,errorN,desiredN,actualN,errorE,desiredE,actualE,errorD,desiredD,actualD,errorY,desiredY,actualY,roll,pitch,yaw-rate,thrust,dt,Time,Mode
0.03,0.0,0.008,-0.0032921329101209358,-0.0029439293521771877,-0.0,-0.023400486397851285,-0.026344415750028473,0.03,0.0,0.008,-0.0033576462689353785,-0.003002513469294886,-0.0,-0.023866155465191156,-0.026868668934486042,0.5,0,0.1,-0.003322528013587723,-0.049518493580871,-0.0,-0.29520668557084195,-0.34472517915171297,0.002,8e-05,0.0,-0.0046564402673473,-0.00027759574221240335,-3.7251522138778405e-07,-0.0,-0.00027796825743379115,-0.10008378230982953,0.0,0.10008378230982953,-0.09813097840590626,0.0,0.09813097840590626,-0.13879787110620168,0.0,0.13879787110620168,-0.099036987161742,0,0.099036987161742,-0.026390819443288926,0.026823091929027997,0.34472517915171297,0.4,0.03354835510253906,0.03377056121826172,STABILIZE
0.03,0.0,0.008,-0.007491756114464292,-0.0035961896254609244,-0.0,-0.004964787476822206,-0.00856097710228313,0.03,0.0,0.008,-0.0076478848617523,-0.0036737847105625413,-0.0,-0.00510949261928574,-0.008783277329848281,0.5,0,0.1,-0.007551617293100174,-0.060357029873543466,-0.0,-0.06187449028058675,-0.12223152015413022,0.002,8e-05,0.0,-0.011362094185688574,-0.00038280899467568345,-9.08967534855086e-07,-0.0,-0.0003837179622105385,-0.12245949035208471,0.0,0.12245949035208471,-0.11987298751536415,0.0,0.11987298751536415,-0.19140449733784173,0.0,0.19140449733784173,-0.12071405974708693,0,0.12071405974708693,-0.008579463204471427,0.008765221088025315,0.12223152015413022,0.4,0.0350339412689209,0.06875467300415039,STABILIZE
0.03,0.0,0.008,-0.011973587056579492,-0.003955758811438639,-0.0,-0.0028210077416497862,-0.006776766553088425,0.03,0.0,0.008,-0.012249431417505532,-0.004061422344854275,-0.0,-0.0030412193534280407,-0.0071026416982823155,0.5,0,0.1,-0.012052807264132749,-0.06621409166565592,-0.0,-0.03446377770235537,-0.10067786936801129,0.002,8e-05,0.0,-0.018984634842220974,-0.00044852104355066146,-1.518770787377678e-06,-0.0,-0.0004500398143380391,-0.13538074482847584,0.0,0.13538074482847584,-0.13185862704795462,0.0,0.13185862704795462,-0.22426052177533073,0.0,0.22426052177533073,-0.13242818333131184,0,0.13242818333131184,-0.006793164828560186,0.007086959547030696,0.10067786936801129,0.4,0.033989667892456055,0.10273957252502441,STABILIZE
0.03,0.0,0.008,-0.01672885188658833,-0.004261970247284135,-0.0,-0.002439521154117395,-0.0067014914014015305,0.03,0.0,0.008,-0.017139587039732014,-0.0043828679393403585,-0.0,-0.002560888444552755,-0.006943756383893114,0.5,0,0.1,-0.016795851583674887,-0.07085029083228102,-0.0,-0.027701706936061356,-0.09855199776834238,0.002,8e-05,0.0,-0.027581542466575654,-0.0005136729614220273,-2.2065233973260527e-06,-0.0,-0.0005158794848193534,-0.14609559797801194,0.0,0.14609559797801194,-0.1420656749094712,0.0,0.1420656749094712,-0.25683648071101367,0.0,0.25683648071101367,-0.14170058166456204,0,0.14170058166456204,-0.006718643782786526,0.006927161427449123,0.09855199776834238,0.4,0.033472299575805664,0.13625025749206543,STABILIZE
0.03,0.0,0.008,-0.021657082338614644,-0.004419857884675009,-0.0,-0.001258672956069219,-0.005678530840744228,0.03,0.0,0.008,-0.022207006498668903,-0.004544688822603418,-0.0,-0.0012900286105758296,-0.005834717433179248,0.5,0,0.1,-0.02170959129421069,-0.07344769897385343,-0.0,-0.015529813342403886,-0.08897751231625732,0.002,8e-05,0.0,-0.03695969826770583,-0.0005607166881342179,-2.9567758614164664e-06,-0.0,-0.0005636734639956343,-0.15148962742011396,0.0,0.15148962742011396,-0.14732859615583363,0.0,0.14732859615583363,-0.2803583440671089,0.0,0.2803583440671089,-0.14689539794770687,0,0.14689539794770687,-0.005693471258829638,0.005820139608223332,0.08897751231625732,0.4,0.03345060348510742,0.16967082023620605,STABILIZE
0.03,0.0,0.008,-0.02685412319325,-0.004661503919469757,-0.0,-0.001926624476979013,-0.00658812839644877,0.03,0.0,0.008,-0.027568303714010988,-0.004808834235056814,-0.0,-0.002106010212609901,-0.006914844447666715,0.5,0,0.1,-0.026891992389980825,-0.07747287894498009,-0.0,-0.024069328087274355,-0.10154220703225444,0.002,8e-05,0.0,-0.04738360772018349,-0.0006233174624823019,-3.7906886176146796e-06,-0.0,-0.0006271081510999166,-0.1602944745018938,0.0,0.1602944745018938,-0.15538346398232525,0.0,0.15538346398232525,-0.31165873124115095,0.0,0.31165873124115095,-0.15494575788996018,0,0.15494575788996018,-0.006606804191289156,0.0068970028187239334,0.10154220703225444,0.4,0.033446550369262695,0.2031104564666748,STABILIZE
0.03,0.0,0.008,-0.0323115836462302,-0.004826552754368591,-0.0,-0.0012974971141487212,-0.006124049868517311,0.03,0.0,0.008,-0.03325584966660726,-0.005030039304840207,-0.0,-0.0017389576839784665,-0.006768996988818674,0.5,0,0.1,-0.032337603223652325,-0.08026788343200839,-0.0,-0.0164792601755178,-0.09674714360752619,0.002,8e-05,0.0,-0.05895845296512915,-0.0006824493025612934,-4.716676237210333e-06,-0.0,-0.0006871659787985037,-0.1676679768280069,0.0,0.1676679768280069,-0.16088509181228636,0.0,0.16088509181228636,-0.3412246512806467,0.0,0.3412246512806467,-0.16053576686401677,0,0.16053576686401677,-0.006142991706941373,0.006751811602464386,0.09674714360752619,0.4,0.03392148017883301,0.23704099655151367,STABILIZE
0.03,0.0,0.008,-0.03798170083838264,-0.005045727415738418,-0.0,-0.0017336825250016323,-0.00677940994074005,0.03,0.0,0.008,-0.03930796750234946,-0.00538566238619339,-0.0,-0.00281299634627436,-0.00819865873246775,0.5,0,0.1,-0.03802637849718804,-0.0843721813468598,-0.0,-0.024348901218462417,-0.10872108256532222,0.002,8e-05,0.0,-0.07232371496061493,-0.0007928991774924181,-5.785897196849195e-06,-0.0,-0.0007986850746892673,-0.17952207953977967,0.0,0.17952207953977967,-0.1681909138579473,0.0,0.1681909138579473,-0.39644958874620906,0.0,0.39644958874620906,-0.1687443626937196,0,0.1687443626937196,-0.006803526740472051,0.008178656860863921,0.10872108256532222,0.4,0.03371238708496094,0.2707531452178955,STABILIZE
0.03,0.0,0.008,-0.043625361054616084,-0.005058891237605709,-0.0,-0.00010488755413065668,-0.005163778791736366,0.03,0.0,0.008,-0.04536410603376933,-0.00542863052991761,-0.0,-0.00034236436395167734,-0.005770994893869287,0.5,0,0.1,-0.04362758762546678,-0.08368064545990003,-0.0,0.004132548387620044,-0.07954809707227999,0.002,8e-05,0.0,-0.08629610129471713,-0.0008349756492038434,-6.903688103577371e-06,-0.0,-0.0008418793373074207,-0.18095435099725368,0.0,0.18095435099725368,-0.1686297079201903,0.0,0.1686297079201903,-0.4174878246019217,0.0,0.4174878246019217,-0.16736129091980007,0,0.16736129091980007,-0.0051806138466057,0.005755886868885538,0.07954809707227999,0.4,0.033467769622802734,0.3042430877685547,STABILIZE
0.03,0.0,0.008,-0.049320017158213256,-0.005108970626279895,-0.0,-0.00039936720565772634,-0.0055083378319376215,0.03,0.0,0.008,-0.05155915773805137,-0.0055579014096161965,-0.0,-0.0010308941735295441,-0.006588795583145741,0.5,0,0.1,-0.049304541408207614,-0.08488481597232528,-0.0,-0.007202157795067887,-0.09208697376739317,0.002,8e-05,0.0,-0.10126110911769533,-0.0008950588528234311,-8.100888729415627e-06,-0.0,-0.0009031597415528467,-0.18526338032053988,0.0,0.18526338032053988,-0.17029902087599652,0.0,0.17029902087599652,-0.44752942641171556,0.0,0.44752942641171556,-0.16976963194465056,0,0.16976963194465056,-0.0055278364814734275,0.0065724452634713946,0.09208697376739317,0.4,0.03343915939331055,0.3376748561859131,STABILIZE
0.03,0.0,0.008,-0.055034440422597315,-0.005128240454918076,-0.0,-0.00015371678950244273,-0.005281957244420519,0.03,0.0,0.008,-0.05767876910881593,-0.005491864558848734,-0.0,0.0005267806413552278,-0.004965083917493506,0.5,0,0.1,-0.05503211477839831,-0.08566736048585116,-0.0,-0.004681809806949009,-0.09034917029280017,0.002,8e-05,0.0,-0.11718802981868043,-0.000952876318771926,-9.375042385494434e-06,-0.0,-0.0009622513611574205,-0.18306215196162445,0.0,0.18306215196162445,-0.17094134849726922,0.0,0.17094134849726922,-0.476438159385963,0.0,0.476438159385963,-0.17133472097170233,0,0.17133472097170233,-0.005296780969627814,0.004949266814329946,0.09034917029280017,0.4,0.03342914581298828,0.37110185623168945,STABILIZE
0.03,0.0,0.008,-0.06072490509462245,-0.005103354563786118,-0.0,0.0001983849332398955,-0.004904969630546222,0.03,0.0,0.008,-0.06377792558409298,-0.005469879847663402,-0.0,0.000175257355168585,-0.005294622492494816,0.5,0,0.1,-0.06057442506111879,-0.08284143183798032,-0.0,0.016895768264109306,-0.06594566357387101,0.002,8e-05,0.0,-0.13373103232776723,-0.0009890792430187498,-1.0698482586221379e-05,-0.0,-0.0009997777256049712,-0.18232932825544673,0.0,0.18232932825544673,-0.1701118187928706,0.0,0.1701118187928706,-0.4945396215093749,0.0,0.4945396215093749,-0.16568286367596063,0,0.16568286367596063,-0.004920259622227999,0.005280416618457823,0.06594566357387101,0.4,0.03345131874084473,0.4046022891998291,STABILIZE
0.03,0.0,0.008,-0.06647027080333133,-0.005116488985491452,-0.0,-0.00010397113839153765,-0.0052204601238829895,0.03,0.0,0.008,-0.07000717156910836,-0.005547404653795379,-0.0,-0.0006136807944769439,-0.006161085448272322,0.5,0,0.1,-0.0661959203138925,-0.0834362858724293,-0.0,-0.0035316163432612385,-0.08696790221569053,0.002,8e-05,0.0,-0.15117645608021843,-0.001035725406087987,-1.2094116486417476e-05,-0.0,-0.0010478195225744045,-0.18491348845984595,0.0,0.18491348845984595,-0.17054963284971508,0.0,0.17054963284971508,-0.5178627030439935,0.0,0.5178627030439935,-0.1668725717448586,0,0.1668725717448586,-0.005238381969534192,0.006145854875216664,0.08696790221569053,0.4,0.03368735313415527,0.4382340908050537,STABILIZE
0.03,0.0,0.008,-0.07208256655537176,-0.005026121930044591,-0.0,0.0007193662854276772,-0.004306755644616914,0.03,0.0,0.008,-0.07599335343802123,-0.0053609576718475025,-0.0,0.0014842098391920585,-0.003876747832655444,0.5,0,0.1,-0.07177169949229929,-0.08322365523795888,-0.0,0.0012694834605161238,-0.08195417177744276,0.002,8e-05,0.0,-0.16996520124315512,-0.0011217575156847643,-1.359721609945241e-05,-0.0,-0.0011353547317842167,-0.17869858906158342,0.0,0.17869858906158342,-0.16753739766815307,0.0,0.16753739766815307,-0.5608787578423822,0.0,0.5608787578423822,-0.16644731047591776,0,0.16644731047591776,-0.004317999615952237,0.0038642201356903403,0.08195417177744276,0.4,0.03349876403808594,0.47176337242126465,STABILIZE
0.03,0.0,0.008,-0.07759494979834108,-0.004943998949111349,-0.0,0.0006547132778221602,-0.0042892856712891895,0.03,0.0,0.008,-0.08193110092148301,-0.005325503693119573,-0.0,0.00028265158377128156,-0.005042852109348291,0.5,0,0.1,-0.07737577392788632,-0.08377059703296764,-0.0,-0.0032703092178230616,-0.08704090625079071,0.002,8e-05,0.0,-0.18954741715142442,-0.0011708723263540045,-1.5163793372113955e-05,-0.0,-0.0011860361197261185,-0.17751678977065244,0.0,0.17751678977065244,-0.1647999649703783,0.0,0.1647999649703783,-0.5854361631770022,0.0,0.5854361631770022,-0.1675411940659353,0,0.1675411940659353,-0.004304013345394544,0.005030288072203314,0.08704090625079071,0.4,0.03344893455505371,0.5052609443664551,STABILIZE
0.03,0.0,0.008,-0.08300090979012112,-0.0048478925019662285,-0.0,0.0007660906361191173,-0.004081801865847111,0.03,0.0,0.008,-0.08781624761904587,-0.00527761185644513,-0.0,0.00038175885918908576,-0.004895852997256044,0.5,0,0.1,-0.08300819677766397,-0.08418295283618815,-0.0,-0.002465250217185721,-0.08664820305337387,0.002,8e-05,0.0,-0.20992296524603732,-0.0012181427779897546,-1.6793837219682985e-05,-0.0,-0.0012349366152094375,-0.17592039521483765,0.0,0.17592039521483765,-0.16159641673220762,0.0,0.16159641673220762,-0.6090713889948773,0.0,0.6090713889948773,-0.1683659056723763,0,0.1683659056723763,-0.0040961708788864685,0.004883837341039974,0.08664820305337387,0.4,0.03345346450805664,0.5386748313903809,STABILIZE
0.03,0.0,0.008,-0.08834725724920901,-0.004794160544969894,-0.0,0.0004282876282788647,-0.004365872916691029,0.03,0.0,0.008,-0.09357598382081644,-0.005164853249675275,-0.0,0.0008987782869100637,-0.004266074962765211,0.5,0,0.1,-0.08850228907637518,-0.0821107641882729,-0.0,0.012387778302341092,-0.06972298588593182,0.002,8e-05,0.0,-0.23102393555555567,-0.0012614398907241065,-1.8481914844444454e-05,-0.0,-0.001279921805568551,-0.17216177498917584,0.0,0.17216177498917584,-0.1598053514989965,0.0,0.1598053514989965,-0.6307199453620532,0.0,0.6307199453620532,-0.1642215283765458,0,0.1642215283765458,-0.004378082418080479,0.004253543963934429,0.06972298588593182,0.4,0.03345537185668945,0.5721101760864258,STABILIZE
0.03,0.0,0.008,-0.09358873439618275,-0.00468313408911259,-0.0,0.0008817731094396705,-0.0038013609796729193,0.03,0.0,0.008,-0.09924456599162113,-0.005064742181764265,-0.0,0.0007950830003496837,-0.004269659181414581,0.5,0,0.1,-0.09376177113347045,-0.07832035073954918,-0.0,0.022577623235843933,-0.05574272750370525,0.002,8e-05,0.0,-0.25263587207371163,-0.001287316454272817,-2.0210869765896934e-05,-0.0,-0.001307527324038714,-0.16882473939214215,0.0,0.16882473939214215,-0.15610446963708632,0.0,0.15610446963708632,-0.6436582271364085,0.0,0.6436582271364085,-0.15664070147909837,0,0.15664070147909837,-0.0038130195631858486,0.004259250712740408,0.05574272750370525,0.4,0.03357672691345215,0.605766773223877,STABILIZE
0.03,0.0,0.008,-0.09869703014248121,-0.004579422763135623,-0.0,0.0008264343692630607,-0.0037529883938725622,0.03,0.0,0.008,-0.1047130492091889,-0.00490231924110916,-0.0,0.0012942839101677673,-0.0036080353309413927,0.5,0,0.1,-0.09874033706086346,-0.07438540258165811,-0.0,0.023517029372026623,-0.05086837320963149,0.002,8e-05,0.0,-0.27484010932308794,-0.001327025614123696,-2.198720874584704e-05,-0.0,-0.001349012822869543,-0.16341064137030534,0.0,0.16341064137030534,-0.1526474254378541,0.0,0.1526474254378541,-0.663512807061848,0.0,0.663512807061848,-0.14877080516331623,0,0.14877080516331623,-0.0037623441414202635,0.0035982783932575505,0.05086837320963149,0.4,0.033464670181274414,0.6391642093658447,STABILIZE
0.03,0.0,0.008,-0.1035916588068902,-0.004387783317441499,-0.0,0.001527065997231288,-0.0028607173202102104,0.03,0.0,0.008,-0.10998770373572414,-0.004728456993089009,-0.0,0.0013854095966105442,-0.003343047396478465,0.5,0,0.1,-0.10363345634742285,-0.07310717062812822,-0.0,0.007639128830210407,-0.0654680417979178,0.002,8e-05,0.0,-0.2981118426617468,-0.0013907942810018241,-2.3848947412939746e-05,-0.0,-0.0014146432284147638,-0.157615233102967,0.0,0.157615233102967,-0.14625944391471662,0.0,0.14625944391471662,-0.6953971405009121,0.0,0.6953971405009121,-0.14621434125625643,0,0.14621434125625643,-0.002869239191115016,0.0033357361924201646,0.0654680417979178,0.4,0.03346538543701172,0.6726722717285156,STABILIZE
0.03,0.0,0.008,-0.10838087691006948,-0.004296563447179945,-0.0,0.0007274339091192451,-0.0035691295380606996,0.03,0.0,0.008,-0.11503908272285236,-0.004531756509385166,-0.0,0.0015685902794650168,-0.0029631662299201486,0.5,0,0.1,-0.10843322189371468,-0.07176709836184302,-0.0,0.0080148163254156,-0.06375228203642741,0.002,8e-05,0.0,-0.32195886024269105,-0.001426262378745088,-2.5756708819415284e-05,-0.0,-0.0014520190875645033,-0.15105855031283885,0.0,0.15105855031283885,-0.14321878157266482,0.0,0.14321878157266482,-0.7131311893725439,0.0,0.7131311893725439,-0.14353419672368603,0,0.14353419672368603,-0.00357654148987946,0.0029542157566378566,0.06375228203642741,0.4,0.03343987464904785,0.706061601638794,STABILIZE
0.03,0.0,0.008,-0.11315730022739343,-0.004282367454479306,-0.0,0.00011313431845725631,-0.00416923313602205,0.03,0.0,0.008,-0.11997438709309156,-0.004424814428906789,-0.0,0.0008522700486298617,-0.0035725443802769275,0.5,0,0.1,-0.1130245962651513,-0.06860765497988575,-0.0,0.018884280299712,-0.049723374680173744,0.002,8e-05,0.0,-0.34632117660048306,-0.0014561577950031003,-2.7705694128038647e-05,-0.0,-0.001483863489131139,-0.14749381429689298,0.0,0.14749381429689298,-0.14274558181597688,0.0,0.14274558181597688,-0.7280788975015501,0.0,0.7280788975015501,-0.1372153099597715,0,0.1372153099597715,-0.004177776911703281,0.0035625494196700647,0.049723374680173744,0.4,0.03346109390258789,0.7395226955413818,STABILIZE
0.03,0.0,0.008,-0.11814591971620288,-0.004267431712318267,-0.0,0.00011356917905378621,-0.004153862533264481,0.03,0.0,0.008,-0.12501865283905741,-0.004315033379070703,-0.0,0.000834758900570057,-0.003480274478500646,0.5,0,0.1,-0.1176086365452295,-0.06535568576180252,-0.0,0.018545620486604953,-0.04681006527519757,0.002,8e-05,0.0,-0.3723440299208481,-0.001484054519871923,-2.9787522393667848e-05,-0.0,-0.0015138420422655908,-0.14383444596902345,0.0,0.14383444596902345,-0.14224772374394223,0.0,0.14224772374394223,-0.7420272599359614,0.0,0.7420272599359614,-0.13071137152360504,0,0.13071137152360504,-0.0041617914195458214,0.0034707890415806215,0.04681006527519757,0.4,0.035069942474365234,0.774608850479126,STABILIZE
0.03,0.0,0.008,-0.12274936199951017,-0.004129809578492427,-0.0,0.0010974458223190393,-0.0030323637561733875,0.03,0.0,0.008,-0.12978780279155208,-0.0042784681425242195,-0.0,0.0002915836644476726,-0.003986884478076547,0.5,0,0.1,-0.1218864116692756,-0.06396082031187438,-0.0,0.008342349545266534,-0.05561847076660784,0.002,8e-05,0.0,-0.39750954832357777,-0.001505088186206227,-3.180076386588622e-05,-0.0,-0.0015368889500721131,-0.1426156047508073,0.0,0.1426156047508073,-0.1376603192830809,0.0,0.1376603192830809,-0.7525440931031134,0.0,0.7525440931031134,-0.12792164062374875,0,0.12792164062374875,-0.003041257523838017,0.003980104328404009,0.05561847076660784,0.4,0.033440589904785156,0.80804443359375,STABILIZE
0.03,0.0,0.008,-0.12714421220111757,-0.003938438821745317,-0.0,0.0015244145268911598,-0.0024140242948541566,0.03,0.0,0.008,-0.1342161420963085,-0.003968450034391253,-0.0,0.0024695314773809907,-0.0014989185570102623,0.5,0,0.1,-0.12604268838607896,-0.06207735881944854,-0.0,0.011252409101178168,-0.050824949718270375,0.002,8e-05,0.0,-0.42325852625875027,-0.0015383273553981626,-3.3860682100700024e-05,-0.0,-0.0015721880374988627,-0.13228166781304176,0.0,0.13228166781304176,-0.13128129405817723,0.0,0.13128129405817723,-0.7691636776990813,0.0,0.7691636776990813,-0.12415471763889709,0,0.12415471763889709,-0.002417266644316467,0.0014936840720081478,0.050824949718270375,0.4,0.03347659111022949,0.8415305614471436,STABILIZE
0.03,0.0,0.008,-0.1314059952479932,-0.003822294207426253,-0.0,0.0009259325011309929,-0.00289636170629526,0.03,0.0,0.008,-0.13849264235348127,-0.003835493731439896,-0.0,0.0010599592831285766,-0.0027755344483113196,0.5,0,0.1,-0.13002516430486116,-0.059529835549056,-0.0,0.015232096257369055,-0.04429773929168694,0.002,8e-05,0.0,-0.4491914421746614,-0.0015505753217498557,-3.5935315373972916e-05,-0.0,-0.0015865106371238287,-0.12784979104799654,0.0,0.12784979104799654,-0.12740980691420845,0.0,0.12740980691420845,-0.7752876608749278,0.0,0.7752876608749278,-0.119059671098112,0,0.119059671098112,-0.002902122963021531,0.002769509869085059,0.04429773929168694,0.4,0.033449411392211914,0.8749759197235107,STABILIZE
0.03,0.0,0.008,-0.1355923515096627,-0.003755984259287984,-0.0,0.0005288271515562046,-0.0032271571077317793,0.03,0.0,0.008,-0.14266528628525005,-0.0037436816046532546,-0.0,0.0007322090704347208,-0.003011472534218534,0.5,0,0.1,-0.13402499843617408,-0.05981062089136404,-0.0,-0.001679464208694644,-0.06149008510005868,0.002,8e-05,0.0,-0.47548794493498164,-0.0015728753800597834,-3.803903559479853e-05,-0.0,-0.001610914415654582,-0.12478938682177515,0.0,0.12478938682177515,-0.12519947530959946,0.0,0.12519947530959946,-0.7864376900298917,0.0,0.7864376900298917,-0.11962124178272808,0,0.11962124178272808,-0.003233437375581913,0.003004728367178353,0.06149008510005868,0.4,0.033437490463256836,0.9084043502807617,STABILIZE
0.03,0.0,0.008,-0.1397459812125645,-0.0036913006682863614,-0.0,0.0005109674611680645,-0.003180333207118297,0.03,0.0,0.008,-0.1467106506218426,-0.0035950860204735095,-0.0,0.001173829517090434,-0.0024212565033830758,0.5,0,0.1,-0.13805150480625003,-0.059638784700912675,-0.0,0.001018063862242011,-0.05862072083867066,0.002,8e-05,0.0,-0.5022394066920226,-0.0015849220356581916,-4.017915253536181e-05,-0.0,-0.0016251011881935533,-0.11983620068245032,0.0,0.11983620068245032,-0.12304335560954538,0.0,0.12304335560954538,-0.7924610178290957,0.0,0.7924610178290957,-0.11927756940182535,0,0.11927756940182535,-0.0031853668506028523,0.0024146304873737218,0.05862072083867066,0.4,0.03375744819641113,0.9421765804290771,STABILIZE
0.03,0.0,0.008,-0.14371483559610032,-0.0035568099261317314,-0.0,0.0010713598332115582,-0.0024854500929201735,0.03,0.0,0.008,-0.15059975465504427,-0.0034853392168868727,-0.0,0.0008742484077520812,-0.0026110908091347912,0.5,0,0.1,-0.14182842929910272,-0.056413434995904614,-0.0,0.019269970185197403,-0.03714346481070721,0.002,8e-05,0.0,-0.5290326045924794,-0.0016007694418568622,-4.2322608367398354e-05,-0.0,-0.0016430920502242606,-0.1161779738962291,0.0,0.1161779738962291,-0.11856033087105772,0.0,0.11856033087105772,-0.800384720928431,0.0,0.800384720928431,-0.11282686999180923,0,0.11282686999180923,-0.0024905870315987113,0.002606191400487961,0.03714346481070721,0.4,0.033475399017333984,0.9756748676300049,STABILIZE
0.03,0.0,0.008,-0.14751741199694435,-0.0034121935621392197,-0.0,0.001153508041046884,-0.002258685521092336,0.03,0.0,0.008,-0.15435448628497467,-0.003369260665575384,-0.0,0.0009258809904652911,-0.002443379675110093,0.5,0,0.1,-0.14537469760036717,-0.05303664582302252,-0.0,0.02020079206272215,-0.03283585376030037,0.002,8e-05,0.0,-0.5558578577939476,-0.0016047533150854833,-4.446862862351581e-05,-0.0,-0.0016492219437089992,-0.1123086888525128,0.0,0.1123086888525128,-0.11373978540464066,0.0,0.11373978540464066,-0.8023766575427417,0.0,0.8023766575427417,-0.10607329164604504,0,0.10607329164604504,-0.0022632051454476105,0.0024391939220883446,0.03283585376030037,0.4,0.0334322452545166,1.0090844631195068,STABILIZE
0.03,0.0,0.008,-0.15106981845934825,-0.003186388792986996,-0.0,0.0018003490020872055,-0.0013860397908997905,0.03,0.0,0.008,-0.15793937711948716,-0.003215526179243203,-0.0,0.0012257302186028949,-0.001989795960640308,0.5,0,0.1,-0.14877512915959482,-0.05083454050239419,-0.0,0.013168094715300739,-0.03766644578709345,0.002,8e-05,0.0,-0.583060080976418,-0.0016266317872176766,-4.664480647811345e-05,-0.0,-0.00167327659369579,-0.10718420597477343,0.0,0.10718420597477343,-0.10621295976623321,0.0,0.10621295976623321,-0.8133158936088383,0.0,0.8133158936088383,-0.10166908100478839,0,0.10166908100478839,-0.0013895684206896213,0.00198733335682773,0.03766644578709345,0.4,0.03344607353210449,1.0425560474395752,STABILIZE
0.03,0.0,0.008,-0.15452384628004456,-0.003094705040150787,-0.0,0.0007301856440749827,-0.002364519396075804,0.03,0.0,0.008,-0.1613899705669962,-0.00309162794507102,-0.0,0.000986747478371529,-0.002104880466699491,0.5,0,0.1,-0.15213830903378017,-0.050221800208685406,-0.0,0.0036599791580172744,-0.04656182105066813,0.002,8e-05,0.0,-0.6105459597658193,-0.0016417680466238136,-4.8843676781265544e-05,-0.0,-0.0016906117234050792,-0.10305426483570068,0.0,0.10305426483570068,-0.1031568346716929,0.0,0.1031568346716929,-0.8208840233119068,0.0,0.8208840233119068,-0.10044360041737081,0,0.10044360041737081,-0.002368205766836383,0.0021007320627425695,0.04656182105066813,0.4,0.033483266830444336,1.076019287109375,STABILIZE
0.03,0.0,0.008,-0.15790058566583234,-0.0029983426979444936,-0.0,0.0007605688791635907,-0.002237773818780903,0.03,0.0,0.008,-0.16472814462757812,-0.0029640989947699236,-0.0,0.00100656074323897,-0.0019575382515309536,0.5,0,0.1,-0.15548507701752912,-0.04952883141264872,-0.0,0.004102099080639683,-0.04542673233200904,0.002,8e-05,0.0,-0.6383460908766959,-0.0016456569606570419,-5.1067687270135676e-05,-0.0,-0.0016967246479271776,-0.09880329982566412,0.0,0.09880329982566412,-0.09994475659814979,0.0,0.09994475659814979,-0.822828480328521,0.0,0.822828480328521,-0.09905766282529745,0,0.09905766282529745,-0.00224115482606759,0.0019536664801910477,0.04542673233200904,0.4,0.03378605842590332,1.109800100326538,STABILIZE
0.03,0.0,0.008,-0.16112794652189233,-0.0028938849164497236,-0.0,0.0008325723896550533,-0.0020613125267946704,0.03,0.0,0.008,-0.16795868084415994,-0.002896732174109548,-0.0,0.0005369418540013725,-0.0023597903201081753,0.5,0,0.1,-0.15885031186163528,-0.05029187825600519,-0.0,-0.004561352859747297,-0.054853231115752486,0.002,8e-05,0.0,-0.6658707962489975,-0.00164537596422501,-5.3269663699919806e-05,0.0,-0.0016986456279249299,-0.09655773913698494,0.0,0.09655773913698494,-0.09646283054832412,0.0,0.09646283054832412,-0.822687982112505,0.0,0.822687982112505,-0.10058375651201037,0,0.10058375651201037,-0.002065452002082002,0.0023561680150388942,0.054853231115752486,0.4,0.033457040786743164,1.143280267715454,STABILIZE
0.03,0.0,0.008,-0.1643197278989488,-0.0028624917458333547,-0.0,0.0002502613393562904,-0.0026122304064770644,0.03,0.0,0.008,-0.17103103473657627,-0.002755385353313669,-0.0,0.0011267942674030448,-0.0016285910859106243,0.5,0,0.1,-0.162047501650359,-0.04778903637673557,-0.0,0.014964191620464222,-0.03282484475627135,0.002,8e-05,0.0,-0.6935151858157222,-0.0016528249192791662,-5.548121486525778e-05,-0.0,-0.001708306134144424,-0.09184617844378898,0.0,0.09184617844378898,-0.09541639152777849,0.0,0.09541639152777849,-0.8264124596395831,0.0,0.8264124596395831,-0.09557807275347115,0,0.09557807275347115,-0.0026149435082287926,0.0016242312244267964,0.03282484475627135,0.4,0.033451080322265625,1.1767146587371826,STABILIZE
0.03,0.0,0.008,-0.16735936745703542,-0.0027313802093210577,-0.0,0.001047245384636004,-0.0016841348246850536,0.03,0.0,0.008,-0.17408293412926706,-0.0027423967357767492,-0.0,0.00010374578873969475,-0.0026386509470370544,0.5,0,0.1,-0.16507486631027896,-0.04533916911576412,-0.0,0.014676123762281819,-0.0306630453534823,0.002,8e-05,0.0,-0.7214180604812144,-0.001671543795200631,-5.7713444838497155e-05,-0.0,-0.0017292572400391282,-0.09141322452589165,0.0,0.09141322452589165,-0.09104600697736859,0.0,0.09104600697736859,-0.8357718976003154,0.0,0.8357718976003154,-0.09067833823152824,0,0.09067833823152824,-0.0016883087366116776,0.0026359822719239185,0.0306630453534823,0.4,0.0333857536315918,1.210092306137085,STABILIZE
0.03,0.0,0.008,-0.17019460079768972,-0.0025436163862193185,-0.0,0.0014973461277262424,-0.001046270258493076,0.03,0.0,0.008,-0.17692836815962415,-0.0025527678874755744,-0.0,0.0015122190048031793,-0.001040548882672395,0.5,0,0.1,-0.16793271289114386,-0.04273172915585182,-0.0,0.015595017437695617,-0.027136711718156202,0.002,8e-05,0.0,-0.7494273084167083,-0.0016752244219861582,-5.995418467333667e-05,-0.0,-0.0017351786066594948,-0.08509226291585248,0.0,0.08509226291585248,-0.0847872128739773,0.0,0.0847872128739773,-0.837612210993079,0.0,0.837612210993079,-0.08546345831170364,0,0.08546345831170364,-0.0010478211961914155,0.0010389870893567107,0.027136711718156202,0.4,0.03343939781188965,1.2435412406921387,STABILIZE
0.03,0.0,0.008,-0.1729248053809388,-0.002442980452203384,-0.0,0.000800433690243692,-0.0016425467619596921,0.03,0.0,0.008,-0.17967925370747442,-0.0024614857292670276,-0.0,0.0007260360373532811,-0.0017354496919137466,0.5,0,0.1,-0.17069016859734362,-0.041122744850900755,-0.0,0.009598101741811046,-0.03152464310908971,0.002,8e-05,0.0,-0.777716717348695,-0.001687552975559718,-6.221733738789561e-05,-0.0,-0.0017497703129476137,-0.08204952430890093,0.0,0.08204952430890093,-0.08143268174011281,0.0,0.08143268174011281,-0.843776487779859,0.0,0.843776487779859,-0.08224548970180151,0,0.08224548970180151,-0.0016450362280724619,0.0017330901034617082,0.03152464310908971,0.4,0.03352713584899902,1.2770659923553467,STABILIZE
0.03,0.0,0.008,-0.17553694086537913,-0.0023449364638459887,-0.0,0.0007823549385963446,-0.001562581525249644,0.03,0.0,0.008,-0.18238302528835026,-0.002427198974813017,-0.0,0.000273595680112009,-0.002153603294701008,0.5,0,0.1,-0.17337197882019462,-0.040124734584263244,-0.0,0.005972815931565604,-0.03415191865269764,0.002,8e-05,0.0,-0.8059879658266104,-0.0016919561747902787,-6.447903726612884e-05,-0.0,-0.0017564352120564076,-0.08090663249376724,0.0,0.08090663249376724,-0.0781645487948663,0.0,0.0781645487948663,-0.8459780873951394,0.0,0.8459780873951394,-0.08024946916852649,0,0.08024946916852649,-0.0015655963659591235,0.0021514126040567223,0.03415191865269764,0.4,0.03341841697692871,1.3104889392852783,STABILIZE
0.03,0.0,0.008,-0.17808148941363616,-0.0022824067737217298,-0.0,0.0004985584256493555,-0.0017838483480723743,0.03,0.0,0.008,-0.18508256117661406,-0.002421427172807811,-0.0,4.601942717382997e-05,-0.0023754077456339807,0.5,0,0.1,-0.17582493708268226,-0.03667087008285163,-0.0,0.020653627638423936,-0.016017242444427694,0.002,8e-05,0.0,-0.834393201106818,-0.0016985934225834767,-6.675145608854544e-05,-0.0,-0.0017653448786720221,-0.0807142390935937,0.0,0.0807142390935937,-0.07608022579072433,0.0,0.07608022579072433,-0.8492967112917383,0.0,0.8492967112917383,-0.07334174016570326,0,0.07334174016570326,-0.0017868875379821328,0.002373122376436285,0.016017242444427694,0.4,0.03344559669494629,1.3439581394195557,STABILIZE
0.03,0.0,0.008,-0.18052521427457052,-0.0021914232786958867,-0.0,0.0007252438536272858,-0.001466179425068601,0.03,0.0,0.008,-0.18770457395455,-0.0023513039174180798,-0.0,0.000558963578540191,-0.0017923403388778888,0.5,0,0.1,-0.1782469327013613,-0.03619895775039167,-0.0,0.002821265976347874,-0.033377691774043795,0.002,8e-05,0.0,-0.8628727575489166,-0.0017026129237338525,-6.902982060391333e-05,-0.0,-0.0017716427443377658,-0.07837679724726933,0.0,0.07837679724726933,-0.07304744262319623,0.0,0.07304744262319623,-0.8513064618669263,0.0,0.8513064618669263,-0.07239791550078334,0,0.07239791550078334,-0.0014684430229709488,0.0017904862705844298,0.033377691774043795,0.4,0.033453941345214844,1.3773999214172363,STABILIZE
0.03,0.0,0.008,-0.18296394988705164,-0.0021871361902095353,-0.0,3.417598431341192e-05,-0.0021529602058961233,0.03,0.0,0.008,-0.19025790640794585,-0.0022899103067499107,-0.0,0.0004894200532176678,-0.001800490253532243,0.5,0,0.1,-0.18063836319868,-0.03574519080220768,-0.0,0.0027130181973940956,-0.03303217260481358,0.002,8e-05,0.0,-0.8913001254661319,-0.001699638256423877,-7.130401003729056e-05,0.0,-0.0017709422664611675,-0.07633034355833036,0.0,0.07633034355833036,-0.07290453967365118,0.0,0.07290453967365118,-0.8498191282119385,0.0,0.8498191282119385,-0.07149038160441536,0,0.07149038160441536,-0.0021552050776697334,0.0017978025126313172,0.03303217260481358,0.4,0.033451080322265625,1.4108564853668213,STABILIZE
0.03,0.0,0.008,-0.18543389120855783,-0.002124482486408927,-0.0,0.0004790278314137786,-0.0016454546549951484,0.03,0.0,0.008,-0.1928405383773266,-0.0022214116343635564,-0.0,0.0005237163726566414,-0.0016976952617069152,0.5,0,0.1,-0.1830255641085452,-0.034221909648818,-0.0,0.008734847542261176,-0.025487062106556824,0.002,8e-05,0.0,-0.9212655906922963,-0.0017182892974224088,-7.370124725538371e-05,-0.0,-0.0017919905446777925,-0.07404705447878522,0.0,0.07404705447878522,-0.07081608288029757,0.0,0.07081608288029757,-0.8591446487112043,0.0,0.8591446487112043,-0.068443819297636,0,0.068443819297636,-0.0016474814963108645,0.0016957284401049094,0.025487062106556824,0.4,0.03487825393676758,1.4457240104675293,STABILIZE
0.03,0.0,0.008,-0.18773860491902258,-0.0020651600358890226,-0.0,0.0004725016039507442,-0.0015926584319382784,0.03,0.0,0.008,-0.194943657152119,-0.0018845190292868714,-0.0,0.002683339863117557,0.0007988208338306855,0.5,0,0.1,-0.18519939132970226,-0.032464633110229374,-0.0,0.010497492632947742,-0.021967140477281634,0.002,8e-05,0.0,-0.9500376392350951,-0.0017187640134058034,-7.600301113880762e-05,-0.0,-0.001794767024544611,-0.06281730097622905,0.0,0.06281730097622905,-0.06883866786296743,0.0,0.06883866786296743,-0.8593820067029017,0.0,0.8593820067029017,-0.06492926622045875,0,0.06492926622045875,-0.0015917521621636593,-0.0008006251679989602,0.021967140477281634,0.4,0.033479928970336914,1.4792180061340332,STABILIZE
0.03,0.0,0.008,-0.1899634725896134,-0.001996413990835586,-0.0,0.0005483295048098968,-0.0014480844860256894,0.03,0.0,0.008,-0.19712018144521198,-0.0019530346040627512,-0.0,-0.0005464912368329134,-0.0024995258408956646,0.5,0,0.1,-0.18722205673809258,-0.03024957074576112,-0.0,0.013250770082349685,-0.016998800663411435,0.002,8e-05,0.0,-0.9788030436366154,-0.0017207811669982356,-7.830424349092924e-05,-0.0,-0.0017990854104891648,-0.06510115346875837,0.0,0.06510115346875837,-0.06654713302785288,0.0,0.06654713302785288,-0.8603905834991178,0.0,0.8603905834991178,-0.06049914149152224,0,0.06049914149152224,-0.0014507229506337514,0.0024979954020129752,0.016998800663411435,0.4,0.033432960510253906,1.5126841068267822,STABILIZE
0.03,0.0,0.008,-0.1921595535733279,-0.0019702038260990813,-0.0,0.0002090162419307354,-0.0017611875841683459,0.03,0.0,0.008,-0.19914259956426847,-0.0018144029959212252,-0.0,0.0011055351249356481,-0.000708867870985577,0.5,0,0.1,-0.18906318150741266,-0.027529275193249072,-0.0,0.016270003232802383,-0.011259271960446689,0.002,8e-05,0.0,-1.007592487975845,-0.0017218877266380363,-8.060739903806761e-05,-0.0,-0.001802495125676104,-0.06048009986404084,0.0,0.06048009986404084,-0.06567346086996938,0.0,0.06567346086996938,-0.8609438633190181,0.0,0.8609438633190181,-0.055058550386498144,0,0.055058550386498144,-0.001761867959593314,0.0007071751254836752,0.011259271960446689,0.4,0.03343939781188965,1.5461158752441406,STABILIZE
0.03,0.0,0.008,-0.19433328018383741,-0.0019494537366522631,-0.0,0.00016541521811700105,-0.001784038518535262,0.03,0.0,0.008,-0.20101465545313327,-0.0016789077016975424,-0.0,0.0010801391341122447,-0.0005987685675852977,0.5,0,0.1,-0.1907249152938877,-0.024838090829077328,-0.0,0.016090154083436805,-0.008747936745640523,0.002,8e-05,0.0,-1.0365633481880812,-0.0017321206638626148,-8.29250678550465e-05,-0.0,-0.0018150457317176612,-0.05596359005658475,0.0,0.05596359005658475,-0.06498179122174211,0.0,0.06498179122174211,-0.8660603319313074,0.0,0.8660603319313074,-0.049676181658154656,0,0.049676181658154656,-0.0017845569880192255,0.0005972215582657673,0.008747936745640523,0.4,0.03345131874084473,1.5795440673828125,STABILIZE
0.03,0.0,0.008,-0.19656427236596172,-0.0019345584935812816,-0.0,0.00011480978125760291,-0.0018197487123236787,0.03,0.0,0.008,-0.2028370274821627,-0.0015802320220893716,-0.0,0.0007605739051905809,-0.0008196581168987907,0.5,0,0.1,-0.19233998820176906,-0.02334128164088792,-0.0,0.00865284648233696,-0.01468843515855096,0.002,8e-05,0.0,-1.066613685366591,-0.001737168347173488,-8.532909482932729e-05,-0.0,-0.0018224974420028152,-0.05267440073631239,0.0,0.05267440073631239,-0.06448528311937606,0.0,0.06448528311937606,-0.868584173586744,0.0,0.868584173586744,-0.04668256328177584,0,0.04668256328177584,-0.0018204159365183374,0.0008181751784745257,0.01468843515855096,0.4,0.034596920013427734,1.6141364574432373,STABILIZE
0.03,0.0,0.008,-0.1985840866650677,-0.0018103244947640144,-0.0,0.0009897669030087793,-0.0008205575917552351,0.03,0.0,0.008,-0.2044879897023821,-0.0014797287792823824,-0.0,0.0008007049947875237,-0.0006790237844948587,0.5,0,0.1,-0.19373709367156175,-0.020870023008666173,-0.0,0.014766308093400108,-0.006103714915266066,0.002,8e-05,0.0,-1.095660091984172,-0.0017355860027316158,-8.765280735873376e-05,0.0,-0.0018232388100903496,-0.04932429264274608,0.0,0.04932429264274608,-0.060344149825467146,0.0,0.060344149825467146,-0.867793001365808,0.0,0.867793001365808,-0.04174004601733235,0,0.04174004601733235,-0.0008210520436349677,0.0006784258271467223,0.006103714915266066,0.4,0.03347158432006836,1.647655725479126,STABILIZE
0.03,0.0,0.008,-0.2005151712957008,-0.0017316240368156859,-0.0,0.0006273025245555003,-0.0011043215122601856,0.03,0.0,0.008,-0.20598829124431703,-0.0013453362795572705,-0.0,0.0010712104675964927,-0.00027412581196077776,0.5,0,0.1,-0.1951383777967681,-0.020942438557789995,-0.0,-0.0004329052647851649,-0.02137534382257516,0.002,8e-05,0.0,-1.124680842099533,-0.0017348809288834902,-8.997446736796264e-05,0.0,-0.0018248553962514529,-0.04484454265190902,0.0,0.04484454265190902,-0.05772080122718953,0.0,0.05772080122718953,-0.867440464441745,0.0,0.867440464441745,-0.04188487711557999,0,0.04188487711557999,-0.0011045216110873628,0.0002733184477212529,0.02137534382257516,0.4,0.033455610275268555,1.6810777187347412,STABILIZE
0.03,0.0,0.008,-0.2024198834112425,-0.0017074522986474808,-0.0,0.00019260812083810472,-0.0015148441778093762,0.03,0.0,0.008,-0.20744656445773033,-0.0013072484445190997,-0.0,0.0003034960201225184,-0.0010037524243965814,0.5,0,0.1,-0.19647993180068027,-0.02004361926971227,-0.0,0.0053715591172528426,-0.014672060152459426,0.002,8e-05,0.0,-1.1536644564147398,-0.0017321301377360553,-9.229315651317919e-05,0.0,-0.0018244232942492345,-0.04357494815063666,0.0,0.04357494815063666,-0.0569150766215827,0.0,0.0569150766215827,-0.8660650688680277,0.0,0.8660650688680277,-0.04008723853942454,0,0.04008723853942454,-0.0015155460866821695,0.001002692311562895,0.014672060152459426,0.4,0.03346586227416992,1.7145535945892334,STABILIZE
0.03,0.0,0.008,-0.20432909525635987,-0.0017105963896403074,-0.0,-2.504009746120261e-05,-0.00173563648710151,0.03,0.0,0.008,-0.20889625389560657,-0.0012988781338606873,-0.0,6.66626364012307e-05,-0.0012322154974594567,0.5,0,0.1,-0.1977699111258256,-0.0192630446078879,-0.0,0.004662476130403374,-0.014600568477484525,0.002,8e-05,0.0,-1.1826452759008097,-0.0017310628400045679,-9.461162207206478e-05,0.0,-0.0018256744620766326,-0.043295937795356246,0.0,0.043295937795356246,-0.05701987965467692,0.0,0.05701987965467692,-0.8655314200022839,0.0,0.8655314200022839,-0.0385260892157758,0,0.0385260892157758,-0.0017364646451263391,0.0012310481646806448,0.014600568477484525,0.4,0.033483266830444336,1.7480344772338867,STABILIZE
0.03,0.0,0.008,-0.20615024030164772,-0.0016315401592069123,-0.0,0.000629559543059477,-0.0010019806161474353,0.03,0.0,0.008,-0.21024371852406423,-0.001207176034730397,-0.0,0.000730264158935575,-0.0004769118757948221,0.5,0,0.1,-0.19904638757219525,-0.019059644095185575,-0.0,0.001214825825234828,-0.017844818269950748,0.002,8e-05,0.0,-1.2116055336070035,-0.0017296745470070799,-9.692844268856029e-05,0.0,-0.0018266029896956402,-0.040239201157679906,0.0,0.040239201157679906,-0.054384671973563746,0.0,0.054384671973563746,-0.8648372735035399,0.0,0.8648372735035399,-0.03811928819037115,0,0.03811928819037115,-0.0010022976872199822,0.00047624514549001417,0.017844818269950748,0.4,0.033486366271972656,1.7815043926239014,STABILIZE
0.03,0.0,0.008,-0.20788862656290055,-0.0015607201663434562,-0.0,0.0005651739253476134,-0.0009955462409958428,0.03,0.0,0.008,-0.21150066836768305,-0.0011284873866895127,-0.0,0.0006279691693743709,-0.0005005182173151418,0.5,0,0.1,-0.2002738170558454,-0.018366400979614117,-0.0,0.0041492831014874176,-0.0142171178781267,0.002,8e-05,0.0,-1.2404974263344182,-0.0017292727409925818,-9.923979410675346e-05,0.0,-0.0018285125350993353,-0.03761624622298376,0.0,0.03761624622298376,-0.05202400554478188,0.0,0.05202400554478188,-0.8646363704962908,0.0,0.8646363704962908,-0.036732801959228234,0,0.036732801959228234,-0.0009958669227814866,0.0004998798615017539,0.0142171178781267,0.4,0.03341507911682129,1.8149290084838867,STABILIZE
0.03,0.0,0.008,-0.20957424117139195,-0.0015129748325138413,-0.0,0.0003809358350639055,-0.0011320389974499357,0.03,0.0,0.008,-0.21272339397391493,-0.0010974946823430504,-0.0,0.00024727508981799926,-0.0008502195925250511,0.5,0,0.1,-0.2014014012175154,-0.01686829292170156,-0.0,0.008964484038797998,-0.007903808882903561,0.002,8e-05,0.0,-1.2691211694169717,-0.0017128076084961732,-0.00010152969355335775,0.0,-0.0018143373020495309,-0.03658315607810168,0.0,0.03658315607810168,-0.05043249441712805,0.0,0.05043249441712805,-0.8564038042480866,0.0,0.8564038042480866,-0.03373658584340312,0,0.03373658584340312,-0.0011325394228060386,0.0008495528841991442,0.007903808882903561,0.4,0.03342318534851074,1.8483531475067139,STABILIZE
0.03,0.0,0.008,-0.21121986764955275,-0.0014709126733842787,-0.0,0.0003341909331169335,-0.001136721740267345,0.03,0.0,0.008,-0.21405899717181065,-0.0011938041204788072,-0.0,-0.000765194694343091,-0.0019589988148218983,0.5,0,0.1,-0.20259261165610107,-0.01774568889149926,-0.0,-0.005228293980758476,-0.022973982872257735,0.002,8e-05,0.0,-1.2978611877470756,-0.0017125821181605838,-0.00010382889501976606,0.0,-0.0018164110131803498,-0.03979347068262691,0.0,0.03979347068262691,-0.04903042244614263,0.0,0.04903042244614263,-0.8562910590802919,0.0,0.8562910590802919,-0.03549137778299852,0,0.03549137778299852,-0.0011379350070706196,0.001958294306521166,0.022973982872257735,0.4,0.03356337547302246,1.8819458484649658,STABILIZE
0.03,0.0,0.008,-0.2128026691233562,-0.0014202156152102255,-0.0,0.0004043505833348347,-0.0010158650318753907,0.03,0.0,0.008,-0.21534497390032162,-0.0011538807998703084,-0.0,0.0003184211975631379,-0.0008354596023071705,0.5,0,0.1,-0.20369670879311877,-0.01651139894099095,-0.0,0.007383355358296574,-0.009128043582694374,0.002,8e-05,0.0,-1.3265635477095619,-0.0017169363093129427,-0.00010612508381676496,-0.0,-0.0018230613931297078,-0.038462693329010283,0.0,0.038462693329010283,-0.047340520507007516,0.0,0.047340520507007516,-0.8584681546564713,0.0,0.8584681546564713,-0.0330227978819819,0,0.0330227978819819,-0.0010163463857353252,0.0008348739631089149,0.009128043582694374,0.4,0.033434391021728516,1.915390968322754,STABILIZE
0.03,0.0,0.008,-0.21436932656992563,-0.001364616450641923,-0.0,0.00043047932556732635,-0.0009341371250745967,0.03,0.0,0.008,-0.21678199467029613,-0.0012516981213189506,-0.0,-0.0007573555267055262,-0.0020090536480244768,0.5,0,0.1,-0.20475194187726514,-0.015319115962894238,-0.0,0.006923483153230946,-0.008395632809663291,0.002,8e-05,0.0,-1.356352132758667,-0.0017297971248008285,-0.00010850817062069337,-0.0,-0.0018383052954215218,-0.04172327071063169,0.0,0.04172327071063169,-0.04548721502139744,0.0,0.04548721502139744,-0.8648985624004142,0.0,0.8648985624004142,-0.030638231925788476,0,0.030638231925788476,-0.00093521130884564,0.0020085538421686176,0.008395632809663291,0.4,0.03444170951843262,1.9498190879821777,STABILIZE
0.03,0.0,0.008,-0.21582593009659798,-0.0013055284560871765,-0.0,0.00047075150065380167,-0.0008347769554333749,0.03,0.0,0.008,-0.2182788469457892,-0.0013416027109857654,-0.0,-0.0007162659829672197,-0.002057868693952985,0.5,0,0.1,-0.20570266393601705,-0.014201927964639064,-0.0,0.006675441398723081,-0.007526486565915983,0.002,8e-05,0.0,-1.3850891028509085,-0.0017170964969836673,-0.00011080712822807269,0.0,-0.00182790362521174,-0.044720090366192185,0.0,0.044720090366192185,-0.04351761520290588,0.0,0.04351761520290588,-0.8585482484918336,0.0,0.8585482484918336,-0.02840385592927813,0,0.02840385592927813,-0.0008357970223000899,0.0020574546080992123,0.007526486565915983,0.4,0.03347158432006836,1.9832804203033447,STABILIZE
0.03,0.0,0.008,-0.2172901436321068,-0.0013100349881622504,-0.0,-3.584003471534307e-05,-0.0013458750228775935,0.03,0.0,0.008,-0.2197170547081176,-0.001286767567164989,-0.0,0.0004360988506056828,-0.0008506687165593063,0.5,0,0.1,-0.20658445952606747,-0.013149073403101518,-0.0,0.006279941550470252,-0.0068691318526312665,0.002,8e-05,0.0,-1.413501453394564,-0.0016947060614436562,-0.00011308011627156512,0.0,-0.0018077861777152213,-0.04289225223883297,0.0,0.04289225223883297,-0.043667832938741685,0.0,0.043667832938741685,-0.8473530307218281,0.0,0.8473530307218281,-0.026298146806203036,0,0.026298146806203036,-0.0013462653288906915,0.0008500508848094087,0.0068691318526312665,0.4,0.03353071212768555,2.016819715499878,STABILIZE
0.03,0.0,0.008,-0.2187095147127408,-0.0012735092735335993,-0.0,0.00029130796456539813,-0.000982201308968201,0.03,0.0,0.008,-0.22104306780888,-0.0011897452355402848,-0.0,0.0007737939758422032,-0.00041595125969808163,0.5,0,0.1,-0.20746614789496723,-0.013184692965786738,-0.0,-0.00021306076575162741,-0.013397753731538366,0.002,8e-05,0.0,-1.4419079617534287,-0.0016991540510352843,-0.0001153526369402743,-0.0,-0.0018145066879755587,-0.039658174518009494,0.0,0.039658174518009494,-0.04245030911778665,0.0,0.04245030911778665,-0.8495770255176421,0.0,0.8495770255176421,-0.026369385931573477,0,0.026369385931573477,-0.000982392639271743,0.00041549917459360574,0.013397753731538366,0.4,0.03343605995178223,2.050273895263672,STABILIZE
0.03,0.0,0.008,-0.220150631964906,-0.0012696361651876825,-0.0,3.0331025276260412e-05,-0.001239305139911422,0.03,0.0,0.008,-0.2223963321267908,-0.0011922370067363754,-0.0,-1.951351947356685e-05,-0.0012117505262099423,0.5,0,0.1,-0.2083350133284844,-0.012757960018143964,-0.0,0.002506368270360553,-0.01025159174778341,0.002,8e-05,0.0,-1.470754991415323,-0.0016942980437321766,-0.00011766039931322586,0.0,-0.0018119584430454025,-0.03974123355787918,0.0,0.03974123355787918,-0.042321205506256086,0.0,0.042321205506256086,-0.8471490218660883,0.0,0.8471490218660883,-0.02551592003628793,0,0.02551592003628793,-0.001239844654122568,0.001211198497862605,0.01025159174778341,0.4,0.03405189514160156,2.0843095779418945,STABILIZE
0.03,0.0,0.008,-0.22106286177530252,-0.0008031589963402637,-0.0,0.0036506915299656995,0.0028475325336254358,0.03,0.0,0.008,-0.22338905230602235,-0.0008740255292158938,-0.0,0.0024903511324942743,0.0016163256032783804,0.5,0,0.1,-0.20909820529684942,-0.011199014552786782,-0.0,0.00915033369176444,-0.0020486808610223426,0.002,8e-05,0.0,-1.5005400617568176,-0.0017482544368215428,-0.00012004320494054543,-0.0,-0.0018682976417620882,-0.029134184307196463,0.0,0.029134184307196463,-0.026771966544675455,0.0,0.026771966544675455,-0.8741272184107713,0.0,0.8741272184107713,-0.022398029105573564,0,0.022398029105573564,0.0028481641689927606,-0.0016152123242268472,0.0020486808610223426,0.4,0.03407406806945801,2.1183950901031494,STABILIZE
0.03,0.0,0.008,-0.22228493594064347,-0.0010959952446087519,-0.0,-0.002334443774389922,-0.0034304390189986737,0.03,0.0,0.008,-0.2248293434931108,-0.001291699257434518,-0.0,-0.003329628214852109,-0.004621327472286627,0.5,0,0.1,-0.21027925500443162,-0.01765338662016347,-0.0,-0.03858991700833378,-0.05624330362849725,0.002,8e-05,0.0,-1.5295778603334715,-0.0017361351739259632,-0.00012236622882667774,0.0,-0.001858501402752641,-0.04305664191448394,0.0,0.04305664191448394,-0.03653317482029173,0.0,0.03653317482029173,-0.8680675869629816,0.0,0.8680675869629816,-0.03530677324032694,0,0.03530677324032694,-0.003433286119337368,0.00461921269178472,0.05624330362849725,0.4,0.033451080322265625,2.151864528656006,STABILIZE
0.03,0.0,0.008,-0.22383502932672025,-0.0013914825121126933,-0.0,-0.0023577955236725387,-0.003749278035785232,0.03,0.0,0.008,-0.22674099046748886,-0.0017160406966915862,-0.0,-0.003385967708323446,-0.005102008405015032,0.5,0,0.1,-0.21189746065662024,-0.024210421624137814,-0.0,-0.039240644558556075,-0.06345106618269389,0.002,8e-05,0.0,-1.5585391922846352,-0.0017331939395613092,-0.00012468313538277083,0.0,-0.00185787707494408,-0.05720135655638621,0.0,0.05720135655638621,-0.046382750403756445,0.0,0.046382750403756445,-0.8665969697806546,0.0,0.8665969697806546,-0.04842084324827563,0,0.04842084324827563,-0.00375358841973605,0.005098838056821282,0.06345106618269389,0.4,0.03341960906982422,2.185276508331299,STABILIZE
0.03,0.0,0.008,-0.22517420074959188,-0.001199891491929261,-0.0,0.001525908275134548,0.000326016783205287,0.03,0.0,0.008,-0.228309350335517,-0.0014052432943162212,-0.0,0.0024753160545877275,0.0010700727602715064,0.5,0,0.1,-0.21268250126938784,-0.011723213523315219,-0.0,0.0745898770051805,0.06286666348186527,0.002,8e-05,0.0,-1.5878079365911242,-0.0017483107675391998,-0.00012702463492728994,-0.0,-0.0018753354024664897,-0.04684144314387404,0.0,0.04684144314387404,-0.0399963830643087,0.0,0.0399963830643087,-0.8741553837695999,0.0,0.8741553837695999,-0.023446427046630438,0,0.023446427046630438,0.0003264546482349131,-0.0010699392589546487,-0.06286666348186527,0.4,0.03348231315612793,2.218752384185791,STABILIZE
0.03,0.0,0.008,-0.22826045433238432,-0.0027696474108650265,-0.0,-0.01252196497198968,-0.015291612382854706,0.03,0.0,0.008,-0.23009765046081665,-0.0016048457066202386,-0.0,-0.0015922312412047191,-0.0031970769478249575,0.5,0,0.1,-0.2130870472073746,-0.0060507536600797485,-0.0,0.033936968889058776,0.02788621522897903,0.002,8e-05,0.0,-1.615914065309302,-0.001681522371066429,-0.00012927312522474418,0.0,-0.0018107954962911733,-0.05349485688734129,0.0,0.05349485688734129,-0.09232158036216756,0.0,0.09232158036216756,-0.8407611855332146,0.0,0.8407611855332146,-0.012101507320159497,0,0.012101507320159497,-0.015292287300058945,0.00319384711754415,-0.02788621522897903,0.4,0.03342938423156738,2.2521843910217285,STABILIZE
0.03,0.0,0.008,-0.23357579169908899,-0.004607306279401268,-0.0,-0.014158870888843635,-0.018766177168244903,0.03,0.0,0.008,-0.2327164586032793,-0.002269969028663108,-0.0,-0.0051246699826638835,-0.007394639011326991,0.5,0,0.1,-0.21432742573855107,-0.017919225696194887,-0.0,-0.06858352470270707,-0.08650275039890196,0.002,8e-05,0.0,-1.6440914887782418,-0.0016282694290049818,-0.00013152731910225936,0.0,-0.0017597967481072412,-0.07566563428877027,0.0,0.07566563428877027,-0.15357687598004227,0.0,0.15357687598004227,-0.8141347145024909,0.0,0.8141347145024909,-0.035838451392389774,0,0.035838451392389774,-0.018770798835946297,0.007382899340925111,0.08650275039890196,0.4,0.03461027145385742,2.286785364151001,STABILIZE
0.03,0.0,0.008,-0.23731346913634555,-0.003349943820374583,-0.0,0.010017138349909109,0.006667194529534525,0.03,0.0,0.008,-0.23485949724369312,-0.0019207272887485005,-0.0,0.0027823344025999356,0.0008616071138514351,0.5,0,0.1,-0.21888071872770698,-0.0680158376756271,-0.0,-0.29933176157184543,-0.3673475992474725,0.002,8e-05,0.0,-1.6701730797755343,-0.0015583985162551889,-0.00013361384638204275,0.0,-0.0016920123626372316,-0.06402424295828335,0.0,0.06402424295828335,-0.11166479401248611,0.0,0.11166479401248611,-0.7791992581275944,0.0,0.7791992581275944,-0.1360316753512542,0,0.1360316753512542,0.006669221364850689,-0.0008457754429596607,0.3673475992474725,0.4,0.033472299575805664,2.3202691078186035,STABILIZE
0.03,0.0,0.008,-0.24102601004385135,-0.0033320191681499734,-0.0,0.0001429994803087803,-0.0031890196878411933,0.03,0.0,0.008,-0.23564350009390866,-0.000703645451965509,-0.0,0.009709648364294084,0.009006002912328575,0.5,0,0.1,-0.22264990194106393,-0.056380930778806834,-0.0,0.0696158125763534,0.01323488179754656,0.002,8e-05,0.0,-1.6957170297812532,-0.001528385961166437,-0.00013565736238250027,0.0,-0.0016640433235489372,-0.0234548483988503,0.0,0.0234548483988503,-0.11106730560499911,0.0,0.11106730560499911,-0.7641929805832185,0.0,0.7641929805832185,-0.11276186155761367,0,0.11276186155761367,-0.003171289117377638,-0.009012261667323673,-0.01323488179754656,0.4,0.03342604637145996,2.35371470451355,STABILIZE
0.03,0.0,0.008,-0.24628451719708983,-0.004708547369210705,-0.0,-0.010956127197950236,-0.01566467456716094,0.03,0.0,0.008,-0.23726174514668355,-0.0014490012590909725,-0.0,-0.005932470562030391,-0.007381471821121364,0.5,0,0.1,-0.22486984394180218,-0.033129497792096854,-0.0,0.13879791409687833,0.10566841630478148,0.002,8e-05,0.0,-1.7210554139111207,-0.0015125583295538226,-0.00013768443311288966,0.0,-0.0016502427626667122,-0.04830004196969909,0.0,0.04830004196969909,-0.15695157897369016,0.0,0.15695157897369016,-0.7562791647769113,0.0,0.7562791647769113,-0.06625899558419371,0,0.06625899558419371,-0.01567320030249244,0.0073633516701987305,-0.10566841630478148,0.4,0.03350400924682617,2.387195348739624,STABILIZE
0.03,0.0,0.008,-0.2499511108182136,-0.0032898192294895873,-0.0,0.011315035389512914,0.008025216160023326,0.03,0.0,0.008,-0.2392865339989727,-0.0018167241833239773,-0.0,-0.0029327661760832646,-0.004749490359407242,0.5,0,0.1,-0.2307629925969664,-0.0881262727358451,-0.0,-0.32896918587230894,-0.41709545860815406,0.002,8e-05,0.0,-1.745720533068936,-0.0014753709062193577,-0.00013965764264551488,0.0,-0.0016150285488648725,-0.06055747277746591,0.0,0.06055747277746591,-0.10966064098298625,0.0,0.10966064098298625,-0.7376854531096788,0.0,0.7376854531096788,-0.1762525454716902,0,0.1762525454716902,0.008010567890465812,0.0047741549159448105,0.41709545860815406,0.4,0.033435821533203125,2.4206793308258057,STABILIZE
0.03,0.0,0.008,-0.25406154633067674,-0.0036824857129124974,-0.0,-0.0031269759577870417,-0.006809461670699539,0.03,0.0,0.008,-0.2399737380379946,-0.0006156571603862458,-0.0,0.009564625102907412,0.008948967942521166,0.5,0,0.1,-0.23485107685123713,-0.061041025190188544,-0.0,0.16176880659832182,0.10072778140813328,0.002,8e-05,0.0,-1.7701736230514347,-0.0014604803509519757,-0.00014161388984411478,0.0,-0.0016020942407960904,-0.020521905346208194,0.0,0.020521905346208194,-0.12274952376374992,0.0,0.12274952376374992,-0.7302401754759879,0.0,0.7302401754759879,-0.12208205038037709,0,0.12208205038037709,-0.006790378359662113,-0.008963456766986169,-0.10072778140813328,0.4,0.033486366271972656,2.4541101455688477,STABILIZE
0.03,0.0,0.008,-0.2612889580707339,-0.006469278741803745,-0.0,-0.022173041006818522,-0.028642319748622268,0.03,0.0,0.008,-0.2419366453606556,-0.00175700445350872,-0.0,-0.009081097903956876,-0.010838102357465596,0.5,0,0.1,-0.239484523441761,-0.06912354105787163,-0.0,-0.048231234051412636,-0.11735477510928427,0.002,8e-05,0.0,-1.7952804702172103,-0.0014982144690706223,-0.00014362243761737684,-0.0,-0.0016418369066879992,-0.05856681511695734,0.0,0.05856681511695734,-0.21564262472679152,0.0,0.21564262472679152,-0.7491072345353111,0.0,0.7491072345353111,-0.13824708211574327,0,0.13824708211574327,-0.028668387243519895,0.010768960773853909,0.11735477510928427,0.4,0.03351569175720215,2.487640142440796,STABILIZE
0.03,0.0,0.008,-0.2676934148957932,-0.00573697517868859,-0.0,0.005830949678554267,9.397449986567677e-05,0.03,0.0,0.008,-0.243960450177544,-0.0018128809855614315,-0.0,-0.000444915555545714,-0.0022577965411071455,0.5,0,0.1,-0.24351711438201948,-0.060205142455238836,-0.0,0.0532594023344897,-0.006945740120749139,0.002,8e-05,0.0,-1.820293095171659,-0.0014937182281776556,-0.00014562344761373273,0.0,-0.0016393416757913882,-0.060429366185381056,0.0,0.060429366185381056,-0.19123250595628635,0.0,0.19123250595628635,-0.7468591140888278,0.0,0.7468591140888278,-0.12041028491047767,0,0.12041028491047767,8.922941013917045e-05,0.0022579890478092693,0.006945740120749139,0.4,0.03349041938781738,2.5211288928985596,STABILIZE
0.03,0.0,0.008,-0.27299636182575904,-0.0047553442199866295,-0.0,0.007824568602698081,0.0030692243827114517,0.03,0.0,0.008,-0.24420561991657072,-0.0002198525681651147,-0.0,0.012698010415693845,0.01247815784752873,0.5,0,0.1,-0.24983787461100043,-0.0944675700063988,-0.0,-0.20482904941959457,-0.2992966194259934,0.002,8e-05,0.0,-1.8455238379423005,-0.0015083546109346917,-0.00014764190703538406,-0.0,-0.0016559965179700758,-0.007328418938837157,0.0,0.007328418938837157,-0.15851147399955431,0.0,0.15851147399955431,-0.7541773054673458,0.0,0.7541773054673458,-0.1889351400127976,0,0.1889351400127976,0.0031103548490798855,-0.01246796913262455,0.2992966194259934,0.4,0.03345465660095215,2.5545902252197266,STABILIZE
0.03,0.0,0.008,-0.2792757783304085,-0.005633027154401003,-0.0,-0.006998543820963572,-0.012631570975364576,0.03,0.0,0.008,-0.24500329030074317,-0.0007155599458927145,-0.0,-0.003952714208481636,-0.00466827415437435,0.5,0,0.1,-0.2525916101141594,-0.04117120025893936,-0.0,0.3187343896216501,0.27756318936271074,0.002,8e-05,0.0,-1.8712139933089211,-0.001536377811258997,-0.00014969711946471372,-0.0,-0.0016860749307237109,-0.023851998196423817,0.0,0.023851998196423817,-0.18776757181336676,0.0,0.18776757181336676,-0.7681889056294985,0.0,0.7681889056294985,-0.08234240051787872,0,0.08234240051787872,-0.012638266920047835,0.004650115927984693,-0.27756318936271074,0.4,0.03344249725341797,2.5880398750305176,STABILIZE
0.03,0.0,0.008,-0.2854876156588541,-0.005573397778295232,-0.0,0.0004755626176810954,-0.005097835160614137,0.03,0.0,0.008,-0.2464292259871128,-0.001279381021459089,-0.0,-0.0044966465207434666,-0.005776027542202556,0.5,0,0.1,-0.2577375022912124,-0.07695013705419138,-0.0,-0.21401102046600928,-0.2909611575202007,0.002,8e-05,0.0,-1.8970585323480995,-0.0015458861186680541,-0.00015176468258784799,-0.0,-0.001697650801255902,-0.0426460340486363,0.0,0.0426460340486363,-0.1857799259431744,0.0,0.1857799259431744,-0.7729430593340271,0.0,0.7729430593340271,-0.15390027410838275,0,0.15390027410838275,-0.005113331545748594,0.005762313597534288,0.2909611575202007,0.4,0.03343653678894043,2.6214747428894043,STABILIZE
0.03,0.0,0.008,-0.29183095363091144,-0.005686679406996027,-0.0,-0.0009027091736404691,-0.006589388580636496,0.03,0.0,0.008,-0.2468143676333915,-0.0003452720126717919,-0.0,0.0074436497875544775,0.007098377774882685,0.5,0,0.1,-0.2650870921491557,-0.10981274495946497,-0.0,-0.19640460218086575,-0.3062173471403307,0.002,8e-05,0.0,-1.9233307956704426,-0.0015701716190904293,-0.00015386646365363543,-0.0,-0.0017240380827440646,-0.01150906708905973,0.0,0.01150906708905973,-0.18955598023320092,0.0,0.18955598023320092,-0.7850858095452147,0.0,0.7850858095452147,-0.21962548991892994,0,0.21962548991892994,-0.006562130821358243,-0.007123583928399476,0.3062173471403307,0.4,0.03346419334411621,2.6549551486968994,STABILIZE
0.03,0.0,0.008,-0.29917201613275113,-0.006580791890283163,-0.0,-0.0071245735008974975,-0.013705365391180661,0.03,0.0,0.008,-0.2464871686608337,0.0002933129018555331,-0.0,0.0050884483162429986,0.005381761218098532,0.5,0,0.1,-0.2710844115763311,-0.08960353954191017,-0.0,0.1207750468342359,0.031171507292325734,0.002,8e-05,0.0,-1.9495862925997844,-0.0015690913154571089,-0.00015596690340798276,0.0,-0.0017250582188650916,0.009777096728517771,0.0,-0.009777096728517771,-0.21935972967610545,0.0,0.21935972967610545,-0.7845456577285544,0.0,0.7845456577285544,-0.17920707908382033,0,0.17920707908382033,-0.013688465557087488,-0.00542460182933564,-0.031171507292325734,0.4,0.03346586227416992,2.688415765762329,STABILIZE
0.03,0.0,0.008,-0.30756149417019407,-0.00752304101817101,-0.0,-0.007510549451797917,-0.015033590469968928,0.03,0.0,0.008,-0.24543549487872407,0.0009430604580207266,-0.0,0.005179056161826851,0.006122116619847577,0.5,0,0.1,-0.27577946036263146,-0.0701693328317737,-0.0,0.11618071556096693,0.04601138272919322,0.002,8e-05,0.0,-1.975953193605038,-0.0015762544217036503,-0.00015807625548840305,-0.0,-0.0017343306771920534,0.03143534860069089,0.0,-0.03143534860069089,-0.2507680339390337,0.0,0.2507680339390337,-0.7881272108518251,0.0,0.7881272108518251,-0.1403386656635474,0,0.1403386656635474,-0.01501855004885257,-0.006158921070761093,-0.04601138272919322,0.4,0.03345513343811035,2.7218611240386963,STABILIZE
0.03,0.0,0.008,-0.3153208570516161,-0.006950868922009042,-0.0,0.0045560364249609625,-0.0023948324970480793,0.03,0.0,0.008,-0.2474641357355534,-0.0018172647549986145,-0.0,-0.02197964965368431,-0.023796914408682923,0.5,0,0.1,-0.2800934215175672,-0.06440773334279573,-0.0,0.03440842883710288,-0.029999304505692853,0.002,8e-05,0.0,-2.0024430505991124,-0.0015819814637051727,-0.000160195444047929,-0.0,-0.0017421769077531016,-0.06057549183328715,0.0,0.06057549183328715,-0.23169563073363472,0.0,0.23169563073363472,-0.7909907318525863,0.0,0.7909907318525863,-0.12881546668559146,0,0.12881546668559146,-0.0024483279079737935,0.02379147007896181,0.029999304505692853,0.4,0.03348946571350098,2.755366086959839,STABILIZE
0.03,0.0,0.008,-0.32322707356756,-0.00662978419066796,-0.0,0.0023933037406334533,-0.004236480450034507,0.03,0.0,0.008,-0.25335371771090787,-0.004938728580365299,-0.0,-0.023266790103345727,-0.028205518683711024,0.5,0,0.1,-0.28437489482333417,-0.05983739499607321,-0.0,0.02554981627937976,-0.034287578716693454,0.002,8e-05,0.0,-2.031666082470853,-0.0016336713801175192,-0.00016253328659766823,-0.0,-0.0017962046667151874,-0.16462428601217663,0.0,0.16462428601217663,-0.22099280635559868,0.0,0.22099280635559868,-0.8168356900587596,0.0,0.8168356900587596,-0.11967478999214642,0,0.11967478999214642,-0.004295384571932586,0.028196608345684056,0.034287578716693454,0.4,0.03577589988708496,2.7911570072174072,STABILIZE
