Mode,Time,Freq,North-Vision,East-Vision,Down-Vision,Yaw-Vision,North-Desired,East-Desired,Down-Desired,Roll-UAV,Pitch-UAV,Yaw-UAV,Roll-Control,Pitch-Control,Yaw-Control,Thrust-Control,northVraw,eastVraw,downVraw,yawVraw,zGyro
GUIDED_NOGPS,0.0017402172088623047,582.4613248159977,0.6883183707108705,-13.670568601178582,104.29650215675933,4.801774953040096,-7.224420860780272,-12.328152638551458,103.42775178728739,-0.33458674161171226,0.11494610731579084,-0.8294021439108132,-2.0,2.0,-0.4801774953040096,0.4986968744457921,0.6883183707108705,-13.670568601178582,104.29650215675933,4.801774953040096,3.0366763141933633
GUIDED_NOGPS,0.0027179718017578125,1028.5198626777833,1.9002426781203379,-14.221727255853924,104.36269728660676,4.840498660515217,-7.224399240474042,-12.328115744461199,103.42775051139364,-0.33458674161171226,0.11494610731579084,-0.8294021439108132,-1.413376685845934,2.0,-0.4840498660515217,0.49859757983718034,3.112166985529805,-14.772885910529265,104.4288924164542,4.879222367990338,3.0366763141933633
GUIDED_NOGPS,0.007949590682983398,191.68703441341805,2.304217447256827,-14.40544680741237,104.38476232988926,4.853406563006924,-7.224249643057002,-12.327860463127632,103.42774163139507,-0.3654838493742054,0.16308485369921757,-0.8026051240018847,-0.21072508984467175,0.712696230804662,-0.48534065630069245,0.4985644689522587,3.112166985529805,-14.772885910529265,104.4288924164542,4.879222367990338,3.0366763141933633
GUIDED_NOGPS,0.04693961143493652,25.651980331237617,3.111868884880971,-15.066298988126455,104.46309749390674,4.887733467952752,-7.2238488575438815,-12.327176540488532,103.42771768368092,-0.3548843029168448,0.1745222189078155,-0.6593835809869749,-0.15963254943216293,0.4964893335896378,-0.48877334679527523,0.49844693028466125,3.111272683583303,-15.653125143320839,104.53150764881181,4.990714182790234,3.151267873219528
GUIDED_NOGPS,0.08472275733947754,26.475013413287044,2.9739692229889987,-16.156148532180477,104.42790367128373,4.959584825541046,-7.223078807970113,-12.325862485165953,103.42767135696778,-0.3354035361869106,0.176600730849615,-0.3761702673000722,-0.24190361938379867,0.39408273577403946,-0.4959584825541046,0.4984996515285261,2.698467999853889,-18.042434542691325,104.32331094858513,5.246990255894221,4.1252961249419275
GUIDED_NOGPS,0.12613964080810547,24.147940031780394,2.836069561097027,-17.245998076234496,104.39270984866069,5.048627886111872,-7.221826482563961,-12.3237254476016,103.42759549126687,-0.3197999957084429,0.20318233299542368,-0.13172526742472052,-0.27263934649263155,0.3901331000868703,-0.5048627886111872,0.4985523284639093,2.698467999853889,-18.042434542691325,104.32331094858513,5.246990255894221,3.8388172273765155
GUIDED_NOGPS,0.16048049926757812,29.130752455168007,2.7671408549690812,-17.68374628760232,104.32237953627885,5.183935748065475,-7.2199838629186495,-12.320581099192232,103.42748307685133,-0.3252020083312619,0.476701313733404,0.019750884369846986,-0.2399673680010023,0.3928389081075016,-0.5183935748065476,0.4986576553108587,2.904486565199466,-16.96636977742432,104.3205167116663,5.5557616777583565,3.495042550298022
GUIDED_NOGPS,0.19540691375732422,28.639249452042634,2.8358137100842735,-17.325058032513322,104.32144812397257,5.319243610019079,-7.21744785316449,-12.316253511425044,103.42732725322351,-0.28777806784743976,0.4116198562269375,0.1400999864816553,-0.1445587449887722,0.41166440339976057,-0.5319243610019079,0.4986588186938764,2.904486565199466,-16.96636977742432,104.3205167116663,5.5557616777583565,3.666929888837269
GUIDED_NOGPS,0.23462748527526855,25.516988799863725,3.365541804309771,-16.918431845100844,104.38174927981039,5.487990657332446,-7.2141202091410115,-12.310575035013057,103.42712130808219,-0.27951444608622344,0.4914361662072371,0.27619740206840376,-0.12984820546826287,0.4794537876301764,-0.5487990657332447,0.4985680580424077,4.2876522825303836,-16.822555980453895,104.50421441609859,5.834449419357072,3.20856365273261
GUIDED_NOGPS,0.2644617557525635,33.51314380682999,4.120413443766846,-17.428960255122245,104.53447023011937,5.64790806708046,-7.209907467569088,-12.303386179030511,103.42685867628988,-0.32838642394922163,0.618790379367414,0.3713115748813866,-0.24790967060540686,0.5563673105694966,-0.5647908067080459,0.4983385826692558,5.16910148357069,-18.497955007488514,104.77867956259321,6.04657730463429,2.807493196141034
GUIDED_NOGPS,0.3039405345916748,25.33848040548296,4.875285083223919,-17.939488665143642,104.68719118042833,5.807825476828475,-7.204720875223065,-12.294535490048252,103.4265329388401,-0.2823837658678635,0.4504114887312018,0.4476037206933712,-0.251744195264998,0.5622213883941174,-0.5807825476828475,0.49810901263761764,5.16910148357069,-18.497955007488514,104.77867956259321,6.04657730463429,2.6929016371148693
GUIDED_NOGPS,0.33927297592163086,28.311771416228474,5.779449069847338,-18.937537502032924,105.0414587764706,5.942129270705827,-7.19847631810289,-12.283879431269119,103.42613782182463,-0.27921242365886195,0.4002021278122034,0.5281752201442068,-0.34446546439063863,0.6251134985957674,-0.5942129270705827,0.49757701856803105,7.000144242400641,-19.81670249112174,105.56701720422542,6.227280647145116,2.0053522829578814
GUIDED_NOGPS,0.38724303245544434,20.847788375988507,6.3897966561239885,-19.377119996577335,105.304237990348,6.0764330645831794,-7.191094250606239,-12.271282261663337,103.42566719540083,-0.3052603639149105,0.4666656314085396,0.6238006966495885,-0.2912215187832859,0.5973920932643332,-0.607643306458318,0.49718214380757925,7.000144242400641,-19.81670249112174,105.56701720422542,6.227280647145116,1.776169164905552
GUIDED_NOGPS,0.4200599193572998,30.48053137217854,6.681197259348306,-19.955043334976,105.65792155336565,6.190217196790831,-7.1824996247006485,-12.256615915103907,103.42511507275884,-0.2578280618629041,0.2634519222316162,0.6397978000985518,-0.34424292619134905,0.5938321981577268,-0.6190217196790831,0.49665079027908976,6.043303293243643,-20.23172502268451,105.83973025164613,6.403370080395331,1.2032113697747289
GUIDED_NOGPS,0.4585692882537842,25.97413921228635,6.362250276295974,-20.09338417883026,105.74882590250589,6.26157575194304,-7.172621819095636,-12.239759879501992,103.4244756090889,-0.34481457636783613,0.41294832802050496,0.70568559345305,-0.2995546129220349,0.5123979656971525,-0.626157575194304,0.49651347455987455,6.043303293243643,-20.23172502268451,105.83973025164613,6.403370080395331,0.8021409131831525
GUIDED_NOGPS,0.4974513053894043,25.73003214487277,5.727812157809423,-20.461896860011095,105.91050618611648,6.36349026094323,-7.161394568414837,-12.220601075942309,103.42374310054863,-0.37544952226007716,0.5962592928428344,0.7132449053169616,-0.33545333563502006,0.45432395726391706,-0.6363490260943231,0.49626985537164825,5.096829886940987,-20.92224053466426,106.05205805505719,6.556149849635241,0.2291831180523293
GUIDED_NOGPS,0.527869462966919,32.887731898944594,5.412321022375205,-20.692068697337675,105.98128212058681,6.429264101441255,-7.1487558923681265,-12.199033737818514,103.42291198323026,-0.3720124963645327,0.510481508377583,0.705349153275574,-0.33799952156208235,0.46593218055003965,-0.6429264101441255,0.49616244479396515,5.096829886940987,-20.92224053466426,106.05205805505719,6.556149849635241,-0.5156620156177409
GUIDED_NOGPS,0.5731391906738281,22.092376733578085,6.001570113326699,-21.24582774299297,106.24711284263707,6.499098808106939,-7.134648024923753,-12.174959289968598,103.42197683212795,-0.3612045757766338,0.6119977562378363,0.7105061595423452,-0.37559166411273454,0.5829533600561946,-0.6499098808106939,0.4957622959842363,7.811050566098123,-21.89300215965039,106.63722241779686,6.576454180473533,0.34377467707849396
GUIDED_NOGPS,0.6094977855682373,27.513014273719563,6.90631033971241,-21.569414951321676,106.44216763021696,6.533715628122579,-7.1190173434804604,-12.148286227810274,103.42093236010501,-0.3180112065174136,0.4049044996123456,0.7021397647784613,-0.3773021379830875,0.6660901805510956,-0.6533715628122579,0.49546814709483206,7.811050566098123,-21.89300215965039,106.63722241779686,6.576454180473533,-0.11459155902616465
GUIDED_NOGPS,0.652031421661377,23.5143632408674,7.957155838305543,-22.347616593902234,106.80496090858692,6.583117120302679,-7.101814298039622,-12.118929996476366,103.41977341686122,-0.30620970684868937,0.27514392543020866,0.6864448972002711,-0.4406398651160095,0.7077610110949542,-0.658311712030268,0.49492221876241144,8.249366382720389,-23.256845462405938,107.14043789016712,6.650377541295834,-0.2291831180523293
GUIDED_NOGPS,0.6816527843475342,33.772467047257095,7.057400102724192,-23.248006793389365,106.97414281886903,6.635027058680437,-7.0829933403773655,-12.08681286995019,103.41849498790008,-0.36604936769314134,0.4450331416466399,0.6957287251079052,-0.5192874408937369,0.4498972670951771,-0.6635027058680438,0.49466652825354657,5.111783359354073,-24.59417275811178,107.14476814864318,6.8156995415240305,0.2864788975654116
GUIDED_NOGPS,0.7237379550933838,23.76241572715427,6.157644367142841,-24.148396992876496,107.14332472915113,6.686936997058195,-7.062512853216702,-12.051863830200963,103.41709219349606,-0.3519246965721136,0.3481176665226249,0.6738027506551065,-0.5194542925328995,0.4509328272558262,-0.6686936997058196,0.4944106511965174,5.111783359354073,-24.59417275811178,107.14476814864318,6.8156995415240305,-0.6875493541569879
GUIDED_NOGPS,0.7591698169708252,28.234584522591415,6.388457295495042,-24.07058683500912,107.52121789030689,6.716653217348103,-7.040335079399652,-12.01401844631917,103.41556028766195,-0.3146043828646053,0.2504182137479394,0.626107272876643,-0.4349429068167387,0.570227439443463,-0.6716653217348103,0.49384151359603257,8.941805167776993,-23.023414988803815,108.27411737363434,6.725035281923067,-0.5156620156177409
GUIDED_NOGPS,0.7962801456451416,26.984122082400475,7.665131231636015,-23.547000911906466,107.8976676319706,6.746369437638011,-7.01642605105938,-11.973218753651972,103.41389465711602,-0.38674206611392964,0.24454510483537464,0.5949479498830448,-0.37504508145933285,0.7326496145348771,-0.6746369437638011,0.4932743405377181,8.941805167776993,-23.023414988803815,108.27411737363434,6.725035281923067,-1.2032113697747289
GUIDED_NOGPS,0.8330245018005371,27.219302628931878,8.909358064432212,-23.131788486014184,108.38783157992093,6.76641723852263,-6.990755518792316,-11.929413132938585,103.41209082024939,-0.4804262747911468,0.35351543695763904,0.5603663819501529,-0.3726871101404289,0.7790031727464233,-0.6766417238522631,0.49253638886049267,8.84446385774266,-23.348535480434926,108.61525999249413,6.750616545718929,-1.1459155902616465
GUIDED_NOGPS,0.8729617595672607,25.052586309879345,8.876910961087434,-23.240161983224557,108.50154578620753,6.753400639361608,-6.963296880830286,-11.882556189445669,103.41014442609324,-0.4854757055784903,0.37622795038204704,0.5033365968972208,-0.4290240766340831,0.6387291413005624,-0.6753400639361609,0.49236289795982857,8.84446385774266,-23.348535480434926,108.61525999249413,6.750616545718929,-1.4896902673401404
GUIDED_NOGPS,0.9140310287475586,24.35476172503295,9.076967108385888,-23.82147320128765,108.70928623370799,6.7231251966118695,-6.934027112212642,-11.832608632102723,103.40805125328612,-0.41253232681136887,0.38504273639277165,0.43934354070716636,-0.49348239347426903,0.6688357349518997,-0.672312519661187,0.4920481475293672,9.541973609672354,-24.7673486429931,108.89733871613572,6.664322327775336,-1.0313240312354819
GUIDED_NOGPS,0.9539165496826172,25.075352129516705,9.584745189114855,-24.456999501947603,108.94626114734518,6.702772479667736,-6.9029266939583875,-11.77953715263747,103.4058072090412,-0.4135557346089601,0.47669256255352993,0.3837507634225814,-0.525360788843129,0.7195656389484208,-0.6702772479667737,0.49168931909254404,10.367798099929558,-25.255114382414767,109.32618473340574,6.623271697202402,-2.0053522829578814
GUIDED_NOGPS,0.9913160800933838,26.74648794454683,10.092523269843822,-25.092525802607554,109.18323606098238,6.682419762723603,-6.869979542238308,-11.72331430471125,103.40340832811354,-0.38277303251506467,0.5387920021570511,0.28858296295244346,-0.5557166530710627,0.7426068885290356,-0.6682419762723604,0.4913302584006967,10.367798099929558,-25.255114382414767,109.32618473340574,6.623271697202402,-2.177239621497128
GUIDED_NOGPS,1.0308258533477783,25.31431778814526,10.908039009225261,-25.6433360813102,109.4697308488346,6.634638421610106,-6.835172937547097,-11.663918383054408,103.4008507717674,-0.3934646264436618,0.5278658339191464,0.21486993392365267,-0.5672667552231956,0.8031115966442662,-0.6634638421610106,0.49089667988439917,11.988520827816671,-26.41977947910103,109.75682307969235,6.5117098401514415,-2.119943841984046
GUIDED_NOGPS,1.063420057296753,30.691077256296555,11.448279918520965,-26.031557780205617,109.61327696426348,6.586857080496609,-6.798497453875487,-11.601333302601677,103.39813082674344,-0.36776251787519804,0.48372723051181993,0.09247977418619417,-0.577098171255246,0.8052787783182542,-0.6586857080496609,0.49067728079371997,11.988520827816671,-26.41977947910103,109.75682307969235,6.5117098401514415,-2.521014298575622
GUIDED_NOGPS,1.107409954071045,22.735696358974636,12.144292107823105,-26.506479987381567,109.91305416713637,6.523962661368323,-6.759946887882374,-11.53554847762758,103.39524490422606,-0.43080334964541744,0.7340604937819573,-0.0041815619551771425,-0.5921012386460751,0.8309835812347853,-0.6523962661368323,0.49022328610563454,12.455834667835981,-26.67988100394261,110.22551634202445,6.3498502321339085,-2.7501974166279517
GUIDED_NOGPS,1.1427993774414062,28.26636115510328,12.238591585744004,-26.442099150402765,110.18242967511894,6.461700788797681,-6.71951818806695,-11.46655870088181,103.39218953881067,-0.4124672799316951,0.7482275867810331,-0.11399401629808809,-0.5490893922307324,0.7803212389142928,-0.6461700788797682,0.4898146397955376,12.271419261579366,-26.226636968164616,110.56494960364009,6.311962334349198,-2.6929016371148693
GUIDED_NOGPS,1.1852805614471436,23.544987088806558,12.781867176144338,-26.47564489476299,110.51208538055876,6.376115369620826,-6.677211383940828,-11.394364022724618,103.38896138747089,-0.3915743182300079,0.7036330682466083,-0.3099824792306223,-0.5619259504071534,0.8420320690341848,-0.6376115369620826,0.4893153140103682,13.618347599017675,-26.520416712181703,110.74579019601185,6.195344601318124,-3.7815214478634336
GUIDED_NOGPS,1.2222719192504883,27.038220789685738,13.064188448069212,-26.4649004230802,110.79580068020495,6.286690180875505,-6.633029515200172,-11.318969630262213,103.3855572285259,-0.4891576577888032,1.0023413597567725,-0.4288283310777995,-0.5621463457025335,0.8311519986496856,-0.6286690180875505,0.4888846348224814,13.3027984836106,-26.647647588894245,111.076662240963,6.0645838964248355,-3.552338329811104
GUIDED_NOGPS,1.2679433822631836,21.90225638508415,14.143835134463187,-26.834038192546547,111.04353567534413,6.154445377778901,-6.5869785608978235,-11.24038572648214,103.38197396060768,-0.41990914455839423,0.8556688103028608,-0.6337369677055175,-0.6078805033467465,0.9381212990788561,-0.6154445377778902,0.4885076574278953,15.51035932076129,-27.33405027656366,111.30815458905765,5.850485824668423,-4.18259190445501
GUIDED_NOGPS,1.3067221641540527,25.79379985117675,13.996708568975405,-26.923495787206566,111.32910179856965,6.050990741057184,-6.539067368615432,-11.158627409388675,103.37820860162829,-0.38442636518103085,0.8548365944411771,-0.8095228783314911,-0.5952030760408222,0.8204777305435849,-0.6050990741057185,0.488073660204588,13.176967902554331,-26.78878949616176,111.60248856568842,5.832577048525321,-4.640958140559668
GUIDED_NOGPS,1.345796823501587,25.59953125858291,14.367709028768283,-27.45395388312754,111.48436952049381,5.91324500045999,-6.489307583635581,-11.073714551138215,103.37425828774711,-0.3917352012014734,0.9691389564276942,-0.923589492069937,-0.6587474923956734,0.8871578900457165,-0.591324500045999,0.48783483315087994,14.41579986298924,-28.23902187665716,111.54246540673545,5.623233631363228,-3.896113006889598
GUIDED_NOGPS,1.391798496246338,21.742509382710928,14.394451933451386,-28.040689894497223,111.58163742566389,5.760978463984535,-6.437713578113918,-10.985671677174665,103.3701202723382,-0.4848054399053299,1.1558366278612922,-1.206413965221825,-0.6798305375576729,0.8520670113447005,-0.5760978463984535,0.48768272427001147,15.590588034810597,-29.094258310672718,111.5999583045679,5.434011918940849,-4.698253920072751
GUIDED_NOGPS,1.4350504875183105,23.12376436860821,15.054556892673915,-28.682934368679867,111.60185170057305,5.610085289689655,-6.384302380251281,-10.894527845364824,103.36579192495743,-0.4894382825141555,1.1259959582643295,-1.4108697016106329,-0.7150622576085908,0.9354316648537038,-0.5610085289689656,0.48764591033657656,15.15728278022192,-28.71552291870968,111.66313139041593,5.310118024950439,-5.042028597151244
GUIDED_NOGPS,1.4777064323425293,23.45138690865581,15.505829563810797,-28.840699281251982,111.748784257485,5.452364795032605,-6.329093603465829,-10.800316525133784,103.36127073030991,-0.6789550611668232,1.2595127096031504,-1.672763913824663,-0.6852475738044775,0.9334947706697317,-0.5452364795032606,0.4874187297092374,15.769617876399883,-28.712316614373503,111.9832630774713,5.0618833513831705,-6.130648407899809
GUIDED_NOGPS,1.516747236251831,25.61923318897854,15.253574702095785,-29.039839603780976,111.85319867719164,5.259379005513111,-6.272109375565169,-10.703075476600315,103.35655428721714,-0.784721394238117,1.4344073872641432,-1.8912522738632622,-0.7025865534692877,0.8529167799942513,-0.5259379005513111,0.48725503341503823,14.833823449665562,-29.6916792782597,111.91320156368784,4.867648100927848,-6.474423084978302
GUIDED_NOGPS,1.5550854206085205,26.0917686871703,15.220560766520927,-29.554423401241966,111.97178657202693,5.06209398113521,-6.213374267918482,-10.602846629712246,103.35164030758435,-0.9004534001952824,1.4437788336922237,-2.180683247489845,-0.7554522856526854,0.8722914921593007,-0.5062093981135211,0.4870697806033361,15.058240973497348,-30.259274311092646,112.01889507492174,4.636808509473722,-6.589014644004467
GUIDED_NOGPS,1.5905680656433105,28.19017918352533,15.062233472659615,-30.224534200082587,112.00825956661691,4.86182655686032,-6.152915224628655,-10.49967596338187,103.34652661536771,-0.8676008839786087,1.3527546101707564,-2.360793628355789,-0.8058947099231123,0.8488369395693313,-0.48618265568603203,0.4870074005731262,15.294635994815946,-30.722649010895367,112.09268206124125,4.432674797566402,-6.875493541569879
GUIDED_NOGPS,1.6422710418701172,19.346688376684178,15.31790302678335,-30.464883180183694,112.1155700346003,4.633959010362415,-6.0907614917044075,-10.39361338462132,103.3412111455417,-1.0232988347296046,1.4080723122586896,-2.7613500722311866,-0.763821468813738,0.8975361790517336,-0.4633959010362415,0.4868384616664121,15.600832112036771,-30.412726218563026,112.23513296763798,4.1707802924609085,-7.219268218648373
GUIDED_NOGPS,1.6713619232177734,34.381795527575576,15.392101059024982,-30.84664607810319,112.14743630488483,4.413748176581078,-6.026944546232422,-10.284712607677964,103.3356919430663,-1.1051638812957907,1.2122027639868225,-3.0446238437644144,-0.818778836045636,0.8851316171673779,-0.4413748176581078,0.4867823834572722,15.280835070222247,-31.40456300485112,112.11449388577533,3.9608291824764845,-7.563042895726867
GUIDED_NOGPS,1.7113220691680908,25.035539054759035,15.704894671791095,-31.087086156438406,112.1548447392958,4.1671920375130505,-5.961498025549465,-10.173031033169796,103.32996716185424,-1.2400064363855345,1.2839617986240341,-3.314267972808882,-0.8031730516813914,0.9191889982610233,-0.41671920375130506,0.4867626836338377,16.233016833114284,-31.44396924590102,112.11490736447409,3.6348674055877126,-7.964113352318443
GUIDED_NOGPS,1.7485847473144531,26.842343063030775,15.782577855295324,-31.42546226559695,112.1464059083354,3.9099611475794944,-5.8944576564145255,-10.058629627220817,103.32403506373842,-1.3132447405865828,1.215367702893477,-3.622057000820578,-0.8323398470479566,0.8968418917215972,-0.3909961147579495,0.4867664437331045,15.833881662549459,-31.427854546038645,112.20981647475678,3.3506540598059447,-7.16197243913529
GUIDED_NOGPS,1.7878046035766602,25.505196139836666,15.9458928086051,-31.35971246347192,112.20973051244131,3.6293563272502345,-5.825861184180933,-9.941572800596443,103.31789401743899,-1.3540250253563788,1.1625267981533196,-3.8807525500689266,-0.7958221277166685,0.9099960244437483,-0.3629356327250235,0.4866622452574965,15.770779930151567,-31.20731359847604,112.30446769809309,3.0296506959201053,-7.047380880109126
GUIDED_NOGPS,1.8228282928466797,28.56318653255518,15.79181384095086,-31.280827247663595,112.27291729031431,3.401130407942074,-5.755748301968495,-9.821928287838869,103.31154249753072,-1.3772943059198486,1.0756305702114786,-4.164633994994874,-0.7974534339104975,0.8664827396362959,-0.34011304079420746,0.4865579378108246,15.770779930151567,-31.20731359847604,112.30446769809309,3.0296506959201053,-7.448451336700702
GUIDED_NOGPS,1.8638732433319092,24.367212962371244,15.719219956337762,-31.335005679864533,112.27478558464361,3.1586765628557147,-5.68416057983562,-9.699767026402476,103.30497908341034,-1.3909427314288265,1.2052912528770041,-4.388204015775963,-0.81583777514836,0.8732205854457951,-0.3158676562855715,0.4865452902481501,15.616100008710164,-31.590389842641454,112.21542135774469,2.748559957044686,-6.0733526283867265
GUIDED_NOGPS,1.9017105102539062,26.435133363585944,15.987735848160447,-31.69373530012798,112.16676846493289,2.918650995509342,-5.611141393951445,-9.57516303578922,103.29820245826365,-1.3691162216058161,1.1567373590580876,-4.707065847649307,-0.8644679644508987,0.916509108868409,-0.2918650995509342,0.48669715098999616,16.57632760561963,-32.28350245926639,111.98041633896095,2.434739568855851,-6.302535746439056
GUIDED_NOGPS,1.9378716945648193,27.663628329090212,16.194548971653337,-32.15964914093822,112.04440738435186,2.6783463471703315,-5.536735855767967,-9.448193296684014,103.29121140803292,-1.4242757621257813,1.2477440802198068,-4.894792743213461,-0.8997827681403316,0.9166335898656262,-0.26783463471703317,0.4868702060355216,16.391219300630237,-32.60505512090677,111.93738445635003,2.149130818110891,-6.130648407899809
GUIDED_NOGPS,1.9872255325317383,20.265373075194837,16.58793798169985,-32.80480184307061,111.84184553638907,2.448616543306108,-5.460990741192169,-9.318937630090117,103.28400482038411,-1.4571503163746988,1.3853627870420435,-5.206264737291676,-0.9261337295084844,0.9415329060416768,-0.2448616543306108,0.48716323892599256,16.796267038849702,-33.52584794903863,111.60773581385631,1.8810016765989888,-5.328507494716656
GUIDED_NOGPS,2.034790277481079,21.029667029336114,16.470354709970753,-33.08177558532069,111.77799940841653,2.1685128856403315,-5.383954419758148,-9.187478576464532,103.27658168367415,-1.5915417588141045,1.4357973307602407,-5.431444121395948,-0.9163802021426904,0.8925353931446325,-0.21685128856403316,0.48724787341288645,16.223577790432344,-33.11442368601663,111.78887795504332,1.6291324075912228,-5.271211715203574
GUIDED_NOGPS,2.064732074737549,33.41169722943585,16.085435220283145,-33.06996792791325,111.77347684700901,1.899762016047203,-5.305676783799247,-9.053901274853386,103.26894108591824,-1.6788892061279894,1.4753061331273565,-5.558726831013252,-0.9049879193426041,0.8290866331918509,-0.1899762016047203,0.48724319635836383,15.236460831567415,-32.56963214868444,111.92381677212742,1.404805609079045,-4.239887683968092
GUIDED_NOGPS,2.102346181869507,26.59436701878083,15.757393087603083,-32.92521257680088,111.83297899303182,1.6432572882080607,-5.226209177620179,-8.91829334202733,103.26108221375708,-1.722253863724989,1.4582216955790388,-5.638766402802046,-0.8899289249959159,0.8324718019649716,-0.1643257288208061,0.4871421548310879,15.812140640809512,-33.091581895701516,111.78624225192476,1.152215929660137,-3.8388172273765155
GUIDED_NOGPS,2.1477506160736084,22.02659384518433,15.282996300393217,-32.99873312136037,111.82328833043687,1.4062343311022854,-5.145604326669153,-8.780744751616913,103.25300435142414,-1.8530296814942246,1.5388648853357332,-5.827878546107244,-0.9160099885389539,0.8057960921585977,-0.14062343311022854,0.4871445740314809,14.800387428802754,-33.33498531969509,111.75980596725849,0.9640160325820143,-2.807493196141034
GUIDED_NOGPS,2.1829564571380615,28.419967069377908,15.327940358467004,-32.84580245744786,111.89530437353574,1.1789150154785266,-5.063916266710011,-8.64134771324799,103.24470687971296,-1.8460767623625631,1.387492525402618,-5.908323660378008,-0.8982860750429605,0.8493985758922905,-0.11789150154785266,0.48702410375926586,15.37129300578877,-32.110840156946935,112.13986490142399,0.744405098480195,-1.8907607239317168
GUIDED_NOGPS,2.2265262603759766,22.956198107372927,15.480427211409856,-32.431299438057174,112.0343195967671,0.9666232466655209,-4.98120027299435,-8.500196551677096,103.23618927494445,-1.8451470028617953,1.4000011630938503,-5.945155882364125,-0.8681641732059266,0.863676438873564,-0.0966623246665521,0.48680280451726604,16.269601199638068,-31.848072837529443,112.20328792161888,0.5676735635261941,-0.6302535746439055
GUIDED_NOGPS,2.267235040664673,24.570481239565332,15.651373314587724,-31.56692330835242,112.24848087420253,0.7811303030097961,-4.897512789433648,-8.35738758592684,103.22745110793407,-1.7737960720274917,1.2094147661449879,-5.933380209348199,-0.8019008515300853,0.8701580771056876,-0.07811303030097962,0.4864684553505973,15.313225738336357,-30.74185693058084,112.40228979956476,0.4773408908004211,0.17188733853924698
GUIDED_NOGPS,2.3111941814422607,22.754938288349383,15.994867866993987,-31.068896241589723,112.3147075563051,0.6216384933947067,-4.812911357771399,-8.213019008421302,103.2184920429592,-1.7450623199628943,1.2590700279675688,-5.855409331104273,-0.8247681779981032,0.8964869518128705,-0.06216384933947067,0.48635567672998115,16.40177666300756,-30.61675895665884,112.3385449477317,0.35475688158469043,2.0626480624709638
GUIDED_NOGPS,2.353053092956543,23.89767023149546,15.922199474599118,-30.41903075970988,112.38923142887195,0.49559924163857083,-4.727454546755235,-8.067190764121408,103.20931183672634,-1.6634445475890038,1.1502217854767185,-5.752658099664716,-0.7931350049318743,0.8522797384336885,-0.049559924163857086,0.4862301206117816,16.051596022453463,-29.898476391889915,112.4268595393195,0.3338197738013351,2.3491269600363753
GUIDED_NOGPS,2.3968915939331055,22.81559006717981,16.10560057338382,-30.30132099035085,112.32589418209659,0.4158150900035465,-4.64120188130906,-7.9200044296603345,103.19991033733844,-1.5531437159607622,1.1740728060584031,-5.622408099739865,-0.8408733368289141,0.8810452248620153,-0.04158150900035465,0.48631102423286277,15.863429034690464,-30.388727622503744,112.21227805923864,0.34548434030507325,3.4377467707849396
GUIDED_NOGPS,2.4373018741607666,24.75172759729722,16.0314564511876,-30.189768160046437,112.28197485112099,0.385176051705746,-4.554213771705172,-7.771563092478885,103.19028748326213,-1.479476497224178,1.1752971174671278,-5.456374311866495,-0.8438828721559116,0.8506588209393431,-0.0385176051705746,0.4863624689482117,16.179344296418908,-30.282100465745597,112.20678695480487,0.41447837203719184,4.411775022507339
GUIDED_NOGPS,2.477623462677002,24.806183945163028,15.711661301320746,-30.252118287137204,112.18011789005938,0.39593014874703514,-4.466551442736396,-7.62197122996089,103.18044330229498,-1.360309439723025,1.0521419765426279,-5.318299903360572,-0.868297947992776,0.8099449853432585,-0.039593014874703514,0.4865004881183534,15.092210572852892,-30.085526773162222,112.12128865613467,0.531111376006867,3.9534087864026803
GUIDED_NOGPS,2.5133469104766846,27.99935914552737,14.964797861512283,-30.23430635165077,112.03897652418728,0.45995642164309114,-4.37827686288821,-7.4713345885685865,103.17037791053282,-1.3503806925473538,1.1688886924783635,-5.150515879512385,-0.867682445899102,0.7267584947511074,-0.04599564216430912,0.48669710207951833,13.622838715265074,-30.335291816044453,111.78885396162235,0.6748882460649704,4.297183463481175
GUIDED_NOGPS,2.5561962127685547,23.344746977758977,14.118188905533017,-30.194916752108096,111.84618873284853,0.5614990652348221,-4.289452673510875,-7.319760062978016,103.16009151133701,-1.2586232909071677,1.0437933509427568,-4.9543647993806665,-0.8689224311841961,0.6943364470534922,-0.05614990652348221,0.4869708541677327,13.639517428481113,-30.163931667117577,111.62842358078858,0.8415329917599894,4.5263665815335035
GUIDED_NOGPS,2.600210189819336,22.723994452149793,13.616844531978657,-29.9010419738746,111.72860477630621,0.6897300818221782,-4.200142117991563,-7.167355575214415,103.14958439430168,-1.2731560124702508,1.0592690654981247,-4.837770482040787,-0.843737123623593,0.7052956812197215,-0.06897300818221783,0.4871314694269932,13.588177452189807,-29.20390243846175,111.7685367865077,0.9866394232418544,3.724225668350351
GUIDED_NOGPS,2.641484022140503,24.23346564285673,13.431972900915595,-29.490310859326637,111.72129892530283,0.8412654891002207,-4.11040897092648,-7.014229953787584,103.13885693422098,-1.3090016990081241,0.9980861519038545,-4.6309305827448215,-0.8242905070400776,0.7219277429355322,-0.08412654891002208,0.4871263370133772,13.068223822075886,-29.103098472400553,111.76693640861221,1.1721554084274042,4.068000345428845
GUIDED_NOGPS,2.6878364086151123,21.578079823848377,12.881420834460606,-28.977320150460425,111.77696717829839,1.0087003332453535,-4.020317467293002,-6.8604928128273075,103.12790959005643,-1.3158787390069748,0.9793436859345164,-4.466854497842306,-0.8070272887723777,0.6686928261676959,-0.10087003332453535,0.48702641361763704,11.98786122911615,-28.62495954051895,111.7954283397753,1.3682855967325303,4.239887683968092
GUIDED_NOGPS,2.7272443771362305,25.383410595625705,11.958982163619396,-28.384802054996,111.81120130277735,1.1837011282564687,-3.9299322316217973,-6.7062544312187224,103.11674290390414,-1.2457607640395645,0.8792459829875102,-4.320203933059785,-0.7798203402403241,0.5811764831391196,-0.11837011282564687,0.4869583124016902,10.820861439666174,-27.426348152068478,111.87123915994451,1.5498922211205466,3.4377467707849396
GUIDED_NOGPS,2.7638509273529053,27.33229068918778,11.195321622097966,-27.573072438220823,111.87938843496295,1.3541046407122121,-3.8393182071689633,-6.551625631737718,103.10535749996205,-1.1209681919832597,0.7977978981258121,-4.1809094820133685,-0.731975817634846,0.55656053912982,-0.13541046407122123,0.4868389535974987,10.7772421975116,-26.66790962207502,111.97149780516904,1.693550554038708,3.724225668350351
GUIDED_NOGPS,2.8073339462280273,23.003032845774584,10.983430850433713,-26.719118029874647,111.96021961576223,1.5251961706694595,-3.748540585088138,-6.396717660186312,103.09375408349729,-0.9136280880522966,0.7362593878078783,-4.030428034880117,-0.7148581418644052,0.6111065447082501,-0.15251961706694595,0.4867003017016026,11.352188914123387,-26.063096315480404,112.03792188217314,1.8420970730280901,3.6096341093241864
GUIDED_NOGPS,2.8459370136260986,25.91235906465264,11.191516755878306,-26.093430984340348,112.10064224234577,1.6944336132535103,-3.6576647336026493,-6.241642064528055,103.08193343981338,-0.7843267907309901,0.6617678506158382,-3.9279312279871434,-0.7117833473327961,0.6563960663220265,-0.16944336132535104,0.48647193679620143,11.445119155999956,-25.54928701546558,112.2925070396951,2.0183426213476587,3.4377467707849396
GUIDED_NOGPS,2.885077476501465,25.55523466583804,11.117848163247073,-25.827188724825515,112.06505157567123,1.860300243645672,-3.566756127177629,-6.086510574023414,103.06989643321755,-0.5271386322159516,0.5563387581348139,-3.7340370984892908,-0.7428171347284611,0.6214232470020243,-0.1860300243645672,0.4865072672863195,10.556236419617898,-25.86918284353051,111.86472580514541,2.197618748693338,3.9534087864026803
GUIDED_NOGPS,2.9216785430908203,27.32783862497638,10.460153785679198,-25.478167254270186,112.09788537732265,2.0365616027825117,-3.475880275692142,-5.931434978365159,103.05764400598795,-0.26585943051191346,0.3841402976486837,-3.582556736189925,-0.7275519396528562,0.5269411534875748,-0.20365616027825117,0.48643963794299794,9.379105781419767,-25.016031903814426,112.13642328712739,2.4311990168047477,3.7815214478634336
GUIDED_NOGPS,2.962047815322876,24.778633079499738,10.122830073621287,-24.499165530157956,112.13097153263341,2.213702797108504,-3.385102653611315,-5.7765270068137475,103.045177177341,-0.036512757229966726,0.22023752879635708,-3.491272965479997,-0.6439282602582338,0.549543828920034,-0.22137027971085044,0.4863713084670614,10.433148019826218,-22.6122818431289,112.39176550562743,2.5792565256686704,2.521014298575622
GUIDED_NOGPS,3.0061893463134766,22.661011729492298,9.979977415234655,-23.24556202398802,112.26607390673598,2.381402486702669,-3.294488629158481,-5.621898207332743,103.03249704239859,0.1194512974242886,0.10468054643667324,-3.384236217223081,-0.5862540820918767,0.5614774440349929,-0.2381402486702669,0.4861496347034939,10.127678444458,-22.108372325020696,112.27003292745312,2.680595520998913,2.6929016371148693
GUIDED_NOGPS,3.043393611907959,26.885185375108968,10.229501636247399,-22.276342164390112,112.31061045351123,2.5138530666329197,-3.2041033934872765,-5.467659825724159,103.01960477115541,0.2158188366303952,0.03356013448685765,-3.2939607531893764,-0.5741115530258234,0.6066520947397264,-0.251385306663292,0.48606349147646627,10.127678444458,-22.108372325020696,112.27003292745312,2.680595520998913,1.604281826366305
GUIDED_NOGPS,3.0852818489074707,23.8761762177732,9.057537449719609,-22.1039275208466,112.13165369627063,2.674807468390051,-3.1140118898537983,-5.313922684763883,103.00650160744618,0.2493600680351163,-0.005263727972552639,-3.248107558856965,-0.6483395076700146,0.4199942131074166,-0.26748074683900513,0.48631227186676335,6.917255460242849,-22.095037912498366,111.85489523390562,3.0023907574789925,1.260507149287811
GUIDED_NOGPS,3.1240410804748535,25.808719195151216,6.445540132471137,-21.619736736319634,111.67089878939362,2.8200224121740343,-3.0242787427887166,-5.1607970633370535,102.99318886791293,0.25435933962074253,0.018770427056252856,-3.175009807142431,-0.6076938012538036,0.15233141900988767,-0.2820022412174034,0.486983435117779,2.2916864927125893,-20.655799971439798,110.88776820682203,3.157273735724663,1.604281826366305
GUIDED_NOGPS,3.1559178829193115,31.38251116714428,3.833542815222667,-21.135545951792665,111.2101438825166,2.9356258541852323,-2.9349681872694013,-5.008392575573451,102.97966794097233,0.2996252977670913,-0.009845077358338691,-3.143164477024069,-0.58975345657534,-0.013291860196561145,-0.29356258541852326,0.4876542860876836,2.2916864927125893,-20.655799971439798,110.88776820682203,3.157273735724663,1.3178029288008934
GUIDED_NOGPS,3.1997597217559814,22.814597237860564,1.4297696009446366,-20.938602281923693,110.74768174702821,3.0356148406652372,-2.8461439978920655,-4.856818049982881,102.96594028578285,0.2922184912207414,0.1150942370434155,-3.077713335528776,-0.622392908015723,-0.002071195678121973,-0.3035614840665237,0.48832738780813195,-0.2940641825912416,-21.504206902891454,110.46750882744045,3.180540453398937,1.4896902673401404
GUIDED_NOGPS,3.2425754070281982,23.376493668628502,-0.02904688850447072,-21.054168053894323,110.44901735721628,3.151633235867986,-2.757869418043885,-4.706181408590581,102.95200743121214,0.22636138035665532,0.11632153665990215,-3.0122705183265333,-0.6588580939213671,0.017886241316022983,-0.3151633235867986,0.4887544851109938,-2.0847629756347326,-21.00249728735169,109.9917750373862,3.2606874970126585,1.7188733853924698
GUIDED_NOGPS,3.283029317855835,24.725609252862043,-1.5076777130900723,-21.074326646458932,110.09588967208266,3.2117479306682872,-2.6702070890751077,-4.556589546072583,102.93787097480423,0.11343875660312043,0.04526899971496357,-2.9691259208868552,-0.6581086056035376,-0.053713600176596404,-0.3211747930668287,0.48926297195408236,-2.144205981044215,-20.716275749133622,109.82838515142122,3.302964231480497,0.8021409131831525
GUIDED_NOGPS,3.3230674266815186,24.98051851366563,-3.075019522891543,-20.644244416685453,109.63822166032622,3.2595949748818676,-2.5832189794712193,-4.408148208891131,102.92353258174684,0.062357172522983444,-0.07766351973127623,-2.957608727842333,-0.6082430578330575,-0.13015043180682684,-0.32595949748818676,0.48992796638213093,-4.996089611995656,-20.21396021357102,109.09450479217111,3.3965089567925637,0.4583662361046586
GUIDED_NOGPS,3.3703250885009766,21.166463125384794,-3.5884352465561284,-20.530987999640704,109.40066724649631,3.3012642498019944,-2.496966314025043,-4.260961874430059,102.90899398383864,-0.13477269239309658,0.024341086654632943,-2.9057590543054737,-0.6379860004683341,-0.04024377721507936,-0.33012642498019945,0.49026249010601347,-3.625010146628487,-20.662728036217437,109.27911179589647,3.3656201103252954,1.2032113697747289
GUIDED_NOGPS,3.4115617275238037,24.25616914473418,-4.73342645633882,-20.61165660693604,108.98023339046209,3.3440091151263225,-2.411509503008878,-4.115133630130163,102.89425697845653,-0.23115529269993157,0.005797336501459885,-2.888516882076011,-0.663973021879224,-0.1583230317244888,-0.3344009115126323,0.49087103538199167,-5.57917961039229,-20.95828157101963,108.56708358331855,3.394264780020577,0.40107045659157625
GUIDED_NOGPS,3.4526309967041016,24.352640624274233,-4.616319184781623,-20.762016473333386,108.84467241217006,3.3726872871709945,-2.3269080713466312,-3.970765052624632,102.87932342752288,-0.32496567311380886,0.09133264925117582,-2.882419871024717,-0.6812628262680701,-0.034376063649310826,-0.33726872871709945,0.49105197652302923,-4.644767797324065,-20.665039812763062,108.68782185729505,3.404078357236018,0.34377467707849396
GUIDED_NOGPS,3.4987494945526123,21.688879695943324,-4.956238401680149,-20.762787065515262,108.64757576596958,3.392910112322098,-2.2432205877859275,-3.827956086874373,102.86419525647287,-0.38553925912891984,0.09296378380233948,-2.8990012224519806,-0.6724538808609525,-0.091287888342048,-0.33929101123220984,0.49132492923575494,-4.644767797324065,-20.665039812763062,108.68782185729505,3.404078357236018,-0.17188733853924698
GUIDED_NOGPS,3.5431277751922607,22.539236601841054,-4.91006644105322,-20.47840939144685,108.6094360479583,3.4071534381123483,-2.1605045940702645,-3.6868049253034734,102.8488744532217,-0.4329996289895468,0.09833444692408513,-2.9325314748612197,-0.6451724590727611,-0.0594909776825705,-0.34071534381123486,0.4913591576078951,-5.440663728511505,-20.105148548814395,108.45266442928468,3.4677255857438154,-0.4583662361046586
GUIDED_NOGPS,3.5846855640411377,24.067986847919023,-5.510742900832857,-20.19503598964186,108.46206304950068,3.4327749041970876,-2.078816534111125,-3.547407886934554,102.83336306713186,-0.4333814258919799,0.11874710758890293,-2.957884069843249,-0.639745884712118,-0.149333171671802,-0.3432774904197088,0.4915569500264468,-6.446797176662977,-19.814919607348084,108.2457028619222,3.493727440748989,-0.2864788975654116
GUIDED_NOGPS,3.6291120052337646,22.51382991857176,-6.956780288455346,-19.615342947125217,108.1173908345357,3.461338724102866,-1.9982116831601022,-3.409859296524136,102.81766320798043,-0.3740485330674312,0.10299733169308822,-2.99829488406763,-0.6004098645972119,-0.28506384528674183,-0.34613387241028665,0.4920504085601671,-8.982879960191532,-18.92596068521313,107.65380521240009,3.5370838795494692,-0.6875493541569879
GUIDED_NOGPS,3.666294813156128,26.904327857495655,-8.029607776828469,-19.255003435727065,107.93299522406544,3.485847882818927,-1.9187440769810333,-3.274251363698081,102.8017770449264,-0.3837345417233026,0.11109494784096147,-3.0601663661076017,-0.6078955471849359,-0.3137013817136178,-0.3485847882818927,0.4923031727312914,-8.659146193630873,-19.024130014619946,107.89947759787388,3.526624150816322,-1.8907607239317168
GUIDED_NOGPS,3.7056968212127686,25.38387145580537,-9.191483380531578,-18.71361938917336,107.73816799697835,3.52029633380817,-1.8404664410221248,-3.14067406208693,102.7857068054778,-0.2822157859029635,0.02077530102106316,-3.108510871939775,-0.5783570338133799,-0.36585535091508925,-0.35202963338081705,0.4925713082127492,-9.9324239877723,-18.190767467686964,107.66122118066096,3.576320612182232,-1.1459155902616465
GUIDED_NOGPS,3.7462875843048096,24.639620269524045,-9.593946165600682,-18.50267405629312,107.69635462147863,3.5330888469968165,-1.7634301195881132,-3.0092150084613465,102.76945477445912,-0.15484116221655597,-0.048086879634416956,-3.1637199313312228,-0.6059327068792318,-0.30782269558095626,-0.3533088846996817,0.49260965022947073,-10.190268315398848,-18.293124686572416,107.52836508590093,3.531688151687046,-1.1459155902616465
GUIDED_NOGPS,3.791792392730713,21.98272536687631,-10.104320206190005,-18.25900561361061,107.57265045082097,3.5406809891844278,-1.6876850050123124,-2.8799593418674547,102.75302329297853,-0.005633485332552304,-0.03752676684734256,-3.2089528591096323,-0.6004263951410621,-0.3360156703499052,-0.3540680989184428,0.4927705592632363,-10.190268315398848,-18.293124686572416,107.52836508590093,3.531688151687046,-1.432394487827058
GUIDED_NOGPS,3.842747449874878,19.62936234936235,-11.065921532493837,-18.060459797850175,107.31729007500259,3.521216379510437,-1.6132794668288355,-2.7529896027622485,102.73641475739508,0.20504021115073326,-0.21238281125084243,-3.2567159450887084,-0.6025539518823756,-0.40767821662695397,-0.35212163795104373,0.49312868702358875,-12.817227966683797,-17.59513002040566,106.89514005320581,3.439760831179518,-0.8594366926962349
GUIDED_NOGPS,3.8868298530578613,22.688101780730033,-11.232789466024895,-17.454407767222566,107.32578325977346,3.4985329467569444,-1.5402602809446595,-2.6283856121489926,102.71963161828612,0.3360261506184396,-0.43926846198714914,-3.320680453222466,-0.5515665405114026,-0.35816638909624837,-0.3498532946756945,0.493090772537769,-10.690872115992018,-16.47496859468959,107.55384464021355,3.4132069870488553,-1.3178029288008934
GUIDED_NOGPS,3.9262001514434814,25.406166333515053,-11.674181282942747,-16.536418684882836,107.23276101593946,3.4701811220726517,-1.4686725588117842,-2.5062243507126,102.7026763794144,0.33885731739026276,-0.4562265410358214,-3.342214332128224,-0.4896938113521765,-0.40962458548739633,-0.3470181122072652,0.49320487304521243,-11.514443766152406,-15.539157439553229,107.24929835439897,3.434561488760771,-0.40107045659157625
GUIDED_NOGPS,3.9646220207214355,26.034436954551662,-11.807504417701606,-16.532781806099702,107.22024000593461,3.4100627014731444,-1.3985596765993424,-2.386579837955022,102.68555159669552,0.31665498708034295,-0.4337797646588092,-3.3731621327009633,-0.5782525033806502,-0.3870598105210258,-0.34100627014731444,0.49319796738614136,-13.217197370960369,-17.584219384056254,106.85757702319128,3.2310960486895084,-0.5156620156177409
GUIDED_NOGPS,4.000597953796387,27.803177843918412,-12.545328631537402,-16.6590356103398,107.00469816632373,3.3423970775962495,-1.329963204365752,-2.269523011330648,102.66825987716503,0.30250326200689964,-0.46649146158470434,-3.4023626855066484,-0.6009361653271297,-0.48814416585540343,-0.33423970775962497,0.49349534256626193,-12.904344757499402,-16.853730007409876,106.90721912138095,3.19336003230257,-0.7448451336700702
GUIDED_NOGPS,4.04278826713562,23.706811964459316,-13.1273751320723,-17.393334183644907,106.83521804863551,3.270283871303248,-1.2629228352308157,-2.155121605381666,102.65080387794583,0.28301683902655905,-0.3846632340070128,-3.3791349196867277,-0.6802472153788617,-0.48661225483835796,-0.3270283871303248,0.4937233787439655,-13.260583267757102,-17.742053159468554,106.74085800133436,3.0791947997145086,0.5156620156177409
GUIDED_NOGPS,4.089569091796875,21.382491486367993,-13.335510159381847,-17.20425993309442,106.76740167694322,3.200166014210578,-1.197476314547858,-2.043440030873512,102.63318630521542,0.26436343232069553,-0.4562414820746308,-3.3504105591322393,-0.5996392751681053,-0.4598570950162212,-0.3200166014210578,0.4937986769424083,-13.841602452889015,-17.016996632404787,106.65412790811442,3.062617701585505,0.8594366926962349
GUIDED_NOGPS,4.141919851303101,19.10635739144695,-13.391735900342317,-17.14752074983889,106.79518040381502,3.1237577722696117,-1.1336593690758665,-1.9345392539301471,102.61540991317308,0.10757825419205115,-0.29828695421573903,-3.3286335681807113,-0.6117611990513715,-0.4511010719425782,-0.3123757772269612,0.4937303442640371,-13.07302198038081,-16.683512457643292,106.99055530199634,3.052520279055942,0.11459155902616465
GUIDED_NOGPS,4.19077205657959,20.47650059804233,-13.86214310950542,-16.76200678712196,106.75920838311212,3.099293751434275,-1.0715056361516258,-1.8284766751695969,102.59747750300725,-0.04769016170349426,-0.2645577725469236,-3.2919595077625625,-0.578179154657901,-0.5074910256203653,-0.30992937514342755,0.4937574036798427,-14.671804895246408,-16.585511271317756,106.63294193922565,3.108775944512825,0.9740282517223995
GUIDED_NOGPS,4.225988149642944,28.40341574738097,-15.671028128867208,-17.24179092952907,106.39653243699827,3.0524043421798854,-1.0110465928618009,-1.725306008839219,102.57939192186278,-0.07149241713574327,-0.4597752511964662,-3.2831233774106816,-0.6798792356420211,-0.7516017394286041,-0.3052404342179886,0.49427428922729677,-19.26825751097438,-18.45634905962612,105.56610006977289,2.9589129860306236,0.6302535746439055
GUIDED_NOGPS,4.264829158782959,25.756893184804902,-17.995289568957126,-17.92781985859416,105.89847166431956,3.0263985542561374,-0.9523114852151107,-1.6250771619511468,102.56115606180816,-0.2052843237124951,-0.5403768194879057,-3.2820149657744353,-0.7221775008464268,-0.8811390337714358,-0.3026398554256138,0.49499402659623293,-20.04580630065057,-18.741599244838557,105.49637298396016,2.949165860095768,0.0
GUIDED_NOGPS,4.300681114196777,27.898603840602362,-20.153864790983473,-18.546225867600157,105.42955398187267,3.021151056256233,-0.8953272573144471,-1.5278361134176848,102.5427728588028,-0.31094324138691976,-0.48933332171651944,-3.2689340862968033,-0.7473099492771134,-0.971674809465696,-0.3021151056256233,0.4956698283153952,-21.14753056132544,-18.44072929833576,105.22618889188497,3.036380211585983,0.4583662361046586
GUIDED_NOGPS,4.3395020961761475,25.768761481135613,-21.86464465209775,-18.49838602411128,104.94705305275318,3.0082427211703577,-0.8401184805289983,-1.4336247931866382,102.52424529166439,-0.3031318528539524,-0.6895749381091353,-3.2737668720214104,-0.6820070882613651,-0.9778606189660167,-0.3008242721170358,0.4963657883583668,-24.400597094317206,-18.312829529159483,104.11859728241437,2.9879786036265656,0.2864788975654116
GUIDED_NOGPS,4.383093357086182,22.945397850050604,-23.054834080979045,-18.398882866096447,104.59057440752366,2.993060210960144,-0.7867072826663577,-1.3424809613768005,102.505576381036,-0.45772843560128373,-0.7087929559994356,-3.258414314314514,-0.6773881519531167,-0.9604897236406076,-0.2993060210960144,0.4968725029602685,-23.61637458729446,-18.443089770794053,104.42693704827163,3.0328633934617555,0.11459155902616465
GUIDED_NOGPS,4.4243834018707275,24.223668632218494,-23.78913179927812,-18.508981389256153,104.38394759598692,3.0299528254157546,-0.7351132771447002,-1.2544380874132486,102.4867691883535,-0.5378331609914577,-0.808833456112143,-3.261624076337597,-0.7031489476141999,-0.955251078689682,-0.3029952825415755,0.4971542323885499,-23.350423716222657,-18.771024867814873,104.60630845727476,3.1433760583086796,0.40107045659157625
GUIDED_NOGPS,4.461262941360474,27.122845817086024,-24.294983950376405,-17.748345914971548,104.34646115614161,3.096721461865731,-0.685353492164845,-1.1695252291627867,102.46782681481285,-0.5243254480515526,-0.9151730981868946,-3.2532590155950354,-0.596259382877121,-0.962243728587222,-0.3096721461865731,0.49718204848800684,-25.91815354761206,-16.030923106305668,104.00613796287841,3.2830090423456477,0.5729577951308232
GUIDED_NOGPS,4.496605634689331,28.30221934317159,-24.274223949455358,-17.90982075345142,104.39651081763088,3.1231329361052325,-0.6374422998824532,-1.0877669120693199,102.4487524003372,-0.6668790732708292,-0.8228391858920772,-3.2182030696799453,-0.6963025543649878,-0.9071222571444527,-0.3123132936105233,0.49707836237405945,-23.554094584531317,-18.927514286233666,104.57708603273943,3.1684375827834894,0.5729577951308232
GUIDED_NOGPS,4.534214735031128,26.592175087334446,-23.675243233462623,-17.879050980859088,104.5771783456142,3.161451776401454,-0.5913913455801048,-1.0091830082892486,102.42954912254432,-0.8268804700857563,-0.791167171823905,-3.2029982148138503,-0.6782004867676573,-0.824457259684308,-0.3161451776401454,0.4967785561653952,-21.553481568244457,-18.678715550037868,105.14831104122476,3.1795728051076733,0.057295779513082325
GUIDED_NOGPS,4.575940370559692,23.987326642074862,-21.37127534484891,-19.09165201988454,105.22729674097566,3.182228940688539,-0.5472094768394467,-0.9337886158268489,102.41022019571383,-0.9600555518835178,-0.6441051948655968,-3.1489861460744475,-0.8326819007933186,-0.5749662837907599,-0.3182228940688539,0.49577438518210726,-19.00624988177093,-19.668726223382016,105.95649314896282,3.136749214897184,1.776169164905552
GUIDED_NOGPS,4.611886262893677,27.827711578779756,-19.85532711059545,-19.338722665600653,105.68709911305012,3.1809035720062395,-0.5049026727133334,-0.8615939376696531,102.39076886975445,-1.0237637144799885,-0.5044367909621217,-3.090996345917158,-0.764716242721505,-0.571312528509055,-0.31809035720062395,0.4950555046350565,-19.00624988177093,-19.668726223382016,105.95649314896282,3.136749214897184,2.119943841984046
GUIDED_NOGPS,4.647057771682739,28.434995423883937,-17.96029556959208,-20.16421167728169,106.26259577268719,3.140274714816255,-0.4644739728979008,-0.7926041609238794,102.37119842917129,-1.0652572204095219,-0.33263576210832163,-2.9949265335897555,-0.8567540900144064,-0.4514800832487923,-0.3140274714816255,0.4941629039847261,-15.868386945234354,-21.15518258508098,106.87480102013596,3.079864756395722,2.46371851906254
GUIDED_NOGPS,4.689305543899536,23.676033281777435,-17.440697028635046,-20.540349787864525,106.49145684159686,3.122932209681956,-0.4259234069047917,-0.7268193359497772,102.35151219203308,-1.0369449123610555,-0.2670394790931654,-2.8643173084032445,-0.8199380783755136,-0.59737032933611,-0.3122932209681956,0.49379008302565436,-17.447454258899835,-20.797140555130532,106.64307635569176,3.081725057111996,3.2658594322456924
GUIDED_NOGPS,4.723763942718506,29.027932342275005,-16.70620332986832,-20.859790572169434,106.78525772482813,3.1295367556954554,-0.3892479232331798,-0.6642342554970568,102.33171350893957,-0.9892145899456543,-0.17144692623401725,-2.699576560717122,-0.8365616557791086,-0.5345796014108662,-0.31295367556954556,0.4933196836761672,-16.802768785470743,-20.627048576296733,106.83789579865662,3.2125955351751707,4.354479242994256
GUIDED_NOGPS,4.762533903121948,25.794910271706375,-17.781662258399827,-20.559166983116423,106.60439314871172,3.171361814148745,-0.35444131854197103,-0.6048383338402203,102.31180576198862,-0.8657518770650922,-0.26633383517453846,-2.5614312889985595,-0.7661404095391031,-0.7758423674777087,-0.31713618141487454,0.49356111891991533,-19.094763730828873,-20.253311817921944,106.33220729178677,3.345874507163629,4.239887683968092
GUIDED_NOGPS,4.798730850219727,27.63737958118633,-18.330765415709507,-20.377890737380223,106.50077012741008,3.2131868726020345,-0.32149416682188736,-0.5486154859139987,102.2917923637436,-0.7948215364732734,-0.22230878366216344,-2.3917267013331305,-0.7724294023592505,-0.7486263681726266,-0.32131868726020346,0.4936865333545003,-19.094763730828873,-20.253311817921944,106.33220729178677,3.345874507163629,4.755549699585833
GUIDED_NOGPS,4.83406925201416,28.3037472416981,-18.751964609182036,-20.148097010848918,106.44241890251185,3.3402359311629413,-0.2903937485676398,-0.4955440064487462,102.27167675620063,-0.7621907879612134,-0.21707088234240993,-2.1882660381290284,-0.7610349127318281,-0.7546302472619785,-0.33402359311629415,0.49374388678053316,-18.066366365888328,-19.937667396702818,106.66284212396192,3.7151100492002573,5.328507494716656
GUIDED_NOGPS,4.867678880691528,29.764357742500906,-18.925997758111247,-19.959367515511087,106.4454034078753,3.5056430981045934,-0.2611239799499874,-0.44559644910579266,102.25146240975586,-0.6001502061530674,-0.38946955274858613,-2.058199599538122,-0.7598245538662707,-0.7362539513410704,-0.3505643098104594,0.49370908850282086,-19.616863177616516,-19.68712333190844,106.34116080787713,3.9087608918202563,5.614986392282068
GUIDED_NOGPS,4.9012768268585205,29.773020244754253,-19.100030907040463,-19.77063802017325,106.44838791323878,3.6448761694336107,-0.23366534198795286,-0.3987395056128662,102.23115282217269,-0.5745609557884674,-0.3984676866498433,-1.889274293768309,-0.7549405950803595,-0.7447818568816064,-0.36448761694336107,0.4936741473634009,-19.616863177616516,-19.68712333190844,106.34116080787713,3.9087608918202563,5.099324376664327
GUIDED_NOGPS,4.939692974090576,26.045430271116135,-20.45540338259447,-19.82612315602813,106.09558081978145,3.812523304835845,-0.2079948097208959,-0.35493388489949496,102.21075151754911,-0.3708210552411886,-0.6264366694215374,-1.574256150850389,-0.7836934454152344,-0.9205085964907807,-0.38125233048358453,0.4941727560466515,-22.132483792550353,-20.104122804267465,105.60442084358993,4.184110184174801,6.0733526283867265
GUIDED_NOGPS,4.977235555648804,26.6445428384482,-21.5115711341184,-19.8301792334906,105.75376040526878,4.0245772332601,-0.1840857813806256,-0.3141341922323022,102.19026204528495,-0.1758488764323847,-0.9021743944227141,-1.3610576656022588,-0.780973966228576,-0.9359953600598288,-0.40245772332601004,0.49465475246002427,-22.785366432188333,-19.699291564295844,105.31569956433916,4.406144149284902,6.875493541569879
GUIDED_NOGPS,5.017547607421875,24.81454924094518,-22.8918989106502,-19.780499523152567,105.30244738384981,4.209688227567109,-0.16190800756357682,-0.2762888083505146,102.16968797904913,0.0088699077717607,-1.1719583289017552,-1.1733181768768224,-0.7758924528000364,-1.0170622413834645,-0.42096882275671094,0.49530086089279896,-23.75784650721192,-19.538084200894325,104.98722174362024,4.640665020735305,5.729577951308232
GUIDED_NOGPS,5.056010723114014,26.00328582322271,-24.423317982891508,-19.455495016446577,104.71215138562127,4.406561415110659,-0.1414275204029085,-0.2413397686012786,102.14903291574696,0.1699870133195667,-1.4130352984643502,-0.9261375795171749,-0.7400928423133103,-1.101833853373675,-0.4406561415110659,0.49615532229518855,-26.726741009274267,-19.129109284149493,103.83353284890433,4.893126829538006,6.016056848873644
GUIDED_NOGPS,5.100055456161499,22.709722131981895,-25.338739505558163,-19.525384093075626,104.38526756635368,4.653962551904773,-0.12260656274065873,-0.20922264207510466,102.12830047448738,0.3482649424766033,-1.7005876499040622,-0.6813333543801628,-0.7799703673153563,-1.0643872999849764,-0.46539625519047734,0.49661454936220056,-25.53163100018829,-19.90895879418299,104.33504810653642,5.145766575790829,5.443099053742821
GUIDED_NOGPS,5.138773202896118,25.833835313537453,-26.518657484914844,-18.950287828492286,104.00750682058732,4.948982332194105,-0.10540351729982156,-0.1798664107411838,102.10749429555027,0.4550395288632672,-1.7481181892862403,-0.5043171559299408,-0.7018661216929447,-1.151919095873803,-0.4948982332194105,0.4971499812124444,-27.297600445281976,-17.81279540714431,103.85393950632117,5.659209085621463,4.698253920072751
GUIDED_NOGPS,5.176063299179077,26.825175719667172,-27.09293989168441,-18.09665476982585,103.89253423865127,5.267211628976026,-0.08977283585652351,-0.15319334858287448,102.08661803935371,0.5567782914800748,-1.9674048276840848,-0.3639396396524007,-0.6437463724103059,-1.1160013867281586,-0.5267211628976026,0.49729112570105366,-28.449588229582954,-16.568210108150193,103.48861510309614,5.997290633194503,3.4377467707849396
GUIDED_NOGPS,5.211106777191162,28.541611660791812,-29.494958301896077,-16.444477618439038,103.07460026186506,5.641378942297092,-0.0756649684121431,-0.12911890073294785,102.06567538542123,0.668469119965267,-2.020808796143945,-0.26446743262297956,-0.4978281361226915,-1.4267328093615466,-0.5641378942297093,0.4984866126853343,-32.737686230823286,-14.952427340022552,101.8812461761778,6.511501587340642,3.380450991271857
GUIDED_NOGPS,5.242228984832764,32.140014252764345,-31.308320230409848,-15.491021596065119,102.41703581848394,5.965053893857619,-0.06302629236543744,-0.10755156260914589,102.04467003134913,0.7139079672749817,-1.9059612996842963,-0.14247598517832058,-0.5247097798219883,-1.458621084854357,-0.5965053893857619,0.4994414513192978,-32.737686230823286,-14.952427340022552,101.8812461761778,6.511501587340642,2.46371851906254
GUIDED_NOGPS,5.2805986404418945,26.069226992187257,-30.864796344135097,-15.833091460118197,102.45039009791674,6.20527819575395,-0.05179904168463345,-0.0883927590494551,102.02360569177367,0.8507369334744356,-1.9277265512481883,-0.0971619755839437,-0.6797657073331945,-1.1632161566695127,-0.620527819575395,0.4993598233907854,-27.119016570758706,-17.59441970030943,103.58867794139458,6.3468880852724805,1.0313240312354819
GUIDED_NOGPS,5.315248727798462,28.86909358717573,-31.299301915906693,-18.05534499624838,102.1883050056287,6.31508605288618,-0.0419212360796255,-0.07153672344756501,102.00248609733842,0.9731395262906176,-2.092703153904088,-0.10055461859009629,-0.9588584220906773,-1.2784039494922501,-0.6315086052886181,0.4997212716375646,-34.04120294613807,-21.6191879484131,101.09499089931369,6.208248371282612,-0.11459155902616465
GUIDED_NOGPS,5.353544473648071,26.11857746891093,-31.376284189194795,-20.448717620842483,101.97412375374688,6.381270050220503,-0.03332661017404526,-0.056870376888127794,101.98131499366153,1.1181603439041499,-1.9763822575744203,-0.11033237456240673,-1.0409966836206346,-1.240836819627821,-0.6381270050220503,0.500010786859872,-32.9686330506876,-22.132545213804853,101.23870242053233,6.328210619866118,-0.2291831180523293
GUIDED_NOGPS,5.389821290969849,27.57306266270478,-34.75741366278512,-21.877909925829744,100.61360952981714,6.373108139844789,-0.025944542677388327,-0.04427320728234463,101.96009614030294,1.1051850121935354,-1.8643244665038985,-0.172470427413101,-1.0098586398066174,-1.7418392102058986,-0.637310813984479,0.5020197299157287,-37.262404991529664,-21.881996615271216,99.50713526960534,6.470692035462069,-1.6615776058793874
GUIDED_NOGPS,5.434688329696655,22.29506663052087,-32.102485166292524,-21.281432125937688,101.36511572372628,6.411874912545192,-0.01969998555720487,-0.03361714850318265,101.93883330973169,0.9347152298976531,-1.6385822321233343,-0.3057057669539894,-0.799426365371201,-1.0265535684289697,-0.6411874912545192,0.5008605763790082,-26.07641745666029,-19.829754548736926,103.34950948104111,6.705335450842659,-3.7815214478634336
GUIDED_NOGPS,5.4746198654174805,25.04705088470473,-28.797800015679602,-21.136911326260222,102.2850101887713,6.460418949489856,-0.014513393211197823,-0.024766459520932926,101.91753028629321,0.8064425163766682,-1.6768684306290176,-0.5089865507229965,-0.8304703722408243,-0.8054021232381633,-0.6460418949489857,0.49944878014628286,-23.054577598848837,-21.698982814772446,103.99838581566736,6.589608269995802,-5.042028597151244
GUIDED_NOGPS,5.511919736862183,26.81505728314239,-22.90343066590341,-22.019372709762084,103.9667117443358,6.479419461361016,-0.010300651639271408,-0.0175776035384132,101.89619086517658,0.5859129436324402,-1.4012757404259981,-0.6842437620185288,-0.961228583514405,-0.26700861981124613,-0.6479419461361017,0.49689421868126116,-19.579296942201076,-24.529380765776818,104.55223993629886,6.3032509306384155,-5.328507494716656
GUIDED_NOGPS,5.543197393417358,31.98169992451219,-19.35864522808653,-24.704006293431306,104.72027852627991,6.368771746261755,-0.00697300761577857,-0.011899127126397957,101.87481885138178,0.47838116674325687,-1.1219721230695459,-0.9198214688039114,-1.2847915180768341,-0.3013771403788851,-0.6368771746261755,0.4957318104876528,-15.44206114320966,-27.883655299744593,105.61020982687342,5.774972044369818,-6.0733526283867265
