Mode,Time,Freq,time2delay,actualDelay,North-Desired,East-Desired,Down-Desired,Roll-UAV,Pitch-UAV,Yaw-UAV,Roll-Control,Pitch-Control,Yaw-Control,Thrust-Control,North-Pos,East-Pos,Down-Pos,Yaw-Ang,North-Vel,East-Vel,Down-Vel,Yaw-Vel,North-Acc,East-Acc,Down-Acc,North-Avg,East-Avg,Down-Avg,Yaw-Avg,North-Dif,East-Dif,Down-Dif,Yaw-Dif,North-One,East-One,Down-One,Yaw-One,North-Two,East-Two,Down-Two,Yaw-Two,Landing-State,Q-Size,Kalman-Time,Kalman-Dt
STABILIZE,0.03435802459716797,29.11477776775116,0.03271916707356771,0.03284144401550293,0.0,0.0,0.0,-0.5620565869654667,-1.056750113076565,-0.05673523314497537,-0.14388575730860614,0.11115070039660782,0.009181956162644025,0.4,0.08895359552294946,0.09271199446260689,0.12449720014942936,0.0912174223878119,-0.05796079058200121,0.04122688842471689,1.6409782692790031,0.12872978924663359,-4.108302667737007,0.6817592773586512,22.076669335365295,0.0,0.0,0.0,0.0,0.0,0.0,0.0,0.0,0.0,0.0,0.0,0.0,0.0,0.0,0.0,0.0,False,0,0.14452171325683594,0.034819091796875
STABILIZE,0.06772422790527344,29.970232013090484,0.03230455716451009,0.03244137763977051,0.0,0.0,0.0,-0.5617350878268,-1.056948508727613,-0.05701994664568044,-0.0867539498630653,0.06616633200265273,0.0107657201001442,0.4,0.10278365477054621,0.10947897983196052,0.15628763060845727,0.10634418945185634,-0.25807556230574846,0.16513727605342865,1.8338941037654877,-0.09867108720475949,0.17510082107037306,1.0023312643170357,22.49109297990799,0.0,0.0,0.0,0.0,0.0,0.0,0.0,0.0,0.0,0.0,0.0,0.0,0.0,0.0,0.0,0.0,False,0,0.17334198951721191,0.02993505859375
STABILIZE,0.10117244720458984,29.896957773786102,0.032433541615804036,0.032553911209106445,0.0,0.0,0.0,-0.5608349435993863,-1.0574428436687926,-0.05689410174424428,-0.06470036056209066,0.0498473903565805,0.011721011161830898,0.4,0.11270543616232458,0.11985954572554572,0.18133298151267774,0.11512720903665091,0.09458702406845987,0.03958186425734311,1.60442516207695,-0.16622303213814754,-3.286059945821762,-1.238402258604765,21.289288997650146,0.0,0.0,0.0,0.0,0.0,0.0,0.0,0.0,0.0,0.0,0.0,0.0,0.0,0.0,0.0,0.0,False,0,0.20290064811706543,0.034923828125
STABILIZE,0.1346287727355957,29.891418064681652,0.03243139584859212,0.032567739486694336,0.0,0.0,0.0,-0.5606180850932385,-1.0579960889915636,-0.056576684710823805,-0.05465501269382585,0.0426340438838502,0.013070156165897786,0.4,0.12482410054858699,0.1321626820975501,0.2117347139319588,0.12776341295302435,0.16897361492738128,0.07347969803959131,1.6049450263381004,0.21079974148792008,0.18031561048701406,0.8537803776562214,23.51808249950409,0.0,0.0,0.0,0.0,0.0,0.0,0.0,0.0,0.0,0.0,0.0,0.0,0.0,0.0,0.0,0.0,False,0,0.23166537284851074,0.02993505859375
STABILIZE,0.16806578636169434,29.904631530914898,0.03242448170979818,0.032553672790527344,0.0,0.0,0.0,-0.5613455002398449,-1.0577793372071214,-0.05714389056673237,-0.04712063564503791,0.037240793630984134,0.013962129852326564,0.4,0.13236382539231356,0.13940960799469954,0.23602387540565103,0.13577509585440645,0.16897361492738128,0.07347969803959131,1.6049450263381004,0.21079974148792008,0.18031561048701406,0.8537803776562214,23.51808249950409,0.0,0.0,0.0,0.0,0.0,0.0,0.0,0.0,0.0,0.0,0.0,0.0,0.0,0.0,0.0,0.0,False,0,0.260145902633667,0.02993505859375
STABILIZE,0.20160579681396484,29.815136802746718,0.03244951566060384,0.03265881538391113,0.0,0.0,0.0,-0.5600616914801468,-1.0574576779858962,-0.056864493140996536,-0.024098988829242426,0.017874981443255947,0.01538667065358975,0.4,0.13996425209435828,0.1546622227809598,0.2964922195905635,0.14902141505721223,-0.05103651201352477,0.11325094383209944,1.917269453406334,0.018539881491338478,2.38715298473835,0.8733791299164295,27.248120307922363,0.0,0.0,0.0,0.0,0.0,0.0,0.0,0.0,0.0,0.0,0.0,0.0,0.0,0.0,0.0,0.0,False,0,0.3175342082977295,0.034924072265625
STABILIZE,0.23508167266845703,29.87161974489178,0.032431634267171223,0.03254842758178711,0.0,0.0,0.0,-0.5603757734602617,-1.0570584320845677,-0.05692735222570181,-0.02125959327331181,0.016226039836546885,0.016199500318795506,0.4,0.14579840274532851,0.1611133952376227,0.32621538473556655,0.1561043424823593,0.09047648636624217,0.06646502879448235,1.6203885897994041,0.16039015730866243,6.088124588131905,-1.2955273501574993,20.362409949302673,0.0,0.0,0.0,0.0,0.0,0.0,0.0,0.0,0.0,0.0,0.0,0.0,0.0,0.0,0.0,0.0,False,0,0.34623098373413086,0.029934814453125
STABILIZE,0.2684361934661865,29.98072909220872,0.03239634831746419,0.03255653381347656,0.0,0.0,0.0,-0.5606885214190542,-1.0570600329101545,-0.05747813627913326,-0.019014344290246423,0.014204944213604737,0.016581775874596902,0.4,0.14693721940371762,0.16361743781888705,0.35029385600249946,0.15886508202178976,-0.04195850342512131,0.055597478058189154,1.732512004673481,0.08743667333002485,2.5055736303329468,-1.3230576179921627,23.298881947994232,0.0,0.0,0.0,0.0,0.0,0.0,0.0,0.0,0.0,0.0,0.0,0.0,0.0,0.0,0.0,0.0,False,0,0.37491869926452637,0.034924072265625
STABILIZE,0.3019270896911621,29.859073111696446,0.03251031239827474,0.032623291015625,0.0,0.0,0.0,-0.5619552547058272,-1.056509882516851,-0.057492296915469136,-0.016775294195125138,0.012377218150962384,0.01674639636585346,0.4,0.15063586933176082,0.1678502715601162,0.3806166860046691,0.1594447193697692,0.07025221711955965,0.06311886245384812,1.7674274742603302,-0.26479666908531535,-0.02162033342756331,0.6235728971660137,24.75813925266266,0.0,0.0,0.0,0.0,0.0,0.0,0.0,0.0,0.0,0.0,0.0,0.0,0.0,0.0,0.0,0.0,False,0,0.403735876083374,0.034925048828125
STABILIZE,0.33538293838500977,29.890992018244013,0.032469781239827473,0.032582998275756836,0.0,0.0,0.0,-0.5620756901508015,-1.056390781093199,-0.057618762136820156,-0.015681440652889667,0.010099607369035816,0.01711470085429098,0.4,0.14882380983561397,0.17099524292622248,0.40799309023870073,0.16204407165344611,-0.3303155768662691,0.06152252317406237,1.563691534101963,0.039071503507569535,-7.548711448907852,0.4688143264502287,19.98845785856247,0.0,0.0,0.0,0.0,0.0,0.0,0.0,0.0,0.0,0.0,0.0,0.0,0.0,0.0,0.0,0.0,False,0,0.43297696113586426,0.02993505859375
STABILIZE,0.36887454986572266,29.860135976933755,0.03244832356770833,0.032560110092163086,0.0,0.0,0.0,-0.5605533050178291,-1.056891732780137,-0.05794847217672533,-0.011639179054135664,0.007980574025391466,0.01717628919299946,0.4,0.14758415177919113,0.1724467578830634,0.4312001211368624,0.16157981410184055,-0.03260938392486423,0.17563618021085858,1.812640205025673,0.021210498797026685,1.3911202549934387,0.7457731757313013,25.741541385650635,0.0,0.0,0.0,0.0,0.0,0.0,0.0,0.0,0.0,0.0,0.0,0.0,0.0,0.0,0.0,0.0,False,0,0.4608333110809326,0.034924072265625
STABILIZE,0.40226221084594727,29.94904604135725,0.03237179120381673,0.032492876052856445,0.0,0.0,0.0,-0.5594543916133975,-1.0572291868138182,-0.05837914762040637,-0.011751712372149031,0.005863756863664999,0.01732875523548083,0.4,0.1448930709038937,0.17847911661205765,0.4894844342764383,0.16202102873788246,-0.17214675899595022,0.21861186251044273,1.87029168009758,-0.023225679744078166,-2.0052745938301086,0.7257692981511354,23.89441728591919,0.0,0.0,0.0,0.0,0.0,0.0,0.0,0.0,0.0,0.0,0.0,0.0,0.0,0.0,0.0,0.0,False,0,0.5183861255645752,0.034923828125
STABILIZE,0.43632984161376953,29.35440389124121,0.03244164784749349,0.0332334041595459,0.0,0.0,0.0,-0.5585163611804315,-1.0567259939710585,-0.058305683066189065,-0.011475384332679518,0.005815190696525714,0.01756603764681371,0.4,0.1455984874630846,0.17982639667622202,0.513599316490822,0.16328003980123465,0.13250423362478614,0.14010986778885126,1.5500574372708797,0.1573024048757142,1.1419374495744705,0.5489125847816467,21.02026790380478,0.0,0.0,0.0,0.0,0.0,0.0,0.0,0.0,0.0,0.0,0.0,0.0,0.0,0.0,0.0,0.0,False,0,0.5471200942993164,0.02993505859375
STABILIZE,0.46988868713378906,29.799249744230988,0.03248718579610189,0.03260016441345215,0.0,0.0,0.0,-0.5587136896144214,-1.0577759221125365,-0.05847751168260381,-0.009447744145770697,0.0034036993031458167,0.017516614705318356,0.4,0.14000595177501834,0.17747594582235934,0.5333990627162841,0.16170378436451027,-0.21111576352268457,0.035980253596790135,1.7751500010490417,0.09089244222514717,0.09729498997330666,-1.4417004771530628,26.109012961387634,0.0,0.0,0.0,0.0,0.0,0.0,0.0,0.0,0.0,0.0,0.0,0.0,0.0,0.0,0.0,0.0,False,0,0.5759198665618896,0.034924072265625
STABILIZE,0.5033724308013916,29.865451438336656,0.03235629399617513,0.03246665000915527,0.0,0.0,0.0,-0.559712017811154,-1.057909430966469,-0.059090541170932286,-0.008180647872764348,0.002518008543818955,0.017585569719503272,0.4,0.135172485477683,0.17641784446961625,0.5590276732021583,0.1613147348270364,-0.21111576352268457,0.035980253596790135,1.7751500010490417,0.09089244222514717,0.09729498997330666,-1.4417004771530628,26.109012961387634,0.0,0.0,0.0,0.0,0.0,0.0,0.0,0.0,0.0,0.0,0.0,0.0,0.0,0.0,0.0,0.0,False,0,0.6096522808074951,0.034924072265625
STABILIZE,0.5367393493652344,29.96851890223426,0.03230408032735189,0.03244280815124512,0.0,0.0,0.0,-0.5589244649833398,-1.0578965176400694,-0.05947294505306705,-0.007536652917517755,0.001633205858550523,0.01751460816553089,0.4,0.130837860452421,0.17570928326044927,0.5837743032303128,0.1595375579413262,-0.1379835419356823,0.09851453360170126,1.7796501517295837,0.023867375683095535,4.393215477466583,0.3641339484602213,19.518741965293884,0.0,0.0,0.0,0.0,0.0,0.0,0.0,0.0,0.0,0.0,0.0,0.0,0.0,0.0,0.0,0.0,False,0,0.638202428817749,0.039913818359375
STABILIZE,0.5702016353607178,29.884815709410113,0.032367976506551106,0.03249359130859375,0.0,0.0,0.0,-0.5587568051835571,-1.057202399665667,-0.06059426334560613,-0.005748557963290069,0.0013064270691665507,0.01752978649030566,0.4,0.12725152417553406,0.17567230990004143,0.6168280255007043,0.1586282428143862,-0.11180266737937927,0.08248774684034288,1.9777704030275345,0.03292915574163806,-1.2461008504033089,0.38633805233985186,22.58942574262619,0.0,0.0,0.0,0.0,0.0,0.0,0.0,0.0,0.0,0.0,0.0,0.0,0.0,0.0,0.0,0.0,False,0,0.667027473449707,0.02993505859375
STABILIZE,0.6038520336151123,29.716488125602222,0.03238514264424642,0.03279590606689453,0.0,0.0,0.0,-0.5576764079950786,-1.0573492487328222,-0.06154409986727425,-0.004239920295722661,-9.765382119352467e-05,0.01687949844492404,0.4,0.12267856778092223,0.1722386191143143,0.6286424106247972,0.15110660156520067,-0.05079936818219721,0.06685461848974228,1.4974748715758324,-0.22330601796141175,-2.950337342917919,-1.633678749203682,19.285768270492554,0.0,0.0,0.0,0.0,0.0,0.0,0.0,0.0,0.0,0.0,0.0,0.0,0.0,0.0,0.0,0.0,False,0,0.695685625076294,0.02993505859375
STABILIZE,0.6373953819274902,29.81216993268937,0.032476218541463216,0.0325927734375,0.0,0.0,0.0,-0.5576047443696464,-1.05713452466079,-0.062132963559349844,-0.002862503801588732,-0.0002737676253175943,0.016562915655903305,0.4,0.11716015556372754,0.16592937777655237,0.664066028809486,0.14695775570926403,0.19020242616534233,0.025673009804449975,1.5128539875149727,0.0900292170378273,1.6704713925719261,-1.5913134440779686,19.51531171798706,0.0,0.0,0.0,0.0,0.0,0.0,0.0,0.0,0.0,0.0,0.0,0.0,0.0,0.0,0.0,0.0,False,0,0.7531998157501221,0.034924072265625
STABILIZE,0.6708276271820068,29.9110293383538,0.032355340321858723,0.03248739242553711,0.0,0.0,0.0,-0.5581340306694694,-1.0575637593614429,-0.06245021384010503,-0.002458968023172617,-0.0009766358187465118,0.016532734691924088,0.4,0.11041339384928534,0.1636957468566178,0.6860564328000257,0.1456809202266615,-0.2200110349804163,0.09982825722545385,1.8940914422273636,0.147642169511789,1.3236879371106625,-1.4401712454855442,24.388697743415833,0.0,0.0,0.0,0.0,0.0,0.0,0.0,0.0,0.0,0.0,0.0,0.0,0.0,0.0,0.0,0.0,False,0,0.7815577983856201,0.029934814453125
STABILIZE,0.7042393684387207,29.92981204241533,0.03238561948140462,0.032509565353393555,0.0,0.0,0.0,-0.5567548660656558,-1.0570044309014424,-0.06190040362223884,-0.0012211070213355504,-0.0011958247555737243,0.016225155041931387,0.4,0.10582867193783328,0.1592773354803544,0.6977873146173859,0.14165761308561936,-0.04516310873441398,0.03127401869278401,1.6938460990786552,0.029692012930915637,-5.455610901117325,0.48695825971663,22.472743690013885,0.0,0.0,0.0,0.0,0.0,0.0,0.0,0.0,0.0,0.0,0.0,0.0,0.0,0.0,0.0,0.0,False,0,0.8108029365539551,0.034924072265625
STABILIZE,0.7376959323883057,29.889500951349348,0.03242066701253255,0.03254508972167969,0.0,0.0,0.0,-0.5567983017999089,-1.0568526726358212,-0.06261125689412923,-6.225091660905901e-05,-0.0014817514345748198,0.015987558013877568,0.4,0.1016496818155656,0.15569929183070302,0.7151491839273977,0.13835639785302725,-0.04516310873441398,0.03127401869278401,1.6938460990786552,0.029692012930915637,-5.455610901117325,0.48695825971663,22.472743690013885,0.0,0.0,0.0,0.0,0.0,0.0,0.0,0.0,0.0,0.0,0.0,0.0,0.0,0.0,0.0,0.0,False,0,0.8395826816558838,0.034924072265625
STABILIZE,0.7711257934570312,29.912949214431915,0.032407315572102864,0.03253364562988281,0.0,0.0,0.0,-0.5565912616906928,-1.0570756142791986,-0.06238569389885353,0.00016972990063528635,-0.0009904534731543918,0.015725007593124025,0.4,0.09944908626378259,0.1518755920094389,0.7324519807597452,0.13482910851471366,0.08189149084500968,0.027082630549557507,1.7543559893965721,0.024333142557658834,-1.7932308837771416,0.5571943707764149,25.217613577842712,0.0,0.0,0.0,0.0,0.0,0.0,0.0,0.0,0.0,0.0,0.0,0.0,0.0,0.0,0.0,0.0,False,0,0.8682467937469482,0.034925048828125
STABILIZE,0.8047356605529785,29.755489184798417,0.03243616422017415,0.032564401626586914,0.0,0.0,0.0,-0.5573125937000697,-1.0579559616301897,-0.06306728541303998,-0.0011286326881410162,-0.0006755602522755244,0.015657624387856256,0.4,0.09579024603864891,0.1500370216113642,0.7452209329122965,0.13326361242928692,-0.00927579530980438,0.1583143137395382,1.5349130146205425,0.15215330935538407,5.839353799819946,-1.5146144665777683,17.82391369342804,0.0,0.0,0.0,0.0,0.0,0.0,0.0,0.0,0.0,0.0,0.0,0.0,0.0,0.0,0.0,0.0,False,0,0.8972370624542236,0.02993505859375
STABILIZE,0.8382461071014404,29.839954467842915,0.03221300443013509,0.03255629539489746,0.0,0.0,0.0,-0.5571565665662171,-1.0580979014988792,-0.06284272293375598,0.0012330519184469203,-0.0021004870407358126,0.015267534526965994,0.4,0.08477507721506723,0.14085901449451854,0.772079023903104,0.1284982291215972,-0.19007233204320073,0.06867870688438416,1.8307270482182503,0.20270608738337398,-4.248030483722687,-1.427649799734354,22.095252573490143,0.0,0.0,0.0,0.0,0.0,0.0,0.0,0.0,0.0,0.0,0.0,0.0,0.0,0.0,0.0,0.0,False,0,0.9546370506286621,0.034924072265625
STABILIZE,0.8716468811035156,29.93857113285795,0.03242233594258626,0.03254294395446777,0.0,0.0,0.0,-0.5573689961215751,-1.058239094315628,-0.06213940688233639,0.0010299213700253125,-0.0028320108777238747,0.015279228279478045,0.4,0.07817072857376811,0.1374466746416948,0.7873949005147223,0.12776031894305065,-0.19007233204320073,0.06867870688438416,1.8307270482182503,0.20270608738337398,-4.248030483722687,-1.427649799734354,22.095252573490143,0.0,0.0,0.0,0.0,0.0,0.0,0.0,0.0,0.0,0.0,0.0,0.0,0.0,0.0,0.0,0.0,False,0,0.9831693172454834,0.034924072265625
STABILIZE,0.9052152633666992,29.790783567248138,0.032473119099934895,0.032605648040771484,0.0,0.0,0.0,-0.5570344769348032,-1.0581972594069615,-0.0621374658813125,0.00024288419818723788,-0.003145724286867353,0.015183798749715847,0.4,0.07341750849823277,0.13653222448852825,0.8025172426654398,0.12596304538109207,-0.0775994616560638,0.22135938052088022,1.870848797261715,0.13834320046214718,2.561868540942669,2.525957301259041,21.411806344985962,0.0,0.0,0.0,0.0,0.0,0.0,0.0,0.0,0.0,0.0,0.0,0.0,0.0,0.0,0.0,0.0,False,0,1.0121543407440186,0.029935791015625
STABILIZE,0.9399936199188232,28.75233244445663,0.03234985669453939,0.0339045524597168,0.0,0.0,0.0,-0.5567960606440874,-1.0596477141102372,-0.06210433546177397,-8.181105317633877e-05,-0.0033113578017895185,0.015071913020323804,0.4,0.0707971505097271,0.13391686115531848,0.8053365391002671,0.12397980348335128,0.04690831992775202,0.1469282084144652,1.5274488367140293,0.1569548656408369,0.35532331094145775,-1.4449909329414368,20.004603266716003,0.0,0.0,0.0,0.0,0.0,0.0,0.0,0.0,0.0,0.0,0.0,0.0,0.0,0.0,0.0,0.0,False,0,1.0408871173858643,0.034924072265625
STABILIZE,0.9735023975372314,29.843563891478052,0.03245380719502767,0.032568931579589844,0.0,0.0,0.0,-0.5568741275718666,-1.0591539127775864,-0.06296404550290965,0.0011100048573842406,-0.00403316818062088,0.015090796179334223,0.4,0.06501703956052685,0.12863829550813644,0.8146607916199226,0.1233427397219163,-0.1510036294348538,-0.04808690573554486,1.5930753201246262,0.2046993286822541,-4.910885915160179,-1.3978289440274239,29.211685061454773,0.0,0.0,0.0,0.0,0.0,0.0,0.0,0.0,0.0,0.0,0.0,0.0,0.0,0.0,0.0,0.0,False,0,1.0695617198944092,0.034924072265625
STABILIZE,1.0069680213928223,29.880557672990474,0.032381327946980794,0.03252434730529785,0.0,0.0,0.0,-0.5578564475127319,-1.0597739658881766,-0.06298713741199811,0.00013863633186048718,-0.0030067186489854078,0.01511074280894731,0.4,0.05927650174017919,0.12331009694611839,0.8231276598930387,0.12272150036660105,-0.1510036294348538,-0.04808690573554486,1.5930753201246262,0.2046993286822541,-4.910885915160179,-1.3978289440274239,29.211685061454773,0.0,0.0,0.0,0.0,0.0,0.0,0.0,0.0,0.0,0.0,0.0,0.0,0.0,0.0,0.0,0.0,False,0,1.0984294414520264,0.034924072265625
STABILIZE,1.0404462814331055,29.870981526058657,0.032372506459554036,0.03250837326049805,0.0,0.0,0.0,-0.5585479508053428,-1.0594711964088748,-0.064299967805562,0.000326700079157983,-0.004560909431383651,0.014544653413781581,0.4,0.04801414432644976,0.1196405250910312,0.8761958999364403,0.11628251266116585,-0.14000509399920702,0.1456518773920834,1.9353494048118591,0.021350169161941504,0.5577478557825089,0.607767142355442,25.94994306564331,0.0,0.0,0.0,0.0,0.0,0.0,0.0,0.0,0.0,0.0,0.0,0.0,0.0,0.0,0.0,0.0,False,0,1.1556742191314697,0.035088134765625
STABILIZE,1.0738089084625244,29.973016235993597,0.032355340321858723,0.03246498107910156,0.0,0.0,0.0,-0.5577488186724513,-1.058734176308748,-0.06396957741478247,0.0008032805620502979,-0.004965775843598266,0.014194242745258382,0.4,0.04246334921010248,0.11733948945361501,0.8853891988528935,0.11202956107101063,-0.14000509399920702,0.1456518773920834,1.9353494048118591,0.021350169161941504,0.5577478557825089,0.607767142355442,25.94994306564331,0.0,0.0,0.0,0.0,0.0,0.0,0.0,0.0,0.0,0.0,0.0,0.0,0.0,0.0,0.0,0.0,False,0,1.1843702793121338,0.035088134765625
STABILIZE,1.1073806285858154,29.788667774605475,0.032430203755696614,0.032564640045166016,0.0,0.0,0.0,-0.5576871335265097,-1.059258179884135,-0.06348952984196429,0.0008536835910081515,-0.004462280355354722,0.014174734116826654,0.4,0.04208222883847161,0.11488100916048247,0.8848267417946756,0.11109118191271727,0.13533831806853414,0.13158126967027783,1.4235381036996841,0.19942790340667196,8.510172367095947,-1.3835132122039795,21.78119122982025,0.0,0.0,0.0,0.0,0.0,0.0,0.0,0.0,0.0,0.0,0.0,0.0,0.0,0.0,0.0,0.0,False,0,1.2129638195037842,0.02993505859375
STABILIZE,1.1408178806304932,29.907616833758787,0.0323057492574056,0.03247499465942383,0.0,0.0,0.0,-0.5575338811570075,-1.0610441676303874,-0.0630841807930865,0.0008273840960167334,-0.003282910609616859,0.013797003969532208,0.4,0.04132931063116218,0.11017099054948476,0.882575637093104,0.10659992114051581,0.09651049040257931,0.017689319793134928,1.6527416184544563,0.016077022998853652,1.8838603049516678,0.5433321930468082,26.946794986724854,0.0,0.0,0.0,0.0,0.0,0.0,0.0,0.0,0.0,0.0,0.0,0.0,0.0,0.0,0.0,0.0,False,0,1.2417116165161133,0.034923828125
STABILIZE,1.1741828918457031,29.97001786352269,0.032357009251912434,0.03246927261352539,0.0,0.0,0.0,-0.5564047655098397,-1.0618236629694153,-0.06287784104506469,0.0006476468414074999,-0.0021222390114622194,0.01345949194639158,0.4,0.040539888072415355,0.10588043567434004,0.885760686388002,0.10253928963072782,0.09651049040257931,0.017689319793134928,1.6527416184544563,0.016077022998853652,1.8838603049516678,0.5433321930468082,26.946794986724854,0.0,0.0,0.0,0.0,0.0,0.0,0.0,0.0,0.0,0.0,0.0,0.0,0.0,0.0,0.0,0.0,False,0,1.2704012393951416,0.034923828125
STABILIZE,1.2076125144958496,29.912949214431915,0.03242925008138021,0.03254818916320801,0.0,0.0,0.0,-0.5561860927346935,-1.063439216151535,-0.06221983502785594,0.0005207117035552969,8.437488768542068e-05,0.013202417110363416,0.4,0.03877134170412674,0.10291397966243619,0.8831299573135061,0.09930446181230757,0.03477941791061312,0.08641231688670814,1.3513951562345028,0.057984977670209194,2.5180622935295105,0.3948602359741926,16.250620782375336,0.0,0.0,0.0,0.0,0.0,0.0,0.0,0.0,0.0,0.0,0.0,0.0,0.0,0.0,0.0,0.0,False,0,1.2996854782104492,0.06984814453125
STABILIZE,1.2411010265350342,29.862049325055533,0.03242328961690267,0.032538652420043945,0.0,0.0,0.0,-0.5558916475484426,-1.0634667503516264,-0.06200603143053603,0.0012718179938806693,-0.001383041629205631,0.012167358938786892,0.4,0.028735642358371043,0.0985628459730391,0.9122112036041345,0.0883630534685004,-0.27112297248095274,0.13175292406231165,1.7936257645487785,-0.11660474938661967,-3.3559128642082214,0.616455078125,25.061950087547302,0.0,0.0,0.0,0.0,0.0,0.0,0.0,0.0,0.0,0.0,0.0,0.0,0.0,0.0,0.0,0.0,False,0,1.3570168018341064,0.034925048828125
STABILIZE,1.2744770050048828,29.9605983113562,0.03239444096883138,0.03250408172607422,0.0,0.0,0.0,-0.5572940774841165,-1.06342694315537,-0.06282962284437131,0.0012089926480094062,-0.003319924100857704,0.011562696733763205,0.4,0.021460046237898454,0.09651098820466143,0.9135990952216727,0.08176970971393933,-0.27112297248095274,0.13175292406231165,1.7936257645487785,-0.11660474938661967,-3.3559128642082214,0.616455078125,25.061950087547302,0.0,0.0,0.0,0.0,0.0,0.0,0.0,0.0,0.0,0.0,0.0,0.0,0.0,0.0,0.0,0.0,False,0,1.38651704788208,0.034925048828125
STABILIZE,1.3081581592559814,29.69145494573951,0.03245142300923665,0.03271031379699707,0.0,0.0,0.0,-0.5580909684611867,-1.0638632214886046,-0.06283283116565136,0.0006675490785303378,-0.004283955922212579,0.011334453554827291,0.4,0.017337610685189773,0.09386676090652961,0.9139179362317695,0.07895677354847293,-0.11382088996469975,0.09391676285304129,1.7370820045471191,0.073101120118373,1.1634215712547302,0.6145619787275791,24.378883838653564,0.0,0.0,0.0,0.0,0.0,0.0,0.0,0.0,0.0,0.0,0.0,0.0,0.0,0.0,0.0,0.0,False,0,1.4149913787841797,0.06485888671875
STABILIZE,1.3415982723236084,29.903565495754343,0.032323392232259114,0.0324559211730957,0.0,0.0,0.0,-0.557382229613092,-1.0630789236728166,-0.06336779372620072,-2.6491140207294045e-05,-0.004198793130527476,0.011365592815230878,0.4,0.0169569190349608,0.09205391672651603,0.9363354305967292,0.07874105981191852,0.15573024284094572,0.07920899079181254,1.4224091544747353,0.19020183862229212,4.89063523709774,0.4340546205639839,16.66160821914673,0.0,0.0,0.0,0.0,0.0,0.0,0.0,0.0,0.0,0.0,0.0,0.0,0.0,0.0,0.0,0.0,False,0,1.4436686038970947,0.034924072265625
STABILIZE,1.3750214576721191,29.919564007818185,0.03236201604207357,0.03249549865722656,0.0,0.0,0.0,-0.5567702873521412,-1.0640743170226403,-0.06357078508070364,5.820249022393096e-05,-0.0033226413613735937,0.011389330685021747,0.4,0.018565077791788683,0.08909702673295032,0.9268417337696548,0.07845389792821915,0.15573024284094572,0.07920899079181254,1.4224091544747353,0.19020183862229212,4.89063523709774,0.4340546205639839,16.66160821914673,0.0,0.0,0.0,0.0,0.0,0.0,0.0,0.0,0.0,0.0,0.0,0.0,0.0,0.0,0.0,0.0,False,0,1.472517967224121,0.034924072265625
STABILIZE,1.4085462093353271,29.831040810230295,0.03239110310872396,0.03252434730529785,0.0,0.0,0.0,-0.5562289948604177,-1.063876134815004,-0.06379368003333481,-0.0007295100272536036,-0.0027259053180593417,0.010793312282604368,0.4,0.012094902658493147,0.08751128595266541,0.9252502150614303,0.07201193506544153,-0.2511789323762059,0.1400177483446896,1.7962705343961716,-0.12336986499653219,-4.30249311029911,-1.2846066616475582,25.506696105003357,0.0,0.0,0.0,0.0,0.0,0.0,0.0,0.0,0.0,0.0,0.0,0.0,0.0,0.0,0.0,0.0,False,0,1.5011076927185059,0.034924072265625
STABILIZE,1.4418528079986572,30.020857042651723,0.03230884869893392,0.03242993354797363,0.0,0.0,0.0,-0.5564011903326961,-1.064894366609865,-0.06400448208267961,0.001468009313205538,-0.0023309468620627927,0.010236148363844259,0.4,0.007261906719734502,0.07905771478616594,0.9097247151736689,0.06599913449930199,-0.059901870554313064,-0.023189967032521963,1.5457727946341038,0.07384234905577144,1.8661309033632278,-1.5214643441140652,20.084135234355927,0.0,0.0,0.0,0.0,0.0,0.0,0.0,0.0,0.0,0.0,0.0,0.0,0.0,0.0,0.0,0.0,False,0,1.5583934783935547,0.034924072265625
STABILIZE,1.4753117561340332,29.886732221747184,0.032462151845296223,0.03257608413696289,0.0,0.0,0.0,-0.5554487524694495,-1.0643174290684103,-0.06464259117186673,0.0022445719784852623,-0.0023656083977212786,0.010052891156595791,0.4,0.0036160538634723476,0.07433852568309281,0.9080161537130583,0.06374018758724966,-0.13185403076931834,-0.044827014789916575,1.7240239307284355,0.06179482917479454,-3.017551079392433,-1.3381457887589931,28.07428240776062,0.0,0.0,0.0,0.0,0.0,0.0,0.0,0.0,0.0,0.0,0.0,0.0,0.0,0.0,0.0,0.0,False,0,1.587526559829712,0.034924072265625
STABILIZE,1.5089490413665771,29.731865514528145,0.032441171010335286,0.032579660415649414,0.0,0.0,0.0,-0.5556029653343038,-1.0651403601416911,-0.06375345929046843,0.00321575604091517,-0.0032549854855907227,0.009881287717781122,0.4,9.917318983233641e-05,0.0697740768024114,0.9064906282828079,0.061611757453953045,-0.13185403076931834,-0.044827014789916575,1.7240239307284355,0.06179482917479454,-3.017551079392433,-1.3381457887589931,28.07428240776062,0.0,0.0,0.0,0.0,0.0,0.0,0.0,0.0,0.0,0.0,0.0,0.0,0.0,0.0,0.0,0.0,False,0,1.61637282371521,0.034924072265625
STABILIZE,1.5422019958496094,30.070791003792632,0.03223994572957357,0.03235816955566406,0.0,0.0,0.0,-0.5552140714384362,-1.0651571154494988,-0.06524769657354094,0.0032029862152811194,-0.004400345837508789,0.009694624809172062,0.4,-0.002621459925094981,0.06713456193926554,0.9014618110780052,0.05934830180155627,-0.09628827683627605,0.04933568416163325,1.5290034003555775,0.04805619714400479,-3.324384242296219,0.5493403878062963,22.062018513679504,0.0,0.0,0.0,0.0,0.0,0.0,0.0,0.0,0.0,0.0,0.0,0.0,0.0,0.0,0.0,0.0,True,0,1.6451668739318848,0.02993505859375
STABILIZE,1.5756745338439941,29.875449630679594,0.032449992497762044,0.03256678581237793,0.0,0.0,0.0,-0.5553750077707545,-1.064797676744427,-0.0644114252870375,0.0033623225898589625,-0.0037048309901398786,0.009690739987622958,0.4,-0.0056681701724516685,0.06520383770173624,0.89327034651603,0.05891548448900954,-0.13752676313742995,0.08139216806739569,1.5823595225811005,0.14159777226144504,-1.9623219966888428,-1.4576977118849754,18.72212290763855,0.0,0.0,0.0,0.0,0.0,0.0,0.0,0.0,0.0,0.0,0.0,0.0,0.0,0.0,0.0,0.0,True,0,1.6735634803771973,0.0351005859375
STABILIZE,1.60917067527771,29.853334946653664,0.03240969975789388,0.032544851303100586,0.0,0.0,0.0,-0.5557899417628328,-1.0642943771799616,-0.06414940348902422,0.001487648973815068,-0.0033504736089809122,0.009198098279120156,0.4,-0.008529814879894123,0.06320934964094732,0.8930934358727672,0.053630203267072615,-0.1153984572738409,0.0690744782332331,1.7364632338285446,-0.1306123868170448,-0.026717758737504482,0.45254738070070744,18.080127239227295,0.0,0.0,0.0,0.0,0.0,0.0,0.0,0.0,0.0,0.0,0.0,0.0,0.0,0.0,0.0,0.0,True,0,1.7024896144866943,0.0349248046875
STABILIZE,1.6427092552185059,29.815136802746718,0.03236869176228841,0.032665252685546875,0.0,0.0,0.0,-0.5562625054760331,-1.063997263951066,-0.06424648689075227,0.0004932690434545739,-0.0028158420627018626,0.008850289843859369,0.4,-0.009732875927206822,0.061923231550197466,0.8877937206105625,0.04981726049098792,-0.03129063406959176,0.10172248585149646,1.4584051445126534,-0.05625482538640018,0.3291984088718891,0.4212956875562668,17.50587970018387,0.0,0.0,0.0,0.0,0.0,0.0,0.0,0.0,0.0,0.0,0.0,0.0,0.0,0.0,0.0,0.0,True,1,1.7314598560333252,0.034924072265625
STABILIZE,1.676213264465332,29.848236206687968,0.03245571454366048,0.032607316970825195,0.0,0.0,0.0,-0.5560057330519229,-1.0630066730780026,-0.06367642622921404,-0.0002500267860798861,-0.002387573684098147,0.008468262904800378,0.4,-0.011201060484584852,0.06003166964410031,0.8754384275249635,0.04569102503737074,0.01687837648205459,0.0834775622934103,1.6295798122882843,-0.11490352535518404,3.107742965221405,-1.5021602623164654,20.834439992904663,0.0,0.0,0.0,0.0,0.0,0.0,0.0,0.0,0.0,0.0,0.0,0.0,0.0,0.0,0.0,0.0,True,0,1.7886760234832764,0.034924072265625
STABILIZE,1.7097067832946777,29.8582228739838,0.03242543538411458,0.032547712326049805,0.0,0.0,0.0,-0.556763083637001,-1.064105266317317,-0.06510472950843346,-0.0006715443947188646,-0.00155696513878525,0.008578701461857713,0.4,-0.010549198159550636,0.0588987692478792,0.8747994549189959,0.046484567318234644,0.05849890294484794,0.09299265802837908,1.6694746911525726,0.18259406176374252,1.3442176394164562,0.422659981995821,19.52051669359207,0.0,0.0,0.0,0.0,0.0,0.0,0.0,0.0,0.0,0.0,0.0,0.0,0.0,0.0,0.0,0.0,True,0,1.817298173904419,0.0349248046875
STABILIZE,1.7431411743164062,29.908469886906545,0.03222468694051107,0.032360076904296875,0.0,0.0,0.0,-0.5574925798568701,-1.0627716718818718,-0.07040406251007744,-0.0009659627827194772,-0.0017522233603280417,0.008357789449089043,0.4,-0.013849955037234187,0.0580222367717664,0.8734579724738966,0.04398114510586377,-0.16968139680102468,0.10270077036693692,1.6244681552052498,-0.009427782148520003,-4.298653453588486,0.42861709371209145,19.78543847799301,0.0,0.0,0.0,0.0,0.0,0.0,0.0,0.0,0.0,0.0,0.0,0.0,0.0,0.0,0.0,0.0,True,0,1.8459937572479248,0.02993505859375
STABILIZE,1.7767364978790283,29.767103843751773,0.03236845334370931,0.03249859809875488,0.0,0.0,0.0,-0.5566345373423872,-1.0644212692881356,-0.07358444938364396,-0.001273485274478902,-0.0018873866129728424,0.008146625692693745,0.4,-0.01677282280981742,0.05712937721849413,0.868035287103734,0.04159122549184647,-0.16968139680102468,0.10270077036693692,1.6244681552052498,-0.009427782148520003,-4.298653453588486,0.42861709371209145,19.78543847799301,0.0,0.0,0.0,0.0,0.0,0.0,0.0,0.0,0.0,0.0,0.0,0.0,0.0,0.0,0.0,0.0,True,0,1.8789877891540527,0.02993505859375
STABILIZE,1.8149561882019043,26.16256541726704,0.0322141965230306,0.037276506423950195,0.0,0.0,0.0,-0.5553142831201648,-1.0635067709912944,-0.0648400796884153,-0.0014397192770210293,0.00023789218400718836,0.00755115749103516,0.4,-0.00936315474833229,0.05635540189039598,0.8623042253612501,0.03536510853705711,0.4270857200026512,0.10513176675885916,1.5747714787721634,-0.23986762587310595,1.1307978071272373,0.46662171371281147,22.31617271900177,0.0,0.0,0.0,0.0,0.0,0.0,0.0,0.0,0.0,0.0,0.0,0.0,0.0,0.0,0.0,0.0,True,0,1.9076814651489258,0.034924072265625
STABILIZE,1.848365306854248,29.934084129091193,0.03241756757100423,0.032540321350097656,0.0,0.0,0.0,-0.5558740918278415,-1.0643682286003624,-0.07045428841286083,0.002038005830100629,-0.0036310799812067644,0.007959904796612776,0.4,-0.024462312782275793,0.044241714723217244,0.8548251153962227,0.039190543495476515,-0.8735978044569492,-0.5670706275850534,1.2011490762233734,0.34394594172405446,-19.44754123687744,-25.343134999275208,9.168875217437744,0.0,0.0,0.0,0.0,0.0,0.0,0.0,0.0,0.0,0.0,0.0,0.0,0.0,0.0,0.0,0.0,True,1,1.936582326889038,0.02993505859375
STABILIZE,1.8818261623382568,29.885454519544552,0.03244474728902181,0.03257012367248535,0.0,0.0,0.0,-0.5555247916848188,-1.061187921768075,-0.07998226890289639,0.0027898252976145455,-0.003173344704762524,0.006436395518436268,0.4,-0.022246504927506364,0.04095090690377073,0.8547279223869815,0.023796204709722383,-0.3534570103511214,-0.24060476571321487,1.8316471949219704,-0.5900796791912654,-8.879760652780533,-18.938182294368744,30.186444520950317,0.0,0.0,0.0,0.0,0.0,0.0,0.0,0.0,0.0,0.0,0.0,0.0,0.0,0.0,0.0,0.0,True,0,1.9937057495117188,0.0399130859375
STABILIZE,1.9153673648834229,29.813017549595912,0.032433303197224934,0.03261995315551758,0.0,0.0,0.0,-0.5596467574880686,-1.0594116456970486,-0.07715145564672363,0.0054943557560603274,-0.007379902107150501,0.005630426154094933,0.4,-0.04013871319394416,0.032041280662924415,0.8561370317445169,0.015631768663463306,-1.022460963577032,-0.38604417350143194,1.4517109841108322,-0.35456440460376487,-22.357521951198578,4.627562314271927,32.24371075630188,0.0,0.0,0.0,0.0,0.0,0.0,0.0,0.0,0.0,0.0,0.0,0.0,0.0,0.0,0.0,0.0,True,0,2.0224225521087646,0.024946044921875
STABILIZE,1.9495139122009277,29.28512878518115,0.03240230878194173,0.033185482025146484,0.0,0.0,0.0,-0.5553406433814929,-1.0610785320196492,-0.07907065209211125,0.001842049901794311,-0.00740776761795224,0.006753834449763473,0.4,-0.042750101540925234,0.042332052190360105,0.8477486324969761,0.02668396592180211,-0.22124180104583502,0.7233221549540758,1.6179917380213737,0.7321193326754984,18.9256951212883,20.150208473205566,23.60667586326599,0.0,0.0,0.0,0.0,0.0,0.0,0.0,0.0,0.0,0.0,0.0,0.0,0.0,0.0,0.0,0.0,True,0,2.0512290000915527,0.034924072265625
STABILIZE,1.9829680919647217,29.892057157110788,0.03236273129781087,0.032544851303100586,0.0,0.0,0.0,-0.5484991950715202,-1.058622865569618,-0.0670653873365172,-0.00042890048551888694,-0.008068555397937398,0.006144972305110184,0.4,-0.03954532307851894,0.04851551284002799,0.8423893554852074,0.020458151150929246,0.19164019031450152,0.48490935005247593,1.2614264152944088,-0.27659299275130916,3.344929590821266,-9.60087701678276,0.9327324107289314,0.0,0.0,0.0,0.0,0.0,0.0,0.0,0.0,0.0,0.0,0.0,0.0,0.0,0.0,0.0,0.0,True,0,2.07989764213562,0.034923828125
STABILIZE,2.016505002975464,29.817680304269008,0.03240493138631185,0.032538652420043945,0.0,0.0,0.0,-0.5479828220980967,-1.0511457294191582,-0.04920044059296705,-0.0010592507026538046,-0.004754725145711944,0.006463677195534108,0.4,-0.04058731569275862,0.03953151506921752,0.8385620945173133,0.02348808878623067,-0.07255992386490107,-0.42459210380911827,1.3567330315709114,0.27181591575711994,-15.637621283531189,-3.4087195992469788,19.95190531015396,0.0,0.0,0.0,0.0,0.0,0.0,0.0,0.0,0.0,0.0,0.0,0.0,0.0,0.0,0.0,0.0,True,0,2.112409830093384,0.02993603515625
STABILIZE,2.0498836040496826,29.960384299439266,0.032326730092366536,0.03245258331298828,0.0,0.0,0.0,-0.5338103396528789,-1.0393149880030499,-0.07153740033473015,0.0009395410683547274,-0.00542046623011291,0.006800954022017821,0.4,-0.041047931772935344,0.030588679273102604,0.8308484175875936,0.026682374193525003,-0.07255992386490107,-0.42459210380911827,1.3567330315709114,0.27181591575711994,-15.637621283531189,-3.4087195992469788,19.95190531015396,0.0,0.0,0.0,0.0,0.0,0.0,0.0,0.0,0.0,0.0,0.0,0.0,0.0,0.0,0.0,0.0,True,0,2.1440823078155518,0.02993603515625
STABILIZE,2.0841190814971924,29.20824512534819,0.03239181836446126,0.033380746841430664,0.0,0.0,0.0,-0.5271542135849957,-1.0367568687154685,-0.06640109807888056,-0.0034699287786306874,0.002570801146376218,0.0077408682275869525,0.4,-0.027407018816565463,0.03591674829125585,0.8125260698855653,0.03583567943371177,0.780110340565443,0.42906575836241245,0.6837741006165743,0.6336462542556033,26.919668912887573,-28.698301315307617,3.418518975377083,0.0,0.0,0.0,0.0,0.0,0.0,0.0,0.0,0.0,0.0,0.0,0.0,0.0,0.0,0.0,0.0,True,1,2.1728479862213135,0.06984814453125
STABILIZE,2.118168830871582,29.36920308375288,0.03247812589009603,0.03318977355957031,0.0,0.0,0.0,-0.562776211427551,-1.0472662886922968,0.002057025027114398,0.0166300613037661,0.003968860912539102,0.009124381699905643,0.4,-0.024595389658227104,-0.01600722428324448,0.8584419075483928,0.049335126714759876,0.07901653298176825,-1.3355380855500698,2.193772979080677,0.41631337012549985,5.558592081069946,-34.06054377555847,47.73201942443848,0.0,0.0,0.0,0.0,0.0,0.0,0.0,0.0,0.0,0.0,0.0,0.0,0.0,0.0,0.0,0.0,True,0,2.230093479156494,0.034924072265625
STABILIZE,2.15162992477417,29.885028643087182,0.0324430783589681,0.03255963325500488,0.0,0.0,0.0,-0.5719696460503881,-1.0505413643993178,-0.01334176902504825,0.00870317925885816,0.0038441503159904237,0.004316335908788658,0.4,-0.022235942896900545,0.013261920775112526,0.8485680481920881,0.0012463285755268116,0.08360739448107779,1.7219802364706993,1.1259385384619236,-2.585984111517463,28.319555521011353,71.12420201301575,1.9865777343511581,0.0,0.0,0.0,0.0,0.0,0.0,0.0,0.0,0.0,0.0,0.0,0.0,0.0,0.0,0.0,0.0,True,0,2.2592263221740723,0.029935791015625
STABILIZE,2.185192584991455,29.795439369183775,0.03244069417317708,0.032625436782836914,0.0,0.0,0.0,-0.5983241444062939,-1.0651022604927272,-0.04618857396293604,0.00017711945470109383,0.0071247473807110094,0.003321626704441145,0.4,-0.011352445351826489,0.030763554145561575,0.8316648953621173,-0.008642844533836895,0.5583970807492733,1.0490745306015015,0.9381752461194992,-0.4906947705171734,19.965830445289612,-24.851305782794952,4.212968051433563,0.0,0.0,0.0,0.0,0.0,0.0,0.0,0.0,0.0,0.0,0.0,0.0,0.0,0.0,0.0,0.0,True,0,2.2879669666290283,0.034924072265625
STABILIZE,2.2186439037323,29.893761537200568,0.03238108952840169,0.03251028060913086,0.0,0.0,0.0,-0.622420464828717,-1.114967657353992,-0.07480856735927702,0.011116189204438569,0.015464428120176796,0.0035909139480161255,0.4,0.01811605676338569,-0.009990251167960616,0.8355155972850401,-0.005910433963477096,1.6019323840737343,-2.2152433171868324,1.850833185017109,0.23780029302998706,37.64236271381378,-25.18097162246704,43.974924087524414,0.0,0.0,0.0,0.0,0.0,0.0,0.0,0.0,0.0,0.0,0.0,0.0,0.0,0.0,0.0,0.0,True,0,2.316514492034912,0.034924072265625
STABILIZE,2.252077579498291,29.91081603400201,0.03237584431966146,0.03249859809875488,0.0,0.0,0.0,-0.6897593532167257,-1.1672832778582931,-0.03234139595220664,0.02200218788311346,0.028468012445281448,0.0035041786683429697,0.4,0.07602768781925698,-0.03790388020115157,0.8479184842763635,-0.006732759198608838,3.1901996582746506,-1.4848929829895496,2.3186128586530685,0.025444589092413126,30.28479516506195,13.935472071170807,-12.450097501277924,0.0,0.0,0.0,0.0,0.0,0.0,0.0,0.0,0.0,0.0,0.0,0.0,0.0,0.0,0.0,0.0,True,0,2.3452370166778564,0.034923828125
STABILIZE,2.2858288288116455,29.627277158134902,0.032387526830037434,0.03264498710632324,0.0,0.0,0.0,-0.7139199201060292,-1.1639737310403044,0.018793248826023557,0.016801777884063396,0.04715591596197369,0.005418884896874848,0.4,0.14543380370394454,-0.06814073863801116,0.8213917278824915,0.01233149577356299,3.8305502384901047,-1.6199015080928802,0.12666914844885468,1.1301698441774422,-57.92834162712097,80.18752932548523,-87.1386170387268,0.0,0.0,0.0,0.0,0.0,0.0,0.0,0.0,0.0,0.0,0.0,0.0,0.0,0.0,0.0,0.0,True,1,2.3738529682159424,0.02993603515625
STABILIZE,2.3192226886749268,29.9481906720361,0.032223018010457356,0.03236055374145508,0.0,0.0,0.0,-0.7165626163454424,-1.1562477198719623,0.018008962682922257,0.03284025797496199,0.0418026142267387,0.0022068397607307322,0.4,0.12822980836603437,-0.08986670624882034,0.6894398024511755,-0.019657362040333484,-4.66277040541172,0.3474705386906862,-4.099152982234955,-2.89096678555393,-186.65088415145874,23.76718372106552,-30.342262983322144,0.0,0.0,0.0,0.0,0.0,0.0,0.0,0.0,0.0,0.0,0.0,0.0,0.0,0.0,0.0,0.0,True,0,2.43228816986084,0.034924072265625
STABILIZE,2.352653980255127,29.909322988718856,0.0322749932607015,0.0325322151184082,0.0,0.0,0.0,-0.7096415002821038,-1.1487207446849024,0.06481040438410145,0.047736576249964455,0.037553266524706676,-0.004203622568663171,0.4,0.12241923847707681,-0.11873772779437403,0.6717466776035258,-0.08320349507724613,-0.33038114197552204,-1.6196878626942635,0.5786241497844458,-3.6017312116242666,-84.93554592132568,-44.38360035419464,-19.198666512966156,0.0,0.0,0.0,0.0,0.0,0.0,0.0,0.0,0.0,0.0,0.0,0.0,0.0,0.0,0.0,0.0,True,0,2.468041181564331,0.02993505859375
STABILIZE,2.3863039016723633,29.719225400514414,0.03243258794148763,0.032713890075683594,0.0,0.0,0.0,-0.6596780795340788,-1.116366138586552,-0.06099046767831976,0.02934813973248677,0.031232065593962424,-0.0005033252805664362,0.4,0.12477857504308613,-0.1001233093124237,0.6580997332558531,-0.04589211974287518,0.2598711522296071,1.012241467833519,0.8748897351324558,2.1612584029337403,-5.616351962089539,139.5834445953369,-12.873941659927368,0.0,0.0,0.0,0.0,0.0,0.0,0.0,0.0,0.0,0.0,0.0,0.0,0.0,0.0,0.0,0.0,True,0,2.496797561645508,0.034924072265625
STABILIZE,2.4197452068328857,29.902499536594757,0.032381804784139,0.032515525817871094,0.0,0.0,0.0,-0.6518885155899437,-1.1074507140072756,-0.0635708184312367,0.010308523098400772,0.006658787836278654,0.005372623729566397,0.4,0.0862285362654349,-0.06815153792264189,0.648881037080744,0.012781858184466852,-2.200574614107609,1.8671372905373573,0.992244016379118,3.457072500758451,-71.97444438934326,-67.40052700042725,13.656675815582275,0.0,0.0,0.0,0.0,0.0,0.0,0.0,0.0,0.0,0.0,0.0,0.0,0.0,0.0,0.0,0.0,True,0,2.5254907608032227,0.039913818359375
STABILIZE,2.453158378601074,29.928530654184268,0.0323973019917806,0.032517433166503906,0.0,0.0,0.0,-0.709372881748652,-1.152682681290333,0.09774358220002614,0.022311096223178648,-0.017252521178490642,0.016656478166751663,0.4,0.05961678708597621,-0.13084823062727857,0.6428798139747249,0.12478600350060556,-1.4883521012961864,-3.583770990371704,1.0524742305278778,6.418417555520192,21.541588008403778,-65.54033160209656,16.599102318286896,0.0,0.0,0.0,0.0,0.0,0.0,0.0,0.0,0.0,0.0,0.0,0.0,0.0,0.0,0.0,0.0,True,0,2.554417371749878,0.024946044921875
STABILIZE,2.486610174179077,29.895039949822166,0.03242233594258626,0.032541751861572266,0.0,0.0,0.0,-0.6822443842215662,-1.1361495680740825,0.04694752537360082,-0.001011627787548578,-0.001384427182011644,0.0063091692065645796,0.4,0.10182879024485925,-0.08052018394800275,0.6497756933638136,0.021171287544061515,2.633127383887768,2.7451468631625175,2.096025086939335,-5.923948144991234,114.49441909790039,106.15947246551514,43.82650554180145,0.0,0.0,0.0,0.0,0.0,0.0,0.0,0.0,0.0,0.0,0.0,0.0,0.0,0.0,0.0,0.0,True,0,2.58302640914917,0.034924072265625
STABILIZE,2.5201148986816406,29.864813483050064,0.03238800366719564,0.03252100944519043,0.0,0.0,0.0,-0.6585453887097674,-1.1120768865094899,-0.02513614168485825,-0.0026726579714046674,-0.0004911825089086383,0.005115634346820384,0.4,0.09999513634980689,-0.1012589467929752,0.6560438138922162,0.009174551775840438,-0.023884863185230643,-1.269542146474123,1.791798323392868,-0.6886459790211606,-52.284884452819824,-88.62533569335938,26.847463846206665,0.0,0.0,0.0,0.0,0.0,0.0,0.0,0.0,0.0,0.0,0.0,0.0,0.0,0.0,0.0,0.0,True,0,2.611621856689453,0.034924072265625
STABILIZE,2.553542137145996,29.89631847179158,0.03235367139180501,0.032480716705322266,0.0,0.0,0.0,-0.4649980513948516,-1.1341834340884709,-0.02236078869763212,-0.005808495491885748,-0.048275218432800825,0.014589020845038854,0.4,-0.06914539360794365,-0.07497112347840469,0.688228434757058,0.10321755891404967,-8.857984095811844,2.8883419930934906,3.089514933526516,2.815143788360561,-278.8930654525757,80.65307140350342,48.80136251449585,0.0,0.0,0.0,0.0,0.0,0.0,0.0,0.0,0.0,0.0,0.0,0.0,0.0,0.0,0.0,0.0,True,0,2.668919086456299,0.034924072265625
STABILIZE,2.5869483947753906,29.933229614193344,0.032383235295613606,0.03250885009765625,0.0,0.0,0.0,-0.5244263534243689,-0.9203966987980734,-0.01434013390736718,-0.014332494625114755,-0.06824275498627566,0.0229473171697671,0.4,-0.17336784969368849,-0.020455984811235416,0.6754220746286707,0.18556017284049353,-5.970203876495361,3.1274091452360153,0.5745837930589914,4.854829306379717,36.753049492836,32.29601979255676,198.04679155349731,0.0,0.0,0.0,0.0,0.0,0.0,0.0,0.0,0.0,0.0,0.0,0.0,0.0,0.0,0.0,0.0,True,0,2.697819948196411,0.034924072265625
STABILIZE,2.6204254627227783,29.870768792507924,0.0324282964070638,0.032567501068115234,0.0,0.0,0.0,-0.5115161753151342,-0.9271956185082922,0.051601945777314105,-0.05131462972284652,-0.09134256665762033,0.03140766068945392,0.4,-0.2780561644415186,0.03474649527412038,0.6625543848735987,0.268367658546289,-5.970203876495361,3.1274091452360153,0.5745837930589914,4.854829306379717,36.753049492836,32.29601979255676,198.04679155349731,0.0,0.0,0.0,0.0,0.0,0.0,0.0,0.0,0.0,0.0,0.0,0.0,0.0,0.0,0.0,0.0,True,0,2.732191562652588,0.034924072265625
STABILIZE,2.653956890106201,29.824677171625236,0.032412083943684895,0.03253626823425293,0.0,0.0,0.0,-0.5909722995384213,-1.0721782297511546,-0.048920202733798185,-0.049923578772478355,-0.07407004017064187,0.017968379363072176,0.4,-0.18031153234286185,0.07484601467415763,0.6401930933942422,0.13308424810765185,5.925041064620018,2.2166062146425247,0.017046552966348827,-7.965461378943604,256.581974029541,-10.023276507854462,60.5644166469574,0.0,0.0,0.0,0.0,0.0,0.0,0.0,0.0,0.0,0.0,0.0,0.0,0.0,0.0,0.0,0.0,True,0,2.7630906105041504,0.02993505859375
STABILIZE,2.6872730255126953,30.014626955389218,0.032315762837727864,0.03244304656982422,0.0,0.0,0.0,-0.5754715587430477,-1.0802336908252441,-0.1260321446689562,-0.03260934910279535,-0.06929740392575895,0.004800542228520521,0.4,-0.16509193511969944,0.003980681131319289,0.6370043410830762,0.0013965419851428296,0.8027239702641964,-4.249865934252739,1.2823697179555893,-7.644153058686926,173.8117814064026,-205.08298873901367,69.04623508453369,0.0,0.0,0.0,0.0,0.0,0.0,0.0,0.0,0.0,0.0,0.0,0.0,0.0,0.0,0.0,0.0,True,0,2.789416790008545,0.0349248046875
STABILIZE,2.7207937240600586,29.832738239185172,0.032457860310872395,0.03258657455444336,0.0,0.0,0.0,-0.6279981680596787,-1.1294824496705038,-0.07229763907597092,0.0020782146395360215,-0.016093777217653062,0.007627507879861629,0.4,-0.11926487363052313,-0.07631065194238804,0.6686085223145208,0.029469047017182753,2.7338165789842606,-4.833647236227989,3.174407407641411,1.8411953115401198,-4.5584723353385925,55.38179278373718,132.2853922843933,0.0,0.0,0.0,0.0,0.0,0.0,0.0,0.0,0.0,0.0,0.0,0.0,0.0,0.0,0.0,0.0,True,0,2.8181958198547363,0.034924072265625
STABILIZE,2.7542104721069336,29.927249375668925,0.03238418896993001,0.03249835968017578,0.0,0.0,0.0,-0.557378814518507,-1.0690996287044772,-0.06419716145236141,0.045570469004555095,0.02201782007357925,0.010541875554632844,0.4,-0.07223522928807699,-0.15768453203424204,0.7007847781703578,0.05822337173530757,2.7338165789842606,-4.833647236227989,3.174407407641411,1.8411953115401198,-4.5584723353385925,55.38179278373718,132.2853922843933,0.0,0.0,0.0,0.0,0.0,0.0,0.0,0.0,0.0,0.0,0.0,0.0,0.0,0.0,0.0,0.0,True,0,2.8467929363250732,0.034924072265625
STABILIZE,2.7877633571624756,29.802002287923035,0.032396825154622395,0.03267168998718262,0.0,0.0,0.0,-0.5416869351480788,-1.0689155337620042,-0.05074432014449446,0.05051000993959954,0.05162520038787862,0.008442098525876456,0.4,-0.05569699132279462,-0.12293387279899406,0.8662516094864202,0.03697733348888477,-0.5872366484254599,0.6676483433693647,7.428545504808426,11.553888235838333,131.58775568008423,12.740379571914673,68.32109093666077,0.0,0.0,0.0,0.0,0.0,0.0,0.0,0.0,0.0,0.0,0.0,0.0,0.0,0.0,0.0,0.0,True,0,2.9041571617126465,0.06485986328125
STABILIZE,2.8225882053375244,28.715325368842638,0.032454760869344075,0.03390908241271973,0.0,0.0,0.0,-0.5384665009544177,-0.968919323157196,-0.041573503853176354,0.06253083599378256,0.028251350638776308,0.008467831791448218,0.4,-0.05569699132279462,-0.12293387279899406,0.8662516094864202,0.03697733348888477,-0.5872366484254599,0.6676483433693647,7.428545504808426,11.553888235838333,131.58775568008423,12.740379571914673,68.32109093666077,0.0,0.0,0.0,0.0,0.0,0.0,0.0,0.0,0.0,0.0,0.0,0.0,0.0,0.0,0.0,0.0,True,1,2.9041571617126465,0.06485986328125
STABILIZE,2.856480836868286,29.50410804727068,0.03239634831746419,0.032994747161865234,0.0,0.0,0.0,-0.5399657274772356,-1.0461243664404352,-0.020515805525928913,0.03916922877070512,0.021782316845489938,0.029875830995677387,0.4,-0.06636451428162066,-0.11656271800176679,1.0153493276981775,0.24936569750632476,-0.5872366484254599,0.6676483433693647,7.428545504808426,11.553888235838333,131.58775568008423,12.740379571914673,68.32109093666077,0.0,0.0,0.0,0.0,0.0,0.0,0.0,0.0,0.0,0.0,0.0,0.0,0.0,0.0,0.0,0.0,True,1,2.939761161804199,0.06485986328125
STABILIZE,2.8899219036102295,29.902712722346987,0.03240707715352376,0.03252053260803223,0.0,0.0,0.0,-0.5517218170601498,-1.0893966030402278,-0.07913718640555938,0.0066927109188664935,0.003771907838759227,0.01731266573587383,0.4,-0.09098735592215802,-0.09089343063306046,1.0957424543098078,0.12291205902618038,0.42125643230974674,-0.458822725340724,1.1075066402554512,-4.340744446328129,88.14026713371277,-102.83340215682983,-74.23324584960938,0.0,0.0,0.0,0.0,0.0,0.0,0.0,0.0,0.0,0.0,0.0,0.0,0.0,0.0,0.0,0.0,True,0,3.002471446990967,0.02993505859375
STABILIZE,2.9234843254089355,29.796709385922536,0.0323665459950765,0.03251290321350098,0.0,0.0,0.0,-0.5969998347592519,-1.124325656847144,-0.0850201270552692,-0.007842783647258605,0.010940575719024116,0.024846598092766348,0.4,-0.024798227395889147,-0.1202890571113894,1.0493406167021253,0.19693305035503222,3.246423602104187,-1.731579750776291,-0.16009248793125153,4.093701626690645,81.80626630783081,-43.82471740245819,-17.130526900291443,0.0,0.0,0.0,0.0,0.0,0.0,0.0,0.0,0.0,0.0,0.0,0.0,0.0,0.0,0.0,0.0,True,0,3.0309834480285645,0.034925048828125
STABILIZE,2.957037925720215,29.80433176055938,0.032323392232259114,0.032509565353393555,0.0,0.0,0.0,-0.5469215814558059,-1.0976555824072427,-0.07418694010352653,0.01711123972988289,0.005602555429515067,0.0197950129748192,0.4,-0.030037597829238528,-0.16390815316198493,1.024186875109353,0.14544304414280795,-0.401355791836977,-2.459421381354332,0.5151628982275724,-2.4405465456428543,-16.319739818572998,-7.118955999612808,-25.266247987747192,0.0,0.0,0.0,0.0,0.0,0.0,0.0,0.0,0.0,0.0,0.0,0.0,0.0,0.0,0.0,0.0,True,0,3.065600872039795,0.034924072265625
STABILIZE,2.9904932975769043,29.88907495955932,0.03227833112080892,0.03240704536437988,0.0,0.0,0.0,-0.5504409431473608,-1.05497810587377,-0.0809682640725046,0.0052003052446567884,0.010111962429138968,0.0203828124401095,0.4,-0.013762005142436664,-0.12820135380665817,1.0152284455385305,0.1503150189594714,0.7313082460314035,1.6693176701664925,1.3684936799108982,0.5014553066677053,-60.573798418045044,120.43815851211548,21.378089487552643,0.0,0.0,0.0,0.0,0.0,0.0,0.0,0.0,0.0,0.0,0.0,0.0,0.0,0.0,0.0,0.0,True,0,3.094326972961426,0.029934814453125
STABILIZE,3.0238351821899414,29.99187689491448,0.03227403958638509,0.03240251541137695,0.0,0.0,0.0,-0.5463778877257024,-1.052820726591398,-0.08483899364013164,0.0008651508386764621,0.002031154912465323,0.027380200265202458,0.4,-0.05164651841303438,-0.10948471042731833,1.012150078777545,0.2188249838290029,-2.1146494895219803,0.745416758581996,1.9943881779909134,3.9650895915061284,-42.80140399932861,24.354679882526398,-7.471933215856552,0.0,0.0,0.0,0.0,0.0,0.0,0.0,0.0,0.0,0.0,0.0,0.0,0.0,0.0,0.0,0.0,True,0,3.1229593753814697,0.0399130859375
STABILIZE,3.057253122329712,29.923406198276354,0.03238991101582845,0.032517433166503906,0.0,0.0,0.0,-0.5499875893412012,-1.054614718465584,-0.062472071779470395,0.007052680361063945,0.00653953845827335,0.03568122763623735,0.4,-0.05667813549074525,-0.10505279436314759,0.9871379600198378,0.2998298457805501,-0.3626500256359577,0.06016839761286974,0.18690188881009817,4.433734910556914,65.57797193527222,-36.59443259239197,-36.41520142555237,0.0,0.0,0.0,0.0,0.0,0.0,0.0,0.0,0.0,0.0,0.0,0.0,0.0,0.0,0.0,0.0,True,0,3.151679754257202,0.02993603515625
STABILIZE,3.0918118953704834,28.93661175042084,0.032424004872639973,0.03367805480957031,0.0,0.0,0.0,-0.536700150002029,-1.0962355433901145,-0.058215249760752506,-0.003383013832462417,-0.010549910243441742,0.04329131975877161,0.4,-0.06109158186061163,-0.09958305896726799,0.9509155814177777,0.37334907702334985,-0.3626500256359577,0.06016839761286974,0.18690188881009817,4.433734910556914,65.57797193527222,-36.59443259239197,-36.41520142555237,0.0,0.0,0.0,0.0,0.0,0.0,0.0,0.0,0.0,0.0,0.0,0.0,0.0,0.0,0.0,0.0,True,1,3.180340528488159,0.02993603515625
STABILIZE,3.1255111694335938,29.67401978124602,0.0324433167775472,0.032819271087646484,0.0,0.0,0.0,-0.5566599904692161,-1.0939616240050294,-0.08260122623287977,-0.019213094968815656,0.01521672614680082,0.033213883729989756,0.4,0.027542692080770804,-0.09150179009136403,0.9349302186436668,0.27074914509773873,1.88967976719141,-0.7862266153097153,3.037412464618683,-3.5506593258791423,58.38329195976257,-39.41177725791931,-17.12844967842102,0.0,0.0,0.0,0.0,0.0,0.0,0.0,0.0,0.0,0.0,0.0,0.0,0.0,0.0,0.0,0.0,True,0,3.237924337387085,0.034924072265625
STABILIZE,3.158954381942749,29.901007321437483,0.032446893056233723,0.032572031021118164,0.0,0.0,0.0,-0.5559511448994157,-1.0809351725973455,-0.07093510304793932,-0.003087850195098159,0.01103387765953438,0.037463412891048556,0.4,0.02621344263412654,-0.10774034922597711,0.9273812755260554,0.31116354592587886,-0.18185756634920835,-1.1079102754592896,1.342678815126419,2.6057871777988573,22.194144129753113,-22.246353328227997,-9.828557074069977,0.0,0.0,0.0,0.0,0.0,0.0,0.0,0.0,0.0,0.0,0.0,0.0,0.0,0.0,0.0,0.0,True,0,3.2700116634368896,0.034925048828125
STABILIZE,3.1945137977600098,28.12288959515093,0.032451661427815755,0.03463244438171387,0.0,0.0,0.0,-0.5597349096170441,-1.0824984321436322,-0.06490816146659725,0.0030218683254543107,0.012937392724576526,0.03886894905486492,0.4,-0.0008789930580399632,-0.10934309172480042,0.8850476230970755,0.322926816887063,-1.615905947983265,-0.28019838500767946,-0.6170656997710466,1.0100419711591386,-71.40652537345886,25.838059186935425,-53.64486575126648,0.0,0.0,0.0,0.0,0.0,0.0,0.0,0.0,0.0,0.0,0.0,0.0,0.0,0.0,0.0,0.0,True,0,3.2963356971740723,0.02993505859375
STABILIZE,3.227975845336914,29.884815709410113,0.03238514264424642,0.03251242637634277,0.0,0.0,0.0,-0.5474999597402885,-1.0667043667399183,-0.07367064050127571,-0.0007936791663501394,0.017025948148181744,0.041486118290109814,0.4,0.009529087267335994,-0.0939881606373503,0.9053143469757289,0.346777796358058,0.5454654805362225,0.6526506505906582,3.156808391213417,1.896129242374063,-25.74273943901062,16.86968505382538,15.254682302474976,0.0,0.0,0.0,0.0,0.0,0.0,0.0,0.0,0.0,0.0,0.0,0.0,0.0,0.0,0.0,0.0,True,0,3.3248894214630127,0.034924072265625
STABILIZE,3.2614593505859375,29.86438819466695,0.03237298329671224,0.03250455856323242,0.0,0.0,0.0,-0.5487247513966893,-1.0758478556044497,-0.07004804556969714,-0.0002503820636877434,0.009016652656847408,0.03590320224068981,0.4,-0.022819785676756542,-0.09065948926988798,0.8819052933153678,0.2890147888546171,-1.920475997030735,-0.0016926009266171604,0.393455708399415,-2.936569610764578,-44.987553358078,-19.80239897966385,27.48686969280243,0.0,0.0,0.0,0.0,0.0,0.0,0.0,0.0,0.0,0.0,0.0,0.0,0.0,0.0,0.0,0.0,True,0,3.353522300720215,0.034923828125
STABILIZE,3.29494309425354,29.86587675700309,0.03234747250874837,0.03256368637084961,0.0,0.0,0.0,-0.5514898040717808,-1.0788250710306349,-0.06911516445903504,0.001188106212261263,-0.02111423545739103,0.030204728395364016,0.4,-0.05545146984223108,-0.08734845650826374,0.8584591677063598,0.23048483686373622,-1.920475997030735,-0.0016926009266171604,0.393455708399415,-2.936569610764578,-44.987553358078,-19.80239897966385,27.48686969280243,0.0,0.0,0.0,0.0,0.0,0.0,0.0,0.0,0.0,0.0,0.0,0.0,0.0,0.0,0.0,0.0,True,0,3.3833818435668945,0.034923828125
STABILIZE,3.335728645324707,24.518486908638135,0.03240087827046712,0.03984999656677246,0.0,0.0,0.0,-0.5514898040717808,-1.0788250710306349,-0.06911516445903504,-0.001950164094032847,-0.019181526509155142,0.029288043038542003,0.4,-0.04851305201469974,-0.09345251266751117,0.848638107597653,0.2195276385292363,-0.013720092829316854,-0.528226001188159,1.0040581226348877,1.1718762599100092,5.101699382066727,-21.481621265411377,15.691830217838287,0.0,0.0,0.0,0.0,0.0,0.0,0.0,0.0,0.0,0.0,0.0,0.0,0.0,0.0,0.0,0.0,True,0,3.442125082015991,0.034924072265625
STABILIZE,3.3692219257354736,29.858647986787403,0.032384427388509114,0.03251910209655762,0.0,0.0,0.0,-0.5515002094380945,-1.0764102789939178,-0.0690754906649108,-0.00031488801420305283,-0.012775391360282664,0.03076673906531282,0.4,-0.04743032163879918,-0.09971637926777509,0.8332155232336009,0.232757412515352,-0.013720092829316854,-0.528226001188159,1.0040581226348877,1.1718762599100092,5.101699382066727,-21.481621265411377,15.691830217838287,0.0,0.0,0.0,0.0,0.0,0.0,0.0,0.0,0.0,0.0,0.0,0.0,0.0,0.0,0.0,0.0,True,0,3.4708518981933594,0.034924072265625
STABILIZE,3.402609348297119,29.950115321722613,0.03234270413716634,0.03247261047363281,0.0,0.0,0.0,-0.5477269034476328,-1.08066740783754,-0.06669516973916134,0.006403261451875206,-0.014931632940224695,0.03226218117943525,0.4,-0.04631019045838527,-0.1060022245652305,0.8183684248820514,0.2460657065138911,-0.013720092829316854,-0.528226001188159,1.0040581226348877,1.1718762599100092,5.101699382066727,-21.481621265411377,15.691830217838287,0.0,0.0,0.0,0.0,0.0,0.0,0.0,0.0,0.0,0.0,0.0,0.0,0.0,0.0,0.0,0.0,True,0,3.4997336864471436,0.034924072265625
STABILIZE,3.4360928535461426,29.865451438336656,0.03240922292073568,0.03252744674682617,0.0,0.0,0.0,-0.5486144011529113,-1.0809802091571854,-0.07171511865528271,0.007454409110859221,-0.008553411987326025,0.02887583865619762,0.4,-0.05113254128815214,-0.10621507172417005,0.7995253758571494,0.21079281580694054,-0.33568928483873606,-0.20144118461757898,0.7584326434880495,-1.4480491960273627,-22.022147476673126,30.80546259880066,-2.356507070362568,0.0,0.0,0.0,0.0,0.0,0.0,0.0,0.0,0.0,0.0,0.0,0.0,0.0,0.0,0.0,0.0,True,0,3.528231382369995,0.039913818359375
STABILIZE,3.4694530963897705,29.9743014364325,0.03237107594807943,0.03247857093811035,0.0,0.0,0.0,-0.5500738738403255,-1.0791219708161188,-0.07792977037688112,0.008135993038556158,-0.005258687299720447,0.028135043076733805,0.4,-0.0671695735317148,-0.10528515817263119,0.8053634677385005,0.2020346304786602,-1.3236184604465961,-0.33532995730638504,1.4528854750096798,0.5733890447372814,-28.147470951080322,-11.489497870206833,22.760699689388275,0.0,0.0,0.0,0.0,0.0,0.0,0.0,0.0,0.0,0.0,0.0,0.0,0.0,0.0,0.0,0.0,True,0,3.585637331008911,0.034925048828125
STABILIZE,3.5029101371765137,29.890139961802685,0.03244784673055013,0.03256702423095703,0.0,0.0,0.0,-0.5498437284818078,-1.0793122556175272,-0.07321113018671384,0.005497129674986965,-0.006421115055417789,0.027474039915157296,0.4,-0.0663734521610116,-0.10180436698790252,0.7983053012007013,0.19412556990113763,-0.0524991424754262,-0.033188279485329986,1.428514625877142,0.05700950792883369,0.14477551449090242,6.05255700647831,23.77471774816513,0.0,0.0,0.0,0.0,0.0,0.0,0.0,0.0,0.0,0.0,0.0,0.0,0.0,0.0,0.0,0.0,True,0,3.614293098449707,0.029934814453125
STABILIZE,3.5364110469818115,29.851210259987045,0.03242209752400716,0.03256344795227051,0.0,0.0,0.0,-0.5488875553588589,-1.0786660556890204,-0.07436028950424865,0.0008475191230184723,-0.00715261741062308,0.027054690909533875,0.4,-0.0679609721356365,-0.09343468304772992,0.7827283808075457,0.18866956082774294,-0.2079044235870242,0.2023063600063324,1.1064288206398487,0.19693533792686688,-10.555722564458847,4.235561564564705,26.038551330566406,0.0,0.0,0.0,0.0,0.0,0.0,0.0,0.0,0.0,0.0,0.0,0.0,0.0,0.0,0.0,0.0,True,0,3.6430933475494385,0.034924072265625
STABILIZE,3.5698323249816895,29.919564007818185,0.03238418896993001,0.03250765800476074,0.0,0.0,0.0,-0.5489174374364777,-1.0794694566901433,-0.0760329321288547,-0.003590222644031201,-0.00804626801458727,0.026720133561952568,0.4,-0.07010046395442879,-0.08572483580856735,0.771138287550047,0.1840926137800282,-0.2079044235870242,0.2023063600063324,1.1064288206398487,0.19693533792686688,-10.555722564458847,4.235561564564705,26.038551330566406,0.0,0.0,0.0,0.0,0.0,0.0,0.0,0.0,0.0,0.0,0.0,0.0,0.0,0.0,0.0,0.0,True,0,3.6718571186065674,0.034924072265625
STABILIZE,3.6033215522766113,29.862049325055533,0.03240040143330892,0.032546043395996094,0.0,0.0,0.0,-0.5493609194848526,-1.081053100082234,-0.07731906875576,-0.0038758727934260417,-0.008129378762031219,0.025523709175149158,0.4,-0.07448023011664352,-0.08502191198850925,0.7597278110598624,0.1709838233978448,-0.3309289226308465,-0.16131320735439658,1.0849262587726116,-0.26520602686826655,-7.610096037387848,-3.5666197538375854,23.364414274692535,0.0,0.0,0.0,0.0,0.0,0.0,0.0,0.0,0.0,0.0,0.0,0.0,0.0,0.0,0.0,0.0,True,0,3.7009172439575195,0.034924072265625
STABILIZE,3.636829376220703,29.844200939234383,0.03235772450764974,0.032485008239746094,0.0,0.0,0.0,-0.5472636778836883,-1.0805532156123538,-0.07531691619444712,-0.004335305584936929,-0.004719395682585273,0.024913849166365118,0.4,-0.0759606486115631,-0.08280408575046694,0.7508495620167853,0.163789708127067,-0.18216704484075308,-0.07647543679922819,1.190051157027483,0.03479172965200202,5.492108315229416,2.108076587319374,14.16327953338623,0.0,0.0,0.0,0.0,0.0,0.0,0.0,0.0,0.0,0.0,0.0,0.0,0.0,0.0,0.0,0.0,True,0,3.729426145553589,0.02993603515625
