Mode,Time,Freq,North-Vision,East-Vision,Down-Vision,Yaw-Vision,North-Desired,East-Desired,Down-Desired,Roll-UAV,Pitch-UAV,Yaw-UAV,Roll-Control,Pitch-Control,Yaw-Control,Thrust-Control,northVraw,eastVraw,downVraw,yawVraw,zGyro
GUIDED_NOGPS,0.055524349212646484,18.018472536064404,259.4665712248243,10.370806340880714,13.561309335482536,0.005769369897386028,300,0,50,-0.013380714110025215,0.28640365235953336,104.10846174462401,0.5185403170440357,2.0266714387587856,-0.0011538739794772056,0.5043763380867157,259.4665712248243,10.370806340880714,13.561309335482536,14.429194113362456,-2.2345354010102105
GUIDED_NOGPS,0.07196664810180664,60.839036277396616,261.2621227405247,10.799884205382478,12.615250737458746,-0.06501204400165292,300,0,50,-0.00969769468265451,0.3291979357999838,104.08478147877157,0.5399942102691239,1.9368938629737642,0.013002408800330585,0.5038720034982497,263.05767425622514,11.228962069884242,11.669192139434957,6.280016407735303,-1.5469860468532228
GUIDED_NOGPS,0.10901451110839844,27.000102997219074,262.868044752463,11.182815784026177,11.772623260526712,-0.07368986508980754,300,0,50,-0.09449706788951479,0.3191359465746443,104.05807543911683,0.5591407892013088,1.8565977623768504,0.014737973017961509,0.503966289940182,266.0798887763395,11.948678941313576,10.087368306662643,6.978501143269085,-0.8021409131831525
GUIDED_NOGPS,0.14519977569580078,27.64320833058723,262.6955511962267,11.692679455809357,9.836977060717624,-0.10110319798990149,300,0,50,-0.15477780954396148,0.5727156307738004,104.05399781618233,0.5846339727904678,1.8652224401886657,0.0202206395979803,0.5042340833915908,262.1780705275179,11.90039735623025,7.754370736055272,-17.278222343348645,0.11459155902616465
GUIDED_NOGPS,0.18546199798583984,24.844387316894025,262.4077698502084,12.11411701369834,7.851414595765043,-0.0906804032649792,300,0,50,-0.1686937063280542,0.982087714433569,104.08176936534761,0.6057058506849171,1.8796115074895796,0.01813608065299584,0.5044794454734461,261.25664446613536,12.49327474355119,5.712504744577211,11.370955992846305,0.8594366926962349
GUIDED_NOGPS,0.2180931568145752,30.652498647996843,263.6093850676398,12.364261604049993,5.796092583171352,-0.06153689876736167,300,0,50,-0.1736429787945218,1.3365330176136818,104.13615816170842,0.6182130802024997,1.8195307466180113,0.012307379753472333,0.5047419033236076,265.47464731198096,12.699112712368532,3.9214022688815717,-10.226757179115396,1.7188733853924698
GUIDED_NOGPS,0.2641479969024658,21.717404248929483,264.6701383557196,12.76130190912246,4.162451321324794,-0.005444232393093405,300,0,50,-0.24221072760396412,1.9994140823425264,104.24524311294269,0.6380650954561231,1.7664930822140208,0.001088846478618681,0.5049411176642933,268.36144069662436,13.091518271447656,2.8534469505155955,8.182060371852373,2.177239621497128
GUIDED_NOGPS,0.3043324947357178,24.89023927079377,264.7871798741702,12.954339588657342,2.7495751887022464,0.07238682181492613,300,0,50,-0.3143878978844276,2.4095554160575676,104.32639942066078,0.6477169794328672,1.7606410062914906,-0.014477364362985226,0.5051390445875309,266.66509636859223,13.072387782155838,1.4738763467095657,-0.46632704955503357,2.521014298575622
GUIDED_NOGPS,0.34220099449157715,26.41498882136222,266.86634449031146,13.188897842421232,2.0278055624415825,0.1565821664084881,300,0,50,-0.4313029673110333,2.7750089564673313,104.42394135219773,0.6594448921210616,1.6566827754844269,-0.03131643328169762,0.5052496019364525,272.5738936082244,13.402787473660199,1.756093390099581,3.7919578103689275,2.521014298575622
GUIDED_NOGPS,0.38370513916015625,24.122524802300504,268.5307355635485,13.168964985827357,1.5371457241687,0.24108006150995215,300,0,50,-0.5848901228042308,3.012048537178508,104.53734981317663,0.6584482492913679,1.5734632218225757,-0.048216012301990435,0.5053515650899447,269.5785998323206,13.031719701666027,1.3814674356969472,-4.018792778219989,2.635605857601787
GUIDED_NOGPS,0.42115283012390137,26.69049164471256,269.53578080625107,13.165151064926903,1.4750748018254074,0.34116013822933855,300,0,50,-0.7069642262100175,3.1325877156508932,104.64528046244116,0.6582575532463452,1.5232109596874466,-0.06823202764586771,0.5054023104942968,270.4998735254939,13.060946019454478,1.2876635796796871,1.9794413329396008,2.7501974166279517
GUIDED_NOGPS,0.4531571865081787,31.25086801674937,270.52462987873884,13.00932437866362,1.1246759891145484,0.42956115451525523,300,0,50,-0.7371389347460761,3.1746377752760764,104.71559042975728,0.6504662189331811,1.4737685060630583,-0.08591223090305106,0.50549354820609,273.3056860590632,12.93530741487035,0.7048969519670033,-9.5348868657765,2.7501974166279517
GUIDED_NOGPS,0.49738526344299316,22.615436046198145,271.53611110694675,12.979149637772593,0.4472077004293176,0.5093683606532822,300,0,50,-0.8476526761773517,3.1484333276384997,104.8730399505044,0.6489574818886297,1.4231944446526628,-0.10187367213065644,0.5056312417131476,271.7225025096318,12.941195478992945,-0.6509374303587451,-1.2981846428671417,2.807493196141034
GUIDED_NOGPS,0.5349280834197998,26.643019577452264,271.61540396197546,12.937364134901246,-1.1946567687292309,0.6167059331208081,300,0,50,-0.9127482743098343,3.1128787779139984,104.97379207095128,0.6468682067450624,1.419229801901227,-0.12334118662416163,0.5058814804985884,272.9703578833681,12.935589510840439,-3.6379298277959586,0.03717889647353445,2.635605857601787
GUIDED_NOGPS,0.5736713409423828,25.816979866184916,272.6865568315866,13.029844834401516,-3.1401114715298832,0.7147951287566121,300,0,50,-0.9727718700142005,3.055970922409921,105.08288385237472,0.6514922417200758,1.3656721584206708,-0.14295902575132244,0.506144380921366,274.9343641803762,13.212749513371158,-5.1314671564349545,3.707090708367616,2.6929016371148693
GUIDED_NOGPS,0.6112422943115234,26.62340201343134,273.08425061596773,12.999011753884922,-5.3483334423737885,0.8008234800248037,300,0,50,-1.0070106478281224,2.9611452717285185,105.19704363416231,0.6499505876942462,1.3457874692016134,-0.16016469600496075,0.5064362490263906,272.4883424473996,12.848696237443168,-7.2756033428904585,-13.944311699055248,2.4064227395494577
GUIDED_NOGPS,0.6458377838134766,28.910483253951295,273.9587932352737,13.138321641406948,-7.328769154463157,0.8770411820143598,300,0,50,-1.0102776126855042,2.9039851261119742,105.28418318759333,0.6569160820703475,1.3020603382363163,-0.17540823640287195,0.5066920842176177,277.6783991555931,13.353519173406518,-9.579236964064068,-3.0597025362143313,2.0053522829578814
GUIDED_NOGPS,0.6809439659118652,28.496623320152732,275.169731448412,13.265331585996288,-9.503451294993033,0.9459877400546018,300,0,50,-1.0297867673891763,2.907506942402762,105.35946553262521,0.6632665792998145,1.2415134275794004,-0.18919754801092037,0.5069772140262164,277.77719357532334,13.593779347139174,-11.65551357802458,6.18641741939031,1.8907607239317168
GUIDED_NOGPS,0.7151567935943604,29.233081029844296,276.54843239279705,13.598903007047005,-11.751494152439996,1.013191441930023,300,0,50,-1.0185255997168234,2.8940975735147347,105.43989101010212,0.6799451503523503,1.1725783803601473,-0.20263828838600462,0.5072678629519806,279.8638626052934,13.849410500595308,-14.019731915231347,-1.6686479312849514,2.0053522829578814
GUIDED_NOGPS,0.7559518814086914,24.520493648167527,278.13518111993255,13.929247981457685,-13.72030825115835,1.0695681744950916,300,0,50,-0.9761679681355778,2.74978037210742,105.50179984473911,0.6964623990728843,1.0932409440033724,-0.21391363489901832,0.5075259540371911,282.86810781605334,14.344554096638564,-15.485679260219129,2.6354749502540216,1.4896902673401404
GUIDED_NOGPS,0.7880144119262695,31.198333829217496,281.2200304077788,14.52963793840337,-16.133187059579182,1.1203429298038095,300,0,50,-1.0095967282026186,2.6225219950390346,105.53647671515526,0.7264818969201685,0.9389984796110611,-0.2240685859607619,0.5078568020831895,287.91258888663083,15.394949217976235,-18.89415000328707,-4.858154468913824,1.088619810748564
GUIDED_NOGPS,0.8271732330322266,25.539518230752368,283.47833236959997,15.223354337122188,-18.508801138783884,1.1564508928054482,300,0,50,-1.055462942583135,2.302039273898281,105.61335049426376,0.7611677168561095,0.8260833815200016,-0.23129017856108966,0.5081618068058411,288.9699089646991,15.93055969675176,-21.146574152845453,-3.816911455623071,1.1459155902616465
GUIDED_NOGPS,0.869525671005249,23.616842532010494,286.5797583959795,16.08957634137792,-20.980983462121632,1.1835319562889015,300,0,50,-1.1365456123242375,1.98156637115446,105.6477336665456,0.8044788170688961,0.6710120802010238,-0.2367063912577803,0.5084970514699105,293.28432370722106,16.943220109405754,-22.902226230232376,2.1007704387232167,0.2291831180523293
GUIDED_NOGPS,0.906212329864502,27.277542207538826,288.8312539966203,16.807553308115406,-23.06071984041371,1.2046247352355515,300,0,50,-1.1637635960016208,1.7305493419153808,105.6603285353751,0.8403776654057703,0.5584373001689841,-0.24092494704711032,0.5087835428808597,291.12134060849735,17.548880118188695,-25.1333591381633,4.601721770080147,0.057295779513082325
GUIDED_NOGPS,0.949805498123169,22.935611052479043,290.4819005551091,17.346993448594386,-24.38964816885299,1.2109793894841434,300,0,50,-1.0694032519574252,1.4207229965403168,105.68013608396814,0.8673496724297194,0.475904972244544,-0.2421958778968287,0.5089877397210443,291.12134060849735,17.548880118188695,-25.1333591381633,4.601721770080147,-0.11459155902616465
GUIDED_NOGPS,0.9822282791137695,30.894991160872127,291.8036413151495,18.161880233377985,-26.70440534747389,1.2125141826541719,300,0,50,-1.0108173043516409,1.317104331076169,105.6748836684964,0.9080940116688994,0.40981793424252544,-0.24250283653083438,0.509334928478533,294.5212926868327,19.387880463756563,-29.846497766095062,8.626556398860217,-0.40107045659157625
GUIDED_NOGPS,1.0227673053741455,24.67876391536633,294.2504333375041,19.203709989798025,-29.185358190992904,1.1889173676812343,300,0,50,-0.8156770388562312,1.2518542532745678,105.65644898792654,0.9601854994899013,0.2874783331247954,-0.23778347353624688,0.5096684372180733,301.2038690764721,20.67436938744881,-32.57621766872035,-6.992008699741632,-0.8594366926962349
GUIDED_NOGPS,1.0609476566314697,26.193445243804955,296.22331592417066,21.050061250332977,-32.95933101492225,1.1474665733556322,300,0,50,-0.6312470969487833,1.2305669015091654,105.60847373919637,1.052503062516649,0.18883420379146687,-0.22949331467112644,0.5101789606591522,303.148736640554,23.087933899793555,-36.45527760995134,-0.9494686329598068,-1.5469860468532228
GUIDED_NOGPS,1.0977816581726074,27.153046889667184,298.62879513058203,22.283412395678642,-35.16225762954101,1.07456903138353,300,0,50,-0.5265921103606448,1.2308580383225372,105.5284512428805,1.114170619783932,0.06856024347089829,-0.21491380627670603,0.510454628882412,303.148736640554,23.087933899793555,-36.45527760995134,-0.9494686329598068,-2.5783100780887045
GUIDED_NOGPS,1.1310973167419434,30.027519651780473,302.2469976743141,24.0565116349956,-37.20875183330002,0.9717135517511112,300,0,50,-0.5133544566972196,1.1691991459204816,105.43857278359229,1.2028255817497802,-0.11234988371570581,-0.19434271035022224,0.5107478071297028,309.2123533271578,25.993667105399684,-38.71570027999737,-1.0076168198398676,-3.552338329811104
GUIDED_NOGPS,1.1705520153045654,25.350732240965602,305.1852098023792,25.025089370197644,-37.962226056648696,0.8504479998910318,300,0,50,-0.6108349165316416,0.9438267022504501,105.27669047007383,1.2512544685098823,-0.25926049011895885,-0.17008959997820638,0.5108847927246286,309.2123533271578,25.993667105399684,-38.71570027999737,-1.0076168198398676,-4.354479242994256
GUIDED_NOGPS,1.2088878154754639,26.090957158941755,307.80531160675406,26.70248357942928,-38.92324925495521,0.6849168825875998,300,0,50,-0.7361881510692692,0.5841304777024785,105.05850007703776,1.335124178971464,-0.39026558033770303,-0.13698337651751996,0.5110891535761022,314.30437809834643,28.120116527488463,-39.338347204870864,7.637043864266374,-5.443099053742821
GUIDED_NOGPS,1.246046543121338,26.918141152762537,311.95640583039847,28.878610705273243,-39.78404397907627,0.5013096526361719,300,0,50,-0.7457860609570179,0.2462679666926575,104.85317776039801,1.4439305352636622,-0.5978202915199233,-0.10026193052723438,0.5112734070399794,323.90420775877595,32.52204848293157,-41.29808445236058,-1.6343636221694595,-5.729577951308232
GUIDED_NOGPS,1.2821345329284668,27.717008313178173,315.6884444421411,31.822119707090025,-40.96341791133685,0.30272973567392936,300,0,50,-0.6608727756694492,-0.05291502296482261,104.64444717936243,1.5911059853545013,-0.7844222221070538,-0.06054594713478587,0.5114993457263796,321.80892969926737,34.82419411085004,-42.25382207677909,6.635311071496076,-6.245239966925974
GUIDED_NOGPS,1.3268914222717285,22.347690799428825,319.1120169486406,34.92967741286996,-42.427417290009494,0.09927477944221963,300,0,50,-0.35991089525915104,-0.37669320365840125,104.37002383888965,1.746483870643498,-0.9556008474320294,-0.019854955888443927,0.511769859167796,326.33021585965525,37.44278964482825,-43.730345340888825,-15.460435483202616,-6.016056848873644
GUIDED_NOGPS,1.3629276752471924,27.7588320163073,322.77647408911264,38.48351617734856,-44.23251617511744,-0.128895972137555,300,0,50,-0.07877640033895196,-0.5360484005448216,104.20832594047877,1.9241758088674281,-1.138823704455632,0.025779194427511,0.5120694791456502,327.5346390295183,43.1835647763674,-46.713381107684384,7.396267498311104,-5.500394833255903
GUIDED_NOGPS,1.3953437805175781,30.857714605220565,326.7638895766453,42.49253712283462,-46.69766030889249,-0.30873793536130023,300,0,50,0.25741939777104045,-0.676687971970908,104.05623128804093,2.124626856141731,-1.3381944788322642,0.06174758707226005,0.5124358719329399,334.24145553600965,46.85125694730822,-49.649254478104254,-7.145834161528896,-5.099324376664327
GUIDED_NOGPS,1.4360105991363525,24.597282414276414,328.0843968930074,46.22744886625733,-48.7000532392425,-0.4626727375316428,300,0,50,0.6114258346165534,-0.8349189090477737,103.86009557583485,2.311372443312867,-1.4042198446503704,0.09253454750632856,0.5127290196451584,330.5067443405866,48.6475248750964,-49.737524131938876,3.279894204297136,-4.984732817638163
GUIDED_NOGPS,1.4682416915893555,31.030762173919477,330.7873353742014,48.97518722722407,-50.29742470722721,-0.6752306225621274,300,0,50,0.819367368720448,-1.0117463168004686,103.66296265600994,2.4487593613612035,-1.5393667687100703,0.13504612451242548,0.5129862151924764,335.32362210523723,51.42677985926762,-51.50549551163851,-22.56966136617899,-5.500394833255903
GUIDED_NOGPS,1.5076255798339844,25.414941254173407,332.5067903237765,51.31685168608894,-51.00519624532319,-0.8426954593625774,300,0,50,0.8977387201653197,-1.2088869205881927,103.44361113081497,2.565842584304447,-1.625339516188825,0.16853909187251548,0.5131453411561062,334.92749060753056,53.87625032390284,-51.77256909239219,-2.744668965626289,-5.328507494716656
GUIDED_NOGPS,1.5395829677581787,31.285600268526462,335.02015629437443,54.136399542122405,-52.006653088848765,-1.0470395828634973,300,0,50,0.909144602470712,-1.3580942172761197,103.31335259315367,2.7068199771061203,-1.7510078147187216,0.20940791657269947,0.5133564518454461,340.10146888250813,57.10616844319679,-52.74189466251559,-2.624340344509889,-5.557690612768986
GUIDED_NOGPS,1.581002950668335,24.14404789316141,336.96908410242486,57.14020158218764,-52.84270695022219,-1.214757814828077,300,0,50,0.903892827329207,-1.5243464644812248,103.12096665480192,2.8570100791093824,-1.848454205121243,0.24295156296561543,0.5135573599509794,343.9860945762618,60.43818597946331,-54.01365709575878,-5.148813880272357,-5.500394833255903
GUIDED_NOGPS,1.615368366241455,29.103262604254848,338.5081252497922,59.920677694530035,-53.41200912629608,-1.4272908240421531,300,0,50,0.9683516704041445,-1.723264091391916,102.92690732010351,2.996033884726502,-1.9254062624896109,0.2854581648084306,0.5137172949366928,338.2019500774233,62.217678660930005,-53.48047562061385,1.9875810922963382,-5.156620156177409
GUIDED_NOGPS,1.6483688354492188,30.31201624617875,340.653873436382,62.97472031331668,-54.15347829544549,-1.5884590482946148,300,0,50,1.087210302175589,-1.8630728343384937,102.79141685753797,3.1487360156658344,-2.032693671819101,0.31769180965892296,0.513900280592588,346.05236303818623,66.26829629955674,-54.966302169963825,0.47370583444566705,-4.698253920072751
GUIDED_NOGPS,1.6810646057128906,30.588341683622495,342.91913711533215,65.8993790683416,-54.73432817470342,-1.7375340797008385,300,0,50,1.3676942615979841,-1.960313383778319,102.58404548414721,3.2949689534170803,-2.1459568557666073,0.34750681594016775,0.5140566924114527,346.25380900228157,69.21216224453805,-55.756206733532586,1.625481529091232,-4.698253920072751
GUIDED_NOGPS,1.7258422374725342,22.34007286362571,343.58785274111415,68.87933934130858,-55.42801872910252,-1.8809848606124557,300,0,50,1.6929027265924457,-1.9790059039893515,102.43135660525158,3.443966967065429,-2.1793926370557073,0.37619697212249115,0.514263874417108,343.44504701141796,71.15755947983095,-55.561547283811144,2.2124018846073454,-4.411775022507339
STABILIZE,1.7635090351104736,26.555303711395034,344.5067374608298,72.55624792314356,-56.08051444793094,-2.0858085502530086,300,0,50,2.0115242211843705,-1.9522021072521056,102.2239442507258,3.627812396157178,-2.2253368730414906,0.41716171005060176,0.5144514284801468,348.5805181748403,77.29902204506168,-56.923789326449075,2.426080588554271,-5.042028597151244
STABILIZE,1.804234504699707,24.556814988290398,346.4625769854384,75.93141493281081,-56.434783766938274,-2.2470622312726616,300,0,50,2.1458680657429974,-1.7633843024114535,102.06991665475284,3.7965707466405405,-2.3231288492719187,0.44941244625453236,0.510782844431537,347.98114770046607,79.33766327353979,-56.8190146905546,4.244602081829271,-4.297183463481175
STABILIZE,1.8511552810668945,21.316853018906283,349.2675586217518,80.40134539767112,-57.281928497170036,-2.4454317188027153,300,0,50,1.6625786076682931,-1.4227050320600898,101.83771754372908,4.0200672698835564,-2.4633779310875896,0.48908634376054305,0.5108968387889882,360.07727121975347,84.5673508744119,-58.10298147450641,-3.0651638371234355,-5.156620156177409
STABILIZE,1.88954758644104,26.055461683729252,350.8497700713002,83.22858426630609,-57.029882335550646,-2.670944851636567,300,0,50,1.073328476296067,-1.216754444738401,101.68103983435816,4.161429213315304,-2.5424885035650107,0.5341889703273134,0.5108194945348128,354.16486625002403,85.7807386509666,-56.167650841590934,-0.4288773255549927,-5.099324376664327
STABILIZE,1.9301228523254395,24.64946696599631,353.7230203552634,86.47492449618387,-56.463242358366976,-2.869802803884339,300,0,50,0.4213914556908457,-1.181805220529092,101.44519340231763,4.323746224809194,-2.686151017763169,0.5739605607768679,0.5107622458040788,357.8112984312337,89.07668396317312,-55.11909475900359,-1.412004064184785,-5.614986392282068
STABILIZE,1.9660499095916748,27.841011071874252,357.03805439203694,90.6446965991438,-54.13539913502033,-3.0991478207062357,300,0,50,-0.05642804805509669,-1.2113867698244174,101.22205795232247,4.53223482995719,-2.8519027196018474,0.6198295641412472,0.5104611784383934,365.1556883587082,97.07666718329162,-51.119451804466486,4.259258259181806,-6.302535746439056
STABILIZE,2.001929759979248,27.87746502276428,361.22455414577433,95.79197180212901,-51.95922110265888,-3.3334115291475848,300,0,50,-0.335111332156481,-1.3645906876721536,100.99121804894355,4.789598590106451,-3.061227707288717,0.666682305829517,0.5102446447939084,368.91364646915315,101.22256425992227,-49.63911674450658,-29.45061473404401,-6.760901982543714
STABILIZE,2.041156530380249,25.499148874082,362.74279846276204,100.90702475272259,-49.70017447185205,-3.5859984960378566,300,0,50,-0.44161671304031125,-1.7032696730920558,100.75741384346485,5.04535123763613,-3.1371399231381023,0.7171996992075713,0.5100295917374421,367.66849280469216,104.42184281495386,-48.341954866583094,-3.9548966067692675,-7.792226013779196
STABILIZE,2.0874345302581787,21.6136618948974,367.7102298891292,105.61396566906171,-49.01308449494243,-3.9012144719829336,300,0,50,-0.828943720823629,-3.728675399990831,100.31330811344145,5.280698283453086,-3.385511494456461,0.7802428943965868,0.5100228919288945,379.00202338185983,111.19748993230903,-49.05818187373761,-5.1712583591691015,-9.224620501606255
STABILIZE,2.123886823654175,27.43903859111992,370.3216531594524,109.26816217741064,-48.61477065619348,-4.314310190259719,300,0,50,-1.11748436861973,-6.016662413445458,100.0315696403676,5.463408108870532,-3.5160826579726208,0.8628620380519438,0.5099595151962883,370.86841478284975,112.18515378496905,-48.44417522825972,-35.72874287186757,-10.313240312354818
STABILIZE,2.1648504734039307,24.415155625149165,368.76442828966657,111.85377349716812,-48.74412127343339,-4.651032734286194,300,0,50,-1.366268459608744,-9.619381441178437,99.69492327655601,5.592688674858406,-3.4382214144833285,0.9302065468572389,0.5099991058990854,357.3695640097789,112.17867677422633,-48.73000671830285,6.221487040158777,-10.141352973815572
STABILIZE,2.1977548599243164,30.396811247599377,366.4556117977917,112.18083577780722,-48.63472955495515,-5.013064711639768,300,0,50,-1.520206516070551,-12.460834904778475,99.49938179080772,5.609041788890361,-3.322780589889584,1.0026129423279537,0.5099573628500359,357.3695640097789,112.17867677422633,-48.73000671830285,6.221487040158777,-9.453803619658583
STABILIZE,2.238335609436035,24.653378866873176,364.3958260388091,112.17867677422633,-48.73000671830286,-5.3094083287143246,300,0,50,-1.265150497154467,-16.623580779354665,99.2082244868684,5.608933838711317,-3.2197913019404556,1.061881665742865,0.5099948848810824,357.3695640097789,112.17867677422633,-48.73000671830285,6.221487040158777,-9.682986737710912
STABILIZE,2.2697505950927734,31.839432792087024,360.0693341643929,112.17867677422633,-48.73000671830286,-5.656385954445455,300,0,50,-0.8449942384863358,-18.648083000292292,99.05664209861831,5.608933838711317,-3.003466708219645,1.131277190889091,0.5099667019333133,357.3695640097789,112.17867677422633,-48.73000671830285,6.221487040158777,-8.995437383553925
STABILIZE,2.2993881702423096,33.752355814496205,357.3695640097787,112.17867677422633,-48.73000671830286,-5.890641369075345,300,0,50,-0.18490033116589286,-20.74478885849342,98.8814887275425,5.608933838711317,-2.8684782004889344,1.1781282738150691,0.5099606189673823,357.3695640097789,112.17867677422633,-48.73000671830285,6.221487040158777,-7.906817572805361
STABILIZE,2.3480796813964844,20.541282831102556,357.3695640097787,112.17867677422633,-48.73000671830286,-6.022244705072786,300,0,50,2.2010444682924764,-24.141669036530665,98.47781771740559,5.608933838711317,-2.8684782004889344,1.2044489410145571,0.5100174389818631,357.3695640097789,112.17867677422633,-48.73000671830285,6.221487040158777,-4.1252961249419275
STABILIZE,2.3819639682769775,29.519889642746545,357.3695640097787,112.17867677422633,-48.73000671830286,-6.243116690952747,300,0,50,3.222546216218427,-24.25993717710402,98.39417522082961,5.608933838711317,-2.8684782004889344,1.2486233381905496,0.5099734402268951,357.3695640097789,112.17867677422633,-48.73000671830285,6.221487040158777,-2.177239621497128
STABILIZE,2.4103000164031982,35.30172624207789,357.3695640097787,112.17867677422633,-48.73000671830286,-6.315332204290263,300,0,50,4.043363986281298,-23.3765597834423,98.3951997492051,5.608933838711317,-2.8684782004889344,1.2630664408580525,0.5099568169371325,357.3695640097789,112.17867677422633,-48.73000671830285,6.221487040158777,-1.3178029288008934
STABILIZE,2.4432904720306396,30.320781314383616,357.3695640097787,112.17867677422633,-48.73000671830286,-6.318652952542386,300,0,50,4.901151649330743,-21.48638689291131,98.56754591253204,5.608933838711317,-2.8684782004889344,1.2637305905084772,0.5099705689313906,357.3695640097789,112.17867677422633,-48.73000671830285,6.221487040158777,0.2291831180523293
STABILIZE,2.476306676864624,30.291875807977583,357.3695640097787,112.17867677422633,-48.73000671830286,-6.275276596081487,300,0,50,6.107663585078476,-17.85697292458098,99.0185637939955,5.608933838711317,-2.8684782004889344,1.2550553192162974,0.5099713323033632,357.3695640097789,112.17867677422633,-48.73000671830285,6.221487040158777,2.6929016371148693
STABILIZE,2.509855270385742,29.81577263744544,357.3695640097787,112.17867677422633,-48.73000671830286,-6.1812849094864735,300,0,50,7.13057107131298,-13.671141864383795,99.67636565258108,5.608933838711317,-2.8684782004889344,1.2362569818972948,0.509972063191422,357.3695640097789,112.17867677422633,-48.73000671830285,6.221487040158777,4.354479242994256
STABILIZE,2.542795181274414,30.368860055607044,357.3695640097787,112.17867677422633,-48.73000671830286,-6.057045887305781,300,0,50,7.458344592505899,-10.60319335149061,100.19422376526228,5.608933838711317,-2.8684782004889344,1.2114091774611564,0.5099699595049223,357.3695640097789,112.17867677422633,-48.73000671830285,6.221487040158777,5.099324376664327
STABILIZE,2.57895565032959,27.6628985239609,357.3695640097787,112.17867677422633,-48.73000671830286,-5.881081987279964,300,0,50,7.030087035791045,-5.71246499772013,101.1264148133748,5.608933838711317,-2.8684782004889344,1.1762163974559927,0.509980369893099,357.3695640097789,112.17867677422633,-48.73000671830285,6.221487040158777,6.875493541569879
STABILIZE,2.6160926818847656,26.93179570817655,357.3695640097787,112.17867677422633,-48.73000671830286,-5.67508926152692,300,0,50,5.920289724917047,-2.5016186821065234,101.76802912362744,5.608933838711317,-2.8684782004889344,1.135017852305384,0.5099830914801315,357.3695640097789,112.17867677422633,-48.73000671830285,6.221487040158777,7.16197243913529
STABILIZE,2.648195743560791,31.155230044716475,357.3695640097787,112.17867677422633,-48.73000671830286,-5.403916860892788,300,0,50,4.5400066776267884,-0.06850677069480145,102.31356316282553,5.608933838711317,-2.8684782004889344,1.0807833721785576,0.509968466657235,357.3695640097789,112.17867677422633,-48.73000671830285,6.221487040158777,9.167324722093172
STABILIZE,2.6828103065490723,28.898730863040694,357.3695640097787,112.17867677422633,-48.73000671830286,-5.147077799061065,300,0,50,3.2195778586938215,1.2126876006961875,102.67845918904429,5.608933838711317,-2.8684782004889344,1.029415559812213,0.5099750107535065,357.3695640097789,112.17867677422633,-48.73000671830285,6.221487040158777,8.995437383553925
STABILIZE,2.722180128097534,25.40939849396313,357.3695640097787,112.17867677422633,-48.73000671830286,-4.852166091302468,300,0,50,1.8607640169556179,2.1041213092056448,103.13444944822352,5.608933838711317,-2.8684782004889344,0.9704332182604937,0.509989769042918,357.3695640097789,112.17867677422633,-48.73000671830285,6.221487040158777,9.682986737710912
STABILIZE,2.760486602783203,26.110772870171505,357.3695640097787,112.17867677422633,-48.73000671830286,-4.502983338715103,300,0,50,1.3876841975862015,2.1352789246519506,103.49851902155271,5.608933838711317,-2.8684782004889344,0.9005966677430206,0.5099865531354593,357.3695640097789,112.17867677422633,-48.73000671830285,6.221487040158777,10.084057194302488
STABILIZE,2.8118691444396973,19.4656567906735,357.3695640097787,112.17867677422633,-48.73000671830286,-4.146968065338826,300,0,50,3.0636160385252813,1.6380107373888746,104.02901298419843,5.608933838711317,-2.8684782004889344,0.8293936130677653,0.5100252739606191,357.3695640097789,112.17867677422633,-48.73000671830285,6.221487040158777,10.485127650894066
STABILIZE,2.8570444583892822,22.14147556906964,356.32806425703865,123.05416576561363,-50.21104411716434,-3.8785952693352,300,0,50,1.8619270701052242,-1.7176634429942113,104.16423023919717,6.152708288280682,-2.8164032128519327,0.7757190538670401,0.5101886535258702,352.1620652460786,144.80514374838828,-53.17311891488732,-1.696419016165592,1.948056503444799
STABILIZE,2.8981399536132812,24.33427321567399,355.2865645042986,133.92965475700092,-51.69208151602583,-3.4013496473554583,300,0,50,3.4231224051586677,1.1021888003037212,105.03451928286185,6.696482737850046,-2.7643282252149306,0.6802699294710917,0.5103317803316978,352.1620652460786,144.80514374838828,-53.17311891488732,-1.696419016165592,14.209353319244416
STABILIZE,2.9301884174346924,31.21296055128482,354.2450647515586,144.80514374838825,-53.17311891488731,-2.820964597969342,300,0,50,4.384186583883526,1.0185803479518893,105.29795967914924,7.240257187419413,-2.712253237577929,0.5641929195938684,0.5104624896411706,352.1620652460786,144.80514374838828,-53.17311891488732,-1.696419016165592,17.074142294898532
STABILIZE,2.967323064804077,26.936292642827784,353.20356499881854,144.80514374838828,-53.17311891488731,-2.5072808502553916,300,0,50,7.753459137295578,2.203553922482221,105.92066119559014,7.240257187419414,-2.6601782499409268,0.5014561700510783,0.5104311564308553,352.1620652460786,144.80514374838828,-53.17311891488732,-1.696419016165592,9.912169855763242
STABILIZE,3.000286817550659,30.34513095065837,352.1620652460785,144.80514374838828,-53.17311891488731,-2.1772575313425224,300,0,50,9.85604493459844,2.0027916108870976,106.12887951243798,7.240257187419414,-2.608103262303925,0.4354515062685045,0.5104204989330915,352.1620652460786,144.80514374838828,-53.17311891488732,-1.696419016165592,8.59436692696235
STABILIZE,3.040109634399414,25.11649520342048,352.133375202396,143.27374567375446,-59.1394926412141,-1.8824685417624027,300,0,50,12.526588282144541,1.4986035882211526,106.37302462432008,7.1636872836877235,-2.6066687601198,0.3764937083524806,0.511194172973472,352.018615027666,140.21094952448684,-71.07224009386768,2.8277553930146127,8.823550045014677
STABILIZE,3.077427387237549,26.805289091408742,352.1046851587135,141.74234759912062,-65.10586636754088,-1.5700044412299183,300,0,50,14.938535545072083,0.5082879504369511,106.45032187515712,7.087117379956031,-2.605234257935675,0.3140008882459837,0.5117993563820269,352.018615027666,140.21094952448684,-71.07224009386768,2.8277553930146127,7.047380880109126
STABILIZE,3.116675615310669,25.499924004304397,352.075995115031,140.2109495244868,-71.07224009386766,-1.3220859064892203,300,0,50,16.04279613385014,-0.16517633232826953,106.5152633137856,7.010547476224341,-2.6037997557515498,0.2644171812978441,0.5124017920722168,352.018615027666,140.21094952448684,-71.07224009386768,2.8277553930146127,6.359831525952138
STABILIZE,3.1584136486053467,23.95444758559639,352.0473050713485,140.21094952448678,-71.07224009386766,-1.0506379346582257,300,0,50,15.777344246852179,-0.8510191590253746,106.65507728609576,7.010547476224339,-2.6023652535674247,0.21012758693164515,0.5122588624939562,352.018615027666,140.21094952448684,-71.07224009386768,2.8277553930146127,6.531718864491385
STABILIZE,3.1967248916625977,26.10638483275448,352.018615027666,140.21094952448678,-71.07224009386766,-0.7744679206631911,300,0,50,14.951260187495818,-1.1101095785851145,106.78037027623047,7.010547476224339,-2.6009307513832995,0.15489358413263823,0.512240697778369,352.018615027666,140.21094952448684,-71.07224009386768,2.8277553930146127,6.302535746439056
STABILIZE,3.2360053062438965,25.46431672059886,352.01861502766604,140.21094952448678,-71.07224009386766,-0.5553127694141831,300,0,50,13.395802424788595,-0.9587058424704997,107.12853233898271,7.010547476224339,-2.600930751383302,0.11106255388283662,0.512255459207712,352.018615027666,140.21094952448684,-71.07224009386768,2.8277553930146127,5.7868737308213145
STABILIZE,3.2838683128356934,20.896813890342028,347.9384396615684,133.12679904497327,-82.16391670514703,-0.30904555306136294,300,0,50,12.343460665212744,-0.6237435471761426,107.51413066857577,6.656339952248664,-2.39692198307842,0.061809110612272594,0.5136378906295007,331.6177381971776,118.9584980859463,-104.3472699277058,-0.5282135072813787,5.958761069360562
STABILIZE,3.3273444175720215,23.00782779938453,342.0679457829932,125.33348753411353,-91.88113141025896,-0.045259865546937575,300,0,50,11.818169599167282,-0.4921647019317542,107.74386408130916,6.2666743767056765,-2.1033972891496604,0.009051973109387516,0.5145967228308032,322.6661456347899,116.83101499190765,-100.22388420920345,3.9272266239519666,4.92743703812508
STABILIZE,3.367734909057617,24.762833645257086,336.197451904418,117.54017602325378,-101.59834611537089,0.17536003028624073,300,0,50,11.281373933238578,-0.40834200575556606,108.00269409990679,5.877008801162689,-1.809872595220901,-0.035072006057248147,0.5155838919872802,322.6661456347899,116.83101499190765,-100.22388420920345,3.9272266239519666,4.984732817638163
STABILIZE,3.410662889480591,23.297676511267504,330.52379614144377,117.09070058235318,-97.71121525203058,0.33720125682161295,300,0,50,10.734832441137913,-0.45828632331825625,108.15767109217437,5.85453502911766,-1.5261898070721884,-0.06744025136432259,0.5148709401230636,323.6503362127949,117.6100717632445,-92.68587733768484,4.389859290474007,3.380450991271857
STABILIZE,3.4604203701019287,20.102778430141438,324.8501403784695,117.35038617279879,-95.19854629485774,0.46744594175961346,300,0,50,9.974547862924515,-0.5461015318685812,108.23132102199462,5.86751930863994,-1.242507018923476,-0.0934891883519227,0.5146851315639906,323.6503362127949,117.6100717632445,-92.68587733768484,4.389859290474007,2.119943841984046
STABILIZE,3.4913220405578613,32.36820212839845,322.41786072684727,116.48009830514373,-91.71888793319035,0.5229452923449143,300,0,50,9.020130525479138,-0.7699047929376552,108.21653366244155,5.824004915257187,-1.1208930363423633,-0.10458905846898287,0.5141902977581526,319.4563399390664,114.22015138894241,-89.78490912420129,4.234783653192707,-0.057295779513082325
STABILIZE,3.535438060760498,22.67338421951694,321.77589958770255,115.35012484704305,-90.75189852869585,0.500740165963558,300,0,50,8.300903068140332,-0.9966819076991822,108.12468810867239,5.767506242352153,-1.0887949793851277,-0.1001480331927116,0.5142399265204689,319.4563399390664,114.22015138894241,-89.78490912420129,4.234783653192707,-1.260507149287811
STABILIZE,3.576658010482788,24.265009777037267,320.92440262763574,114.0556604726217,-89.8621594970333,0.34113414757020255,300,0,50,7.237549336075127,-0.7441165599526258,107.9909120235885,5.702783023631085,-1.0462201313817872,-0.06822682951404051,0.5141374490924686,318.40866083445604,113.72667863998043,-90.01666024269716,0.8003686837625423,-6.990085100596044
STABILIZE,3.6264517307281494,20.085835101212055,318.8100927625994,113.37311804464143,-89.71261259075283,0.11384715618667798,300,0,50,4.231880622468235,0.25567612538752693,107.79962574569313,5.6686559022320715,-0.9405046381299713,-0.0227694312373356,0.5141769723896356,313.07878688761315,112.17252410500157,-89.3362684053599,3.1763720447479926,-8.078704911344607
STABILIZE,3.667968273162842,24.09176493563933,316.2062885163057,112.49865392470845,-89.74754409905012,-0.020182804061126935,300,0,50,3.110514465244116,-0.07234835189653693,107.66560377379915,5.6249326962354225,-0.8103144258152839,0.0040365608122253874,0.5141497552889044,310.6313149813261,111.59675902914354,-89.8897036490932,0.7157518395828646,-2.2345354010102105
STABILIZE,3.703693389892578,27.993939757990777,314.44128352475764,111.78868072109616,-89.70522523451545,-0.09292553537134096,300,0,50,3.0580470864741938,-0.7204767416266828,107.66678539652555,5.589434036054808,-0.7220641762378819,0.018585107074268192,0.5141196748142787,310.6313149813261,111.59675902914354,-89.8897036490932,0.7157518395828646,-1.260507149287811
STABILIZE,3.7432661056518555,25.278312490583094,312.7552927044343,113.43495835615867,-85.46239332472253,-0.21091986883550062,300,0,50,2.880745407461006,-0.5629469127959483,107.61889211006543,5.671747917807934,-0.6377646352217141,0.042183973767100126,0.5135954085354929,311.02638583744977,117.11135701018912,-76.60777267598115,2.2016136180898513,-3.724225668350351
STABILIZE,3.779381275177002,27.69577792158054,311.278837705033,115.27315768317386,-81.03508300035183,-0.3510724746090535,300,0,50,4.092231001584977,-0.49535834897726405,107.49775187494608,5.763657884158693,-0.5639418852516513,0.0702144949218107,0.5131259201301354,311.02638583744977,117.11135701018912,-76.60777267598115,2.2016136180898513,-4.1252961249419275
STABILIZE,3.822561740875244,23.16565501471912,309.1486455162238,115.94479544198593,-77.6543372217998,-0.49859234911448,300,0,50,5.012645522907916,-0.9579328571555247,107.30725106880526,5.797239772099297,-0.45743227581118906,0.099718469822896,0.5128527462678373,302.427825943567,113.6116723055797,-79.7474663134371,5.05428537356714,-4.583662361046586
STABILIZE,3.860880136489868,26.096963663514185,307.0780934204387,113.9508829119445,-78.46786075427063,-0.7453490291806433,300,0,50,6.2267884875058455,-0.8226548775061927,107.09731154428657,5.6975441455972256,-0.35390467102193385,0.14906980583612867,0.5130161963159809,300.2785545024009,111.12961942006486,-79.04834327339358,6.5127202919150875,-7.333859777674538
STABILIZE,3.9061412811279297,22.0992444439761,303.4717725410146,110.23610582656305,-80.34351856967983,-0.9704615952647548,300,0,50,8.424833435535628,-0.7017847016633264,106.8057375988079,5.511805291328153,-0.1735886270507308,0.194092319052951,0.5132526526434548,292.5997105842057,105.96702575404477,-82.23474612220876,5.710660119094513,-6.64631042351755
STABILIZE,3.944119930267334,26.337527943134152,300.60837626876435,107.67271258318091,-82.06945184025686,-1.2458154175575442,300,0,50,10.341028493030718,-0.7385471810147152,106.49363893487333,5.383635629159046,-0.030418813438217285,0.24916308351150884,0.513402659054619,296.7094044761984,105.92149257543332,-84.92526612516814,4.643383384620009,-7.16197243913529
STABILIZE,3.9857163429260254,24.044807007687588,297.74497999651413,105.93667030163708,-84.0284261241817,-1.5009504188671938,300,0,50,11.825874052551056,-0.6502723220775894,106.21252883920312,5.296833515081854,0.11275100017429339,0.3001900837734388,0.5136171222858608,296.7094044761984,105.92149257543332,-84.92526612516814,4.643383384620009,-7.448451336700702
STABILIZE,4.034141778945923,20.654372116156416,295.69173549684785,103.3569815148734,-86.28669959819099,-1.7938009533377892,300,0,50,13.10218113010621,-0.5619312956828793,105.91131066661639,5.16784907574367,0.21541322515760727,0.3587601906675579,0.5138734453653907,292.1616034452356,98.22795939375376,-89.00956654423663,4.817750922619268,-7.849521793292278
STABILIZE,4.070839166641235,27.25928236723924,295.47958413627885,100.54927329201793,-89.04345739686225,-2.149472285404625,300,0,50,13.525316471830378,-0.4894775027410302,105.70758661424242,5.027463664600897,0.22602079318605775,0.42989445708092505,0.5141323107535852,299.2177976995557,97.49836790686689,-93.19553952118189,0.7384769837040892,-8.479775367936185
STABILIZE,4.114221572875977,23.058802832387737,296.80320155934885,97.74156506916246,-91.8002151955335,-2.4608909736584668,300,0,50,12.726689772937466,-0.6488441188499692,105.16771480186627,4.887078253458124,0.15983992203255754,0.4921781947316934,0.5144275674412958,299.2177976995557,97.49836790686689,-93.19553952118189,0.7384769837040892,-9.281916281119337
STABILIZE,4.144149541854858,33.421547925448415,295.74809947566325,95.02088483314223,-93.23921388650541,-2.827562477132216,300,0,50,11.587283592011463,-0.7736802333622327,104.9171629725427,4.7510442416571115,0.21259502621683737,0.5655124954264432,0.514500486808709,291.4338940577703,90.06591868569306,-93.32656261715235,-2.299096213389376,-9.85487407625016
STABILIZE,4.185065984725952,24.44518009091969,294.69299739197766,92.54340175941763,-93.28288825182888,-3.1416664279567716,300,0,50,7.425170363707147,-1.0433300720179595,104.2416640938176,4.627170087970882,0.2653501304011172,0.6283332855913544,0.5145065664092406,291.4338940577703,90.06591868569306,-93.32656261715235,-2.299096213389376,-11.631043241155712
STABILIZE,4.224227666854858,25.54060686513905,294.164764689379,89.842780050645,-93.2237992825065,-3.6163818031530672,300,0,50,4.524108558559938,-1.0432661457161965,103.78208798532413,4.492139002532251,0.2917617655310494,0.7232763606306135,0.5144890890492798,289.52043993224214,89.39650278054896,-93.01827261321475,-2.2027440670141942,-13.693691303626675
STABILIZE,4.255073308944702,32.4242522631168,292.6473967454241,92.02351701582013,-92.17681897363866,-4.104843832913771,300,0,50,2.742579218288111,-0.9850987606404868,103.4283661485875,4.601175850791007,0.36763016272879556,0.8209687665827542,0.5143157171070193,291.630957979781,96.60812958121844,-90.18562169054883,1.9722391478192378,-14.152057539731334
STABILIZE,4.296417713165283,24.196837447574435,291.13002880146917,94.20425398099526,-91.12983866477082,-4.5082355471497,300,0,50,0.1768775669544121,-0.7495674777971192,102.76661644066165,4.710212699049763,0.44349855992654175,0.90164710942994,0.5142612059657412,291.630957979781,96.60812958121844,-90.18562169054883,1.9722391478192378,-14.094761760218251
STABILIZE,4.339889049530029,23.004799175090362,289.48063928328577,97.30416614113126,-87.94439272277116,-5.041607178769282,300,0,50,-0.8389440782638797,-0.32522057790806785,102.08259348585239,4.865208307056563,0.5259680358357116,1.0083214357538564,0.5139027380887932,283.1869464668534,98.69623926095701,-83.46193478721575,1.4687592297784278,-14.2666490987575
STABILIZE,4.371870994567871,31.277201512292972,287.83124976510237,98.0002027010441,-85.70316375499345,-5.6397716425005395,300,0,50,-0.675856343078606,-0.023222349693352455,101.6391434539893,4.900010135052206,0.6084375117448815,1.127954328500108,0.5136301905182274,283.1869464668534,98.69623926095701,-83.46193478721575,1.4687592297784278,-15.01149423242757
STABILIZE,4.407379627227783,28.168974734381926,285.36136657117487,99.93923364726845,-80.18692765962037,-6.067478922723907,300,0,50,-0.048047245860932376,0.20220465544875982,101.117986359939,4.996961682363423,0.7319316714412566,1.2134957845447816,0.5129994519330273,277.1710239626048,102.42522241989153,-73.63691340442958,-2.4513511898591673,-14.152057539731334
STABILIZE,4.451415300369263,22.71205861170826,282.1372451061102,101.17631596868387,-76.1244179919147,-6.540076513409369,300,0,50,0.6902584906346655,0.3638449774993726,100.5321132235028,5.0588157984341935,0.8931377446944908,1.308015302681874,0.5126883236107386,275.5103506544576,102.40748622520326,-71.27440578409876,-3.549159368664263,-14.03746598070517
STABILIZE,4.489511489868164,26.2562458918902,278.8944138744578,102.12841559173516,-71.98547240554579,-7.140770859721984,300,0,50,0.7921291079189661,0.5800724915618446,99.93602212406829,5.106420779586759,1.0552793062771089,1.4281541719443969,0.5122298097797985,275.4168018215191,101.55253813011092,-71.045098028109,-4.73847326802732,-14.094761760218251
STABILIZE,4.528266906738281,25.80856038790027,277.34038494539095,101.83752082847495,-71.12153394677226,-7.650052758104059,300,0,50,0.3833117636858494,0.8974753309954511,99.41197585999906,5.091876041423748,1.1329807527304525,1.530010551620812,0.5122303625911113,275.4168018215191,101.55253813011092,-71.045098028109,-4.73847326802732,-13.865578642165923
STABILIZE,4.572400331497192,22.672403727648167,275.740582223071,101.10029595228885,-71.39645895627392,-8.172545376770465,300,0,50,-0.27499115330838253,1.1932971205293443,98.93546771255312,5.055014797614443,1.2129708888464508,1.6345090753540932,0.5123026650252589,275.18793285525356,100.195811596645,-72.09918081260366,-5.701251359482811,-14.152057539731334
STABILIZE,4.613844156265259,24.127242710292737,274.23970157716934,99.65782104926562,-71.27249674120289,-8.593777563727581,300,0,50,-0.3855728231053881,1.2347349177284597,98.36619193580006,4.982891052463281,1.288014921141533,1.7187555127455163,0.5122787645213313,269.66662073309664,97.22511342104124,-70.67321138289593,-7.5945503883600765,-8.021409131831525
STABILIZE,4.657341003417969,22.994079207052323,273.13972113622515,98.43395810962926,-70.47255496838966,-8.91359305836596,300,0,50,0.08873046056921335,0.8679783052911048,97.93352677263644,4.921697905481463,1.3430139431887427,1.7827186116731921,0.5121863481012612,270.0104484497368,97.88094931120182,-68.64527270966929,-6.93131628568122,-6.187944187412891
STABILIZE,4.694783449172974,26.752288194510886,271.57265475185875,97.4498756285264,-68.508764009784,-9.232343844426625,300,0,50,0.46533075631262527,0.7351288847785353,97.64578456328213,4.8724937814263205,1.4213672624070626,1.846468768885325,0.5119315517925922,267.58146989968685,97.24356415333644,-66.20780793678671,-5.655044804252569,-6.359831525952138
STABILIZE,4.73219108581543,26.739667340316338,269.9533761234734,97.04215220854087,-67.85945188843857,-9.52278757946074,300,0,50,0.734054250562169,0.8126677535574589,97.36520722236719,4.852107610427044,1.5023311938263306,1.9045575158921482,0.5118974889680796,267.32040867959245,96.00194316108465,-68.7252750188596,-3.604369689036133,-7.906817572805361
STABILIZE,4.766415596008301,29.224118950404815,268.3798712883412,96.4158168251685,-67.88611932483535,-9.79884997642432,300,0,50,0.8645065948411813,0.802325139606767,97.11365818542478,4.820790841258425,1.5810064355829412,1.959769995284864,0.5119135132553999,267.32040867959245,96.00194316108465,-68.7252750188596,-3.604369689036133,-8.021409131831525
STABILIZE,4.80428147315979,26.417318024072408,267.76936938487097,95.20810346968443,-69.28981946916026,-10.048541982519225,300,0,50,0.8130234570028284,0.7119651519820833,96.95047813596402,4.760405173484222,1.6115315307564515,2.009708396503845,0.5121006830618183,266.6141112157457,93.62042408688419,-70.41890836976147,-29.281390264322113,-6.932789321082962
STABILIZE,4.841024875640869,27.220539179419287,267.06076877990546,93.8435683930257,-70.33478602778004,-10.254807946234425,300,0,50,0.018734208377353276,0.6585355703128355,96.69649755167708,4.6921784196512855,1.6469615610047272,2.050961589246885,0.5121955253230813,266.4674454249093,91.90833793110853,-71.8601746947189,-8.209248921769017,-4.984732817638163
STABILIZE,4.880467891693115,25.36130896953719,266.47127372854845,91.72302269173512,-71.33953177278576,-10.380418305268003,300,0,50,-1.0090508466775463,0.5844342076771325,96.58968705343644,4.586151134586756,1.6764363135725775,2.076083661053601,0.5123029985871543,264.6339946429019,89.64030605721287,-71.7395122538768,-8.331648996773708,-2.0626480624709638
STABILIZE,4.916351079940796,27.874500734360772,265.5497552184761,89.79929527645841,-71.63974819663268,-10.469635083239183,300,0,50,-1.8645658710023763,0.6365125858294814,96.57333558056342,4.489964763822921,1.7225122390761953,2.0939270166478368,0.5123032224470845,262.7128161292308,87.84924184105404,-71.31955764130223,-9.566452835553633,-0.7448451336700702
STABILIZE,4.952366590499878,27.771697963291576,264.7175770971639,88.12096209720632,-71.19247257271657,-10.444324227375642,300,0,50,-2.3894114806479076,0.7452442882176185,96.63992992497104,4.406048104860316,1.764121145141806,2.0888648454751286,0.5122378759881566,263.1595180730315,86.87333839335221,-70.51834782297058,-10.243973925793156,2.521014298575622
STABILIZE,4.9944398403167725,23.772786270142205,264.4810440936753,87.12288977723234,-70.57861124434254,-10.322076075953452,300,0,50,-3.1104233249073787,1.0214556441490532,96.89514677349774,4.356144488861617,1.7759477953162361,2.0644152151906905,0.5121952275897005,265.43144619830264,86.64608909729091,-69.89792826875468,-9.800958215914207,5.729577951308232
STABILIZE,5.034211874008179,25.149024451666286,265.0659173638378,86.6030837526401,-70.00117360670247,-10.106870327370382,300,0,50,-3.494190310029239,1.2304349934808194,97.17675547297736,4.330154187632005,1.7467041318081102,2.0213740654740766,0.5121278268979093,269.3918117757219,86.28982376727731,-69.587244728382,-10.426387195152103,8.422479588423101
STABILIZE,5.0731236934661865,25.708268464603126,266.09945692765035,85.57227081001429,-68.91051298984975,-9.807177548311701,300,0,50,-3.738149726143285,1.2459336532029304,97.55601538702066,4.278613540500714,1.6950271536174826,1.9614355096623404,0.512001144545371,269.8016924619647,83.78089956547478,-67.2463659724124,-9.430777470009303,10.427831871380983
STABILIZE,5.113769054412842,24.60781713856588,267.41972502195097,83.41808551351131,-67.22501825814835,-9.446207609359504,300,0,50,-3.6141173327972616,1.1679843327435715,98.03984549725686,4.170904275675566,1.6290137489024517,1.889241521871901,0.5118249703080067,269.31415660073355,80.18353320778198,-64.84144407365055,-9.769826848467616,12.08940947726037
STABILIZE,5.15598464012146,23.6914126265964,269.45083015233223,80.55250052477561,-65.50370059577074,-9.007392067150551,300,0,50,-3.330852312443908,1.0600064057633687,98.62441406756157,4.0276250262387805,1.5274584923833885,1.8014784134301103,0.5116566182648817,273.3150437249379,77.69306880107023,-64.42329174124916,-5.748385718630999,13.693691303626675
STABILIZE,5.199047088623047,23.223503095135268,271.0201149484648,77.00309850148197,-64.5254710453204,-8.514294886665398,300,0,50,-3.0335094184375113,0.6820934263687384,99.31858668347748,3.850154925074099,1.448994252576759,1.7028589773330798,0.5115783109814738,273.2778701789658,73.13269349559387,-64.31167732106138,-6.687020098352008,13.980170201192088
STABILIZE,5.23915958404541,24.938929618332413,271.74684119603126,72.95669355563486,-64.44364500200993,-7.975073005126609,300,0,50,-2.72261820388216,0.13435547722455723,99.88773951682546,3.647834677781743,1.4126579401984374,1.5950146010253219,0.5115784820688974,273.025443013554,68.04431837024063,-64.59596594371918,-1.8194883064748382,13.922874421679005
STABILIZE,5.276783466339111,26.584927425999872,272.39159130634914,69.740443412025,-64.50120306949994,-7.468208515638793,300,0,50,-2.362368840733123,-0.33891596096758964,100.40983917698124,3.48702217060125,1.380420434682543,1.4936417031277587,0.511581855088805,273.025443013554,68.04431837024063,-64.59596594371918,-1.8194883064748382,13.922874421679005
STABILIZE,5.313096523284912,27.54210142691103,273.34359563587924,64.78276604560934,-65.82617310320342,-7.030882402652184,300,0,50,-1.9486610810542773,-0.6699577810392124,100.83045588644896,3.239138302280467,1.332820218206038,1.4061764805304369,0.5117457711179376,274.07417824838393,58.259661396346885,-68.28658742217179,-0.3332134954234931,12.605071492878112
STABILIZE,5.3541481494903564,24.365797407908726,272.89682477485877,59.561687959526516,-67.95481492077742,-6.606167022499469,300,0,50,-1.1346617607737832,-1.0343015224305547,101.40297600305777,2.978084397976326,1.3551587612570615,1.321233404499894,0.5119913704436888,271.0811894198354,52.38108411199216,-70.98189139644118,5.073138776086836,11.745634800181877
STABILIZE,5.385504245758057,31.90239821103953,273.7958741209196,53.18805916617978,-71.31831772162286,-6.156549922722266,300,0,50,-0.5701427305299683,-1.2522561672185408,101.75359010372203,2.659402958308989,1.310206293954019,1.2313099845444533,0.5123531286169607,277.77311690927,48.92343199020041,-74.68647434625554,4.242412134823468,11.401860123103383
STABILIZE,5.4207658767700195,28.365574236132716,274.7454089000628,50.07598269746429,-73.4516133629841,-5.816563320060479,300,0,50,0.1080312878330934,-1.5188296993442643,102.26189278175438,2.5037991348732147,1.262729554996861,1.1633126640120959,0.5125382756507277,277.77311690927,48.92343199020041,-74.68647434625554,4.242412134823468,11.745634800181877
STABILIZE,5.4555113315582275,28.788249425169017,274.3222189336256,46.87627411410008,-74.70771779566617,-5.4186434164923085,300,0,50,0.4283230838422037,-1.7263496293494693,102.59834107008004,2.343813705705004,1.2838890533187197,1.0837286832984618,0.512636789334663,270.90949318136825,42.781958361899505,-74.75020469448744,2.5261647647076586,10.943493886998723
STABILIZE,5.490300893783569,28.763966039857905,273.9591995675927,43.40196308358054,-75.24239711663306,-5.04997309859114,300,0,50,0.7443820301957572,-2.099614238127083,102.99522970237115,2.170098154179027,1.3020400216203656,1.0099946197182281,0.5126703604592834,272.2590814182194,38.500498898641794,-76.29051230915613,3.2688293439026097,10.771606548459477
STABILIZE,5.530585289001465,24.824683203418623,274.6428181233063,38.534107451229055,-76.34564770651367,-4.678423348083688,300,0,50,1.2500955862849954,-2.6875628982973043,103.4571349053716,1.926705372561453,1.2678590938346845,0.9356846696167376,0.51281476942001,274.4992821984036,34.319865093145935,-77.99622611589739,-0.03701837158165233,11.115381225537972
STABILIZE,5.562208414077759,31.624812443921677,272.8609548892772,34.27328606753392,-77.21739808083674,-4.235033083991898,300,0,50,1.3477701729022338,-2.8201069880096328,103.55891838438313,1.7136643033766958,1.3569522555361404,0.8470066167983797,0.5128704181356921,268.8638007391246,29.999494210814117,-77.36545581745665,3.3419672752362715,11.3445643435903
STABILIZE,5.603167772293091,24.42397032533818,270.6124644672692,30.170409582799206,-77.92069125113889,-3.9044048254184265,300,0,50,2.1726853094151717,-3.9099486205629694,104.19446065646365,1.5085204791399605,1.4693767766365398,0.7808809650836853,0.5129644767360672,266.5306647992296,26.191869444437657,-78.4003918200626,11.173457501078005,10.427831871380983
STABILIZE,5.63789963722229,28.792597118203098,269.73669879084144,27.461077699896446,-78.0554131525273,-3.5461929115540656,300,0,50,2.291735933535317,-4.510853295815059,104.55144049343436,1.3730538849948224,1.5131650604579279,0.7092385823108132,0.5129450112709352,266.5306647992296,26.191869444437657,-78.4003918200626,11.173457501078005,8.021409131831525
STABILIZE,5.673784255981445,27.873018826547227,268.03324981788535,23.431961598193695,-80.20110039448903,-3.306215662933467,300,0,50,2.2118950775626876,-4.687052966494347,104.77665232093719,1.1715980799096848,1.5983375091057326,0.6612431325866934,0.5132199847053237,263.7418365534388,17.91214590570587,-83.80251754334189,8.034579340358363,5.614986392282068
STABILIZE,5.7061543464660645,30.90705711569779,265.88176068889237,20.672053751949765,-82.00180896891547,-3.110416868633091,300,0,50,2.0896244461357045,-4.648296338709579,104.90729334919203,1.0336026875974882,1.7059119655553816,0.6220833737266183,0.5133836620376137,263.7418365534388,17.91214590570587,-83.80251754334189,8.034579340358363,4.239887683968092
STABILIZE,5.737926483154297,31.480969429495694,264.8573678517552,17.912145905705838,-83.8025175433419,-3.0071651085110234,300,0,50,1.9012427061848753,-4.380393694460053,105.01144007365639,0.8956072952852919,1.7571316074122394,0.6014330217022047,0.5135646812377227,263.7418365534388,17.91214590570587,-83.80251754334189,8.034579340358363,2.177239621497128
STABILIZE,5.772705078125,28.788842215083875,264.2996022025971,17.912145905705838,-83.80251754334192,-2.9622106548847005,300,0,50,1.64706255230814,-4.015495533807177,105.02256645181433,0.8956072952852919,1.785019889870145,0.5924421309769401,0.513518742635142,263.7418365534388,17.91214590570587,-83.80251754334189,8.034579340358363,0.0
STABILIZE,5.804705858230591,31.23992819955162,263.8052375507714,15.812700831798002,-84.02674008639944,-2.9802044642729206,300,0,50,1.2423019135551876,-3.5589844727037416,104.95244772979498,0.7906350415899002,1.809738122461431,0.5960408928545842,0.5135391012960613,264.0588415401011,11.613810683982363,-84.47518517251444,0.0006922032070804107,-2.4064227395494577
STABILIZE,5.843896389007568,25.53578647444171,263.86863854810383,13.713255757890167,-84.25096262945696,-3.09774590361646,300,0,50,0.4150351909357819,-2.914591556119358,104.72165563774026,0.6856627878945084,1.8065680725948086,0.619549180723292,0.5135889899338677,264.0588415401011,11.613810683982363,-84.47518517251444,0.0006922032070804107,-5.844169510334397
STABILIZE,5.876518726348877,30.647571169696615,263.06091398778597,11.343384002231259,-82.93485415856334,-3.25887466810181,300,0,50,-0.2284630509086094,-2.50509524839406,104.49716098010028,0.567169200111563,1.8469543006107019,0.651774933620362,0.5133831600254586,259.7032137518492,10.802530638729145,-79.85419213066102,0.11766610081150475,-6.990085100596044
STABILIZE,5.905480146408081,34.53068348344393,262.3826818983523,11.165286759157405,-80.18778563467949,-3.4538917870170978,300,0,50,-0.6420948247329388,-2.24333080977426,104.31854470311526,0.5582643379578703,1.880865905082385,0.6907783574034196,0.5130376267501169,260.3506761062706,11.079518954760804,-76.23397960086288,2.0694841786956886,-7.7349302342661135
STABILIZE,5.95202112197876,21.490736186260044,261.70444980891864,10.987189516083552,-77.44071711079563,-3.6640880509282163,300,0,50,-1.1937971117209305,-1.6573474298160038,103.91684078745931,0.5493594758041777,1.9147775095540682,0.7328176101856433,0.5128604322330755,260.3506761062706,11.079518954760804,-76.23397960086288,2.0694841786956886,-8.479775367936185
STABILIZE,5.981910705566406,33.46447947916002,261.5524633466707,12.08793106999214,-74.01231358315972,-3.9584008748775936,300,0,50,-1.3038602741103968,-1.3441312829002037,103.70473609297373,0.604396553499607,1.922376832666464,0.7916801749755188,0.512400714970953,263.29890922886136,14.104755300454908,-69.56898154775331,2.1164151807110585,-8.36518380891002
STABILIZE,6.0184478759765625,27.376176489785262,261.6476485388301,13.767703516484394,-70.80906199366181,-4.168887009852092,300,0,50,-1.249700609251898,-0.710572166917371,103.30595549828254,0.6883851758242198,1.917617573058496,0.8337774019704185,0.5121253813550366,264.53476750089806,16.118836294237568,-66.62422483236911,0.9710830274468236,-7.677634454753031
STABILIZE,6.060123682022095,24.000640886254136,261.6076581241983,15.849465763720417,-66.05724347581732,-4.390035588493766,300,0,50,-1.0090737918442894,-0.282453828667709,103.05189295172558,0.7924732881860209,1.919617093790086,0.8780071176987532,0.5116368565200917,259.5032616786902,17.32480569646888,-61.97852404732943,2.348926361080217,-6.359831525952138
STABILIZE,6.093505144119263,29.9597422820326,261.772620256016,17.334347168882573,-62.361930677183864,-4.636780408181641,300,0,50,-0.809357406326677,-0.0549861711089232,102.8808103733951,0.8667173584441287,1.9113689871991995,0.9273560816363283,0.5112386926635335,261.17548676535927,18.55939951594138,-58.483043151852954,-0.8520529796796694,-6.0733526283867265
STABILIZE,6.124722957611084,32.0449850253652,261.9375823878337,18.147868242783844,-59.648203450345136,-4.815865083544084,300,0,50,-0.6969646158217073,0.10995980241741708,102.73746519328404,0.9073934121391922,1.9031208806083157,0.9631730167088168,0.5109798060840036,261.17548676535927,18.55939951594138,-58.483043151852954,-0.8520529796796694,-5.328507494716656
STABILIZE,6.162963390350342,26.17007443642331,261.7689669619842,18.90377389373292,-57.66380358969951,-4.964696124897641,300,0,50,-0.7228943617886029,0.2017134687979007,102.58543884273789,0.9451886946866461,1.9115516519007913,0.9929392249795281,0.5108379889276666,262.45583209961376,19.592522649316106,-56.02532446539253,-1.0336591719248531,-4.870141258611998
STABILIZE,6.192453861236572,33.914742221359724,260.45865923913,19.395289481494775,-55.63685498323603,-5.1103029350560405,300,0,50,-0.6934896503597575,0.21625104619859684,102.42480645383753,0.9697644740747388,1.9770670380435007,1.022060587011208,0.5105888935242495,257.9832288866268,20.033946279226946,-52.402197332462514,-1.833389842539816,-4.239887683968092
STABILIZE,6.233525276184082,24.35278201949707,260.99684812308266,20.249328623621807,-53.48402453444106,-5.248162904292511,300,0,50,-0.940375855894007,0.08605744869525167,102.181487794845,1.0124664311810905,1.9501575938458673,1.0496325808585023,0.5104233433610645,262.19420609845355,21.12151694232248,-52.02455180546803,-4.838244454734692,-4.8128454790989155
STABILIZE,6.266833305358887,30.027519651780473,260.1823442602182,20.95518567211285,-51.56544566553155,-5.424858855858215,300,0,50,-1.1051113742165461,0.0901222650250555,102.03644189763061,1.0477592836056426,1.99088278698909,1.0849717711716431,0.5102006150829665,257.1029674510371,21.71009379478924,-50.26958785866402,-3.2772349884581757,-4.010704565915763
STABILIZE,6.306931018829346,24.94886863832116,259.3678403973538,21.513901510633616,-50.85457584093205,-5.550763228660591,300,0,50,-1.1043518358364997,0.07208816437784177,101.93808717358242,1.0756950755316808,2.03160798013231,1.1101526457321182,0.5101867934056398,257.1029674510371,21.71009379478924,-50.26958785866402,-3.2772349884581757,-3.724225668350351
