Mode,Time,Freq,time2delay,actualDelay,North-Desired,East-Desired,Down-Desired,Roll-UAV,Pitch-UAV,Yaw-UAV,Roll-Control,Pitch-Control,Yaw-Control,Thrust-Control,North-Pos,East-Pos,Down-Pos,Yaw-Ang,North-Vel,East-Vel,Down-Vel,Yaw-Vel,North-Acc,East-Acc,Down-Acc,North-Avg,East-Avg,Down-Avg,Yaw-Avg,North-Dif,East-Dif,Down-Dif,Yaw-Dif,North-One,East-One,Down-One,Yaw-One,North-Two,East-Two,Down-Two,Yaw-Two,Landing-State,Q-Size,Kalman-Time,Kalman-Dt
STABILIZE,0.034422874450683594,29.058500762089512,0.032688172658284505,0.0328366756439209,0.0,0.0,0.0,0.02844933871868983,-1.144575140023822,-147.16885661221414,-0.05501089923418457,-0.07999120517663515,0.0006621427116628225,0.4,-0.03566482985423599,0.024530151528951123,0.7170918787976974,0.0032998314337926004,0.008442666148766875,0.1250250032171607,1.2560924515128136,0.2798490186338483,-1.5610378235578537,-0.2735463436692953,21.314920485019684,0.0,0.0,0.0,0.0,0.0,0.0,0.0,0.0,0.0,0.0,0.0,0.0,0.0,0.0,0.0,0.0,False,0,3.5168838500976562,0.029931884765625
STABILIZE,0.06803727149963379,29.75000177323829,0.03225305875142415,0.032634735107421875,0.0,0.0,0.0,0.028171915644510954,-1.145005335219827,-147.1643760081186,-0.02713565035395394,-0.034139200279174955,0.0005227009277432485,0.4,-0.028764857322497533,0.022937488088976665,0.7135926425922245,0.002593890875935479,0.09245103574357927,0.08647605427540839,1.3191970996558666,-0.14873323887084564,5.165271461009979,1.342800073325634,10.67465990781784,0.0,0.0,0.0,0.0,0.0,0.0,0.0,0.0,0.0,0.0,0.0,0.0,0.0,0.0,0.0,0.0,False,0,3.5744924545288086,0.034921142578125
STABILIZE,0.1014409065246582,29.937502676621317,0.032377036412556966,0.03249812126159668,0.0,0.0,0.0,0.027924214565392208,-1.1432842342706897,-147.15690378116662,-0.018755011598658233,-0.023925742890587513,0.00041908258106505955,0.4,-0.02877600473401064,0.022621668054130822,0.7136220300444092,0.0020688794052948923,-0.0665819039568305,0.01998375082621351,1.3096336275339127,-0.03829639042858548,0.4201676230877638,-0.5470546893775463,13.470987975597382,0.0,0.0,0.0,0.0,0.0,0.0,0.0,0.0,0.0,0.0,0.0,0.0,0.0,0.0,0.0,0.0,False,0,3.6028850078582764,0.029931640625
STABILIZE,0.13489174842834473,29.892483233912753,0.032416613896687825,0.03255319595336914,0.0,0.0,0.0,0.027957138211625786,-1.143771418857582,-147.15292861106968,-0.014987693272893,-0.018100595171269947,0.00029629697988492384,0.4,-0.027666046084919623,0.0229905477323648,0.710420362504412,0.001450099002068262,-0.0029990267648827285,0.0685988285113126,1.3236397877335548,-0.039499050671249855,-5.316983908414841,-0.4097769036889076,14.846305549144745,0.0,0.0,0.0,0.0,0.0,0.0,0.0,0.0,0.0,0.0,0.0,0.0,0.0,0.0,0.0,0.0,False,0,3.631535530090332,0.03492138671875
STABILIZE,0.16848063468933105,29.772386232156673,0.032418282826741536,0.03277873992919922,0.0,0.0,0.0,0.028322179806251232,-1.143752849280776,-147.14500559163247,-0.013242292057075047,-0.015728954507447532,-0.000188921945081066,0.4,-0.02874435749126061,0.024285388960729615,0.7075518224346792,-0.0009727216798252442,-0.12779246317222714,0.11618946446105838,1.122820284217596,-0.14920649627513347,-0.8820092305541039,-0.5935454275459051,7.631316035985947,0.0,0.0,0.0,0.0,0.0,0.0,0.0,0.0,0.0,0.0,0.0,0.0,0.0,0.0,0.0,0.0,False,0,3.660412549972534,0.0349208984375
STABILIZE,0.20192170143127441,29.90164682398232,0.03251770337422689,0.03259706497192383,0.0,0.0,0.0,0.027452504625838203,-1.143697140550358,-147.14107140267052,-0.0025875559977996477,0.0009456465558473602,-0.00027132863255368363,0.4,-0.02589207860732639,0.023832922563089956,0.7045848701443954,-0.0013801441771312205,0.1084701856598258,0.011719417670974508,1.1241420172154903,-0.026504639120673735,5.269103497266769,-0.36491856444627047,19.90891546010971,0.0,0.0,0.0,0.0,0.0,0.0,0.0,0.0,0.0,0.0,0.0,0.0,0.0,0.0,0.0,0.0,False,0,3.6889448165893555,0.029890625
STABILIZE,0.2353823184967041,29.88779705704208,0.03248194058736165,0.03259110450744629,0.0,0.0,0.0,0.027459281454155327,-1.143997989038956,-147.137273817492,-0.002931269112197444,-0.0003693384327476984,-0.00035222024134651394,0.4,-0.023000470223378904,0.02323554734004388,0.6982584843288901,-0.0017786550569770681,0.1084701856598258,0.011719417670974508,1.1241420172154903,-0.026504639120673735,5.269103497266769,-0.36491856444627047,19.90891546010971,0.0,0.0,0.0,0.0,0.0,0.0,0.0,0.0,0.0,0.0,0.0,0.0,0.0,0.0,0.0,0.0,False,0,3.717524528503418,0.029890625
STABILIZE,0.2687509059906006,29.966377789050277,0.03244450887044271,0.03255772590637207,0.0,0.0,0.0,0.027504958344229787,-1.143281566228045,-147.12888634519123,-0.0017926465688891536,0.0012103516960186155,-0.0003059774448807019,0.4,-0.02007273468307143,0.020872273162684796,0.6978820785900484,-0.0015422865925225678,-0.049122050404548645,-0.016213086200878024,1.5106874518096447,0.09774893829563505,-2.1728631108999252,-0.3853245871141553,18.830564618110657,0.0,0.0,0.0,0.0,0.0,0.0,0.0,0.0,0.0,0.0,0.0,0.0,0.0,0.0,0.0,0.0,False,0,3.7754881381988525,0.0349208984375
STABILIZE,0.30224013328552246,29.860348559061396,0.03252414067586263,0.03268146514892578,0.0,0.0,0.0,0.02736904825191711,-1.1429303450943185,-147.1257717789297,-0.0025065086471740333,0.0002609813744424003,-0.0007981592460265547,0.4,-0.02096915206311451,0.02248028379498536,0.694651759638916,-0.0039898336682183,-0.11220087762922049,0.13757520355284214,1.0792913846671581,-0.1497934923373579,-1.149179134517908,-0.5645652301609516,13.969182968139648,0.0,0.0,0.0,0.0,0.0,0.0,0.0,0.0,0.0,0.0,0.0,0.0,0.0,0.0,0.0,0.0,False,0,3.8042056560516357,0.02993212890625
STABILIZE,0.3357839584350586,29.81386521470256,0.03251627286275228,0.03270673751831055,0.0,0.0,0.0,0.026759880755316597,-1.143098004894101,-147.11605924992995,-0.0013908112029423782,0.0005017487562318189,-0.0006585836089745539,0.4,-0.021349916238871686,0.021402046699052137,0.6937874325212794,-0.003280963409462962,-0.07984176045283675,-0.01897592155728489,1.4221764169633389,0.03907874724334945,0.827436987310648,-0.5125035066157579,17.94866770505905,0.0,0.0,0.0,0.0,0.0,0.0,0.0,0.0,0.0,0.0,0.0,0.0,0.0,0.0,0.0,0.0,False,0,3.8328466415405273,0.0349208984375
STABILIZE,0.36934804916381836,29.793957819814317,0.0324738343556722,0.0326077938079834,0.0,0.0,0.0,0.02695368737301571,-1.1437007690883547,-147.1135184195587,-0.000830913058626026,-0.0011173666645459298,-0.001779531906918982,0.4,-0.022132171099299054,0.02000392085442602,0.6940623788772312,-0.008856053206794903,-0.10023240465670824,-0.04450848500709981,1.2779432348906994,-0.33871097525120997,-3.210463374853134,3.439464420080185,20.678357779979706,0.0,0.0,0.0,0.0,0.0,0.0,0.0,0.0,0.0,0.0,0.0,0.0,0.0,0.0,0.0,0.0,False,0,3.861813545227051,0.034922119140625
STABILIZE,0.4027438163757324,29.9432732464751,0.03235629399617513,0.032488107681274414,0.0,0.0,0.0,0.027701433004573433,-1.1441160232455503,-147.107985966331,-0.0008568551860467347,-0.0024669760840769703,-0.0014449574912676513,0.4,-0.022384400486063792,0.019582595715022584,0.6915593522573171,-0.0071592388459938774,-0.06605304661206901,0.015462961164303124,1.11575648188591,0.10269586288457545,-0.15328687150031328,-6.434912234544754,14.08974677324295,0.0,0.0,0.0,0.0,0.0,0.0,0.0,0.0,0.0,0.0,0.0,0.0,0.0,0.0,0.0,0.0,False,0,3.891550302505493,0.029931884765625
STABILIZE,0.43628549575805664,29.813653293906913,0.03241852124532064,0.032572269439697266,0.0,0.0,0.0,0.02782507010072124,-1.1436481552874045,-147.09619705982354,-0.0015883311993964574,-0.003806632436206908,-0.0010859195486289798,0.4,-0.02258928519064616,0.019097378215592507,0.6857909161384906,-0.005346147973042477,-0.06605304661206901,0.015462961164303124,1.11575648188591,0.10269586288457545,-0.15328687150031328,-6.434912234544754,14.08974677324295,0.0,0.0,0.0,0.0,0.0,0.0,0.0,0.0,0.0,0.0,0.0,0.0,0.0,0.0,0.0,0.0,False,0,3.9194791316986084,0.029931884765625
STABILIZE,0.46980786323547363,29.829980015219725,0.03235510190327962,0.032581329345703125,0.0,0.0,0.0,0.027659544735054213,-1.1431245785988406,-147.09535011636646,-0.0005098365062761173,-0.0022456757880205173,-0.0013471382671531693,0.4,-0.02037713801898281,0.018337103950913394,0.6888907404803374,-0.006630009564948593,0.08255139691755176,-0.0024346503778360784,1.6390103846788406,-0.08569967084672597,3.5093292593955994,3.5290341824293137,25.23016333580017,0.0,0.0,0.0,0.0,0.0,0.0,0.0,0.0,0.0,0.0,0.0,0.0,0.0,0.0,0.0,0.0,False,1,3.948232412338257,0.0349208984375
STABILIZE,0.5036454200744629,29.55337753570598,0.0323820432027181,0.03296327590942383,0.0,0.0,0.0,0.024960712878400036,-1.1427046286865905,-147.07845222835985,-0.0054469661446285905,-0.003273544481664806,-0.002675462272994316,0.4,-0.02260017523036156,0.026745241497611292,0.6879668424886437,-0.013226804572355042,-0.1148044248111546,0.29275170527398586,1.2123532593250275,-0.2031762231777677,-2.0229507237672806,5.224379152059555,12.253250181674957,0.0,0.0,0.0,0.0,0.0,0.0,0.0,0.0,0.0,0.0,0.0,0.0,0.0,0.0,0.0,0.0,False,0,4.005458116531372,0.034921142578125
STABILIZE,0.5383520126342773,28.813959399580945,0.03244736989339193,0.033287763595581055,0.0,0.0,0.0,0.026109411958578663,-1.1432270314363908,-147.0784658887382,-0.00541654267552621,-0.00254973340570571,-0.001996641845398275,0.4,-0.02184463388378071,0.025577649153706618,0.6880007046496776,-0.009799198799335034,0.00047948051360435784,-0.03582259523682296,1.2522141449153423,0.20339492263334033,-7.408388704061508,-4.422812536358833,19.510003924369812,0.0,0.0,0.0,0.0,0.0,0.0,0.0,0.0,0.0,0.0,0.0,0.0,0.0,0.0,0.0,0.0,False,0,4.034118175506592,0.0349208984375
STABILIZE,0.571305513381958,30.3455700415286,0.03190425237019857,0.03202509880065918,0.0,0.0,0.0,0.027028019041092487,-1.14275574838366,-147.08066520965093,-0.004355701892629924,-0.003678733041556579,-0.0026554480113474355,0.4,-0.024130329952420596,0.023274681360107477,0.6900288461101934,-0.013049601569938103,-0.18181768245995045,-0.1007076702080667,1.3765825890004635,-0.20198304782670465,-1.921185664832592,5.269376188516617,18.10939460992813,0.0,0.0,0.0,0.0,0.0,0.0,0.0,0.0,0.0,0.0,0.0,0.0,0.0,0.0,0.0,0.0,False,0,4.062984228134155,0.02993212890625
STABILIZE,0.6047520637512207,29.897383990305794,0.03239873250325521,0.03252387046813965,0.0,0.0,0.0,0.027566109881642556,-1.1431133728197336,-147.06025660441094,-0.005494593344449978,-0.0021391754288493034,-0.0018464442612066698,0.4,-0.02142529082681551,0.025007327012318024,0.6880641141547729,-0.008974566418399419,0.11309266556054354,0.1516351941972971,1.3340414501726627,0.23093173740674589,13.348311185836792,-10.435955971479416,15.227766335010529,0.0,0.0,0.0,0.0,0.0,0.0,0.0,0.0,0.0,0.0,0.0,0.0,0.0,0.0,0.0,0.0,False,0,4.091577529907227,0.0349208984375
STABILIZE,0.6381449699401855,29.94541105915111,0.032395156224568684,0.03252267837524414,0.0,0.0,0.0,0.027878857840435093,-1.1437734465699918,-147.06251056683703,-0.0028708980051089556,-8.561670224604213e-05,-0.001061800294274452,0.4,-0.015892826517283933,0.01954258808357283,0.6855640135881048,-0.005034509446775484,0.2879622858017683,-0.28991163708269596,1.0921764187514782,0.22607312502933963,1.0769532062113285,-0.8818261325359344,8.215545117855072,0.0,0.0,0.0,0.0,0.0,0.0,0.0,0.0,0.0,0.0,0.0,0.0,0.0,0.0,0.0,0.0,False,0,4.120428800582886,0.034921142578125
STABILIZE,0.6721882820129395,29.377431307039846,0.0324590524037679,0.03305244445800781,0.0,0.0,0.0,0.026289077950261735,-1.1426563904755773,-147.04906875455046,0.0035649049791801313,0.003817491341590848,-0.00026023497173003674,0.4,-0.010287554416608339,0.013979177387567486,0.6829228251373743,-0.0010232126041192892,0.2879622858017683,-0.28991163708269596,1.0921764187514782,0.22607312502933963,1.0769532062113285,-0.8818261325359344,8.215545117855072,0.0,0.0,0.0,0.0,0.0,0.0,0.0,0.0,0.0,0.0,0.0,0.0,0.0,0.0,0.0,0.0,False,1,4.151878833770752,0.034921142578125
STABILIZE,0.7056939601898193,29.845262745935177,0.0323062260945638,0.03245949745178223,0.0,0.0,0.0,0.02497223882262443,-1.141997383942377,-147.0400392444677,0.006923883975419425,0.008913397149263296,1.2598314263393124e-05,0.4,-0.0002450929561756981,0.006848253301223103,0.7039340622369633,0.0003398163257492693,0.08210818050429225,-0.29273591935634613,1.357499323785305,-0.2633182532951249,-6.437979638576508,5.146995559334755,21.368519961833954,0.0,0.0,0.0,0.0,0.0,0.0,0.0,0.0,0.0,0.0,0.0,0.0,0.0,0.0,0.0,0.0,False,0,4.2064409255981445,0.034834716796875
STABILIZE,0.7457835674285889,24.943378946554628,0.03228047688802083,0.03907179832458496,0.0,0.0,0.0,0.025191285123740855,-1.1424201086189774,-147.04632301850413,0.0027872980803689386,0.005809161986909761,-0.0011493858850515656,0.4,-0.008900332565363154,0.013608093729775131,0.7029773827880271,-0.005448251672761593,-0.5105176009237766,0.4121658857911825,1.3281090185046196,-0.32392921858768586,-8.043640106916428,11.093733459711075,22.519709169864655,0.0,0.0,0.0,0.0,0.0,0.0,0.0,0.0,0.0,0.0,0.0,0.0,0.0,0.0,0.0,0.0,False,0,4.234993934631348,0.029931884765625
STABILIZE,0.7808773517608643,28.497010544624416,0.03231790860493978,0.03415560722351074,0.0,0.0,0.0,0.023746059784048472,-1.1414516091390106,-147.0326353194074,0.005722035702803673,0.004215511325441828,0.00034238073015544705,0.4,-0.009788703477703505,0.009341367726427786,0.7039136688825881,0.0020035392868155257,-0.07703038863837719,-0.2014925703406334,1.6000818461179733,0.4084672436773006,16.575823724269867,-16.34390354156494,21.79112434387207,0.0,0.0,0.0,0.0,0.0,0.0,0.0,0.0,0.0,0.0,0.0,0.0,0.0,0.0,0.0,0.0,False,0,4.263636827468872,0.034921142578125
STABILIZE,0.815056324005127,29.254898131421278,0.03237727483113607,0.03330373764038086,0.0,0.0,0.0,0.02135351922298705,-1.1390436472914638,-147.0370339612329,0.007897116087422815,0.005745877640051375,-0.00041522951346050505,0.4,-0.0025131066439216185,0.0009019987872729892,0.7044872795669862,-0.001778421047449753,0.4296338651329279,-0.1983620459213853,1.11329797655344,-0.6323606845877598,2.0881330594420433,2.9240701347589493,14.62482064962387,0.0,0.0,0.0,0.0,0.0,0.0,0.0,0.0,0.0,0.0,0.0,0.0,0.0,0.0,0.0,0.0,False,0,4.3211894035339355,0.039909912109375
STABILIZE,0.8485579490661621,29.851210259987045,0.032462151845296223,0.032592058181762695,0.0,0.0,0.0,0.022787218618455042,-1.1395432115962267,-147.0338920742147,0.0029095207744414603,0.001400736643375755,0.0012546713000218185,0.4,-0.006285290656624717,0.0058978793413907715,0.7129749073378263,0.006549170341029229,-0.23983395658433437,0.3154945792630315,1.6236653551459312,0.4573973848699497,-1.052200235426426,5.2222393453121185,26.437589526176453,0.0,0.0,0.0,0.0,0.0,0.0,0.0,0.0,0.0,0.0,0.0,0.0,0.0,0.0,0.0,0.0,False,0,4.349799633026123,0.029931884765625
STABILIZE,0.8819832801818848,29.915082699151966,0.032407315572102864,0.03254556655883789,0.0,0.0,0.0,0.021813916661728223,-1.1379592480390184,-147.0234828659196,0.001672822209066236,-0.0013475894337444917,0.0015901954122041879,0.4,-0.003587364445821142,0.002655024850917119,0.7068668784170087,0.008199350287245036,0.1292484113946557,-0.1571766217239201,1.2063157744705677,0.09530481780014813,14.583395421504974,-8.683571219444275,15.07636308670044,0.0,0.0,0.0,0.0,0.0,0.0,0.0,0.0,0.0,0.0,0.0,0.0,0.0,0.0,0.0,0.0,False,0,4.380953073501587,0.02993212890625
STABILIZE,0.915468692779541,29.86438819466695,0.032450230916341145,0.0325932502746582,0.0,0.0,0.0,0.018372728619658284,-1.1376730204241126,-147.02449373391676,0.0015534396663140822,0.0009540207669826473,0.0023223456783046086,0.4,-0.00492224456498999,0.007255733208020198,0.6975590422865035,0.011820558318577689,-0.09472192614339292,0.2818233100697398,0.9997718967497349,0.2100765018280524,-3.212478756904602,9.011933952569962,16.35848879814148,0.0,0.0,0.0,0.0,0.0,0.0,0.0,0.0,0.0,0.0,0.0,0.0,0.0,0.0,0.0,0.0,False,0,4.409626007080078,0.0349208984375
STABILIZE,0.9491846561431885,29.65996054111008,0.0324280579884847,0.032712697982788086,0.0,0.0,0.0,0.015300530875327704,-1.1374378057845702,-147.0239609791615,0.00044663615221520825,-0.00537841342740726,0.0028735490989747286,0.4,-0.01738658922635712,0.006151821033142645,0.695695351326957,0.014527710917279196,-0.727592222392559,-0.03918830770999193,1.2120393104851246,0.15100867904023835,1.1762709356844425,-2.9140086844563484,6.150719523429871,0.0,0.0,0.0,0.0,0.0,0.0,0.0,0.0,0.0,0.0,0.0,0.0,0.0,0.0,0.0,0.0,False,0,4.4383790493011475,0.0349208984375
STABILIZE,0.9825057983398438,30.009902406914513,0.0323055108388265,0.0324711799621582,0.0,0.0,0.0,0.015971543600428566,-1.1330150448535754,-147.02531335661715,-0.006197552038631795,-0.009017045761358203,0.0029043912971544496,0.4,-0.018612786470078656,0.012081966253985815,0.6944498091477501,0.01463297720512192,-0.08579197456128895,0.3588500199839473,1.247906219214201,0.0056919488170007046,11.780335009098053,9.077855944633484,17.766596376895905,0.0,0.0,0.0,0.0,0.0,0.0,0.0,0.0,0.0,0.0,0.0,0.0,0.0,0.0,0.0,0.0,False,0,4.467015743255615,0.02993310546875
STABILIZE,1.0160303115844727,29.83019216818628,0.03248480161031087,0.03262519836425781,0.0,0.0,0.0,0.014612922924977827,-1.1320105801587605,-147.00769146855853,-0.0014811198945863932,-0.012701889055581493,0.0011287494065742405,0.4,-0.028385541954738393,0.007200064181850785,0.6949411621034918,0.005735572344326792,-0.589908892288804,-0.2569315256550908,1.5335522592067719,-0.4980319945113538,-32.960253953933716,-18.567897379398346,14.199875295162201,0.0,0.0,0.0,0.0,0.0,0.0,0.0,0.0,0.0,0.0,0.0,0.0,0.0,0.0,0.0,0.0,False,0,4.4995081424713135,0.034919921875
STABILIZE,1.0497777462005615,29.630835311404997,0.032392056783040364,0.032820940017700195,0.0,0.0,0.0,0.013058254476006566,-1.1291060422142125,-146.99411305248853,0.00211994253861508,-0.02011723365249769,0.0037682428843709135,0.4,-0.040127805238121865,-0.0020559254315993076,0.6944496044555978,0.018869384694272767,-0.6906239315867424,-0.5109759047627449,1.2694166041910648,0.7621859854844533,-5.984402075409889,-10.770939290523529,14.558225870132446,0.0,0.0,0.0,0.0,0.0,0.0,0.0,0.0,0.0,0.0,0.0,0.0,0.0,0.0,0.0,0.0,False,1,4.528294801712036,0.02993310546875
STABILIZE,1.0832266807556152,29.89631847179158,0.03242185910542806,0.03255057334899902,0.0,0.0,0.0,0.015430411191263729,-1.1289242951492668,-146.99415403362354,0.0007849715633310257,-0.019848100281647147,0.002951054861930783,0.4,-0.04065451440404993,0.0039960379866442585,0.6640700205172054,0.014734141479043762,0.5725447088479996,0.8988503366708755,-0.0918413104955107,-0.9726894808573373,34.26620066165924,24.338559806346893,1.1301669292151928,0.0,0.0,0.0,0.0,0.0,0.0,0.0,0.0,0.0,0.0,0.0,0.0,0.0,0.0,0.0,0.0,False,0,4.585580348968506,0.0349208984375
STABILIZE,1.1167492866516113,29.8321016806902,0.032421382268269856,0.0325465202331543,0.0,0.0,0.0,0.00515844700979924,-1.1311412251434647,-146.9694970507198,0.006083721904100705,-0.006949120536504613,0.006051101060586698,0.4,-0.02633794447430564,-0.006695282027627581,0.6612386001768604,0.03013360105902228,0.8177939802408218,-0.6142644677311182,1.1073610745370388,0.917708699194556,-5.167260020971298,-53.94921898841858,8.029164373874664,0.0,0.0,0.0,0.0,0.0,0.0,0.0,0.0,0.0,0.0,0.0,0.0,0.0,0.0,0.0,0.0,False,0,4.614378213882446,0.0349208984375
STABILIZE,1.1513350009918213,28.913074049053535,0.03233912785847982,0.033724308013916016,0.0,0.0,0.0,0.00666589110396221,-1.1454584755825752,-147.0131419595162,0.011805222187727518,-0.01793325661624738,0.0015072879120519762,0.4,-0.04828255383989681,-0.012881853256316543,0.6666661190508303,0.0073889013512255415,-1.3256478123366833,-0.3447577590122819,1.5915919095277786,-1.3286771261294035,-59.002166986465454,30.038058757781982,9.846699237823486,0.0,0.0,0.0,0.0,0.0,0.0,0.0,0.0,0.0,0.0,0.0,0.0,0.0,0.0,0.0,0.0,False,0,4.642944812774658,0.02993212890625
STABILIZE,1.184906244277954,29.787609990980563,0.03246811230977376,0.0326082706451416,0.0,0.0,0.0,0.0036924109374794714,-1.1524568581608994,-146.96395093711376,0.004828588082193955,-0.0008820466216436269,0.0048219603708397635,0.4,-0.024188105289433413,-0.003714851383647362,0.6504686361593798,0.023882299044817028,1.3722865842282772,0.5472612101584673,0.48383339308202267,1.0019398726996227,51.878440380096436,-7.579198479652405,-5.337638780474663,0.0,0.0,0.0,0.0,0.0,0.0,0.0,0.0,0.0,0.0,0.0,0.0,0.0,0.0,0.0,0.0,False,0,4.671717643737793,0.0349208984375
STABILIZE,1.2183942794799805,29.860348559061396,0.032352717717488606,0.03258991241455078,0.0,0.0,0.0,-0.00192200456027101,-1.15438051690761,-146.90589432916866,0.015258136092940699,0.01669169570518189,0.009169999787787493,0.4,-0.0005693411689112922,-0.030292327479844595,0.656563627431264,0.04546995300066762,1.3549042865633965,-1.564069464802742,1.615479402244091,1.2924559926305912,18.873822689056396,-40.87299108505249,21.81510180234909,0.0,0.0,0.0,0.0,0.0,0.0,0.0,0.0,0.0,0.0,0.0,0.0,0.0,0.0,0.0,0.0,False,0,4.700326204299927,0.034904052734375
STABILIZE,1.251868724822998,29.87502403931764,0.03243211110432943,0.032557010650634766,0.0,0.0,0.0,-0.010069246301332626,-1.1839664417928724,-146.9643334277073,-2.619084559713994e-06,0.03176802758324949,-0.0042817060520795435,0.4,0.02702734555467841,0.0027872698626530564,0.6572046599557381,-0.021715953146071942,0.3912573214620352,0.22119483910501003,1.355875376611948,-0.6933176683308907,5.540169775485992,-68.26947927474976,42.57655143737793,0.0,0.0,0.0,0.0,0.0,0.0,0.0,0.0,0.0,0.0,0.0,0.0,0.0,0.0,0.0,0.0,False,0,4.75798225402832,0.029931884765625
STABILIZE,1.2900669574737549,26.17775114839225,0.0323970635732015,0.03721451759338379,0.0,0.0,0.0,-0.018218088867980965,-1.1718831968208852,-146.94015455804544,-0.006288354401563529,0.02910663277675388,-0.006677356931049808,0.4,0.03385273398011698,0.006512760521242668,0.6560974506418293,-0.03356612611857587,0.3912573214620352,0.22119483910501003,1.355875376611948,-0.6933176683308907,5.540169775485992,-68.26947927474976,42.57655143737793,0.0,0.0,0.0,0.0,0.0,0.0,0.0,0.0,0.0,0.0,0.0,0.0,0.0,0.0,0.0,0.0,False,0,4.7865214347839355,0.029931884765625
STABILIZE,1.3234074115753174,29.994236146370415,0.03233984311421712,0.032465219497680664,0.0,0.0,0.0,-0.02648902106604328,-1.1741246728074128,-146.87854625173193,0.012421179327645207,0.0480002852887469,-0.0022592893392049886,0.4,0.052480773715753014,-0.032849486619806786,0.656229858507486,-0.011437555569604328,1.1136039160192013,-2.36781295388937,1.4140423387289047,1.3355316478483346,13.109973073005676,-39.07405436038971,55.09445071220398,0.0,0.0,0.0,0.0,0.0,0.0,0.0,0.0,0.0,0.0,0.0,0.0,0.0,0.0,0.0,0.0,False,0,4.815162181854248,0.0349208984375
STABILIZE,1.3568520545959473,29.90079416000114,0.03244808514912923,0.032561540603637695,0.0,0.0,0.0,-0.017785065546772734,-1.1705978405964532,-146.9322861801216,0.00696935774078018,0.0533199253870873,-0.012769564967210087,0.4,0.08103985336999084,-0.015521965101408314,0.6572923086202969,-0.06377575505451462,1.6637802124023438,1.0560093447566032,1.2700116261839867,-3.1161986767374477,9.50373113155365,77.65399217605591,45.83752751350403,0.0,0.0,0.0,0.0,0.0,0.0,0.0,0.0,0.0,0.0,0.0,0.0,0.0,0.0,0.0,0.0,False,0,4.843897819519043,0.034921142578125
STABILIZE,1.390439748764038,29.772174900624645,0.03243854840596517,0.03275752067565918,0.0,0.0,0.0,-0.02455367629254959,-1.1725713383797638,-146.85909387297573,-0.013075845704033029,0.043650473441695765,-0.015022164231190566,0.4,0.0813216880908977,0.0011690620113439104,0.6678952973658956,-0.07478725155360326,-0.028229953022673726,0.9948497638106346,1.8422292545437813,-0.6139201343240775,-15.955308079719543,-0.8225675672292709,39.34108316898346,0.0,0.0,0.0,0.0,0.0,0.0,0.0,0.0,0.0,0.0,0.0,0.0,0.0,0.0,0.0,0.0,False,0,4.872617483139038,0.02993310546875
STABILIZE,1.4239559173583984,29.836345917184175,0.03249409993489583,0.03263092041015625,0.0,0.0,0.0,-0.027275293233388107,-1.1758526039457202,-146.86578745836235,0.030016524128293493,0.004632487186422262,-0.0036911940328654956,0.4,0.0303402117375418,-0.05324914724210281,0.6492276729296131,-0.018071914018663877,-1.5170561149716377,-1.6192207112908363,0.6496754474937916,1.6946391954672158,-28.676247596740723,20.093388855457306,9.516213089227676,0.0,0.0,0.0,0.0,0.0,0.0,0.0,0.0,0.0,0.0,0.0,0.0,0.0,0.0,0.0,0.0,False,0,4.930072784423828,0.03990869140625
STABILIZE,1.4575417041778564,29.777459089134215,0.032437833150227864,0.0325770378112793,0.0,0.0,0.0,-0.04745940936527493,-1.166879442923616,-146.9345811236827,0.0377428414749729,0.02336427225841518,0.0034637894350151633,0.4,0.0697365568807947,-0.06506382270417425,0.6402975640753817,0.017643945818056186,2.3164814338088036,-0.6384109146893024,0.5371194332838058,2.056737085282093,8.62203910946846,-77.93951034545898,-2.160416543483734,0.0,0.0,0.0,0.0,0.0,0.0,0.0,0.0,0.0,0.0,0.0,0.0,0.0,0.0,0.0,0.0,False,0,4.9588541984558105,0.06485400390625
STABILIZE,1.4910244941711426,29.86779084092317,0.032294305165608723,0.03243303298950195,0.0,0.0,0.0,-0.04870250379421725,-1.1686255167519064,-146.78799160371588,0.030228085736298916,0.04115135080916471,0.011842822729532507,0.4,0.11719299765219801,-0.0817695771333774,0.6433280420467451,0.059340583332903866,2.3164814338088036,-0.6384109146893024,0.5371194332838058,2.056737085282093,8.62203910946846,-77.93951034545898,-2.160416543483734,0.0,0.0,0.0,0.0,0.0,0.0,0.0,0.0,0.0,0.0,0.0,0.0,0.0,0.0,0.0,0.0,False,0,4.987605333328247,0.06485400390625
STABILIZE,1.5243237018585205,30.026444837386443,0.032266887029012044,0.03239917755126953,0.0,0.0,0.0,-0.0431385143024485,-1.1743198668072872,-146.78920737738815,0.07185486436319341,0.01351345218634202,0.02051318095334865,0.4,0.08788616703769161,-0.14550914959210895,0.6565009114660113,0.10235008289472677,-1.8206384032964706,-2.9417913407087326,1.2394309043884277,1.8080407195352315,-118.36526393890381,-3.809279575943947,4.853694140911102,0.0,0.0,0.0,0.0,0.0,0.0,0.0,0.0,0.0,0.0,0.0,0.0,0.0,0.0,0.0,0.0,False,0,5.016204833984375,0.02993212890625
STABILIZE,1.5578770637512207,29.80242580131735,0.03244021733601888,0.03272509574890137,0.0,0.0,0.0,-0.029214213184025475,-1.1745015071505271,-146.9397720674519,0.024474131864107306,0.022360122372633334,-0.0008322828235282063,0.4,0.10480231023645824,-0.044235677483569644,0.6559010949110332,-0.004362581524075357,1.0332816280424595,4.942896589636803,1.5123896300792694,-5.30735239078151,68.42544674873352,161.3726019859314,-2.3658905178308487,0.0,0.0,0.0,0.0,0.0,0.0,0.0,0.0,0.0,0.0,0.0,0.0,0.0,0.0,0.0,0.0,False,0,5.044820785522461,0.0349208984375
STABILIZE,1.5914475917816162,29.788879340345595,0.03249982198079427,0.0326380729675293,0.0,0.0,0.0,-0.04492530246149441,-1.181986433985509,-146.8040015671304,-0.051284636629516496,0.05320398917055316,-0.021781103368643227,0.4,0.12227842884901381,0.054428824748601876,0.658585401794785,-0.10874253464470868,1.0332816280424595,4.942896589636803,1.5123896300792694,-5.30735239078151,68.42544674873352,161.3726019859314,-2.3658905178308487,0.0,0.0,0.0,0.0,0.0,0.0,0.0,0.0,0.0,0.0,0.0,0.0,0.0,0.0,0.0,0.0,False,0,5.0734381675720215,0.0349208984375
STABILIZE,1.62491774559021,29.879280498664293,0.0323822816212972,0.032515525817871094,0.0,0.0,0.0,-0.0614990766476477,-1.1782634472793232,-146.81736141714694,-0.06230028961193693,0.029799486982530363,-0.027574599093828214,0.4,0.10929623531477664,0.06563355758362169,0.6315827552904075,-0.13725104748828773,1.5323531813919544,4.360619559884071,-0.07759329164400697,-4.610826774696536,144.59946155548096,77.15085744857788,3.30197773873806,0.0,0.0,0.0,0.0,0.0,0.0,0.0,0.0,0.0,0.0,0.0,0.0,0.0,0.0,0.0,0.0,False,0,5.13076376914978,0.0349208984375
STABILIZE,1.6585114002227783,29.768582723549827,0.03236583073933919,0.03249835968017578,0.0,0.0,0.0,-0.06790168530344708,-1.1931548604955378,-146.93796889751104,-0.040747444446875856,0.043700945481821955,-0.015678404177403356,0.4,0.1721507658139759,0.012577328272018781,0.6386528511137171,-0.0775106214878968,3.444420173764229,-2.845332585275173,1.7026115208864212,3.1102299451765028,34.50251519680023,-152.2035002708435,30.39158284664154,0.0,0.0,0.0,0.0,0.0,0.0,0.0,0.0,0.0,0.0,0.0,0.0,0.0,0.0,0.0,0.0,False,0,5.159505844116211,0.02993310546875
STABILIZE,1.6918444633483887,29.997024831216386,0.032212289174397786,0.03236103057861328,0.0,0.0,0.0,-0.0681684895679007,-1.187187516316768,-146.81745703979533,-0.04062470611048995,0.04129405200120406,-0.009496060988435409,0.4,0.14489945514337185,-0.0372468364934471,0.613634573199579,-0.046443507131524696,-1.1921093799173832,-2.6915989816188812,0.12974911369383335,1.5704229206221307,-116.51946306228638,26.55259370803833,-2.192423865199089,0.0,0.0,0.0,0.0,0.0,0.0,0.0,0.0,0.0,0.0,0.0,0.0,0.0,0.0,0.0,0.0,False,0,5.188257217407227,0.034888916015625
STABILIZE,1.729452133178711,26.58981494982281,0.03236511548360189,0.03669476509094238,0.0,0.0,0.0,-0.0648173746455103,-1.1895350736788426,-146.7435270722191,0.02568608265015536,0.02176350418350378,-0.0035304591447114105,0.4,0.11956092588380487,-0.08629830769266371,0.5920151529271708,-0.01655314436174842,-1.1921093799173832,-2.6915989816188812,0.12974911369383335,1.5704229206221307,-116.51946306228638,26.55259370803833,-2.192423865199089,0.0,0.0,0.0,0.0,0.0,0.0,0.0,0.0,0.0,0.0,0.0,0.0,0.0,0.0,0.0,0.0,False,0,5.217036724090576,0.034888916015625
STABILIZE,1.7628817558288574,29.914442621781614,0.032414944966634114,0.03253507614135742,0.0,0.0,0.0,-0.041271898307478065,-1.1765470420852402,-146.93142557628616,0.02199388112982372,-0.0029700090841108173,-0.026671329328463275,0.4,0.08729425370413127,-0.002963143970934917,0.5766671321557089,-0.13181718738705744,-1.564665511250496,4.450784251093864,0.44798925518989563,-6.27658483542347,45.175185799598694,119.10767555236816,-17.65015572309494,0.0,0.0,0.0,0.0,0.0,0.0,0.0,0.0,0.0,0.0,0.0,0.0,0.0,0.0,0.0,0.0,False,0,5.245713949203491,0.034920166015625
STABILIZE,1.7964439392089844,29.796709385922536,0.03240469296773275,0.032618045806884766,0.0,0.0,0.0,-0.0607442873835084,-1.1843708103360782,-146.74278941178875,0.03135404547881086,0.026281380524950274,-0.022929214872373965,0.4,0.13159822780831418,-0.011539531692066049,0.5759224311755509,-0.11272852619956814,2.5940394029021263,-0.5324339494109154,1.2203642167150974,0.9947466162865414,53.56643795967102,-105.45990467071533,18.327447772026062,0.0,0.0,0.0,0.0,0.0,0.0,0.0,0.0,0.0,0.0,0.0,0.0,0.0,0.0,0.0,0.0,False,1,5.274449825286865,0.029932861328125
STABILIZE,1.8300385475158691,29.764780186637335,0.032389195760091145,0.03252077102661133,0.0,0.0,0.0,-0.07546761391311714,-1.2012420179162444,-146.81027168078847,-0.0639821476633357,0.04247369414973645,-0.052353349525330065,0.4,0.21010891946885257,0.12509080791716623,0.5561904967917816,-0.2589781660127616,2.3047590628266335,8.137968182563782,0.3736623330041766,-9.531453000898278,131.34512901306152,239.63732719421387,4.868585243821144,0.0,0.0,0.0,0.0,0.0,0.0,0.0,0.0,0.0,0.0,0.0,0.0,0.0,0.0,0.0,0.0,False,0,5.3322649002075195,0.06984228515625
STABILIZE,1.8633759021759033,29.997882992418823,0.03225878079732259,0.032387733459472656,0.0,0.0,0.0,-0.07078856080568817,-1.19817953184714,-146.91818866967466,-0.1779403861474651,0.08510126861503445,-0.09391434247811163,0.4,0.26564452875353567,0.2981137321929788,0.5546168557987428,-0.4652351768110088,2.3047590628266335,8.137968182563782,0.3736623330041766,-9.531453000898278,131.34512901306152,239.63732719421387,4.868585243821144,0.0,0.0,0.0,0.0,0.0,0.0,0.0,0.0,0.0,0.0,0.0,0.0,0.0,0.0,0.0,0.0,False,0,5.361017942428589,0.06984228515625
STABILIZE,1.8968310356140137,29.889500951349348,0.032364877065022786,0.032581329345703125,0.0,0.0,0.0,-0.07167104259079497,-1.1814523985697787,-146.56749943692955,-0.16933055135617825,0.1404368884718364,-0.08230014190894251,0.4,0.3514192748364978,0.24869697685088432,0.55176347826742,-0.4058038524041123,3.526299074292183,-3.7670258432626724,0.4930197726935148,4.562398599047029,20.34129798412323,-236.6616725921631,22.432902455329895,0.0,0.0,0.0,0.0,0.0,0.0,0.0,0.0,0.0,0.0,0.0,0.0,0.0,0.0,0.0,0.0,False,0,5.389846324920654,0.029931884765625
STABILIZE,1.9303276538848877,29.854184906009554,0.03245666821797689,0.03257918357849121,0.0,0.0,0.0,-0.05213291294400326,-1.2136051939224963,-146.72206661784693,-0.1050236882051,0.09692920060731774,-0.0670698964966349,0.4,0.24657350731864594,0.19328750930888258,0.5151083924999831,-0.3285536718159249,-4.483271390199661,-2.2658249363303185,-0.4185391589999199,2.9994869655212084,-109.22027826309204,202.33891010284424,58.901017904281616,0.0,0.0,0.0,0.0,0.0,0.0,0.0,0.0,0.0,0.0,0.0,0.0,0.0,0.0,0.0,0.0,False,0,5.420578956604004,0.0349208984375
STABILIZE,1.9725663661956787,23.67509779240352,0.03239396413167318,0.04140210151672363,0.0,0.0,0.0,-0.05213291294400326,-1.2136051939224963,-146.72206661784693,-0.24753646156288395,0.13016930424073966,-0.16113021598477875,0.4,0.3548492198798296,0.5039079870048321,0.500913775093468,-0.7954902328984781,3.147074580192566,8.066084235906601,0.8746071718633175,-12.242447290030134,202.26714611053467,136.40846014022827,35.047709941864014,0.0,0.0,0.0,0.0,0.0,0.0,0.0,0.0,0.0,0.0,0.0,0.0,0.0,0.0,0.0,0.0,False,0,5.478118419647217,0.034921142578125
STABILIZE,2.006108045578003,29.813229461353654,0.03249338467915853,0.03261280059814453,0.0,0.0,0.0,-0.07888201480703594,-1.1881719173308962,-146.55271890756563,-0.12247144662990318,0.10071096432085191,-0.12608255099009902,0.4,0.36468519622581796,0.3758346915626084,0.5263500645262376,-0.6181831048603319,0.9835509583353996,-6.061185896396637,2.4736516177654266,8.22972054415775,-111.5744948387146,-291.9837713241577,46.08311355113983,0.0,0.0,0.0,0.0,0.0,0.0,0.0,0.0,0.0,0.0,0.0,0.0,0.0,0.0,0.0,0.0,False,0,5.5070641040802,0.0349208984375
STABILIZE,2.0402486324310303,29.290446028897254,0.03238561948140462,0.03330349922180176,0.0,0.0,0.0,-0.07233389110540356,-1.2016931305665826,-146.60565287363323,-0.10282125246454589,0.04984667539027508,-0.1523850601513062,0.4,0.3126042446720036,0.47533702186127275,0.49454945992155147,-0.7471389781857354,-2.162311412394047,5.53949736058712,-0.46112164855003357,-7.3819984455107885,-5.9398893266916275,278.5881042480469,-4.317062720656395,0.0,0.0,0.0,0.0,0.0,0.0,0.0,0.0,0.0,0.0,0.0,0.0,0.0,0.0,0.0,0.0,False,0,5.535344839096069,0.049886962890625
STABILIZE,2.0737953186035156,29.80814441048966,0.03249624570210775,0.03263401985168457,0.0,0.0,0.0,-0.05832549328282474,-1.1709656035945761,-146.8955397623869,-0.2103687110280202,0.031693111753105074,-0.20951241700666853,0.4,0.3408194437024178,0.6364718893946777,0.4892905469683577,-1.0293296477366123,1.569165475666523,7.736462354660034,0.6394875235855579,-13.730672085642334,180.38485050201416,182.0030689239502,52.025431394577026,0.0,0.0,0.0,0.0,0.0,0.0,0.0,0.0,0.0,0.0,0.0,0.0,0.0,0.0,0.0,0.0,False,0,5.567040920257568,0.014967041015625
STABILIZE,2.1072592735290527,29.885667462324985,0.03240564664204915,0.03252720832824707,0.0,0.0,0.0,-0.07443588182247497,-1.094493524986644,-146.70552389967716,-0.15245158347588247,0.10147264952601436,-0.1699859412125205,0.4,0.3917082700412462,0.4874739560167115,0.4966756361508269,-0.8289252739878397,3.8395095616579056,-5.750056356191635,1.8808480352163315,7.142039385816254,34.20563042163849,-318.88580322265625,45.11740505695343,0.0,0.0,0.0,0.0,0.0,0.0,0.0,0.0,0.0,0.0,0.0,0.0,0.0,0.0,0.0,0.0,False,0,5.5979297161102295,0.0349208984375
STABILIZE,2.1407673358917236,29.841652911377995,0.03238108952840169,0.032634735107421875,0.0,0.0,0.0,0.056899317767614345,-0.9794829577605612,-146.60182796769803,-0.015596519143224047,0.03436652469507821,-0.1528782463217818,0.4,0.33714816705474837,0.42209078622130647,0.5025611329621493,-0.7409000535367947,-2.4236315861344337,-2.979774959385395,1.408579759299755,3.8260166947209138,-88.96455764770508,99.37795996665955,33.053016662597656,0.0,0.0,0.0,0.0,0.0,0.0,0.0,0.0,0.0,0.0,0.0,0.0,0.0,0.0,0.0,0.0,False,0,5.626432418823242,0.034921142578125
STABILIZE,2.174255609512329,29.861836718711064,0.03244903882344564,0.03257918357849121,0.0,0.0,0.0,0.03732677037070812,-1.0226792085058374,-146.63293264917826,-0.1243432980552198,-0.008635636331991664,-0.1810361137263491,0.4,0.26169472428784096,0.523333708815661,0.5322306865053704,-0.87874900027812,-3.5483788698911667,6.052784621715546,2.6793954893946648,-8.432988681404623,-65.69634079933167,174.1860032081604,118.47050189971924,0.0,0.0,0.0,0.0,0.0,0.0,0.0,0.0,0.0,0.0,0.0,0.0,0.0,0.0,0.0,0.0,False,0,5.655009984970093,0.029931884765625
STABILIZE,2.20906138420105,28.731258220078914,0.032416375478108723,0.033867597579956055,0.0,0.0,0.0,-0.0182834559127721,-1.1413741291806132,-146.66028072661499,-0.11885092575425099,-0.12349933928932598,-0.21543693336278943,0.4,0.0006774878772300014,0.5864851003634668,0.2605859332480259,-1.0471121882750316,-6.641599535942078,2.485029771924019,-6.381766498088837,-5.905439613000969,-5.308903753757477,-2.1142475306987762,-309.38682556152344,0.0,0.0,0.0,0.0,0.0,0.0,0.0,0.0,0.0,0.0,0.0,0.0,0.0,0.0,0.0,0.0,False,0,5.712799310684204,0.0349208984375
STABILIZE,2.242570400238037,29.84313920808282,0.032326491673787434,0.03244924545288086,0.0,0.0,0.0,-0.041694516262372604,-1.1238802004472124,-146.6616194436923,-0.05883168795598791,-0.11737540972030991,-0.1959863439329786,0.4,0.03618255413129966,0.6006244690653418,0.43590117211933554,-0.9466909453921527,2.4866919964551926,1.4373642392456532,10.765890032052994,4.473839646929113,234.1322898864746,75.31196475028992,113.40947151184082,0.0,0.0,0.0,0.0,0.0,0.0,0.0,0.0,0.0,0.0,0.0,0.0,0.0,0.0,0.0,0.0,False,0,5.741400241851807,0.029895751953125
STABILIZE,2.2759642601013184,29.9439145582272,0.032317431767781575,0.03245949745178223,0.0,0.0,0.0,-0.016570199009009606,-1.1065240494359752,-146.63626578149322,-0.09261676966907688,0.000791734566779199,-0.18099521199308513,0.4,0.29420814466048417,0.5510222783671547,0.20379765972670283,-0.868829805427101,14.949868619441986,-1.8017128109931946,-12.086591869592667,2.744867331660065,426.3221740722656,-145.56889533996582,-377.3681402206421,0.0,0.0,0.0,0.0,0.0,0.0,0.0,0.0,0.0,0.0,0.0,0.0,0.0,0.0,0.0,0.0,False,0,5.770233631134033,0.0349208984375
STABILIZE,2.3094279766082764,29.883964005044422,0.032393487294514973,0.032518625259399414,0.0,0.0,0.0,0.027689266730114348,-1.1473396590903848,-146.67126367080039,-0.0941054898984423,0.018051111688072517,-0.21874378260366692,0.4,0.28331475719638444,0.5036013292425572,0.19281412029885325,-1.0540465828762873,-0.23137351963669062,-1.9718026742339134,0.3387357108294964,-11.728514828574403,-49.58315193653107,196.7052459716797,-185.89657545089722,0.0,0.0,0.0,0.0,0.0,0.0,0.0,0.0,0.0,0.0,0.0,0.0,0.0,0.0,0.0,0.0,False,0,5.798944473266602,0.03492138671875
STABILIZE,2.3428573608398438,29.914442621781614,0.03236988385518392,0.032494544982910156,0.0,0.0,0.0,0.017009625632564723,-1.1338344541105654,-146.6312660830208,-0.07193270351039296,-0.02721579054091802,-0.20795893230016604,0.4,0.1415185599164503,0.5394628452446943,0.2900339433863196,-0.996788417955917,-7.6460205018520355,2.797096222639084,6.419115513563156,2.008360776381597,-126.8105149269104,98.77797365188599,182.80142545700073,0.0,0.0,0.0,0.0,0.0,0.0,0.0,0.0,0.0,0.0,0.0,0.0,0.0,0.0,0.0,0.0,False,0,5.827583074569702,0.0299326171875
STABILIZE,2.3762166500091553,29.975586747091278,0.032379897435506184,0.03250479698181152,0.0,0.0,0.0,0.02234549747822562,-1.1338091610662953,-146.67474706727708,-0.03201653290355667,0.09198218915136933,-0.1945780242795598,0.4,0.16897763886313294,0.5161006178380471,0.3192278480884548,-0.9267865932889986,2.0223762840032578,-0.34682145342230797,2.512749843299389,2.2568819050875653,16.98860228061676,-131.21225833892822,-128.9420485496521,0.0,0.0,0.0,0.0,0.0,0.0,0.0,0.0,0.0,0.0,0.0,0.0,0.0,0.0,0.0,0.0,False,0,5.856133937835693,0.034921142578125
STABILIZE,2.4097070693969727,29.85928567869067,0.03247884114583333,0.032601118087768555,0.0,0.0,0.0,0.027085755483920254,-1.1474853342187763,-146.67194668971737,-0.007752093877543605,0.08433349169682408,-0.16903997564013995,0.4,0.18307550038591716,0.4813335364569841,0.37839862328592017,-0.7964328039522777,1.31363021209836,1.1584178544580936,1.0793049819767475,1.8768770735379126,-25.582921504974365,10.896819084882736,-62.57762908935547,0.0,0.0,0.0,0.0,0.0,0.0,0.0,0.0,0.0,0.0,0.0,0.0,0.0,0.0,0.0,0.0,False,0,5.913530588150024,0.029932861328125
STABILIZE,2.443449020385742,29.63690707517506,0.03243139584859212,0.032857656478881836,0.0,0.0,0.0,0.02160468875754369,-1.1339569706288026,-146.61098042118584,-0.014354170059263397,-0.03826883713397104,-0.15933334585236705,0.4,0.15564464989763302,0.4516121172824086,0.3691465204014037,-0.7453839089701689,-1.1710301041603088,-0.7558915298432112,0.30115756671875715,1.2854523806886837,-104.5300841331482,-20.194189250469208,-48.507535457611084,0.0,0.0,0.0,0.0,0.0,0.0,0.0,0.0,0.0,0.0,0.0,0.0,0.0,0.0,0.0,0.0,False,0,5.94242525100708,0.034921142578125
STABILIZE,2.4789717197418213,28.150258058887093,0.032437833150227864,0.03472614288330078,0.0,0.0,0.0,0.027231057086341697,-1.1422240608454568,-146.6570022358134,-0.03046493614580447,-0.04183565477577643,-0.1580961669791937,0.4,0.13937927778057096,0.44413330464841666,0.33954516380894817,-0.7365765785897495,-0.5563366692513227,0.3839302808046341,-1.0020401328802109,-0.939770850543932,0.018796231597661972,67.84340143203735,-72.7230429649353,0.0,0.0,0.0,0.0,0.0,0.0,0.0,0.0,0.0,0.0,0.0,0.0,0.0,0.0,0.0,0.0,False,0,5.971018314361572,0.0349208984375
STABILIZE,2.512985944747925,29.40008271240616,0.03252890904744466,0.0331273078918457,0.0,0.0,0.0,0.030541937925652487,-1.150757741883153,-146.65457068846885,-0.010535712769842241,0.022833251424993126,-0.15212254553741722,0.4,0.14980710980009274,0.43632581622009914,0.33779920921220097,-0.7043179939061656,0.9975471533834934,0.3709344659000635,0.6330711767077446,0.43317793427948115,-12.983502447605133,-21.644383668899536,-43.82030963897705,0.0,0.0,0.0,0.0,0.0,0.0,0.0,0.0,0.0,0.0,0.0,0.0,0.0,0.0,0.0,0.0,False,0,5.999758005142212,0.02993212890625
STABILIZE,2.546398878097534,29.928530654184268,0.0323522408803304,0.03248023986816406,0.0,0.0,0.0,0.023673435663264193,-1.1362419890712891,-146.5894380045436,-0.0036412872767703575,0.0007480526095242838,-0.13672494273612412,0.4,0.13030164616411247,0.40475643684127716,0.3303976681561697,-0.6252395147509863,-0.7650666404515505,-0.9145515039563179,0.3593308385461569,3.056933125309247,-51.78632736206055,5.184627324342728,-56.84093236923218,0.0,0.0,0.0,0.0,0.0,0.0,0.0,0.0,0.0,0.0,0.0,0.0,0.0,0.0,0.0,0.0,False,0,6.028339385986328,0.0349208984375
STABILIZE,2.58005690574646,29.71375135487436,0.03247073491414388,0.03272294998168945,0.0,0.0,0.0,0.028973982624311435,-1.1417895967812204,-146.6409649516422,-0.004999474859413893,-0.007050132566661441,-0.13176365086514594,0.4,0.1267165674234543,0.3799415225592537,0.3147080621580062,-0.5984245690807686,0.7331781554967165,-0.7233792450278997,0.29825016390532255,1.1816463119091836,24.636144936084747,-40.9218966960907,-36.91708743572235,0.0,0.0,0.0,0.0,0.0,0.0,0.0,0.0,0.0,0.0,0.0,0.0,0.0,0.0,0.0,0.0,False,0,6.086723804473877,0.0349208984375
STABILIZE,2.61352276802063,29.878854798150694,0.03236416180928548,0.03249788284301758,0.0,0.0,0.0,0.0296219434609635,-1.1484262994986514,-146.63690781927522,-0.00306365247817013,0.007948640622441818,-0.12333178028592784,0.4,0.13345015916745373,0.35363203576212543,0.30799270514999066,-0.5544094406417431,0.7331781554967165,-0.7233792450278997,0.29825016390532255,1.1816463119091836,24.636144936084747,-40.9218966960907,-36.91708743572235,0.0,0.0,0.0,0.0,0.0,0.0,0.0,0.0,0.0,0.0,0.0,0.0,0.0,0.0,0.0,0.0,False,0,6.114422559738159,0.0349208984375
STABILIZE,2.6468820571899414,29.97622944375755,0.03237274487813314,0.03250384330749512,0.0,0.0,0.0,0.02394541593044822,-1.1358876730080947,-146.57883755095176,0.004477141880286644,0.011231427059513441,-0.11778657510525042,0.4,0.12776580959239284,0.33413834960496996,0.30244258970796406,-0.524928199088528,-0.011012853065039963,-0.3229293040931225,0.35777674056589603,0.3398546850916433,-35.818785429000854,29.379230737686157,-32.260945439338684,0.0,0.0,0.0,0.0,0.0,0.0,0.0,0.0,0.0,0.0,0.0,0.0,0.0,0.0,0.0,0.0,False,0,6.143018484115601,0.02993310546875
STABILIZE,2.6803460121154785,29.883751086538325,0.032465489705403645,0.032584428787231445,0.0,0.0,0.0,0.027074069457137185,-1.141099747675049,-146.61602110079332,0.0007362051267155071,-0.009933651635369013,-0.12063678996928279,0.4,0.09636624359431703,0.3346572331263951,0.2969543929472921,-0.5373817375030914,-1.5326361171901226,0.8861569687724113,0.4044588655233383,-2.1472462698514594,-44.622209668159485,13.913676142692566,-29.95021641254425,0.0,0.0,0.0,0.0,0.0,0.0,0.0,0.0,0.0,0.0,0.0,0.0,0.0,0.0,0.0,0.0,False,0,6.171666622161865,0.0349208984375
STABILIZE,2.7140002250671387,29.71333035796513,0.032446893056233723,0.032640695571899414,0.0,0.0,0.0,0.024343647975571696,-1.1450324425330956,-146.57863264527666,0.0016842448206085636,0.0005949629152358984,-0.11163680393212858,0.4,0.10075525740329039,0.30835623252957967,0.31360036580177236,-0.49073224047969977,0.5803247448056936,-0.7726958952844143,1.6432015225291252,1.4541977536625492,35.361167788505554,-9.764433652162552,49.36623275279999,0.0,0.0,0.0,0.0,0.0,0.0,0.0,0.0,0.0,0.0,0.0,0.0,0.0,0.0,0.0,0.0,False,0,6.200344800949097,0.034921142578125
STABILIZE,2.747366428375244,29.970232013090484,0.032300504048665364,0.032419681549072266,0.0,0.0,0.0,0.024629448703654418,-1.1397746909760667,-146.57217128632183,0.0055020373875865804,0.004626752243074673,-0.10262954072733413,0.4,0.10547835843484982,0.28210458426958024,0.3306273391191862,-0.444215155727518,0.5803247448056936,-0.7726958952844143,1.6432015225291252,1.4541977536625492,35.361167788505554,-9.764433652162552,49.36623275279999,0.0,0.0,0.0,0.0,0.0,0.0,0.0,0.0,0.0,0.0,0.0,0.0,0.0,0.0,0.0,0.0,False,0,6.2292420864105225,0.034921142578125
STABILIZE,2.781224489212036,29.535272163932117,0.03238037427266439,0.032779693603515625,0.0,0.0,0.0,0.026871725102975558,-1.1404770265218145,-146.5869791364424,0.00771619231223409,-0.008744512139807729,-0.10132894746757727,0.4,0.08577235292763487,0.25715912768074906,0.3472579484520484,-0.43624184685446815,-1.0285292752087116,-0.27133438270539045,1.2206329964101315,-0.9142073734712782,-10.881700366735458,-33.683907985687256,37.98740208148956,0.0,0.0,0.0,0.0,0.0,0.0,0.0,0.0,0.0,0.0,0.0,0.0,0.0,0.0,0.0,0.0,False,0,6.286501169204712,0.02993212890625
STABILIZE,2.8145556449890137,30.00238914441448,0.03224829037984212,0.032379150390625,0.0,0.0,0.0,0.02769897840534046,-1.14397461698539,-146.57296358826554,0.01054857766052518,-0.005777140443524623,-0.09667734196000753,0.4,0.08687363195192271,0.2367172012157139,0.3590193572320644,-0.4116057367931213,0.3335764165967703,-0.48689013347029686,1.4230229891836643,0.2654062101078861,35.24891138076782,11.462199687957764,33.524537086486816,0.0,0.0,0.0,0.0,0.0,0.0,0.0,0.0,0.0,0.0,0.0,0.0,0.0,0.0,0.0,0.0,False,0,6.315296411514282,0.0349208984375
STABILIZE,2.853989362716675,25.35977556350972,0.03235653241475423,0.03848767280578613,0.0,0.0,0.0,0.02675342409211682,-1.139137775835963,-146.56072388927288,0.01342633432222767,0.007818464221316471,-0.09456925215621065,0.4,0.08783661682993936,0.23124092620386985,0.3696642553914823,-0.39948964679105603,0.31952981371432543,0.37821242585778236,1.234968937933445,-0.4239158775998265,-14.729993045330048,-2.418314479291439,29.974204301834106,0.0,0.0,0.0,0.0,0.0,0.0,0.0,0.0,0.0,0.0,0.0,0.0,0.0,0.0,0.0,0.0,False,0,6.343936920166016,0.02993310546875
STABILIZE,2.887413501739502,29.91721648822728,0.03237775166829427,0.03250527381896973,0.0,0.0,0.0,0.027667068615311808,-1.1434732384116286,-146.56948019178884,0.014395899874940324,-0.003059589398927145,-0.0922195484672874,0.4,0.07102544571585019,0.20891464961659265,0.3777595068229135,-0.38644890333980436,-0.7550218608230352,-0.6628874223679304,1.2181827798485756,-0.3384039369036767,-12.666831910610199,-20.280155539512634,25.213074684143066,0.0,0.0,0.0,0.0,0.0,0.0,0.0,0.0,0.0,0.0,0.0,0.0,0.0,0.0,0.0,0.0,False,0,6.372553825378418,0.0349208984375
STABILIZE,2.9209399223327637,29.827222301237377,0.03240826924641927,0.03254079818725586,0.0,0.0,0.0,0.02719813344010812,-1.1440193333801123,-146.56897475779027,0.0069648189232149275,-0.005890474816289533,-0.0883941649988298,0.4,0.0693361041236924,0.2021532713944957,0.38264720315247247,-0.3660962024993674,0.14825650723651052,0.25536331813782454,0.8908543735742569,0.14592835231907114,30.2893728017807,17.15788245201111,22.81942069530487,0.0,0.0,0.0,0.0,0.0,0.0,0.0,0.0,0.0,0.0,0.0,0.0,0.0,0.0,0.0,0.0,False,0,6.401219844818115,0.0349208984375
STABILIZE,2.9542429447174072,30.02537009993414,0.032332690556844075,0.032436370849609375,0.0,0.0,0.0,0.024199093425090724,-1.1382528394516231,-146.53504237799365,0.013966951532746885,-0.0031915209291393087,-0.080144290803489,0.4,0.05921053261982216,0.16994608348647014,0.39682101452864754,-0.3237656068771613,-0.9349622763693333,-0.6276053376495838,1.0529838502407074,-0.3322618092512634,-29.549923539161682,1.015450805425644,16.490797698497772,0.0,0.0,0.0,0.0,0.0,0.0,0.0,0.0,0.0,0.0,0.0,0.0,0.0,0.0,0.0,0.0,False,0,6.459388971328735,0.034921142578125
STABILIZE,2.987745523452759,29.85014803006149,0.03246620496114095,0.03258943557739258,0.0,0.0,0.0,0.02612968908267714,-1.1412457429685583,-146.55284185097068,0.016297250741821652,-0.014058570594810006,-0.07820951225877468,0.4,0.03989305993358312,0.14959732940645382,0.40416309522249555,-0.3130443826763424,-0.9349622763693333,-0.6276053376495838,1.0529838502407074,-0.3322618092512634,-29.549923539161682,1.015450805425644,16.490797698497772,0.0,0.0,0.0,0.0,0.0,0.0,0.0,0.0,0.0,0.0,0.0,0.0,0.0,0.0,0.0,0.0,False,0,6.488133668899536,0.034921142578125
STABILIZE,3.021212100982666,29.880983422029395,0.03240493138631185,0.03254389762878418,0.0,0.0,0.0,0.02782341591428163,-1.142884134595715,-146.55822404003666,0.014583948943470884,-0.016986613689351462,-0.07479539537281517,0.4,0.035055954576766676,0.1491123124156314,0.4071827274940705,-0.2949870207280277,-0.07108215941116214,0.537742767482996,0.8061009459197521,0.14190601122816832,12.633509933948517,11.127566546201706,17.105288803577423,0.0,0.0,0.0,0.0,0.0,0.0,0.0,0.0,0.0,0.0,0.0,0.0,0.0,0.0,0.0,0.0,False,0,6.516780614852905,0.0349208984375
STABILIZE,3.054612874984741,29.938784833257195,0.032093079884847005,0.03222036361694336,0.0,0.0,0.0,0.02275851047959983,-1.1391098147490484,-146.51539875394067,0.013766454183569407,-0.00435979457921991,-0.06788353715583247,0.4,0.045396556865557276,0.13336703023668006,0.4072313249755616,-0.2595596170162123,0.8155833929777145,-0.4029383882880211,0.6439884658902884,1.2022488304885866,24.184919893741608,-14.430195093154907,7.280293107032776,0.0,0.0,0.0,0.0,0.0,0.0,0.0,0.0,0.0,0.0,0.0,0.0,0.0,0.0,0.0,0.0,False,0,6.559641599655151,0.02993212890625
STABILIZE,3.0881052017211914,29.8582228739838,0.03244665463765462,0.03258228302001953,0.0,0.0,0.0,0.02385048697315562,-1.140709679840418,-146.53636743469264,0.021314830177291844,-0.0055937299689979335,-0.06721634882295269,0.4,0.04184330369240991,0.1140599948639274,0.414342835828472,-0.25536929136061837,-0.04588430456351489,-0.6815042812377214,1.2227844446897507,-0.5917197783657147,-6.137667968869209,-8.562280982732773,15.762296319007874,0.0,0.0,0.0,0.0,0.0,0.0,0.0,0.0,0.0,0.0,0.0,0.0,0.0,0.0,0.0,0.0,False,0,6.588347673416138,0.0349208984375
STABILIZE,3.121555805206299,29.89418766259221,0.03240063985188802,0.032531023025512695,0.0,0.0,0.0,0.023942000835863213,-1.1425135968332418,-146.51351362172977,0.018411246014309813,-0.0033017196837463393,-0.06656005916607385,0.4,0.03818145224630316,0.09437796991844061,0.42395349314976244,-0.25124753071792494,-0.04588430456351489,-0.6815042812377214,1.2227844446897507,-0.5917197783657147,-6.137667968869209,-8.562280982732773,15.762296319007874,0.0,0.0,0.0,0.0,0.0,0.0,0.0,0.0,0.0,0.0,0.0,0.0,0.0,0.0,0.0,0.0,False,0,6.617228984832764,0.0349208984375
STABILIZE,3.1550168991088867,29.88609335698966,0.03240779240926107,0.03255510330200195,0.0,0.0,0.0,0.023880315689921536,-1.1403728661369716,-146.50130124349377,0.019965654340191142,0.008527754048617891,-0.06209000850721663,0.4,0.04512779410554028,0.07573985549246753,0.4298171652155881,-0.22813357486148006,0.5760913249105215,-0.6390086375176907,1.008614432066679,0.579077098212021,8.607111871242523,3.325905278325081,21.05412483215332,0.0,0.0,0.0,0.0,0.0,0.0,0.0,0.0,0.0,0.0,0.0,0.0,0.0,0.0,0.0,0.0,False,0,6.645670652389526,0.069843017578125
STABILIZE,3.1885933876037598,29.785706169753436,0.03241446812947591,0.03258943557739258,0.0,0.0,0.0,0.025694691409911954,-1.140292077805695,-146.52052139581818,0.029379305724721205,0.015723906506476454,-0.06359057942410241,0.4,0.054802954929947786,0.05790759770232652,0.4566007429016099,-0.23484985703207936,0.704609602689743,-0.14905744465067983,1.1770411394536495,-1.3168296294054875,10.708578675985336,3.2838746905326843,19.236169755458832,0.0,0.0,0.0,0.0,0.0,0.0,0.0,0.0,0.0,0.0,0.0,0.0,0.0,0.0,0.0,0.0,False,0,6.674637317657471,0.029931884765625
STABILIZE,3.222015380859375,29.917003095621904,0.03231194814046224,0.03249502182006836,0.0,0.0,0.0,0.023586564194758096,-1.1429775160882738,-146.4966020733448,0.027636968316810884,0.006911223173555773,-0.05903642256230182,0.4,0.046421576243163426,0.048810124514624235,0.45897639790759615,-0.21137105620423663,-0.3252576803788543,-0.20824954845011234,1.0800941847264767,0.6192748959116617,8.766315132379532,-18.252284824848175,22.337089478969574,0.0,0.0,0.0,0.0,0.0,0.0,0.0,0.0,0.0,0.0,0.0,0.0,0.0,0.0,0.0,0.0,False,0,6.703265428543091,0.034921142578125
STABILIZE,3.256176233291626,29.272252697402397,0.032416375478108723,0.03252720832824707,0.0,0.0,0.0,0.023411060349600502,-1.142241029596676,-146.4888839595827,0.028763527959441072,0.009362808965655613,-0.056699909449185085,0.4,0.04819609486539511,0.03173206262178589,0.46145662292103784,-0.19902328667365168,-0.1149503281340003,0.0948976434301585,1.124819554388523,-1.0982859875232935,-19.469846785068512,-6.792888045310974,16.718092560768127,0.0,0.0,0.0,0.0,0.0,0.0,0.0,0.0,0.0,0.0,0.0,0.0,0.0,0.0,0.0,0.0,False,0,6.760356903076172,0.034922119140625
STABILIZE,3.2888009548187256,30.650706654389733,0.031687053044637044,0.03178977966308594,0.0,0.0,0.0,0.024250266483012928,-1.1415909876867611,-146.49836426215066,0.027215685232763635,0.003433512863867431,-0.052264994256506395,0.4,0.03431186134416939,0.01927173025955017,0.4700755938142976,-0.17625969970794494,-0.6569163873791695,-0.4122226033359766,1.2697551399469376,0.6702996106628304,-5.714038759469986,-8.514098078012466,20.485663414001465,0.0,0.0,0.0,0.0,0.0,0.0,0.0,0.0,0.0,0.0,0.0,0.0,0.0,0.0,0.0,0.0,False,0,6.789360523223877,0.0349208984375
STABILIZE,3.322287082672119,29.865238783546115,0.03249362309773763,0.03261232376098633,0.0,0.0,0.0,0.022759417614098974,-1.1421781705119707,-146.4836656950568,0.025871377842822466,-0.006936699409555278,-0.047891908458629534,0.4,0.02041857724732769,0.007238307720613709,0.478573574280209,-0.15387955267234202,-0.6569163873791695,-0.4122226033359766,1.2697551399469376,0.6702996106628304,-5.714038759469986,-8.514098078012466,20.485663414001465,0.0,0.0,0.0,0.0,0.0,0.0,0.0,0.0,0.0,0.0,0.0,0.0,0.0,0.0,0.0,0.0,False,0,6.818943977355957,0.0349208984375
STABILIZE,3.3557791709899902,29.857797773285117,0.032448800404866536,0.03258013725280762,0.0,0.0,0.0,0.02217436922300507,-1.140705304250481,-146.47530554351272,0.02148688624754629,-0.009084358292151486,-0.04574240112925472,0.4,0.023905306102314353,0.0015298796204095604,0.48441820090030774,-0.1426547321052673,0.3114492166787386,-0.08266580407507718,1.1299612000584602,0.0712709295756071,15.995599329471588,5.415725335478783,23.70142489671707,0.0,0.0,0.0,0.0,0.0,0.0,0.0,0.0,0.0,0.0,0.0,0.0,0.0,0.0,0.0,0.0,False,0,6.846855640411377,0.02993212890625
STABILIZE,3.389423370361328,29.724280156193526,0.03240326245625814,0.032523155212402344,0.0,0.0,0.0,0.02192570764853429,-1.1398505701088772,-146.47641203415824,0.02087057416399378,-0.0031105955915163735,-0.045806114048426404,0.4,0.02848122987229397,-0.004355112670634811,0.48944791377667857,-0.1424968941922707,0.35535339266061783,-0.1809856272302568,1.2601831927895546,-0.4846482921935667,-5.3558580577373505,-14.173263311386108,23.651883006095886,0.0,0.0,0.0,0.0,0.0,0.0,0.0,0.0,0.0,0.0,0.0,0.0,0.0,0.0,0.0,0.0,False,0,6.876065969467163,0.0349208984375
STABILIZE,3.422645330429077,30.099707923385505,0.03219583829243978,0.03231501579284668,0.0,0.0,0.0,0.02228722742686895,-1.1409539658249517,-146.47029218466193,0.017709765495631403,-0.01235093019311902,-0.04300318939073933,0.4,0.012682631108888837,-0.011800430816399256,0.4927860854298394,-0.12805412059071355,-0.7964445278048515,-0.2246328629553318,0.9938805364072323,0.31532696885402506,-11.744468659162521,5.23233525454998,15.942451357841492,0.0,0.0,0.0,0.0,0.0,0.0,0.0,0.0,0.0,0.0,0.0,0.0,0.0,0.0,0.0,0.0,False,0,6.9050133228302,0.0349208984375
STABILIZE,3.4563028812408447,29.70912104491461,0.03242066701253255,0.03280162811279297,0.0,0.0,0.0,0.021129030114875772,-1.1409299534411508,-146.45532041000126,0.015824677501049857,-0.01479201449644127,-0.03858930857742783,0.4,-0.0027559314467099118,-0.018022954047881533,0.5017410570409256,-0.10562883560456157,0.11346753453835845,0.20119603723287582,1.1621762067079544,0.0208432560672195,13.107757270336151,-0.3879863303154707,18.221797049045563,0.0,0.0,0.0,0.0,0.0,0.0,0.0,0.0,0.0,0.0,0.0,0.0,0.0,0.0,0.0,0.0,False,0,6.962409734725952,0.0349208984375
STABILIZE,3.489838123321533,29.82022423979581,0.03247216542561849,0.03261280059814453,0.0,0.0,0.0,0.021586706150119518,-1.1407377476490386,-146.45695965540204,0.016713427437730997,-0.004442892539324754,-0.03797955761325558,0.4,0.005676815965009685,-0.028999916423955344,0.5025456022055923,-0.10223739097010796,0.5611189641058445,-0.49142600037157536,0.8870015852153301,-0.23756019587240526,2.922227419912815,-12.237051874399185,13.934406638145447,0.0,0.0,0.0,0.0,0.0,0.0,0.0,0.0,0.0,0.0,0.0,0.0,0.0,0.0,0.0,0.0,False,0,6.9910125732421875,0.02993212890625
STABILIZE,3.523230791091919,29.947549177108993,0.032389195760091145,0.03251218795776367,0.0,0.0,0.0,0.021451756553158875,-1.1406804380930338,-146.45795686302088,0.013076218261540628,-0.01088947339698001,-0.036913273984631734,0.4,-0.003585081645605003,-0.026697492293822466,0.499036139104217,-0.09658348474067,-0.4782503470778465,0.19260564586147666,0.8158056996762753,-0.04789841577211353,-11.066196858882904,11.394768953323364,18.028941750526428,0.0,0.0,0.0,0.0,0.0,0.0,0.0,0.0,0.0,0.0,0.0,0.0,0.0,0.0,0.0,0.0,False,0,7.019733905792236,0.0349208984375
STABILIZE,3.556694746017456,29.88204784770807,0.03244927724202474,0.03258109092712402,0.0,0.0,0.0,0.020769858214068307,-1.141071573144723,-146.43559482367826,0.011671403461199185,-0.015474882471226525,-0.035147452151437136,0.4,-0.00854880048499954,-0.02866824110149176,0.5069128751311781,-0.08746169831219273,-0.21727087441831827,-0.01053236992447637,1.3001457788050175,0.13764484029993984,3.404391184449196,-7.9576365649700165,19.752836227416992,0.0,0.0,0.0,0.0,0.0,0.0,0.0,0.0,0.0,0.0,0.0,0.0,0.0,0.0,0.0,0.0,False,0,7.048713445663452,0.03492138671875
STABILIZE,3.5901377201080322,29.90164682398232,0.0324437936147054,0.032553672790527344,0.0,0.0,0.0,0.021202027761630285,-1.1400174828567196,-146.4415097674995,0.013877674455993656,-0.004328031433528688,-0.034474437303283444,0.4,-0.00013337061460949248,-0.038507643763811605,0.5098157612907339,-0.08381642692070068,0.5452970042824745,-0.4805987235158682,1.0228045284748077,-0.156450632261446,10.13120785355568,-8.059307187795639,13.237376511096954,0.0,0.0,0.0,0.0,0.0,0.0,0.0,0.0,0.0,0.0,0.0,0.0,0.0,0.0,0.0,0.0,False,0,7.077494859695435,0.0299326171875
STABILIZE,3.6235110759735107,29.963380744529616,0.0324278195699056,0.03253602981567383,0.0,0.0,0.0,0.021452343522540673,-1.141481277773218,-146.42974818174872,0.015958601022384902,0.0067953107126564796,-0.033981852234497914,0.4,0.008603996025868152,-0.047124629973196816,0.5096425686976745,-0.08108256547589485,0.5452970042824745,-0.4805987235158682,1.0228045284748077,-0.156450632261446,10.13120785355568,-8.059307187795639,13.237376511096954,0.0,0.0,0.0,0.0,0.0,0.0,0.0,0.0,0.0,0.0,0.0,0.0,0.0,0.0,0.0,0.0,False,0,7.106208801269531,0.0299326171875
STABILIZE,3.657158374786377,29.7236482177025,0.032470019658406575,0.032601118087768555,0.0,0.0,0.0,0.021033354105642704,-1.1411409422534808,-146.41891550172508,0.011819510261263483,0.0021613646533983582,-0.03205530328596457,0.4,0.006522525950999339,-0.047953466037770856,0.5107084122839975,-0.07121151713545328,-0.08171158842742443,-0.3250109264627099,0.9130116552114487,0.37733211983048837,5.4304637014865875,-10.028219223022461,9.83956977725029,0.0,0.0,0.0,0.0,0.0,0.0,0.0,0.0,0.0,0.0,0.0,0.0,0.0,0.0,0.0,0.0,False,0,7.163586616516113,0.0349208984375
