Mode,Time,Freq,time2delay,actualDelay,North-Desired,East-Desired,Down-Desired,Roll-UAV,Pitch-UAV,Yaw-UAV,Roll-Control,Pitch-Control,Yaw-Control,Thrust-Control,North-Pos,East-Pos,Down-Pos,Yaw-Ang,North-Vel,East-Vel,Down-Vel,Yaw-Vel,North-Acc,East-Acc,Down-Acc,North-Avg,East-Avg,Down-Avg,Yaw-Avg,North-Dif,East-Dif,Down-Dif,Yaw-Dif,North-One,East-One,Down-One,Yaw-One,North-Two,East-Two,Down-Two,Yaw-Two,Landing-State,Q-Size,Kalman-Time,Kalman-Dt
STABILIZE,0.034334659576416016,29.13338288103689,0.03275564511617025,0.03287792205810547,0.0,0.0,0.0,-0.7855504084486273,-1.320285705125514,-63.361684175348984,0.0,0.0,-0.0,0.5,0.0,0.0,0.0,0.0,-0.13564774999395013,0.24841411504894495,1.79411880671978,0.14203114242819706,-3.9673369377851486,2.4768996983766556,19.957242906093597,0.0,0.0,0.0,0.0,0.0,0.0,0.0,0.0,0.0,0.0,0.0,0.0,0.0,0.0,0.0,0.0,False,1,0.031311988830566406,0.034926025390625
STABILIZE,0.06767916679382324,29.98908916710162,0.03227976163228353,0.03241729736328125,0.0,0.0,0.0,-0.7868054023477642,-1.319258828872485,-63.364122552882684,-0.04015683384720882,0.03149220917113118,0.0051612192850526446,0.4,0.04938255015763411,0.0512515007088186,0.06224015907589539,0.051269394877384446,0.1753995893523097,0.18546134233474731,2.2566864266991615,0.320761691679666,-2.0110877230763435,4.3182123452425,28.64154279232025,0.0,0.0,0.0,0.0,0.0,0.0,0.0,0.0,0.0,0.0,0.0,0.0,0.0,0.0,0.0,0.0,False,1,0.08857512474060059,0.069851806640625
STABILIZE,0.10115742683410645,29.870768792507924,0.032468589146931966,0.03260064125061035,0.0,0.0,0.0,-0.7853584160999265,-1.3197199733631666,-63.3676264399269,-0.0774608309761079,0.05970076177469758,0.014767914342615332,0.4,0.13648156738937892,0.1449139837855229,0.20377757946687164,0.14635689310432037,-0.2086498076096177,0.20482405088841915,1.7160557210445404,0.2452565117261138,-7.1982212364673615,2.0290374755859375,27.175310254096985,0.0,0.0,0.0,0.0,0.0,0.0,0.0,0.0,0.0,0.0,0.0,0.0,0.0,0.0,0.0,0.0,False,0,0.14583539962768555,0.029936279296875
STABILIZE,0.13483500480651855,29.696710516999673,0.03244665463765462,0.03259921073913574,0.0,0.0,0.0,-0.785606223900751,-1.3189748424134005,-63.367230288955035,-0.061938453487058606,0.04694391918272286,0.015394605730205263,0.4,0.13878988548890436,0.15111307430120502,0.22723390316769956,0.15160864487712816,-0.32520259264856577,0.07697404944337904,1.717488281428814,-0.0526201108711088,-1.3720580376684666,-3.9222247898578644,25.398820638656616,0.0,0.0,0.0,0.0,0.0,0.0,0.0,0.0,0.0,0.0,0.0,0.0,0.0,0.0,0.0,0.0,False,0,0.17795944213867188,0.03492578125
STABILIZE,0.16815638542175293,30.006681976548695,0.032222779591878255,0.03241086006164551,0.0,0.0,0.0,-0.7855928303266754,-1.3181284325648477,-63.37693598776563,-0.053335948951548334,0.03957715821315453,0.01618432435148251,0.4,0.14197208192667837,0.15915299130101482,0.2567749205265325,0.1584432052821514,-0.32520259264856577,0.07697404944337904,1.717488281428814,-0.0526201108711088,-1.3720580376684666,-3.9222247898578644,25.398820638656616,0.0,0.0,0.0,0.0,0.0,0.0,0.0,0.0,0.0,0.0,0.0,0.0,0.0,0.0,0.0,0.0,False,0,0.20613598823547363,0.03492578125
STABILIZE,0.20161843299865723,29.885454519544552,0.032422812779744466,0.032538652420043945,0.0,0.0,0.0,-0.7857389857027431,-1.3197001231258911,-63.3801530068647,-0.05546587459850956,0.040748535730186386,0.01677644843122832,0.4,0.1460954399183717,0.16541922559190228,0.2822253138483318,0.16327387588193598,-0.004741214797832072,0.08069720934145153,1.3283378444612026,-0.04719856150602523,-1.3791256584227085,3.6225564777851105,19.301600754261017,0.0,0.0,0.0,0.0,0.0,0.0,0.0,0.0,0.0,0.0,0.0,0.0,0.0,0.0,0.0,0.0,False,0,0.23488163948059082,0.034926025390625
STABILIZE,0.23508834838867188,29.87715211739146,0.032393725713094075,0.03251338005065918,0.0,0.0,0.0,-0.7852855251748777,-1.3200116437850673,-63.37707259154902,-0.04142008841347345,0.02799067687240727,0.016911156252383527,0.4,0.14248221131649036,0.16928860440637,0.31166702821552705,0.1635274426089059,-0.5830518901348114,0.0004987561169400578,1.7749378457665443,-0.30802136116518236,-16.591866314411163,-2.4034306406974792,22.995133697986603,0.0,0.0,0.0,0.0,0.0,0.0,0.0,0.0,0.0,0.0,0.0,0.0,0.0,0.0,0.0,0.0,False,0,0.26348447799682617,0.02993701171875
STABILIZE,0.2685399055480957,29.89461380013257,0.03237202962239583,0.032507896423339844,0.0,0.0,0.0,-0.7862117628593549,-1.3207546403007178,-63.38303534669445,-0.01335116738461202,0.005189776333733834,0.016626629135438335,0.4,0.1350116148250574,0.16916814607161604,0.33480947405035805,0.15961403743544622,-0.5830518901348114,0.0004987561169400578,1.7749378457665443,-0.30802136116518236,-16.591866314411163,-2.4034306406974792,22.995133697986603,0.0,0.0,0.0,0.0,0.0,0.0,0.0,0.0,0.0,0.0,0.0,0.0,0.0,0.0,0.0,0.0,False,0,0.2921905517578125,0.02993701171875
STABILIZE,0.3019542694091797,29.92703583991552,0.0323515256245931,0.032475948333740234,0.0,0.0,0.0,-0.7882405958471131,-1.3204628631571111,-63.38419647885335,-0.016877103327565514,0.006109959790681503,0.017333049742886086,0.4,0.14022288026090637,0.18516379955808265,0.4288758772725364,0.16557093294638509,-0.08106889436021447,-0.014532970089931041,1.6971992328763008,-0.043575886533167324,-6.897841393947601,-4.254581034183502,20.84328979253769,0.0,0.0,0.0,0.0,0.0,0.0,0.0,0.0,0.0,0.0,0.0,0.0,0.0,0.0,0.0,0.0,False,0,0.3495814800262451,0.03492578125
STABILIZE,0.3405330181121826,25.9205260360661,0.032338651021321614,0.03760552406311035,0.0,0.0,0.0,-0.7920177438189832,-1.3186790098449743,-63.39667523446696,-0.013778599172432841,0.00446804250492468,0.017138530373487143,0.4,0.13648661386931038,0.1826781808690105,0.45337317592395304,0.1623726339132993,-0.08106889436021447,-0.014532970089931041,1.6971992328763008,-0.043575886533167324,-6.897841393947601,-4.254581034183502,20.84328979253769,0.0,0.0,0.0,0.0,0.0,0.0,0.0,0.0,0.0,0.0,0.0,0.0,0.0,0.0,0.0,0.0,False,0,0.3782930374145508,0.03492578125
STABILIZE,0.3740086555480957,29.872257990997664,0.03242042859395345,0.03254890441894531,0.0,0.0,0.0,-0.794538937396364,-1.3208671249786113,-63.39900432897394,-0.010567582387412209,0.0030792787619104483,0.017057556017236665,0.4,0.13491908555259213,0.17860380961423267,0.4785055944627656,0.1604891298272279,0.08971199276857078,-0.07692000945098698,1.7776785418391228,0.07731750795081295,19.754867255687714,-14.3074631690979,19.429773092269897,0.0,0.0,0.0,0.0,0.0,0.0,0.0,0.0,0.0,0.0,0.0,0.0,0.0,0.0,0.0,0.0,False,0,0.40717482566833496,0.06486328125
STABILIZE,0.40739893913269043,29.9492598913222,0.03238967259724935,0.03250432014465332,0.0,0.0,0.0,-0.7883203703221848,-1.3240287555123869,-63.419221688917176,-0.010449697539875007,0.00667100171505628,0.01726929232967019,0.4,0.1445789408803125,0.18159325030370232,0.540782771655858,0.16152651575109928,0.3778832033276558,-0.174650433473289,1.78995281457901,-0.20779545876910616,16.335725784301758,7.30716735124588,32.47804045677185,0.0,0.0,0.0,0.0,0.0,0.0,0.0,0.0,0.0,0.0,0.0,0.0,0.0,0.0,0.0,0.0,False,0,0.43590617179870605,0.03492578125
STABILIZE,0.44162583351135254,29.217604525126433,0.03243282636006673,0.03331112861633301,0.0,0.0,0.0,-0.7880264587444626,-1.3275887781738442,-63.392720554937526,-0.008588803638251784,0.0066379622493103075,0.01821519561896021,0.4,0.13781959892088663,0.1757049168082969,0.5573364718048264,0.16982393830398163,-0.13637971132993698,-0.022297493705991656,1.524388138204813,0.7716001739556994,-39.77068364620209,-12.275782227516174,23.713411390781403,0.0,0.0,0.0,0.0,0.0,0.0,0.0,0.0,0.0,0.0,0.0,0.0,0.0,0.0,0.0,0.0,False,0,0.4646313190460205,0.029937255859375
STABILIZE,0.4753561019897461,29.647171918515063,0.03240540822347005,0.03281450271606445,0.0,0.0,0.0,-0.7900798910854036,-1.328574886735265,-63.37896455394912,-0.007800908297569875,0.0008037919959568887,0.012731929302083028,0.4,0.1211460189171793,0.1877174066928854,0.6087102763462913,0.11422079542728567,-0.1986970892176032,0.6947017274796963,2.266281098127365,-1.2727844074907197,30.846095085144043,41.07670783996582,43.74101758003235,0.0,0.0,0.0,0.0,0.0,0.0,0.0,0.0,0.0,0.0,0.0,0.0,0.0,0.0,0.0,0.0,False,0,0.5219945907592773,0.0349248046875
STABILIZE,0.5091526508331299,29.58777635124649,0.03240207036336263,0.032822370529174805,0.0,0.0,0.0,-0.7854238898664234,-1.3279020063803129,-63.39214681904724,-0.008478127344168794,0.009011514424679349,0.011010838352754116,0.4,0.1478563133113828,0.1876807584988692,0.6289617015166553,0.09635967755753327,1.7797907814383507,0.299848522990942,1.8104743212461472,-0.7131017915095087,31.83552920818329,-31.780478358268738,23.258577287197113,0.0,0.0,0.0,0.0,0.0,0.0,0.0,0.0,0.0,0.0,0.0,0.0,0.0,0.0,0.0,0.0,False,0,0.5507001876831055,0.034927001953125
STABILIZE,0.5425896644592285,29.907403578075197,0.03234437306722005,0.03247475624084473,0.0,0.0,0.0,-0.7869118572492813,-1.3316982041766647,-63.36460066612458,-0.00294169559516241,0.009855180471940339,0.010240199965132275,0.4,0.1493932230238483,0.16737336776837472,0.6403532884731005,0.08806420490827613,0.32148435711860657,-0.8496973663568497,1.3510971330106258,-0.17075480929159811,-26.788774132728577,-3.1506411731243134,19.873562455177307,0.0,0.0,0.0,0.0,0.0,0.0,0.0,0.0,0.0,0.0,0.0,0.0,0.0,0.0,0.0,0.0,False,0,0.5794904232025146,0.03492626953125
STABILIZE,0.5776214599609375,28.54588517137179,0.03236344655354818,0.03415226936340332,0.0,0.0,0.0,-0.7789220833851002,-1.3467082919297084,-63.36200519423998,0.00451739148855546,0.007983899570950264,0.009489842142126219,0.4,0.1508777171682341,0.146785680311905,0.6508595673730436,0.07999909055090833,0.32148435711860657,-0.8496973663568497,1.3510971330106258,-0.17075480929159811,-26.788774132728577,-3.1506411731243134,19.873562455177307,0.0,0.0,0.0,0.0,0.0,0.0,0.0,0.0,0.0,0.0,0.0,0.0,0.0,0.0,0.0,0.0,False,0,0.6081023216247559,0.03492626953125
STABILIZE,0.6114869117736816,29.52861829599696,0.03243139584859212,0.032935142517089844,0.0,0.0,0.0,-0.7785054952065823,-1.3400964553697243,-63.365536402040874,-0.0023516011224314665,0.007310178800204351,0.0067572155434969475,0.4,0.14264613458385433,0.162289432896808,0.6547041665021063,0.0523187443934235,-0.22563228849321604,1.2020415626466274,1.0206477716565132,-1.2952247805653851,6.240849941968918,21.282857656478882,25.905713438987732,0.0,0.0,0.0,0.0,0.0,0.0,0.0,0.0,0.0,0.0,0.0,0.0,0.0,0.0,0.0,0.0,False,0,0.636859655380249,0.029935791015625
STABILIZE,0.6453104019165039,29.563792969768738,0.032399686177571614,0.032915353775024414,0.0,0.0,0.0,-0.7739677949984608,-1.3373984239258636,-63.34148730597326,0.005759335943557259,0.019894773407559782,0.003873348397555398,0.4,0.1737132757587561,0.14844927224522522,0.6610728982908873,0.02332228801683858,2.0858077332377434,-0.4317624494433403,1.5399389900267124,-1.4295595537790209,50.04411339759827,-24.542155861854553,13.674724102020264,0.0,0.0,0.0,0.0,0.0,0.0,0.0,0.0,0.0,0.0,0.0,0.0,0.0,0.0,0.0,0.0,False,0,0.6655924320220947,0.034926025390625
STABILIZE,0.67877197265625,29.886732221747184,0.032402785619099934,0.032529354095458984,0.0,0.0,0.0,-0.7778240771151677,-1.3425839248880784,-63.34997723111159,0.004490083326585383,0.012571505162287451,0.0005969804160557287,0.4,0.1700566170600732,0.15217145702805096,0.690292334896679,-0.009378651956682296,-0.06276055355556309,0.9979949332773685,2.030269429087639,-1.1635738448087414,-33.87040197849274,26.698997616767883,48.24638366699219,0.0,0.0,0.0,0.0,0.0,0.0,0.0,0.0,0.0,0.0,0.0,0.0,0.0,0.0,0.0,0.0,False,0,0.725449800491333,0.034926025390625
STABILIZE,0.7122206687927246,29.894826873458683,0.03239897092183431,0.03254842758178711,0.0,0.0,0.0,-0.7668487635317506,-1.3364188253884957,-63.36309119431801,-0.0017344026248913612,0.01693327758041005,-0.0038818141848125792,0.4,0.1868647840123573,0.15259451453043046,0.7079857221774342,-0.05380638812550255,1.2173409573733807,0.31614822801202536,1.9076809287071228,-2.3490540272764178,41.55246317386627,-32.81927406787872,9.887944161891937,0.0,0.0,0.0,0.0,0.0,0.0,0.0,0.0,0.0,0.0,0.0,0.0,0.0,0.0,0.0,0.0,False,0,0.753615140914917,0.034926025390625
STABILIZE,0.7457263469696045,29.846749402254353,0.03242638905843099,0.03256344795227051,0.0,0.0,0.0,-0.780361705835239,-1.3289709309854199,-63.32658383320429,0.00706902781505366,0.007380771313245633,-0.00045453154501280636,0.4,0.15375946353329528,0.10856926487766166,0.7246827845022604,-0.01940373728021933,-1.6726445406675339,-2.2595107555389404,1.889093965291977,2.206899434515058,-51.67762637138367,-50.140511989593506,52.47284173965454,0.0,0.0,0.0,0.0,0.0,0.0,0.0,0.0,0.0,0.0,0.0,0.0,0.0,0.0,0.0,0.0,False,0,0.7826993465423584,0.02993603515625
STABILIZE,0.7791965007781982,29.87693929594119,0.03237298329671224,0.03250312805175781,0.0,0.0,0.0,-0.7726140301606231,-1.326412598254427,-63.420970217344696,0.0262513680062476,-0.00011850489394012005,0.003143602798446012,0.4,0.11975695961868182,0.06474659461566054,0.7348028077679161,0.016467265412718934,-1.6726445406675339,-2.2595107555389404,1.889093965291977,2.206899434515058,-51.67762637138367,-50.140511989593506,52.47284173965454,0.0,0.0,0.0,0.0,0.0,0.0,0.0,0.0,0.0,0.0,0.0,0.0,0.0,0.0,0.0,0.0,False,0,0.8110203742980957,0.02993603515625
STABILIZE,0.8125863075256348,29.94968760041415,0.03235748608907064,0.03248953819274902,0.0,0.0,0.0,-0.753371999886522,-1.298225154601725,-63.44250580379775,0.011099298385562124,-0.01109194801555388,-0.0012805362206697527,0.4,0.10675504573810621,0.09775429429349934,0.7401556985408101,-0.02758984533680986,-0.4707201849669218,2.2398345172405243,1.6165170818567276,-2.5053039960505683,14.269347488880157,100.85054636001587,41.3653165102005,0.0,0.0,0.0,0.0,0.0,0.0,0.0,0.0,0.0,0.0,0.0,0.0,0.0,0.0,0.0,0.0,False,0,0.8396551609039307,0.034927001953125
STABILIZE,0.846024751663208,29.9054844137695,0.032416613896687825,0.03254294395446777,0.0,0.0,0.0,-0.7794373891414659,-1.3173037939442744,-63.36398594909928,0.022410403211500934,-0.011615695331888616,0.00048590273590084316,0.4,0.10166910228066074,0.06720188843714472,0.740580716630479,-0.009859517913172845,-0.024648162070661783,-1.5302957966923714,0.9898693300783634,1.1939330751740962,-4.476181045174599,-156.47274255752563,20.164233446121216,0.0,0.0,0.0,0.0,0.0,0.0,0.0,0.0,0.0,0.0,0.0,0.0,0.0,0.0,0.0,0.0,False,0,0.8684298992156982,0.03492578125
STABILIZE,0.8849799633026123,25.670034824013268,0.03242328961690267,0.03805875778198242,0.0,0.0,0.0,-0.763464031272039,-1.3258361943215013,-63.46150055987955,0.05771138253209457,-0.019594368483568072,0.0017738526082992276,0.4,0.08541257412605438,-0.0533478289929874,0.748739298518972,0.0029966310734664894,1.9292976707220078,-2.4730170145630836,2.2234752774238586,-3.3273018947359705,74.97442364692688,-197.49267101287842,-84.62696075439453,0.0,0.0,0.0,0.0,0.0,0.0,0.0,0.0,0.0,0.0,0.0,0.0,0.0,0.0,0.0,0.0,False,0,0.9256856441497803,0.034926025390625
STABILIZE,0.9184596538543701,29.870556061987237,0.0324282964070638,0.032555580139160156,0.0,0.0,0.0,-0.7733263975467143,-1.3165746712503756,-63.37156062888882,0.06009809886403224,-0.0038230618357304688,-0.004018389830170452,0.4,0.11368132746666415,-0.09986314632626794,0.7684113021632023,-0.054560803568312194,1.9292976707220078,-2.4730170145630836,2.2234752774238586,-3.3273018947359705,74.97442364692688,-197.49267101287842,-84.62696075439453,0.0,0.0,0.0,0.0,0.0,0.0,0.0,0.0,0.0,0.0,0.0,0.0,0.0,0.0,0.0,0.0,False,0,0.954348087310791,0.034926025390625
STABILIZE,0.951852560043335,29.94434211465696,0.032393725713094075,0.03250575065612793,0.0,0.0,0.0,-0.7783635553378929,-1.3228667695798384,-63.35682108065994,0.058542867979591656,0.011032747116674938,0.0021944710962311137,0.4,0.13746971988210505,-0.1342826704773447,0.7770221068196308,0.007517541827606777,1.6328847035765648,-1.7728731036186218,1.5962786972522736,3.790185522335027,-97.13412523269653,104.79854345321655,-115.10709524154663,0.0,0.0,0.0,0.0,0.0,0.0,0.0,0.0,0.0,0.0,0.0,0.0,0.0,0.0,0.0,0.0,False,0,0.9842700958251953,0.029936279296875
STABILIZE,0.9852826595306396,29.91465597786162,0.03243878682454427,0.032561302185058594,0.0,0.0,0.0,-0.7661948262795748,-1.314328819673911,-63.47367195698052,0.04805929170200247,-0.004270667293780601,-0.0043336171166805035,0.4,0.07167269518368771,-0.07329556803627563,0.800615838966282,-0.05737967675242321,-3.678293153643608,3.713656961917877,2.852091006934643,-3.840619639166401,-84.82894897460938,88.8141393661499,-42.280200123786926,0.0,0.0,0.0,0.0,0.0,0.0,0.0,0.0,0.0,0.0,0.0,0.0,0.0,0.0,0.0,0.0,False,0,1.0119471549987793,0.03492578125
STABILIZE,1.0188002586364746,29.835072519436917,0.03245356877644857,0.032576560974121094,0.0,0.0,0.0,-0.7749759415921252,-1.3241466829972752,-63.38017349743221,0.053267914762002835,0.0008655152207603082,0.001825497691642603,0.4,0.08546453364412504,-0.1161806249032506,0.818680590792301,0.004183484313238575,1.0673359967768192,-2.398800663650036,2.1903323009610176,3.7594565012591397,116.77852869033813,-154.111647605896,13.953857123851776,0.0,0.0,0.0,0.0,0.0,0.0,0.0,0.0,0.0,0.0,0.0,0.0,0.0,0.0,0.0,0.0,False,0,1.0407180786132812,0.034926025390625
STABILIZE,1.0521905422210693,29.94904604135725,0.032358678181966145,0.03247404098510742,0.0,0.0,0.0,-0.7794951255842937,-1.3224536498567583,-63.36048206205506,0.014548734342844519,0.0028068439588036084,0.00011926267784903404,0.4,0.08043130390280542,-0.09285536920221177,0.8198531352882985,-0.012793326340066032,-2.786771208047867,2.522674761712551,1.7416775226593018,-3.2514887159395327,-144.29218769073486,41.28570556640625,26.28023326396942,0.0,0.0,0.0,0.0,0.0,0.0,0.0,0.0,0.0,0.0,0.0,0.0,0.0,0.0,0.0,0.0,False,0,1.0978732109069824,0.03492626953125
STABILIZE,1.0856711864471436,29.86842892341874,0.03242638905843099,0.03257489204406738,0.0,0.0,0.0,-0.7703919775245476,-1.314472360368187,-63.474553051383445,-0.013108038902171123,-0.017956534244483274,-0.005434559308679966,0.4,0.030153680423431868,-0.051695015142482065,0.82896587536617,-0.06787711965559876,-2.786771208047867,2.522674761712551,1.7416775226593018,-3.2514887159395327,-144.29218769073486,41.28570556640625,26.28023326396942,0.0,0.0,0.0,0.0,0.0,0.0,0.0,0.0,0.0,0.0,0.0,0.0,0.0,0.0,0.0,0.0,False,0,1.129784345626831,0.03492626953125
STABILIZE,1.1191074848175049,29.907616833758787,0.032412322362264,0.03252696990966797,0.0,0.0,0.0,-0.7733057468966456,-1.3243632213383059,-63.40677708424941,-0.010250741831469255,-0.037796368967122754,0.0020304986412263294,0.4,-0.020456283300719157,-0.0909636967272405,0.8412409970995899,0.006728439355334612,-2.776385471224785,-2.3296792060136795,1.9646687433123589,4.508402965450316,-2.8806647285819054,-103.0908465385437,41.387635469436646,0.0,0.0,0.0,0.0,0.0,0.0,0.0,0.0,0.0,0.0,0.0,0.0,0.0,0.0,0.0,0.0,False,0,1.1570777893066406,0.034926025390625
STABILIZE,1.1525564193725586,29.895039949822166,0.0324132760365804,0.03253984451293945,0.0,0.0,0.0,-0.7740343359820155,-1.312732476398832,-63.43630399203138,0.00819790563711282,-0.005400775959736275,0.0011794629527608416,0.4,0.039141856380421294,-0.09154988610023172,0.8474392373751453,-0.0017700794511352298,3.7786152213811874,-0.018168578390032053,1.6342135146260262,-0.5026067271513814,141.17640256881714,55.669212341308594,31.055372953414917,0.0,0.0,0.0,0.0,0.0,0.0,0.0,0.0,0.0,0.0,0.0,0.0,0.0,0.0,0.0,0.0,False,0,1.1860451698303223,0.0348671875
STABILIZE,1.1860148906707764,29.888010033206495,0.03241470654805501,0.03253984451293945,0.0,0.0,0.0,-0.7720375195059918,-1.3156200455921605,-63.46100878625931,-0.01389160452606019,-0.005703312256901337,-0.004561958613490714,0.4,0.04977904312421103,-0.06380048843845365,0.8599013170627701,-0.05879129384803113,0.8060765452682972,1.6340065747499466,2.0420756191015244,-3.3650280177297125,-47.29167819023132,12.565253674983978,43.320003151893616,0.0,0.0,0.0,0.0,0.0,0.0,0.0,0.0,0.0,0.0,0.0,0.0,0.0,0.0,0.0,0.0,False,0,1.2142622470855713,0.029936767578125
STABILIZE,1.2195076942443848,29.857797773285117,0.032399686177571614,0.03253316879272461,0.0,0.0,0.0,-0.7754767331965048,-1.3197692787912376,-63.424317010038,0.004268293412065107,-0.024483771260632035,0.0018713907524857596,0.4,-0.021774282973793746,-0.09722794835851602,0.8719526964129336,0.005505351022881869,-4.121685773134232,-2.0772911608219147,2.365807257592678,3.8223403454001543,-94.49073672294617,-67.86249876022339,46.70182168483734,0.0,0.0,0.0,0.0,0.0,0.0,0.0,0.0,0.0,0.0,0.0,0.0,0.0,0.0,0.0,0.0,False,0,1.2430217266082764,0.03492626953125
STABILIZE,1.2528834342956543,29.961668416804176,0.032357009251912434,0.03248095512390137,0.0,0.0,0.0,-0.7730553777748823,-1.31714200383831,-63.44460267187294,0.020408805893235137,-0.02257070246964977,0.005479258574878054,0.4,-0.05794899540279914,-0.1086355331124407,0.8903916566953566,0.04130789700776721,2.348918467760086,1.337734144181013,1.4010152779519558,-1.735741032736531,104.41452264785767,57.13530778884888,4.7323934733867645,0.0,0.0,0.0,0.0,0.0,0.0,0.0,0.0,0.0,0.0,0.0,0.0,0.0,0.0,0.0,0.0,False,0,1.3005456924438477,0.039915771484375
STABILIZE,1.2863209247589111,29.90484474706784,0.03243592580159505,0.03255629539489746,0.0,0.0,0.0,-0.7742665090529431,-1.3179369738246758,-63.44899448350926,0.004901026368170132,0.0010321790242173294,0.002305231477733522,0.4,-0.016695190330909007,-0.09734815307229518,0.9012885761680545,0.009504053646839802,2.6179667562246323,0.655661104246974,1.712518371641636,-1.8923397680451752,51.87634229660034,-10.813337564468384,39.32526409626007,0.0,0.0,0.0,0.0,0.0,0.0,0.0,0.0,0.0,0.0,0.0,0.0,0.0,0.0,0.0,0.0,False,0,1.329289436340332,0.024947021484375
STABILIZE,1.3198435306549072,29.832950431387054,0.032406123479207356,0.032533884048461914,0.0,0.0,0.0,-0.7757105604538719,-1.3160540827695737,-63.436358633544735,-2.78702385676267e-05,-0.0010464608262949345,-0.000914483260227794,0.4,0.0269271185990206,-0.08306953827851786,0.8949554225817002,-0.022542245766382897,2.6179667562246323,0.655661104246974,1.712518371641636,-1.8923397680451752,51.87634229660034,-10.813337564468384,39.32526409626007,0.0,0.0,0.0,0.0,0.0,0.0,0.0,0.0,0.0,0.0,0.0,0.0,0.0,0.0,0.0,0.0,False,0,1.3580362796783447,0.024947021484375
STABILIZE,1.3533401489257812,29.85206009836089,0.03233054478963216,0.03248453140258789,0.0,0.0,0.0,-0.7731387807879505,-1.3195278742927599,-63.45615935194861,-0.001047853691325045,-0.005742299653532049,-0.002496015055185548,0.4,0.01920355139326054,-0.05511263996904677,0.8880956386594919,-0.038102410530816685,-0.40912660770118237,1.5363436192274094,1.6350915655493736,-0.9703804500310499,49.694809317588806,39.67798352241516,14.83086347579956,0.0,0.0,0.0,0.0,0.0,0.0,0.0,0.0,0.0,0.0,0.0,0.0,0.0,0.0,0.0,0.0,False,0,1.3866322040557861,0.06985205078125
STABILIZE,1.3867485523223877,29.93365686554382,0.03233292897542318,0.03246164321899414,0.0,0.0,0.0,-0.7758855306905006,-1.3186311985207841,-63.443222973660596,-0.005961321486472582,0.019944456588927125,-0.003084929766801704,0.4,0.0498790291910034,-0.07020797693128995,0.9327205593487795,-0.043699403403812516,1.7597941681742668,-0.8922968059778214,1.8632261082530022,-0.0023996642349223313,43.55846643447876,-58.43282341957092,17.217306792736053,0.0,0.0,0.0,0.0,0.0,0.0,0.0,0.0,0.0,0.0,0.0,0.0,0.0,0.0,0.0,0.0,False,0,1.4153532981872559,0.029936767578125
STABILIZE,1.420163631439209,29.927676456317606,0.032373936971028645,0.03249478340148926,0.0,0.0,0.0,-0.7775271239688308,-1.3149320107549876,-63.45102304969275,-0.008049403847344498,0.024287989150215673,-0.002052882527138619,0.4,0.03440218177853424,-0.07414045290751385,0.9282417448886904,-0.033157192346606065,-0.8108804002404213,-0.3630325896665454,1.6851216554641724,0.5588983715262762,-68.89938116073608,25.620976090431213,20.571094751358032,0.0,0.0,0.0,0.0,0.0,0.0,0.0,0.0,0.0,0.0,0.0,0.0,0.0,0.0,0.0,0.0,False,0,1.4440405368804932,0.034925048828125
STABILIZE,1.453587293624878,29.918710321706257,0.03238347371419271,0.03250598907470703,0.0,0.0,0.0,-0.7737912772970983,-1.3193656572999721,-63.4679141075102,-0.01045230930669198,0.0018131884388565504,-0.0019095228684609417,0.4,-0.010722126704275647,-0.05686245185711492,0.9371924643502771,-0.03151294615708088,-1.6294058412313461,1.106736995279789,2.0729724317789078,-0.5028571496339976,-21.81415855884552,27.71870791912079,21.929357945919037,0.0,0.0,0.0,0.0,0.0,0.0,0.0,0.0,0.0,0.0,0.0,0.0,0.0,0.0,0.0,0.0,False,0,1.5015344619750977,0.03492626953125
STABILIZE,1.487506628036499,29.481088907788656,0.03242305119832357,0.0329585075378418,0.0,0.0,0.0,-0.7784162224996961,-1.318055541639799,-63.43450082209049,-0.0018410611719841615,-0.005336697827514528,-0.00033770305989455325,0.4,0.0011728013645965953,-0.06998777608256178,0.9345687592396075,-0.01568846771556533,0.730662839487195,-0.8631131611764431,1.4946434646844864,0.8648364182728989,62.67993450164795,-52.27330923080444,20.167936384677887,0.0,0.0,0.0,0.0,0.0,0.0,0.0,0.0,0.0,0.0,0.0,0.0,0.0,0.0,0.0,0.0,False,0,1.5302414894104004,0.029936767578125
STABILIZE,1.5208954811096191,29.94840450978572,0.032357247670491536,0.03249073028564453,0.0,0.0,0.0,-0.7774885440721908,-1.3172765799093002,-63.456309616110346,0.0008663530891950863,-0.010581396641733432,-0.0011245151163347099,0.4,-0.02420913679637067,-0.053071070718661795,0.9307183587501411,-0.02340000815869246,-1.4082632958889008,0.820404663681984,1.7226340249180794,-0.4751707110290864,-52.77684926986694,17.967894673347473,21.105818450450897,0.0,0.0,0.0,0.0,0.0,0.0,0.0,0.0,0.0,0.0,0.0,0.0,0.0,0.0,0.0,0.0,False,0,1.5591754913330078,0.069852294921875
STABILIZE,1.5544259548187256,29.82573758950984,0.03243091901143392,0.03258371353149414,0.0,0.0,0.0,-0.7750161756752049,-1.31941656355363,-63.47517459859792,-0.009415861241705143,-0.026938295512505324,-0.0021298652067249686,0.4,-0.05650570005895067,-0.03580796252823423,0.9667811907996253,-0.0332310215521952,-1.4082632958889008,0.820404663681984,1.7226340249180794,-0.4751707110290864,-52.77684926986694,17.967894673347473,21.105818450450897,0.0,0.0,0.0,0.0,0.0,0.0,0.0,0.0,0.0,0.0,0.0,0.0,0.0,0.0,0.0,0.0,False,0,1.587655782699585,0.069852294921875
STABILIZE,1.5878183841705322,29.946480079965728,0.03235009511311849,0.03246951103210449,0.0,0.0,0.0,-0.7762132196881025,-1.3188679072642076,-63.44359180387578,-0.004999783897040372,-0.02979933023827523,0.00033293195860240456,0.4,-0.0799338335927336,-0.052485767561150976,0.9946341224352834,-0.008545907310097526,-0.7688573095947504,-0.9680670686066151,1.5670986846089363,1.2342115544833074,21.30213975906372,-40.58675169944763,17.714819312095642,0.0,0.0,0.0,0.0,0.0,0.0,0.0,0.0,0.0,0.0,0.0,0.0,0.0,0.0,0.0,0.0,True,0,1.6162917613983154,0.029936767578125
STABILIZE,1.6212754249572754,29.890352971358936,0.032416613896687825,0.03254294395446777,0.0,0.0,0.0,-0.7756998882832937,-1.318029181378471,-63.46540059789563,-0.0018321000219418914,-0.010834353613740862,-0.0015995863486230652,0.4,-0.05065932287871442,-0.04647181746079174,0.9783644379659326,-0.027685918412925562,1.3131076470017433,0.16767717897891998,1.4998061582446098,-0.9717045462346803,41.964030265808105,20.454785227775574,24.208077788352966,0.0,0.0,0.0,0.0,0.0,0.0,0.0,0.0,0.0,0.0,0.0,0.0,0.0,0.0,0.0,0.0,True,0,1.644944429397583,0.034926025390625
STABILIZE,1.655545949935913,29.179999860858917,0.032404454549153645,0.03330087661743164,0.0,0.0,0.0,-0.7760003098850685,-1.3190046177693135,-63.4643828997093,-0.010750963900757863,-0.016598792444237967,-0.002235077765509314,0.4,-0.06142301337646044,-0.031061009379615687,0.9756279070132877,-0.03380953377179369,-0.5800730548799038,0.6481314077973366,1.8706250935792923,-0.35224608898907445,-38.28808069229126,4.739481583237648,24.8288094997406,0.0,0.0,0.0,0.0,0.0,0.0,0.0,0.0,0.0,0.0,0.0,0.0,0.0,0.0,0.0,0.0,True,1,1.6737847328186035,0.03492626953125
STABILIZE,1.6889607906341553,29.92426015239291,0.03234985669453939,0.03247499465942383,0.0,0.0,0.0,-0.7754007473419884,-1.320032774682812,-63.45449278579112,0.0008570545437626978,-0.023334881359886005,0.0012368882492094742,0.4,-0.10720870002109012,-0.05063104860983553,0.9684834659329711,0.0009040757149285338,-1.175239309668541,-0.5875347647815943,1.6835030168294907,0.8114969097233306,13.244403898715973,0.8053288795053959,16.851909458637238,0.0,0.0,0.0,0.0,0.0,0.0,0.0,0.0,0.0,0.0,0.0,0.0,0.0,0.0,0.0,0.0,True,0,1.7309260368347168,0.039915771484375
STABILIZE,1.7224817276000977,29.83252605000178,0.032384665807088216,0.03252696990966797,0.0,0.0,0.0,-0.7747578557863609,-1.319724135509692,-63.47074863601575,0.0015095867511995306,-0.010152508045578271,-0.0001267217494348061,0.4,-0.08756297055539818,-0.03712658603819531,0.9661645776065715,-0.012647373221442505,0.9439750574529171,0.5770447663962841,1.6347527503967285,-0.7248055340957371,46.87366783618927,20.66592574119568,23.457802832126617,0.0,0.0,0.0,0.0,0.0,0.0,0.0,0.0,0.0,0.0,0.0,0.0,0.0,0.0,0.0,0.0,True,0,1.7598741054534912,0.024947021484375
STABILIZE,1.7557992935180664,30.013338294644647,0.032324822743733723,0.03243827819824219,0.0,0.0,0.0,-0.7774623972542744,-1.3190541366407962,-63.47006561709875,-0.0024369893133008233,-0.003400689411751372,6.84003238366755e-05,0.4,-0.08340510260528415,-0.0402187362381609,0.9515206023364797,-0.010625141460345362,0.01607003214303404,-0.26173735968768597,1.7115063965320587,0.0674656337538373,-29.90041971206665,-22.60683923959732,23.198503255844116,0.0,0.0,0.0,0.0,0.0,0.0,0.0,0.0,0.0,0.0,0.0,0.0,0.0,0.0,0.0,0.0,True,0,1.7883813381195068,0.03492578125
STABILIZE,1.7893614768981934,29.796074364019976,0.032433541615804036,0.032578468322753906,0.0,0.0,0.0,-0.7765117202991733,-1.3204738554928066,-63.46610410738014,0.00025721886504665115,-0.016472961721481723,0.0023881339399342855,0.4,-0.10507839434389976,-0.04286846586830149,0.9451424894381265,0.012488601572562439,-1.2262088246643543,-0.23496525827795267,1.5897709876298904,1.1650435094190579,-33.35603177547455,10.707373172044754,23.0984628200531,0.0,0.0,0.0,0.0,0.0,0.0,0.0,0.0,0.0,0.0,0.0,0.0,0.0,0.0,0.0,0.0,True,0,1.8171141147613525,0.029936279296875
STABILIZE,1.831207036972046,23.89698944825543,0.032347949345906575,0.04098939895629883,0.0,0.0,0.0,-0.7752662779927038,-1.3209662694432822,-63.47679335343121,0.0018345693610612502,-0.01359201580643162,0.0014116384115112545,0.4,-0.10338969456372817,-0.03214393931843002,0.9387921462609399,0.0027009837535110198,-0.07682667928747833,0.46773659996688366,1.8117006868124008,-0.532794615818104,37.6744419336319,8.864936977624893,20.068734884262085,0.0,0.0,0.0,0.0,0.0,0.0,0.0,0.0,0.0,0.0,0.0,0.0,0.0,0.0,0.0,0.0,True,0,1.8457601070404053,0.0349267578125
STABILIZE,1.8648300170898438,29.74282898049199,0.03247025807698568,0.03273725509643555,0.0,0.0,0.0,-0.7782429598103598,-1.3185749561818374,-63.473692447548025,-0.002045415823597927,-0.003177004756789632,0.0015843019453194243,0.4,-0.10522106811339224,-0.038041489086447666,0.9308430085493257,0.004398074228023271,-0.7809548638761044,0.036926401662640274,1.8108455464243889,-0.1600368284212465,-31.98879063129425,12.620653212070465,12.275824695825577,0.0,0.0,0.0,0.0,0.0,0.0,0.0,0.0,0.0,0.0,0.0,0.0,0.0,0.0,0.0,0.0,True,0,1.9090297222137451,0.03492626953125
STABILIZE,1.898301362991333,29.875236833482912,0.03243521054585775,0.032566070556640625,0.0,0.0,0.0,-0.7756925244855948,-1.320293495810036,-63.48620535410749,-0.0017302470914454036,-0.01119028229995804,0.0014251963921302897,0.4,-0.11702159454953168,-0.02688494408040262,0.9237742080197728,0.0027883598445662227,-0.7656171917915344,0.5182818975299597,1.467043999582529,-0.11013453253020776,-1.8960196524858475,5.14066256582737,22.841323912143707,0.0,0.0,0.0,0.0,0.0,0.0,0.0,0.0,0.0,0.0,0.0,0.0,0.0,0.0,0.0,0.0,True,0,1.937696933746338,0.029935791015625
STABILIZE,1.9317374229431152,29.908256619057465,0.032378228505452473,0.03250551223754883,0.0,0.0,0.0,-0.7751587558741289,-1.3203587027722685,-63.48559063708219,-0.006280043444305445,-0.015096913166025032,0.0012478277413370468,0.4,-0.1273559498883081,-0.016027237618948174,0.9126286050549318,0.0010079321196389038,-0.7656171917915344,0.5182818975299597,1.467043999582529,-0.11013453253020776,-1.8960196524858475,5.14066256582737,22.841323912143707,0.0,0.0,0.0,0.0,0.0,0.0,0.0,0.0,0.0,0.0,0.0,0.0,0.0,0.0,0.0,0.0,True,0,1.9672226905822754,0.029935791015625
STABILIZE,1.9651713371276855,29.909962847016708,0.03242352803548177,0.03254413604736328,0.0,0.0,0.0,-0.7762952353189956,-1.3194749403266923,-63.479880598936056,-0.0041440430349217044,-0.004552414348688263,0.0016325479608201238,0.4,-0.10806878524956604,-0.02477885931966623,0.9052998600942996,0.004822879477381083,0.8868090808391571,-0.5666902288794518,1.6363279893994331,0.20325629113753024,31.539583206176758,-20.29247134923935,18.795520067214966,0.0,0.0,0.0,0.0,0.0,0.0,0.0,0.0,0.0,0.0,0.0,0.0,0.0,0.0,0.0,0.0,True,0,1.9958148002624512,0.034927001953125
STABILIZE,1.998729944229126,29.79967317939609,0.03242972691853841,0.03255796432495117,0.0,0.0,0.0,-0.7761193045870148,-1.3203415205776377,-63.49280331684572,-0.002791475146082917,-0.004705417458005844,0.0018033794250277267,0.4,-0.10738629347809894,-0.021163370484587336,0.9016695242828215,0.006487793708832981,-0.10041405912488699,0.12631171848624945,1.5678007155656815,0.0770248170026007,-14.169831573963165,14.8866668343544,21.589387953281403,0.0,0.0,0.0,0.0,0.0,0.0,0.0,0.0,0.0,0.0,0.0,0.0,0.0,0.0,0.0,0.0,True,0,2.024761915206909,0.03492626953125
STABILIZE,2.0320727825164795,29.990590186909206,0.03231504758199056,0.032430171966552734,0.0,0.0,0.0,-0.775678757385549,-1.3222678473669929,-63.48959312793581,-0.006885952120303725,-0.007833069321870141,0.0018504263449489722,0.4,-0.120058747407505,-0.014155380833651796,0.9018786128069058,0.006912045210722401,-0.8653107099235058,0.3222602652385831,1.7790008336305618,0.00955444747306936,-22.15346097946167,1.1974776163697243,19.76042091846466,0.0,0.0,0.0,0.0,0.0,0.0,0.0,0.0,0.0,0.0,0.0,0.0,0.0,0.0,0.0,0.0,True,0,2.053229808807373,0.03492578125
STABILIZE,2.0656683444976807,29.764991413202377,0.032410653432210286,0.032611846923828125,0.0,0.0,0.0,-0.7780435503031072,-1.3198811231388965,-63.49361610935696,-0.003885172261084459,0.0018824649709800949,0.0014386238295012801,0.4,-0.09526188876448882,-0.013151254670449997,0.8985658715095368,0.002775421579793931,1.004790049046278,0.4117890726774931,1.8455145880579948,-0.3498976778533537,11.83973252773285,13.117851316928864,19.446086883544922,0.0,0.0,0.0,0.0,0.0,0.0,0.0,0.0,0.0,0.0,0.0,0.0,0.0,0.0,0.0,0.0,True,0,2.110621452331543,0.034926025390625
STABILIZE,2.099198341369629,29.827010190512084,0.03234675725301107,0.032477378845214844,0.0,0.0,0.0,-0.7764817848607015,-1.3194503943343625,-63.50026871360855,-0.0007563841204467484,0.0013783063730058232,0.0014058910671939666,0.4,-0.10585432617817836,-0.012791029891736104,0.8930644998319264,0.0024318142735454303,-0.7775747682899237,-0.0448346312623471,1.4040203765034676,-0.02599724744580236,-27.14931070804596,-2.704884111881256,22.13534116744995,0.0,0.0,0.0,0.0,0.0,0.0,0.0,0.0,0.0,0.0,0.0,0.0,0.0,0.0,0.0,0.0,True,0,2.139305353164673,0.02993603515625
STABILIZE,2.1325671672821045,29.96744830739772,0.03225091298421224,0.03237175941467285,0.0,0.0,0.0,-0.7771895098525912,-1.3194950040073792,-63.4956788264863,-0.004057044372051564,-0.004965330605555188,0.002301107634391778,0.4,-0.11196435390923672,-0.010736446190429972,0.8807443107480395,0.01130835159125642,-0.5625832825899124,0.06574655417352915,1.2457906268537045,0.5186995599704306,13.76972496509552,3.361709415912628,21.72112464904785,0.0,0.0,0.0,0.0,0.0,0.0,0.0,0.0,0.0,0.0,0.0,0.0,0.0,0.0,0.0,0.0,True,0,2.167996406555176,0.034926025390625
STABILIZE,2.174886703491211,23.629482318608698,0.03224232991536458,0.04113054275512695,0.0,0.0,0.0,-0.7764277836775761,-1.3197965995479177,-63.50195577033354,-0.0038332970762754554,-0.0032702475632281455,0.0016094762781421212,0.4,-0.10375877784468616,-0.0075819607781817365,0.8754521321813881,0.004355286395484662,0.3189834300428629,0.12611583806574345,1.3828739523887634,-0.4142398207430192,0.24396423250436783,3.3157840371131897,21.818599104881287,0.0,0.0,0.0,0.0,0.0,0.0,0.0,0.0,0.0,0.0,0.0,0.0,0.0,0.0,0.0,0.0,True,0,2.1967251300811768,0.03492578125
STABILIZE,2.208192825317383,30.022361244327374,0.032227309544881184,0.032465219497680664,0.0,0.0,0.0,-0.7762246389106211,-1.3181624767889921,-63.50285735530398,-0.0017994445087084108,0.0018732851491749195,0.0013525188699095364,0.4,-0.09610723615856698,-0.007392097216743455,0.871302822676899,0.001773808274891286,-0.21733895409852266,-0.22141810040920973,1.7518790438771248,0.2637539446589777,-24.268847703933716,-10.316937416791916,25.859826803207397,0.0,0.0,0.0,0.0,0.0,0.0,0.0,0.0,0.0,0.0,0.0,0.0,0.0,0.0,0.0,0.0,True,0,2.2544639110565186,0.029937255859375
STABILIZE,2.2417314052581787,29.818316247458448,0.03249171574910482,0.03260397911071777,0.0,0.0,0.0,-0.7760667441469175,-1.3193883890233036,-63.502215317522,-0.0021026783626063275,-0.006645075593856776,0.0016190269949806792,0.4,-0.10533768414167238,-0.00558195239841497,0.8673661148709566,0.004409386413688615,-0.7511743810027838,0.06818996043875813,1.68534517288208,0.15723427640678597,-5.601001530885696,5.306120216846466,17.515064775943756,0.0,0.0,0.0,0.0,0.0,0.0,0.0,0.0,0.0,0.0,0.0,0.0,0.0,0.0,0.0,0.0,True,0,2.283482789993286,0.03492578125
STABILIZE,2.2751994132995605,29.878003433513083,0.0323825200398763,0.03252100944519043,0.0,0.0,0.0,-0.7753582721030873,-1.3193841201550722,-63.509612412393125,-0.002624588524642372,-0.006883485035882081,0.001891851559118177,0.4,-0.11518436221323759,-0.0036925034900857526,0.8679440834981463,0.007090156803911913,-0.7511743810027838,0.06818996043875813,1.68534517288208,0.15723427640678597,-5.601001530885696,5.306120216846466,17.515064775943756,0.0,0.0,0.0,0.0,0.0,0.0,0.0,0.0,0.0,0.0,0.0,0.0,0.0,0.0,0.0,0.0,True,0,2.3121793270111084,0.03492578125
STABILIZE,2.308692216873169,29.8582228739838,0.03237489064534505,0.032506465911865234,0.0,0.0,0.0,-0.7752595545252395,-1.3185562798833257,-63.50892256328695,-0.003604050454602722,-0.0026049794138600243,0.001100012309322988,0.4,-0.10502316650589547,0.001075658185948681,0.8641110663712175,-0.0008227334304074449,0.4300015978515148,0.24079878348857164,1.4223811216652393,-0.46747068659610197,20.723800361156464,-0.5301882978528738,17.226454615592957,0.0,0.0,0.0,0.0,0.0,0.0,0.0,0.0,0.0,0.0,0.0,0.0,0.0,0.0,0.0,0.0,True,0,2.340750217437744,0.034926025390625
STABILIZE,2.342184066772461,29.85928567869067,0.03232291539510091,0.03244829177856445,0.0,0.0,0.0,-0.7750489392388797,-1.3181144520213903,-63.50894305385446,-0.0014856609135192878,-0.0020893534732265,0.0012254304051612036,0.4,-0.09753542495039144,-0.0030255855300524337,0.8661322636065222,0.00042858161404821953,0.26158890686929226,-0.2794023836031556,1.766517013311386,0.07750826632979067,-8.57110545039177,-6.439116597175598,17.29424297809601,0.0,0.0,0.0,0.0,0.0,0.0,0.0,0.0,0.0,0.0,0.0,0.0,0.0,0.0,0.0,0.0,True,0,2.369558334350586,0.02993701171875
STABILIZE,2.3770225048065186,28.701766871501498,0.03227809270222982,0.03399038314819336,0.0,0.0,0.0,-0.7730907560203488,-1.3186494479324729,-63.5182730922607,-0.0030869751019273837,-0.0057093913588773795,0.001355637085019561,0.4,-0.10414106571944692,0.0021438515245516634,0.8585845582371583,0.0017186161849847665,-0.6045252550393343,0.2820851746946573,1.4348730444908142,0.07911612220888077,-14.47790265083313,9.337801486253738,18.120911717414856,0.0,0.0,0.0,0.0,0.0,0.0,0.0,0.0,0.0,0.0,0.0,0.0,0.0,0.0,0.0,0.0,True,1,2.399284601211548,0.0399150390625
STABILIZE,2.411297559738159,29.17472263763781,0.03249076207478841,0.03336358070373535,0.0,0.0,0.0,-0.773890101596652,-1.3182919302181049,-63.516538224211516,-0.0034251381952180465,-0.00298086228735571,0.001332506342852555,0.4,-0.10216077063900099,0.004827594001194062,0.859390067452758,0.0014772003595368167,-0.02161274169338867,-0.2306770533323288,1.6236037015914917,0.21309240387258327,2.8851740062236786,-6.05488196015358,23.4898179769516,0.0,0.0,0.0,0.0,0.0,0.0,0.0,0.0,0.0,0.0,0.0,0.0,0.0,0.0,0.0,0.0,True,0,2.4558513164520264,0.02993701171875
STABILIZE,2.4455313682556152,29.212924075583135,0.03240683873494466,0.03311443328857422,0.0,0.0,0.0,-0.7738570178678597,-1.3186052651462794,-63.51794524318054,-0.004020370407262558,-0.001186438306377625,0.0013780595572423346,0.4,-0.10411434998506351,0.008351132561009111,0.8567971990934954,0.0019196595351504062,-0.3307876642793417,0.19742376171052456,1.700078323483467,0.028824372133019065,-14.783322811126709,9.579189121723175,25.013870000839233,0.0,0.0,0.0,0.0,0.0,0.0,0.0,0.0,0.0,0.0,0.0,0.0,0.0,0.0,0.0,0.0,True,0,2.484236001968384,0.034926025390625
STABILIZE,2.478860378265381,30.00389149593682,0.03218868573506673,0.032325029373168945,0.0,0.0,0.0,-0.7721100902659231,-1.319090315299056,-63.524973507836485,-0.003830514096627779,-0.004348225912770835,0.0014255827275697769,0.4,-0.10665444999129504,0.012045342054946374,0.8586609100338016,0.0023789831543825266,-0.3307876642793417,0.19742376171052456,1.700078323483467,0.028824372133019065,-14.783322811126709,9.579189121723175,25.013870000839233,0.0,0.0,0.0,0.0,0.0,0.0,0.0,0.0,0.0,0.0,0.0,0.0,0.0,0.0,0.0,0.0,True,0,2.5130085945129395,0.034926025390625
STABILIZE,2.51220703125,29.987373899863442,0.0323214848836263,0.0324406623840332,0.0,0.0,0.0,-0.7722920507742805,-1.3186346136153693,-63.52335475300319,-0.00552731609702855,-0.0066396569040192335,0.0013866875959366873,0.4,-0.10836615180580729,0.013445966878806177,0.8543276153128955,0.001976813972143779,-0.2816733671352267,0.06316778599284589,1.3324123807251453,-0.022458609146140736,-5.294378846883774,-2.3674024268984795,16.02514684200287,0.0,0.0,0.0,0.0,0.0,0.0,0.0,0.0,0.0,0.0,0.0,0.0,0.0,0.0,0.0,0.0,True,0,2.5469908714294434,0.034926025390625
STABILIZE,2.545745372772217,29.81958821522011,0.0323975404103597,0.03252434730529785,0.0,0.0,0.0,-0.7723010153975661,-1.3175219331108918,-63.52942679117533,-0.005722795795653569,-0.003586536635441552,0.000889703190062907,0.4,-0.10276476236397183,0.01844305633636392,0.8665831644610912,-0.0029731388616791535,0.15036279801279306,0.2805589931085706,2.3208413273096085,-0.2912747778569425,-1.344330981373787,5.883658677339554,27.14204490184784,0.0,0.0,0.0,0.0,0.0,0.0,0.0,0.0,0.0,0.0,0.0,0.0,0.0,0.0,0.0,0.0,True,0,2.574939012527466,0.034926025390625
STABILIZE,2.5791568756103516,29.92596820685522,0.032309802373250325,0.03243827819824219,0.0,0.0,0.0,-0.7714388107365578,-1.3181496701842983,-63.53026007425407,-0.004301193390587034,-0.005576620925220882,0.0013189839757700935,0.4,-0.10816084303431488,0.016525662669944916,0.8638767489353616,0.0013108892369184067,-0.5056063178926706,-0.12615639716386795,1.4299141243100166,0.25762974625313567,-4.153758659958839,-5.914270132780075,25.400322675704956,0.0,0.0,0.0,0.0,0.0,0.0,0.0,0.0,0.0,0.0,0.0,0.0,0.0,0.0,0.0,0.0,True,0,2.6035187244415283,0.03492578125
STABILIZE,2.613046169281006,29.51116614834724,0.03236869176228841,0.03249049186706543,0.0,0.0,0.0,-0.7719717789352304,-1.3191541348791134,-63.53102505544111,-0.00329714167765996,-0.005081141557460284,0.001661329183093953,0.4,-0.10795237885713188,0.016610176184903354,0.8617074681634227,0.004702937740486002,-0.17284980276599526,-0.0011948967767239083,1.4678365550935268,0.20108208984628442,5.123193934559822,-1.9397750496864319,21.25217318534851,0.0,0.0,0.0,0.0,0.0,0.0,0.0,0.0,0.0,0.0,0.0,0.0,0.0,0.0,0.0,0.0,True,1,2.632249355316162,0.029937255859375
STABILIZE,2.6460044384002686,30.338107224488613,0.03191355069478353,0.032056331634521484,0.0,0.0,0.0,-0.7711530100084751,-1.3195867846743512,-63.53647554639878,-0.002584713718426233,-0.002897600156308553,0.0015407713630408051,0.4,-0.10223190144916385,0.0177763742617451,0.8632482068339496,0.0034741047697060268,-0.2960251644253731,-0.06836476968601346,1.750224083662033,-0.21520560036876177,-5.3870536386966705,-2.0522620528936386,20.082323253154755,0.0,0.0,0.0,0.0,0.0,0.0,0.0,0.0,0.0,0.0,0.0,0.0,0.0,0.0,0.0,0.0,True,0,2.689749002456665,0.03492626953125
STABILIZE,2.679460287094116,29.890352971358936,0.03242376645406087,0.03253912925720215,0.0,0.0,0.0,-0.7708306570961623,-1.319881870190837,-63.536202338831984,-0.0017578617222888855,-0.003018087255696462,0.0011718700995542416,0.4,-0.1040558447045321,0.016546563847136764,0.8661415564721089,-0.00021348030762535644,-0.2960251644253731,-0.06836476968601346,1.750224083662033,-0.21520560036876177,-5.3870536386966705,-2.0522620528936386,20.082323253154755,0.0,0.0,0.0,0.0,0.0,0.0,0.0,0.0,0.0,0.0,0.0,0.0,0.0,0.0,0.0,0.0,True,0,2.7183985710144043,0.03492626953125
STABILIZE,2.712876796722412,29.924473648537774,0.032399686177571614,0.03251767158508301,0.0,0.0,0.0,-0.7701723442540493,-1.3193064267532635,-63.540266301388144,-0.00152221079858265,-0.0046185539049272886,0.001093685254882536,0.4,-0.10491476478715854,0.020302458833503238,0.8668221850904184,-0.0009887167132086566,-0.23842474911361933,0.22986340336501598,1.6231946647167206,-0.04066251736746599,4.564374685287476,3.968779370188713,26.165559887886047,0.0,0.0,0.0,0.0,0.0,0.0,0.0,0.0,0.0,0.0,0.0,0.0,0.0,0.0,0.0,0.0,True,0,2.7513718605041504,0.034926025390625
STABILIZE,2.746450185775757,29.788033095415646,0.032421382268269856,0.032595157623291016,0.0,0.0,0.0,-0.7700833383514276,-1.3188220169307214,-63.54213777322072,-0.002773812762371073,-0.00095817676284959,0.0004929461020287443,0.4,-0.09634305726238883,0.022326745375827694,0.8727500846795632,-0.006949557534186281,0.3153230296447873,0.1284994650632143,1.9366918131709099,-0.34555490484084206,5.0834257155656815,-0.02070889313472435,18.648342788219452,0.0,0.0,0.0,0.0,0.0,0.0,0.0,0.0,0.0,0.0,0.0,0.0,0.0,0.0,0.0,0.0,True,0,2.7799973487854004,0.029936767578125
STABILIZE,2.7798194885253906,29.96659188660103,0.03234246571858724,0.03245949745178223,0.0,0.0,0.0,-0.7716771203055678,-1.318373465601322,-63.54122935806111,-0.0019624591380664603,-0.0007707214720913981,0.0006538303447021953,0.4,-0.09542406117494838,0.019964586682204816,0.8633087609891092,-0.005305247155098605,-0.1617341418750584,-0.1141250366345048,1.281523797661066,0.09712336900687725,-6.574832648038864,-2.1233022212982178,16.86629354953766,0.0,0.0,0.0,0.0,0.0,0.0,0.0,0.0,0.0,0.0,0.0,0.0,0.0,0.0,0.0,0.0,True,0,2.809055805206299,0.03492626953125
STABILIZE,2.813340187072754,29.831465149359886,0.03241399129231771,0.032562255859375,0.0,0.0,0.0,-0.771593984096764,-1.3178204337219626,-63.54295739592113,-0.0026673844792388405,-0.0027820938883444265,0.000500087334395886,0.4,-0.09766331490483805,0.023109581573014612,0.8575309258308469,-0.006797153888875068,-0.3224708838388324,0.20126437302678823,1.2309647165238857,-0.08394286481689804,-4.457098990678787,1.9114293158054352,20.08015513420105,0.0,0.0,0.0,0.0,0.0,0.0,0.0,0.0,0.0,0.0,0.0,0.0,0.0,0.0,0.0,0.0,True,0,2.8382577896118164,0.034926025390625
STABILIZE,2.847379207611084,29.37763707169473,0.032361777623494466,0.03298473358154297,0.0,0.0,0.0,-0.7714916379809197,-1.3172198039618246,-63.54982856622616,-0.0037384046779788066,-0.001474416248686261,0.00021608173185453077,0.4,-0.09443544738726369,0.02522954280006852,0.8636723742478509,-0.009572252941185763,0.0030071649234741926,0.14140962157398462,1.9446676596999168,-0.1604440784505085,2.8189636766910553,-1.8873140215873718,22.486048936843872,0.0,0.0,0.0,0.0,0.0,0.0,0.0,0.0,0.0,0.0,0.0,0.0,0.0,0.0,0.0,0.0,True,1,2.8673315048217773,0.029936767578125
STABILIZE,2.8814618587493896,29.341261568811255,0.03226164182027181,0.033194780349731445,0.0,0.0,0.0,-0.7715072727108166,-1.3173984560973027,-63.550019811522915,-0.002000727133222732,-0.0006891709143899768,-0.0002915187104354383,0.4,-0.09224710258628277,0.023338861466896142,0.863985027116288,-0.014548625579652424,-0.2917274134233594,-0.18833966460078955,1.7141418531537056,-0.15076898208905323,-5.640752241015434,0.07197933737188578,24.193085730075836,0.0,0.0,0.0,0.0,0.0,0.0,0.0,0.0,0.0,0.0,0.0,0.0,0.0,0.0,0.0,0.0,True,0,2.9247026443481445,0.0399150390625
STABILIZE,2.915048122406006,29.773654284355413,0.03241923650105794,0.032631635665893555,0.0,0.0,0.0,-0.7713546073106963,-1.3180382527234624,-63.55418622691663,-0.0023269386523378714,-0.002951028104838048,-0.00017727993799626055,0.4,-0.09294973868431972,0.02611736463008096,0.8652789962973918,-0.01331691557772707,-0.20138134714215994,0.17618057318031788,1.3679440133273602,0.08654686776785879,-4.426407068967819,3.8090992718935013,14.4880011677742,0.0,0.0,0.0,0.0,0.0,0.0,0.0,0.0,0.0,0.0,0.0,0.0,0.0,0.0,0.0,0.0,True,0,2.953206777572632,0.02993701171875
STABILIZE,2.9485247135162354,29.872257990997664,0.032385857899983723,0.03251504898071289,0.0,0.0,0.0,-0.770861979916809,-1.3174343145904452,-63.5556956987232,-0.0037375525261990963,-0.0033997356542831703,-0.00013048653520118542,0.4,-0.09370286965831,0.028210884500473623,0.861696170089024,-0.012763597022707858,-0.2509328769519925,0.16432850388810039,1.6115406528115273,0.02014330841963864,-6.427408009767532,-1.8344013020396233,23.138664662837982,0.0,0.0,0.0,0.0,0.0,0.0,0.0,0.0,0.0,0.0,0.0,0.0,0.0,0.0,0.0,0.0,True,0,2.9818856716156006,0.02993603515625
STABILIZE,2.981954336166382,29.912949214431915,0.032352479298909505,0.03250455856323242,0.0,0.0,0.0,-0.772220547231407,-1.3188171077322555,-63.55849607628291,-0.0034872172738827506,-0.003102757837666291,-8.265475348102945e-05,0.4,-0.094487326669879,0.03025941995557884,0.8584526490855382,-0.012203603619131517,-0.2509328769519925,0.16432850388810039,1.6115406528115273,0.02014330841963864,-6.427408009767532,-1.8344013020396233,23.138664662837982,0.0,0.0,0.0,0.0,0.0,0.0,0.0,0.0,0.0,0.0,0.0,0.0,0.0,0.0,0.0,0.0,True,0,3.0106334686279297,0.02993603515625
STABILIZE,3.0153956413269043,29.903565495754343,0.03239444096883138,0.03251028060913086,0.0,0.0,0.0,-0.7722558187551677,-1.3194224332474478,-63.56189751048957,-0.004177847564634032,-0.004269871798785359,-0.00013685539749048645,0.4,-0.09587300115884767,0.03417870978232648,0.8521000865016574,-0.01266095024189189,-0.28592348098754883,0.2810677047818899,1.4029649086296558,-0.0421747505981759,-4.803641885519028,2.1244237199425697,22.699275612831116,0.0,0.0,0.0,0.0,0.0,0.0,0.0,0.0,0.0,0.0,0.0,0.0,0.0,0.0,0.0,0.0,True,0,3.0393142700195312,0.06985302734375
STABILIZE,3.050121784210205,28.79714383796773,0.03239157994588216,0.0337824821472168,0.0,0.0,0.0,-0.7741823056270816,-1.320642689231353,-63.56358456721456,-0.005276834343270242,-0.005922752728040745,4.676865431993155e-05,0.4,-0.10001600512518767,0.03585096829058879,0.8812718044661536,-0.010750101125147127,-0.22742492146790028,-0.0036131605156697333,1.5843573957681656,0.14709032491140633,-1.2544913217425346,-1.740284450352192,23.732078075408936,0.0,0.0,0.0,0.0,0.0,0.0,0.0,0.0,0.0,0.0,0.0,0.0,0.0,0.0,0.0,0.0,True,1,3.067932605743408,0.02993701171875
STABILIZE,3.0835227966308594,29.938784833257195,0.03237727483113607,0.03249382972717285,0.0,0.0,0.0,-0.7733899503225071,-1.3213964646392873,-63.56496426542691,-0.004302983843575835,-0.004618859495425197,0.00029557588933365865,0.4,-0.09587614122226658,0.03539938598430782,0.8677181113126818,-0.0082071341884587,0.028555028256960213,0.10302495211362839,1.498414110392332,-0.04467836844463598,-8.04409608244896,0.20794614683836699,18.60721707344055,0.0,0.0,0.0,0.0,0.0,0.0,0.0,0.0,0.0,0.0,0.0,0.0,0.0,0.0,0.0,0.0,True,0,3.1259777545928955,0.03492724609375
STABILIZE,3.1169393062591553,29.92596820685522,0.032413514455159505,0.032541751861572266,0.0,0.0,0.0,-0.7729463615524266,-1.3210862246405806,-63.568857473253814,-0.004010149183298924,-0.003398873022539986,0.00024223659428750403,0.4,-0.09208618708346591,0.036378619753136304,0.865107440085552,-0.008682462360421276,0.028555028256960213,0.10302495211362839,1.498414110392332,-0.04467836844463598,-8.04409608244896,0.20794614683836699,18.60721707344055,0.0,0.0,0.0,0.0,0.0,0.0,0.0,0.0,0.0,0.0,0.0,0.0,0.0,0.0,0.0,0.0,True,0,3.154592514038086,0.03492724609375
STABILIZE,3.1514079570770264,29.010866182034487,0.03244784673055013,0.033539772033691406,0.0,0.0,0.0,-0.7730912896288777,-1.322492389835957,-63.57050354884379,-0.002718954939469981,-0.0036951991548910676,0.00023100302226232265,0.4,-0.09379100852917335,0.03427375770066352,0.8666098384874369,-0.008734647502287127,-0.2839180175215006,-0.06997552118264139,1.728406548500061,-0.020109117453148907,-1.3927964493632317,0.2409301931038499,22.203338146209717,0.0,0.0,0.0,0.0,0.0,0.0,0.0,0.0,0.0,0.0,0.0,0.0,0.0,0.0,0.0,0.0,True,0,3.1832778453826904,0.0299052734375
STABILIZE,3.184839963912964,29.91145595618439,0.03238967259724935,0.03253364562988281,0.0,0.0,0.0,-0.7720962164441716,-1.3223153385260655,-63.573297096214326,-0.0021902818409295357,-0.002716491983156767,0.0004070726083699556,0.4,-0.09140661594432141,0.03618352775136377,0.8576172814944534,-0.006927606111187534,-0.07123655523173511,0.17485389253124595,1.3580650091171265,0.08448846619749248,-1.1560490354895592,4.118671640753746,19.801636040210724,0.0,0.0,0.0,0.0,0.0,0.0,0.0,0.0,0.0,0.0,0.0,0.0,0.0,0.0,0.0,0.0,True,0,3.212453603744507,0.034926025390625
STABILIZE,3.2183032035827637,29.882260741943988,0.0324275811513265,0.0325617790222168,0.0,0.0,0.0,-0.7727807294650537,-1.3234083822366791,-63.57720396441957,-0.002121775352268274,-0.0003981728113675461,0.0005896321134542079,0.4,-0.0864601170491208,0.03740377664270514,0.8529917352077502,-0.005068098345732132,0.10124502005055547,0.12139934115111828,1.349428202956915,0.08905112594455356,-5.316401273012161,-1.8411213532090187,15.043613314628601,0.0,0.0,0.0,0.0,0.0,0.0,0.0,0.0,0.0,0.0,0.0,0.0,0.0,0.0,0.0,0.0,True,0,3.24190616607666,0.03492724609375
STABILIZE,3.251866340637207,29.797132748895297,0.03238633473714193,0.03261828422546387,0.0,0.0,0.0,-0.7723106203510864,-1.3238081617465365,-63.578617813577765,-0.002024597792401827,0.0019158590856435329,0.0004829081545456782,0.4,-0.07454213440516612,0.03668900040968986,0.8474081397838777,-0.006094454865806154,0.1537048490718007,0.0406140141421929,1.5674132853746414,-0.04648302581929367,5.1655493676662445,0.20690986420959234,20.437975227832794,0.0,0.0,0.0,0.0,0.0,0.0,0.0,0.0,0.0,0.0,0.0,0.0,0.0,0.0,0.0,0.0,True,0,3.2994704246520996,0.029935791015625
STABILIZE,3.285393714904785,29.826373876436456,0.032395156224568684,0.032520294189453125,0.0,0.0,0.0,-0.7727872394891064,-1.324529173590796,-63.581534304353355,-0.0012587912223244453,0.0009767691574275798,0.0007780543991402018,0.4,-0.07460384528418441,0.035254267513029874,0.841217705035632,-0.0031220992441577,-0.19289833726361394,-0.014977030514273793,1.4574529603123665,0.15803886468688555,-2.022407576441765,0.18846129532903433,20.19873708486557,0.0,0.0,0.0,0.0,0.0,0.0,0.0,0.0,0.0,0.0,0.0,0.0,0.0,0.0,0.0,0.0,True,0,3.3282604217529297,0.034926025390625
STABILIZE,3.3187999725341797,29.93365686554382,0.032317193349202473,0.032456159591674805,0.0,0.0,0.0,-0.7734777289255124,-1.3242271511634345,-63.583726795076934,-0.001792523273994274,0.0025828118452707743,0.0004376277357145378,0.4,-0.07021959184057082,0.03500515577792577,0.8427013015287493,-0.006482993866966284,0.08167042979039252,0.04152385226916522,1.65388323366642,-0.21280244099797507,4.730892926454544,-1.7161060124635696,21.49212807416916,0.0,0.0,0.0,0.0,0.0,0.0,0.0,0.0,0.0,0.0,0.0,0.0,0.0,0.0,0.0,0.0,True,0,3.356905460357666,0.03492626953125
STABILIZE,3.352288246154785,29.862474546826718,0.032378228505452473,0.03250432014465332,0.0,0.0,0.0,-0.7732555876949283,-1.324276243148094,-63.58649985187996,-0.0011360908920568537,0.002581779702688457,0.0003865351315436756,0.4,-0.06813176169743344,0.03473186955911484,0.8401226365412308,-0.006947452538746555,-0.05055274814367294,0.04152008332312107,1.41835305839777,-0.04075424467358515,-3.809235244989395,0.1347032724879682,19.90901380777359,0.0,0.0,0.0,0.0,0.0,0.0,0.0,0.0,0.0,0.0,0.0,0.0,0.0,0.0,0.0,0.0,True,0,3.3859517574310303,0.029936767578125
STABILIZE,3.3856401443481445,29.982872256773177,0.032324822743733723,0.03245210647583008,0.0,0.0,0.0,-0.772313288393731,-1.3234608893159236,-63.591014606921334,-0.0009265700362092914,0.0009736992096426355,0.00023468586013905448,0.4,-0.06960481510748992,0.03517834597985937,0.8350614949090726,-0.0084097037708418,-0.26269343215972185,0.09613560396246612,1.5029492788016796,-0.10135174302089778,1.5232859179377556,2.0243698731064796,17.155705392360687,0.0,0.0,0.0,0.0,0.0,0.0,0.0,0.0,0.0,0.0,0.0,0.0,0.0,0.0,0.0,0.0,True,0,3.4144248962402344,0.034926025390625
STABILIZE,3.4191720485687256,29.82319271325877,0.03242996533711751,0.032569169998168945,0.0,0.0,0.0,-0.772215157785265,-1.3239773156502002,-63.59233283343115,-0.001363140978775256,-0.002358773867685247,7.676082812601323e-05,0.4,-0.07131079971732855,0.035828732237515586,0.8342568564185636,-0.009922475484843615,-0.26269343215972185,0.09613560396246612,1.5029492788016796,-0.10135174302089778,1.5232859179377556,2.0243698731064796,17.155705392360687,0.0,0.0,0.0,0.0,0.0,0.0,0.0,0.0,0.0,0.0,0.0,0.0,0.0,0.0,0.0,0.0,True,0,3.4431262016296387,0.034926025390625
STABILIZE,3.4593722820281982,24.874297236389516,0.03234437306722005,0.03917360305786133,0.0,0.0,0.0,-0.7709947417188012,-1.322552047269489,-63.595823060097025,-0.001434880056991613,-0.0021666925980306172,-0.00022019434829604278,0.4,-0.0704993319179822,0.034547641429676555,0.8308523674642655,-0.012789374496592563,-0.1307828351855278,0.03364400763530284,1.5817174687981606,-0.09391695537731327,-5.830400809645653,0.21708288695663214,21.231408417224884,0.0,0.0,0.0,0.0,0.0,0.0,0.0,0.0,0.0,0.0,0.0,0.0,0.0,0.0,0.0,0.0,True,0,3.5010104179382324,0.02993701171875
STABILIZE,3.4927279949188232,29.97965762481684,0.0323055108388265,0.032423973083496094,0.0,0.0,0.0,-0.7706606494188524,-1.3226871569490082,-63.597175437552686,-0.0017320714371259515,-0.0022866581032881905,-0.00044734460853482097,0.4,-0.06712850594201172,0.03519597705334023,0.8249769061064604,-0.014960898173493664,0.03306252183392644,0.10975735494866967,1.4365432783961296,-0.14777994723395282,1.5608228743076324,2.0693214610219,17.128853499889374,0.0,0.0,0.0,0.0,0.0,0.0,0.0,0.0,0.0,0.0,0.0,0.0,0.0,0.0,0.0,0.0,True,0,3.529132127761841,0.03492578125
STABILIZE,3.526177167892456,29.895466111661523,0.032389195760091145,0.03250741958618164,0.0,0.0,0.0,-0.7708668357544222,-1.3230882171193348,-63.59752377720036,-0.0022853702150611973,-0.0020260004276251888,-7.402612578092586e-05,0.4,-0.0643579576926788,0.03659110102014344,0.828890902094749,-0.011153054984619635,0.012739578960463405,0.14226981438696384,1.7680684104561806,0.21225354458471465,4.313966259360313,0.38951607421040535,27.382826805114746,0.0,0.0,0.0,0.0,0.0,0.0,0.0,0.0,0.0,0.0,0.0,0.0,0.0,0.0,0.0,0.0,True,0,3.558077096939087,0.03492626953125
STABILIZE,3.559644937515259,29.88077054599339,0.03238037427266439,0.03251934051513672,0.0,0.0,0.0,-0.7697337714041405,-1.3234459482771144,-63.601758494485765,-0.0024587320203572622,-0.001298065357271188,-1.0677713299754284e-05,0.4,-0.06296826845691371,0.03749128599516191,0.8284409858650122,-0.01044970244648624,-0.06727257277816534,0.11306388769298792,1.5112346969544888,0.025351887950728715,-2.7788348495960236,0.12337795924395323,17.82325804233551,0.0,0.0,0.0,0.0,0.0,0.0,0.0,0.0,0.0,0.0,0.0,0.0,0.0,0.0,0.0,0.0,True,0,3.586874485015869,0.034927001953125
STABILIZE,3.593024730682373,29.957174487536605,0.03236964543660482,0.03249359130859375,0.0,0.0,0.0,-0.7693376737931327,-1.3239730467819688,-63.60375290972341,-0.0025685437529954815,-0.0005269281055796455,5.492275774334875e-05,0.4,-0.061621574529461154,0.03838232960692661,0.8279333328558339,-0.00972864394281406,-0.06727257277816534,0.11306388769298792,1.5112346969544888,0.025351887950728715,-2.7788348495960236,0.12337795924395323,17.82325804233551,0.0,0.0,0.0,0.0,0.0,0.0,0.0,0.0,0.0,0.0,0.0,0.0,0.0,0.0,0.0,0.0,True,0,3.615605354309082,0.034927001953125
STABILIZE,3.6265289783477783,29.847811390306212,0.0324437936147054,0.03256654739379883,0.0,0.0,0.0,-0.769051339456521,-1.324527145878386,-63.607174834497584,-0.003088984920615508,0.0007906496317773759,3.155123997075973e-07,0.4,-0.0562833647959622,0.038965936986575994,0.824733799170469,-0.010206450557304509,0.004883028304902837,0.08243400370702147,1.7735714092850685,-0.09818175484353833,3.039817325770855,2.2210609167814255,19.299472868442535,0.0,0.0,0.0,0.0,0.0,0.0,0.0,0.0,0.0,0.0,0.0,0.0,0.0,0.0,0.0,0.0,True,0,3.672959804534912,0.069846923828125
STABILIZE,3.6601624488830566,29.73692457124221,0.03236988385518392,0.03249239921569824,0.0,0.0,0.0,-0.7687803730455419,-1.324725434807728,-63.608902872357596,-0.0035407153935625964,0.001504876221120321,-0.0004067546747867617,0.4,-0.050783334068929355,0.04088529698791059,0.852267788501587,-0.014181969704318901,0.199268595315516,0.0822081055957824,1.579280011355877,-0.21165628989852198,3.1222259625792503,0.3881478914991021,21.48268222808838,0.0,0.0,0.0,0.0,0.0,0.0,0.0,0.0,0.0,0.0,0.0,0.0,0.0,0.0,0.0,0.0,True,0,3.701665163040161,0.029936767578125
