Mode,Time,Freq,time2delay,actualDelay,North-Desired,East-Desired,Down-Desired,Roll-UAV,Pitch-UAV,Yaw-UAV,Roll-Control,Pitch-Control,Yaw-Control,Thrust-Control,North-Pos,East-Pos,Down-Pos,Yaw-Ang,North-Vel,East-Vel,Down-Vel,Yaw-Vel,North-Acc,East-Acc,Down-Acc,North-Avg,East-Avg,Down-Avg,Yaw-Avg,North-Dif,East-Dif,Down-Dif,Yaw-Dif,North-One,East-One,Down-One,Yaw-One,North-Two,East-Two,Down-Two,Yaw-Two,Landing-State,Q-Size,Kalman-Time,Kalman-Dt
STABILIZE,0.0343937873840332,29.085099301009652,0.03270748456319173,0.032845497131347656,0.0,0.0,0.0,-0.1730327040602238,-1.4959667083147046,5.638753596197352,0.09924443710162313,0.14691495887707365,0.026970365007798085,0.4,0.045793866528857155,-0.03109150851120719,0.6707992969460161,0.13440866430017093,1.6035014763474464,0.7042909506708384,1.0349851101636887,-0.7605374019343943,-22.402435541152954,-53.550827503204346,18.70417892932892,0.0,0.0,0.0,0.0,0.0,0.0,0.0,0.0,0.0,0.0,0.0,0.0,0.0,0.0,0.0,0.0,False,0,3.534148693084717,0.034919921875
STABILIZE,0.06768989562988281,30.031174596355566,0.03226521809895833,0.03239703178405762,0.0,0.0,0.0,-0.1850611741167187,-1.4925510801211692,5.760737359679195,0.15012349351770055,0.024450034342016667,0.03546133948463806,0.4,0.013821557593002048,-0.08978034022273201,0.6564862335628252,0.1762741914707206,-1.8734160810709,-3.4140728414058685,0.4485872108489275,2.761207278588851,-96.33798599243164,-56.77143931388855,-5.652698874473572,0.0,0.0,0.0,0.0,0.0,0.0,0.0,0.0,0.0,0.0,0.0,0.0,0.0,0.0,0.0,0.0,False,0,3.5628678798675537,0.034919921875
STABILIZE,0.10116314888000488,29.875449630679594,0.032471450169881184,0.03258848190307617,0.0,0.0,0.0,-0.18123143902432498,-1.4972122573428797,5.761306399814422,0.17403292316543928,-0.020300586202378887,0.04405399053557361,0.4,-0.018522150797353355,-0.14866598459534536,0.6421203795108885,0.2185067732339222,-1.8734160810709,-3.4140728414058685,0.4485872108489275,2.761207278588851,-96.33798599243164,-56.77143931388855,-5.652698874473572,0.0,0.0,0.0,0.0,0.0,0.0,0.0,0.0,0.0,0.0,0.0,0.0,0.0,0.0,0.0,0.0,False,0,3.5916495323181152,0.034919921875
STABILIZE,0.1345994472503662,29.90719032543282,0.03243306477864583,0.03254961967468262,0.0,0.0,0.0,-0.17032658844715004,-1.4998595959764944,5.632549223110042,0.08760556031837599,-0.03952171008361328,0.02495544411987336,0.4,-0.04380337898938124,-0.09494658527944579,0.6627065587371435,0.12260396733232304,-1.4549552462995052,3.057985007762909,2.457782067358494,-5.190931816378643,56.158608198165894,133.44967365264893,67.9814338684082,0.0,0.0,0.0,0.0,0.0,0.0,0.0,0.0,0.0,0.0,0.0,0.0,0.0,0.0,0.0,0.0,False,0,3.620253324508667,0.02993115234375
STABILIZE,0.16809344291687012,29.85737268469084,0.03243282636006673,0.03259539604187012,0.0,0.0,0.0,-0.18247810863041097,-1.4987147922385768,5.7682048908761345,0.06558488836986359,0.0014940313575022746,0.026518742058556703,0.4,0.0012730385975271152,-0.08494453060852666,0.6526312802588994,0.1299854495106428,2.594265155494213,0.4537659231573343,0.8577462285757065,0.7887506188790427,42.55615174770355,-85.50359010696411,-9.9385567009449,0.0,0.0,0.0,0.0,0.0,0.0,0.0,0.0,0.0,0.0,0.0,0.0,0.0,0.0,0.0,0.0,False,0,3.649012565612793,0.034920166015625
STABILIZE,0.2014765739440918,29.953109712988024,0.0324132760365804,0.03251981735229492,0.0,0.0,0.0,-0.1791440691809456,-1.4946033385233464,5.764698015624156,0.06985683990873329,-0.05559982196529677,0.013081544650088886,0.4,-0.03676661958569918,-0.11493625267821214,0.6351406534414715,0.06259034915136415,-0.34258635714650154,2.5284139439463615,1.0237224400043488,-6.224698022732998,23.242905735969543,124.2640733718872,29.50572371482849,0.0,0.0,0.0,0.0,0.0,0.0,0.0,0.0,0.0,0.0,0.0,0.0,0.0,0.0,0.0,0.0,False,0,3.7063722610473633,0.029825439453125
STABILIZE,0.23500967025756836,29.824040957087497,0.03246477444966634,0.03258156776428223,0.0,0.0,0.0,-0.16961133957500277,-1.499207846519287,5.640140124598865,0.020595474874034438,-0.028969505973354417,0.021799655637040852,0.4,-0.026939653670166354,-0.09649775390939924,0.6290280562388704,0.1058269167555212,0.5430741235613823,0.91589679941535,1.0518931783735752,2.8582435626838105,32.19958543777466,-46.708181500434875,-9.64357703924179,0.0,0.0,0.0,0.0,0.0,0.0,0.0,0.0,0.0,0.0,0.0,0.0,0.0,0.0,0.0,0.0,False,0,3.735055446624756,0.034920166015625
STABILIZE,0.2684152126312256,29.934084129091193,0.032360347112019856,0.03247809410095215,0.0,0.0,0.0,-0.18074382755060953,-1.5064133759285332,5.7752143725118605,0.010372299410589881,-0.009005885679382748,0.026770364995593758,0.4,-0.026110579248191875,-0.12905782642819533,0.6202877666027642,0.130244991141476,0.032130227191373706,-2.037358842790127,0.7074349094182253,1.7563471798539305,-7.685808092355728,18.134276568889618,20.02153843641281,0.0,0.0,0.0,0.0,0.0,0.0,0.0,0.0,0.0,0.0,0.0,0.0,0.0,0.0,0.0,0.0,False,0,3.7647545337677,0.034919921875
STABILIZE,0.30182409286499023,29.931734330509745,0.03238800366719564,0.03250432014465332,0.0,0.0,0.0,-0.15808998438395486,-1.493631850835618,5.7961237159953845,0.06760834429171839,0.006963083253362084,0.031849222703336955,0.4,-0.025204847679547244,-0.16177854951686793,0.6115466056161856,0.15512053267484605,0.032130227191373706,-2.037358842790127,0.7074349094182253,1.7563471798539305,-7.685808092355728,18.134276568889618,20.02153843641281,0.0,0.0,0.0,0.0,0.0,0.0,0.0,0.0,0.0,0.0,0.0,0.0,0.0,0.0,0.0,0.0,False,0,3.7936813831329346,0.034919921875
STABILIZE,0.33528685569763184,29.883751086538325,0.0324127991994222,0.032544612884521484,0.0,0.0,0.0,-0.13508756144579154,-1.4659265758496363,5.580839568451168,0.05143958470484685,-0.023363979191241373,0.00941682898400689,0.4,-0.02942407005653866,-0.1328666920558659,0.6132246720909963,0.04281533399417249,-0.2722289180383086,1.5781767666339874,1.3165241107344627,-6.306654743244451,2.6235539466142654,55.01205325126648,3.631678968667984,0.0,0.0,0.0,0.0,0.0,0.0,0.0,0.0,0.0,0.0,0.0,0.0,0.0,0.0,0.0,0.0,False,0,3.8245484828948975,0.034920166015625
STABILIZE,0.36877870559692383,29.85737268469084,0.032421143849690755,0.03253912925720215,0.0,0.0,0.0,-0.14868179900865897,-1.485389520054705,5.732126124132835,0.030404435492182677,-0.04490895801700206,0.024479951651054453,0.4,-0.08713755171681514,-0.12873509488028637,0.6380256701877979,0.1177372326920611,-3.403877094388008,0.09068060899153352,2.6610516011714935,4.71019919693105,-192.4522042274475,-32.56637454032898,71.52776718139648,0.0,0.0,0.0,0.0,0.0,0.0,0.0,0.0,0.0,0.0,0.0,0.0,0.0,0.0,0.0,0.0,False,0,3.8528950214385986,0.029931640625
STABILIZE,0.40210437774658203,30.00689665040278,0.03236511548360189,0.032475948333740234,0.0,0.0,0.0,-0.14003125770313204,-1.467912666794229,5.662038991738395,0.07623556520437806,-0.06935769192340949,0.026632637703422477,0.4,-0.11142381285293397,-0.17390960619385326,0.6084837419641428,0.12807274351009723,-1.5121378004550934,-2.8975293040275574,-0.3772701369598508,0.8993297273551095,122.01275825500488,-127.55593061447144,-43.642860651016235,0.0,0.0,0.0,0.0,0.0,0.0,0.0,0.0,0.0,0.0,0.0,0.0,0.0,0.0,0.0,0.0,False,0,3.881542444229126,0.034920166015625
STABILIZE,0.4367988109588623,28.828020399466645,0.03247812589009603,0.033402204513549805,0.0,0.0,0.0,-0.13291817597151911,-1.4671116136706335,5.581986186458084,0.049801554547926834,-0.04454058062893439,-0.012454402906598945,0.4,-0.07753274860073209,-0.16492694250033124,0.674943799840183,-0.06713253526756191,1.9968174397945404,0.38418727926909924,5.113755166530609,-11.278616244361185,7.96266570687294,147.85325527191162,44.19291615486145,0.0,0.0,0.0,0.0,0.0,0.0,0.0,0.0,0.0,0.0,0.0,0.0,0.0,0.0,0.0,0.0,False,1,3.910266399383545,0.034919921875
STABILIZE,0.46985816955566406,30.243168019843388,0.031996997197469075,0.03213906288146973,0.0,0.0,0.0,-0.14223834261997176,-1.4830938294416403,5.721777106879796,0.055862993623256495,-0.08281446766426888,0.0007967278323195232,0.4,-0.12674723028168938,-0.19822007049210558,0.7373786840598825,-0.0008739562612271219,-0.6156016606837511,-2.52488199621439,2.9618315398693085,0.3649022160776965,78.72211337089539,-26.898804306983948,20.318055152893066,0.0,0.0,0.0,0.0,0.0,0.0,0.0,0.0,0.0,0.0,0.0,0.0,0.0,0.0,0.0,0.0,False,0,3.970343828201294,0.034919921875
STABILIZE,0.5092008113861084,25.417713541193226,0.03243234952290853,0.038407325744628906,0.0,0.0,0.0,-0.1392664365986493,-1.4744320823570063,5.6714424546782105,0.049398713846289244,-0.04707063491789045,-0.017709121401433624,0.4,-0.07767303988848634,-0.16330713535396607,0.7488146956975861,-0.09303750988797298,2.868815138936043,1.8975859507918358,1.8106140196323395,-5.242228244592732,92.20079779624939,55.01379370689392,61.43772006034851,0.0,0.0,0.0,0.0,0.0,0.0,0.0,0.0,0.0,0.0,0.0,0.0,0.0,0.0,0.0,0.0,False,0,3.999296188354492,0.034919921875
STABILIZE,0.54268479347229,29.86757815281635,0.032379897435506184,0.03252124786376953,0.0,0.0,0.0,-0.13081517139824278,-1.469589051348644,5.589787116263885,0.02462108228647613,0.025861049112304663,-0.03637667876197459,0.4,-0.027649912318799125,-0.12759563767959908,0.7598526542133196,-0.1857540356632739,2.868815138936043,1.8975859507918358,1.8106140196323395,-5.242228244592732,92.20079779624939,55.01379370689392,61.43772006034851,0.0,0.0,0.0,0.0,0.0,0.0,0.0,0.0,0.0,0.0,0.0,0.0,0.0,0.0,0.0,0.0,False,0,4.028714656829834,0.034919921875
STABILIZE,0.5760509967803955,29.96830477714743,0.03234103520711263,0.03247237205505371,0.0,0.0,0.0,-0.14716803165342845,-1.486366237106017,5.786622495973074,0.011073742235445532,0.02594156055483119,-0.018659399581914177,0.4,-0.04654611925150767,-0.14519287390086077,0.7572526615795013,-0.09684372858941609,-1.2389502488076687,-1.283834408968687,1.0289767757058144,5.489108847237428,-86.23554706573486,-77.77386903762817,38.509055972099304,0.0,0.0,0.0,0.0,0.0,0.0,0.0,0.0,0.0,0.0,0.0,0.0,0.0,0.0,0.0,0.0,False,0,4.057557582855225,0.02993212890625
STABILIZE,0.6095736026763916,29.829343574425717,0.032444032033284505,0.03263354301452637,0.0,0.0,0.0,-0.13605590084319952,-1.482045502125749,5.67369855153843,0.013980321795270015,-0.03006305627937285,-0.017656994117753046,0.4,-0.093742502391406,-0.14223824499537788,0.7570440581490431,-0.0915250621620935,-2.931087836623192,-0.10959404753521085,1.4654896222054958,0.3355386458664299,-20.668524503707886,42.12614595890045,29.020512104034424,0.0,0.0,0.0,0.0,0.0,0.0,0.0,0.0,0.0,0.0,0.0,0.0,0.0,0.0,0.0,0.0,False,1,4.08625864982605,0.034920166015625
STABILIZE,0.643012523651123,29.906763829271423,0.03244164784749349,0.03255510330200195,0.0,0.0,0.0,-0.13891046634901527,-1.4769257417342956,5.70886506114071,-0.02632717072808665,-0.0018022460892015476,-0.03198193028415026,0.4,-0.09534385005149248,-0.1155808062695317,0.7583398090526376,-0.16260590172995854,2.679884247481823,1.2126537971198559,1.0515550151467323,-4.378048805140623,99.5864748954773,1.444712094962597,20.579631626605988,0.0,0.0,0.0,0.0,0.0,0.0,0.0,0.0,0.0,0.0,0.0,0.0,0.0,0.0,0.0,0.0,False,0,4.143749475479126,0.034919921875
STABILIZE,0.6765878200531006,29.786340749788728,0.03240922292073568,0.03252291679382324,0.0,0.0,0.0,-0.14081267403286382,-1.4842806815316358,5.756372868799557,0.01344952376330489,-0.023042198928296374,-0.014280272420034547,0.4,-0.09035260195956459,-0.14423931397536724,0.7564120354687968,-0.07385072693378085,0.18069290090352297,-1.9487565383315086,1.1439778842031956,5.318026695793771,-47.36836850643158,-58.32563638687134,4.313933476805687,0.0,0.0,0.0,0.0,0.0,0.0,0.0,0.0,0.0,0.0,0.0,0.0,0.0,0.0,0.0,0.0,False,0,4.172296762466431,0.029931884765625
STABILIZE,0.7098970413208008,30.01913813957816,0.03227070172627767,0.032439470291137695,0.0,0.0,0.0,-0.13485714928300938,-1.4839261520250298,5.696688114511047,0.009792520972539584,-0.08624209339952392,-0.016121675611836674,0.4,-0.13371037217466436,-0.11174916678443472,0.7594217415271141,-0.08278059601895102,-2.750534750521183,1.654357649385929,1.7037348821759224,-0.6005149809434284,-69.67052817344666,77.32205390930176,21.61722630262375,0.0,0.0,0.0,0.0,0.0,0.0,0.0,0.0,0.0,0.0,0.0,0.0,0.0,0.0,0.0,0.0,False,0,4.201054573059082,0.034919921875
STABILIZE,0.743384838104248,29.861624115393926,0.03247836430867513,0.03259134292602539,0.0,0.0,0.0,-0.13438917460315772,-1.4782116315672564,5.693324673231639,0.010191270830226886,-0.05327262163973235,-0.023606339503964558,0.4,-0.105466497726306,-0.12593028955625934,0.7636302964873892,-0.11980324067421591,1.5773102641105652,-1.0963564738631248,1.5167427249252796,-2.219458871738242,69.47367787361145,-88.47742080688477,20.968297123908997,0.0,0.0,0.0,0.0,0.0,0.0,0.0,0.0,0.0,0.0,0.0,0.0,0.0,0.0,0.0,0.0,False,0,4.229740142822266,0.03489697265625
STABILIZE,0.7769722938537598,29.773442934821187,0.03242543538411458,0.03256106376647949,0.0,0.0,0.0,-0.13676359915466274,-1.4818560710979871,5.727778708726122,0.03206757244129437,-0.002907049449409751,-0.01622932575214912,0.4,-0.07651497737514365,-0.1519621013534405,0.7497302295409136,-0.08264164589810302,1.5805555507540703,-1.7836442217230797,0.4612621385604143,2.187247699612462,15.198005735874176,-20.545552670955658,1.9412919878959656,0.0,0.0,0.0,0.0,0.0,0.0,0.0,0.0,0.0,0.0,0.0,0.0,0.0,0.0,0.0,0.0,False,0,4.259066343307495,0.02993212890625
STABILIZE,0.8102986812591553,30.006037973415747,0.03228500684102376,0.032418251037597656,0.0,0.0,0.0,-0.13349017763408125,-1.4803850191054955,5.688290396926516,0.027555436397273758,-0.027961264505004035,-0.018118237855147337,0.4,-0.11036110446534685,-0.12536700566225303,0.7481037695895021,-0.09177933248675793,-2.2022023797035217,1.3092429377138615,1.4424460940063,-0.6547637050654017,-40.225401520729065,-8.437009900808334,26.183772087097168,0.0,0.0,0.0,0.0,0.0,0.0,0.0,0.0,0.0,0.0,0.0,0.0,0.0,0.0,0.0,0.0,False,1,4.287863731384277,0.034919921875
STABILIZE,0.8437957763671875,29.853972411633237,0.03241566022237142,0.032563209533691406,0.0,0.0,0.0,-0.13232939232072286,-1.4767558407786916,5.6799242689668965,-0.023467154420197995,-0.0424392139574193,-0.01773642751872563,0.4,-0.12542048538266548,-0.08123279833281645,0.7487330047804797,-0.08957039122893223,1.0367482900619507,0.8237510919570923,1.199623942375183,0.6554340774602679,-6.5203554928302765,66.29272103309631,25.189828872680664,0.0,0.0,0.0,0.0,0.0,0.0,0.0,0.0,0.0,0.0,0.0,0.0,0.0,0.0,0.0,0.0,False,0,4.345062732696533,0.0349208984375
STABILIZE,0.8771510124206543,29.97922905930368,0.03238514264424642,0.03248953819274902,0.0,0.0,0.0,-0.13472796265816092,-1.4789992377559233,5.7108808207195105,-0.013756657757355201,-0.040452194468217725,-0.014854836185315362,0.4,-0.15648307309280718,-0.06858491006898343,0.7539003477218196,-0.07491213827772408,-1.9938703626394272,0.4936781246215105,1.6278451308608055,0.7780608392194438,-75.01714825630188,-39.462077617645264,30.430296063423157,0.0,0.0,0.0,0.0,0.0,0.0,0.0,0.0,0.0,0.0,0.0,0.0,0.0,0.0,0.0,0.0,False,0,4.381890296936035,0.029930908203125
STABILIZE,0.9106547832489014,29.84653701371247,0.03246644337972005,0.03259110450744629,0.0,0.0,0.0,-0.133586974221225,-1.480753422433853,5.7059404595154755,-0.013004170612895603,-0.0575654018079346,-0.017374780062406246,0.4,-0.1567487136431101,-0.08064093557997506,0.7561909763052629,-0.08722006385519128,-0.24616308510303497,-0.9568151086568832,1.69430673122406,-0.8725625895237998,48.95090460777283,-11.76210641860962,22.790493071079254,0.0,0.0,0.0,0.0,0.0,0.0,0.0,0.0,0.0,0.0,0.0,0.0,0.0,0.0,0.0,0.0,False,0,4.41059422492981,0.034919921875
STABILIZE,0.9440996646881104,29.90164682398232,0.03240493138631185,0.03254222869873047,0.0,0.0,0.0,-0.13045373166118746,-1.4773475059155439,5.666371892993122,-0.04235039249549588,-0.052827870461738105,-0.0192209246626604,0.4,-0.12808381791114437,-0.06267468575598545,0.7498474364023815,-0.09612916254147183,1.5518385916948318,0.8400746621191502,0.9352589957416058,-0.6315914345324872,34.0470016002655,35.23213565349579,21.409277617931366,0.0,0.0,0.0,0.0,0.0,0.0,0.0,0.0,0.0,0.0,0.0,0.0,0.0,0.0,0.0,0.0,False,0,4.439458608627319,0.02993212890625
STABILIZE,0.9775292873382568,29.912735882696943,0.0324132760365804,0.032535552978515625,0.0,0.0,0.0,-0.1369703724596143,-1.4783067206071077,5.74846863238256,-0.0192134654913953,-0.049716859347812906,-0.012052088281019363,0.4,-0.15029726725092635,-0.07202532604133036,0.7458220618757795,-0.06008408170494707,-1.5737807378172874,-0.7801138795912266,1.3111289590597153,2.0192997512241955,-74.17599558830261,-49.09428954124451,28.238049149513245,0.0,0.0,0.0,0.0,0.0,0.0,0.0,0.0,0.0,0.0,0.0,0.0,0.0,0.0,0.0,0.0,False,0,4.468148469924927,0.034919921875
STABILIZE,1.0110223293304443,29.8582228739838,0.03242996533711751,0.03256845474243164,0.0,0.0,0.0,-0.13400201493500907,-1.4799063722550658,5.715700799839423,0.014445822221345064,-0.058677193476251326,-0.004901371102715754,0.4,-0.17362207150039996,-0.08147844146384281,0.7457346176626187,-0.02424935481955958,-1.5737807378172874,-0.7801138795912266,1.3111289590597153,2.0192997512241955,-74.17599558830261,-49.09428954124451,28.238049149513245,0.0,0.0,0.0,0.0,0.0,0.0,0.0,0.0,0.0,0.0,0.0,0.0,0.0,0.0,0.0,0.0,False,0,4.496974468231201,0.034919921875
STABILIZE,1.0445337295532227,29.839954467842915,0.032370837529500325,0.03250694274902344,0.0,0.0,0.0,-0.12737881251335945,-1.478693800233977,5.661644548313827,0.020799318732665162,-0.04872517811236488,-0.01162235347305668,0.4,-0.1848261513772357,-0.07991041423667375,0.7450146168227336,-0.057661343380519946,-0.8450769819319248,-0.10523035889491439,1.284119114279747,-2.138851753918102,18.38679313659668,27.369841933250427,14.291232824325562,0.0,0.0,0.0,0.0,0.0,0.0,0.0,0.0,0.0,0.0,0.0,0.0,0.0,0.0,0.0,0.0,False,0,4.525649309158325,0.034919921875
STABILIZE,1.0777883529663086,30.069497515897538,0.0323369820912679,0.03243517875671387,0.0,0.0,0.0,-0.1364713684438067,-1.4786326486965642,5.753908024282828,0.015868611207216086,-0.030845019797847935,-0.0008959429908582277,0.4,-0.1617763042566062,-0.08279595078759891,0.7371503955815101,-0.004015880203959717,-0.5958879832178354,-1.1508659459650517,1.0417296551167965,2.392534584645896,-51.39431953430176,-29.339495301246643,24.34084713459015,0.0,0.0,0.0,0.0,0.0,0.0,0.0,0.0,0.0,0.0,0.0,0.0,0.0,0.0,0.0,0.0,False,0,4.5828962326049805,0.02993212890625
STABILIZE,1.1341092586517334,17.755621782714712,0.03251460393269857,0.055495500564575195,0.0,0.0,0.0,-0.1285922916689474,-1.4778605171552353,5.669135985172861,0.02662579509310987,-0.048017312092552306,-0.0009004656319004172,0.4,-0.1617763042566062,-0.08279595078759891,0.7371503955815101,-0.004015880203959717,-0.5958879832178354,-1.1508659459650517,1.0417296551167965,2.392534584645896,-51.39431953430176,-29.339495301246643,24.34084713459015,0.0,0.0,0.0,0.0,0.0,0.0,0.0,0.0,0.0,0.0,0.0,0.0,0.0,0.0,0.0,0.0,False,1,4.5828962326049805,0.02993212890625
STABILIZE,1.1677727699279785,29.70806890299184,0.032494576772054036,0.03278398513793945,0.0,0.0,0.0,-0.1355281886885367,-1.4762622528894525,5.748538641821552,0.010797497757356474,-0.027485695915943315,-0.00422152086659035,0.4,-0.15227923038380223,-0.0694162317976619,0.7263361358021886,-0.020552095756721126,1.3536810874938965,-0.3679404268041253,0.7792964577674866,1.5997263531521895,30.79054057598114,-39.0250027179718,9.696651250123978,0.0,0.0,0.0,0.0,0.0,0.0,0.0,0.0,0.0,0.0,0.0,0.0,0.0,0.0,0.0,0.0,False,0,4.668678283691406,0.034919921875
STABILIZE,1.2011778354644775,29.93258876003568,0.03242495854695638,0.03253507614135742,0.0,0.0,0.0,-0.1315036331222389,-1.4759564952023885,5.718655283542277,0.01311829637903255,-0.007692221546134652,0.0011772984213916833,0.4,-0.1446403474213607,-0.07976840465383996,0.7302720410242961,0.0064205244069648094,0.2035296056419611,-0.7885024882853031,1.5807121992111206,1.4841108872977375,-16.40762984752655,-1.658250018954277,18.90275478363037,0.0,0.0,0.0,0.0,0.0,0.0,0.0,0.0,0.0,0.0,0.0,0.0,0.0,0.0,0.0,0.0,False,0,4.697667837142944,0.029930908203125
STABILIZE,1.2347354888916016,29.80242580131735,0.032479079564412434,0.032614946365356445,0.0,0.0,0.0,-0.12807968063565267,-1.476805039485057,5.685802927408162,0.004337103245317464,-0.006210572465185418,-0.004902853022885285,0.4,-0.15140423056549668,-0.0671009098544063,0.7249012497662632,-0.023900250275495354,-0.7059144787490368,0.5777135491371155,1.2283657677471638,-1.900393201406855,-10.733769834041595,-11.583463847637177,12.358994781970978,0.0,0.0,0.0,0.0,0.0,0.0,0.0,0.0,0.0,0.0,0.0,0.0,0.0,0.0,0.0,0.0,False,0,4.726155519485474,0.034918701171875
STABILIZE,1.2681198120117188,29.952468007312614,0.03236511548360189,0.032486915588378906,0.0,0.0,0.0,-0.13360618412826566,-1.4755830759538593,5.737415678758187,-0.006996422887277758,-0.02588226306769751,-0.010997487281076239,0.4,-0.15902418674545868,-0.05461733658781876,0.7231793113161421,-0.054192258889925196,-0.7059144787490368,0.5777135491371155,1.2283657677471638,-1.900393201406855,-10.733769834041595,-11.583463847637177,12.358994781970978,0.0,0.0,0.0,0.0,0.0,0.0,0.0,0.0,0.0,0.0,0.0,0.0,0.0,0.0,0.0,0.0,False,0,4.755369186401367,0.034918701171875
STABILIZE,1.301569938659668,29.894826873458683,0.0324280579884847,0.032543182373046875,0.0,0.0,0.0,-0.13216629487386236,-1.4747220452316145,5.723436415961286,-0.012016561062968173,-0.022081408887454208,-0.009726275003325608,0.4,-0.1540531962446113,-0.04806498602678877,0.7168542349792457,-0.047676762458333743,0.04409950925037265,0.22061597555875778,0.9602283127605915,0.31653924739042294,-22.659437358379364,33.65139663219452,16.922137141227722,0.0,0.0,0.0,0.0,0.0,0.0,0.0,0.0,0.0,0.0,0.0,0.0,0.0,0.0,0.0,0.0,False,0,4.784044027328491,0.06485205078125
STABILIZE,1.337477445602417,27.849699545167823,0.03241756757100423,0.03499174118041992,0.0,0.0,0.0,-0.1306602114814481,-1.4753481814794343,5.706816004389706,-0.001727719398686886,-0.03380462727383048,-0.010254009718137596,0.4,-0.1623555423597526,-0.051267231772400314,0.7298709775965119,-0.05013553494388902,0.6397804245352745,-0.32966798171401024,1.3888297602534294,0.8014277167828509,42.453768849372864,2.557184547185898,11.185754090547562,0.0,0.0,0.0,0.0,0.0,0.0,0.0,0.0,0.0,0.0,0.0,0.0,0.0,0.0,0.0,0.0,False,0,4.8413331508636475,0.034919921875
STABILIZE,1.370969295501709,29.856947608200457,0.03239110310872396,0.032508134841918945,0.0,0.0,0.0,-0.13200087622990112,-1.4745246100759188,5.72292073667895,-0.01728968907250165,-0.030507806726385128,-0.010626393470395143,0.4,-0.15210501267975007,-0.039051436321252415,0.7257664798185214,-0.0518240743373682,0.2640678780153394,0.5325664766132832,1.2247432954609394,-0.18619095677454758,-9.34605747461319,14.260277152061462,13.259227573871613,0.0,0.0,0.0,0.0,0.0,0.0,0.0,0.0,0.0,0.0,0.0,0.0,0.0,0.0,0.0,0.0,False,0,4.869946479797363,0.02993212890625
STABILIZE,1.4043734073638916,29.937502676621317,0.03234532674153646,0.03248333930969238,0.0,0.0,0.0,-0.13297500527984774,-1.4728753328347723,5.728650838505768,-0.018808780155160774,-0.018178133137546796,-0.010940175469944883,0.4,-0.14128945360840264,-0.027194488359428552,0.7187043330196724,-0.053214954264278844,0.2640678780153394,0.5325664766132832,1.2247432954609394,-0.18619095677454758,-9.34605747461319,14.260277152061462,13.259227573871613,0.0,0.0,0.0,0.0,0.0,0.0,0.0,0.0,0.0,0.0,0.0,0.0,0.0,0.0,0.0,0.0,False,0,4.898839235305786,0.02993212890625
STABILIZE,1.4377593994140625,29.951398558952278,0.03240636189778646,0.03251910209655762,0.0,0.0,0.0,-0.13004138567047438,-1.475043597731134,5.705283907581507,-0.004379453646731259,-0.026796152452792297,-0.010743385780527345,0.4,-0.15839254143495432,-0.03625655295711913,0.7027483221751224,-0.052057020877124896,-1.295796688646078,-0.6301636341959238,0.6909692194312811,-0.04297389607128062,-42.99250245094299,-26.924532651901245,15.181200206279755,0.0,0.0,0.0,0.0,0.0,0.0,0.0,0.0,0.0,0.0,0.0,0.0,0.0,0.0,0.0,0.0,False,0,4.9274420738220215,0.034919921875
STABILIZE,1.4711875915527344,29.915296064362437,0.0324590524037679,0.032564401626586914,0.0,0.0,0.0,-0.13068523772145385,-1.4736383930311097,5.715039552150402,-0.004467128276193113,-0.02041462364914734,-0.010223833444299078,0.4,-0.146192071587196,-0.03102796466189238,0.6986378121845548,-0.04929449072850543,0.4032545257359743,0.17224426846951246,1.1602560989558697,0.06536155529339652,27.67433524131775,20.20578384399414,11.463123559951782,0.0,0.0,0.0,0.0,0.0,0.0,0.0,0.0,0.0,0.0,0.0,0.0,0.0,0.0,0.0,0.0,False,0,4.956035614013672,0.034919921875
STABILIZE,1.5047109127044678,29.830404324170548,0.032456429799397786,0.032593727111816406,0.0,0.0,0.0,-0.1322000189328893,-1.4726016983811487,5.7349623601856825,-0.010181535850218793,-0.006365787612922805,-0.00969638906471922,0.4,-0.1339003082151187,-0.025887842274428374,0.6946516129040953,-0.04650163490414447,0.4032545257359743,0.17224426846951246,1.1602560989558697,0.06536155529339652,27.67433524131775,20.20578384399414,11.463123559951782,0.0,0.0,0.0,0.0,0.0,0.0,0.0,0.0,0.0,0.0,0.0,0.0,0.0,0.0,0.0,0.0,False,0,4.984764337539673,0.034919921875
STABILIZE,1.5380868911743164,29.9608123263306,0.03238633473714193,0.0325160026550293,0.0,0.0,0.0,-0.1281907512509447,-1.4720964778259793,5.701831673842889,-0.007688935993824504,-0.023604676515721852,-0.012214936504767982,0.4,-0.14833682651633273,-0.019648085105809933,0.7039867314662356,-0.05889747165379397,-0.2075731521472335,0.724518857896328,1.2191166169941425,-0.6079393432103793,6.151194870471954,22.51216471195221,20.768676698207855,0.0,0.0,0.0,0.0,0.0,0.0,0.0,0.0,0.0,0.0,0.0,0.0,0.0,0.0,0.0,0.0,False,0,5.0424840450286865,0.034920166015625
STABILIZE,1.5715641975402832,29.8711942626395,0.03247121175130208,0.03259587287902832,0.0,0.0,0.0,-0.12858490119082205,-1.4726126907168442,5.711241113198228,-0.012584507552596191,-0.02863356043390444,-0.014191878817828683,0.4,-0.14644928501105098,-0.004053063227938799,0.699295077796907,-0.06855284692708287,-0.2075731521472335,0.724518857896328,1.2191166169941425,-0.6079393432103793,6.151194870471954,22.51216471195221,20.768676698207855,0.0,0.0,0.0,0.0,0.0,0.0,0.0,0.0,0.0,0.0,0.0,0.0,0.0,0.0,0.0,0.0,False,0,5.070894002914429,0.034920166015625
STABILIZE,1.6052002906799316,29.729968812021546,0.032436402638753255,0.03257107734680176,0.0,0.0,0.0,-0.1310071637469436,-1.4709998055773692,5.733520763383987,-0.01199699844536556,-0.009946128295743583,-0.010116203205221629,0.4,-0.13537409657857144,-0.01187052305742566,0.6918380210865014,-0.04801316479394966,0.28229665476828814,-0.5036712624132633,1.0549452155828476,0.986133427578038,21.587301790714264,-24.57713782787323,14.107011258602142,0.0,0.0,0.0,0.0,0.0,0.0,0.0,0.0,0.0,0.0,0.0,0.0,0.0,0.0,0.0,0.0,False,0,5.10027003288269,0.02993115234375
STABILIZE,1.639131784439087,29.472181233048047,0.03224662144978841,0.03303098678588867,0.0,0.0,0.0,-0.12856801248088212,-1.4711684258725037,5.703839749458873,-0.014454685601184977,-0.011614031411204052,-0.011290518175200454,0.4,-0.1279343640576699,-0.004512290147780834,0.6830612899262625,-0.053702362022878244,0.07620430551469326,0.33036950044333935,1.1177618987858295,-0.4202665021902034,13.287724554538727,-12.649990618228912,13.951967656612396,0.0,0.0,0.0,0.0,0.0,0.0,0.0,0.0,0.0,0.0,0.0,0.0,0.0,0.0,0.0,0.0,False,0,5.129216432571411,0.0349208984375
STABILIZE,1.6745750904083252,28.21464175921753,0.03240826924641927,0.034563302993774414,0.0,0.0,0.0,-0.13117599748548986,-1.472913005596913,5.7425899739412944,-0.011499874365847944,-0.01250330955284813,-0.006390172809916586,0.4,-0.11910503830598898,-0.004346121476208768,0.6737293735488372,-0.029097450102261863,0.18447714392095804,-0.06818396504968405,0.8994889445602894,1.2316704039469455,16.13162010908127,-6.748589128255844,12.11521327495575,0.0,0.0,0.0,0.0,0.0,0.0,0.0,0.0,0.0,0.0,0.0,0.0,0.0,0.0,0.0,0.0,False,0,5.162293434143066,0.02993115234375
STABILIZE,1.7081959247589111,29.74282898049199,0.03245285352071126,0.03275728225708008,0.0,0.0,0.0,-0.1297777830571942,-1.471717722492161,5.735913464027607,-0.007546554204039898,0.002874869626282329,-0.001577139417006515,0.4,-0.1102612741485688,-0.004624953316812733,0.6619905744640651,-0.0050154121744175675,0.18447714392095804,-0.06818396504968405,0.8994889445602894,1.2316704039469455,16.13162010908127,-6.748589128255844,12.11521327495575,0.0,0.0,0.0,0.0,0.0,0.0,0.0,0.0,0.0,0.0,0.0,0.0,0.0,0.0,0.0,0.0,False,0,5.19083046913147,0.02993115234375
STABILIZE,1.7423477172851562,29.28022227341585,0.03243854840596517,0.0332484245300293,0.0,0.0,0.0,-0.12693228889636984,-1.4711384370731793,5.70941403759525,-0.0047206057137855265,-0.006321559069938255,-0.006128951905832218,0.4,-0.12091275612633166,0.003963691701017557,0.6537499042625331,-0.02768001236854236,-0.8889244869351387,0.4313686862587929,1.0556703433394432,-1.3475155349122392,-28.608423471450806,16.71837717294693,16.75231009721756,0.0,0.0,0.0,0.0,0.0,0.0,0.0,0.0,0.0,0.0,0.0,0.0,0.0,0.0,0.0,0.0,False,1,5.219353199005127,0.03990869140625
STABILIZE,1.7759590148925781,29.754855918616364,0.03245046933492025,0.032599687576293945,0.0,0.0,0.0,-0.13042651762621318,-1.4735369006889114,5.738362086845056,-0.010650863811984363,-0.0004972482074865877,-0.0013924561930004293,0.4,-0.10470748304611373,0.005630339642391658,0.6456975414226893,-0.003984191435089901,0.8461730554699898,-0.1268665655516088,1.0243256576359272,0.5530285709865908,21.57638370990753,5.117567256093025,9.808110445737839,0.0,0.0,0.0,0.0,0.0,0.0,0.0,0.0,0.0,0.0,0.0,0.0,0.0,0.0,0.0,0.0,False,0,5.276886463165283,0.034921142578125
STABILIZE,1.8093769550323486,29.9229792394949,0.03225448926289876,0.0324406623840332,0.0,0.0,0.0,-0.12881862172648342,-1.4725145067475252,5.733416602999144,-0.00524171712074576,0.010218239606939588,0.0008720926724582679,0.4,-0.08500995881283618,0.0042255167698922935,0.640518814104904,0.007314053634703402,0.8461730554699898,-0.1268665655516088,1.0243256576359272,0.5530285709865908,21.57638370990753,5.117567256093025,9.808110445737839,0.0,0.0,0.0,0.0,0.0,0.0,0.0,0.0,0.0,0.0,0.0,0.0,0.0,0.0,0.0,0.0,False,0,5.305712938308716,0.034921142578125
STABILIZE,1.842872142791748,29.857160144932696,0.03238848050435384,0.032505035400390625,0.0,0.0,0.0,-0.1281818133080855,-1.4714766381588007,5.721353635151256,-0.0015169437589605816,-0.0030820237583587544,0.003079717995851724,0.4,-0.09582416930363563,-0.0004978150439956218,0.6327464696536408,0.018291031841973872,-0.873058196157217,-0.30763810500502586,0.8675409480929375,0.5423822270612448,-15.684516727924347,-10.403808951377869,13.390885293483734,0.0,0.0,0.0,0.0,0.0,0.0,0.0,0.0,0.0,0.0,0.0,0.0,0.0,0.0,0.0,0.0,False,0,5.334355592727661,0.064850830078125
STABILIZE,1.8763206005096436,29.89418766259221,0.0323210080464681,0.032466888427734375,0.0,0.0,0.0,-0.12825827941027793,-1.4728919814208743,5.73294361239912,-0.006430369577347787,0.007720832440032021,0.004005357384034575,0.4,-0.07488293341959068,0.005681476999004497,0.6455810205285796,0.022842772039687452,0.8945216424763203,0.24021368008106947,1.1692863889038563,-0.018797987936770913,24.06104952096939,13.249950110912323,15.277677774429321,0.0,0.0,0.0,0.0,0.0,0.0,0.0,0.0,0.0,0.0,0.0,0.0,0.0,0.0,0.0,0.0,False,0,5.363261461257935,0.034920166015625
STABILIZE,1.9096808433532715,29.9743014364325,0.03234985669453939,0.03246450424194336,0.0,0.0,0.0,-0.12846844112938804,-1.471698085698297,5.733654378959625,-0.0041729380413013115,0.012128257212836951,0.002712501812352428,0.4,-0.07725933980301081,0.009292169653140902,0.6399850354310519,0.01632393322910472,-0.3673174185678363,0.16796626150608063,1.0789395309984684,-0.37439975420115795,-8.572881668806076,-8.340588212013245,13.293132185935974,0.0,0.0,0.0,0.0,0.0,0.0,0.0,0.0,0.0,0.0,0.0,0.0,0.0,0.0,0.0,0.0,False,0,5.392639398574829,0.029931884765625
STABILIZE,1.9431161880493164,29.908683157797157,0.03242925008138021,0.032536983489990234,0.0,0.0,0.0,-0.12655833603931166,-1.4713271210490009,5.724262441964035,-0.00564616874264361,0.0004431822663635676,0.0013337108893577952,0.4,-0.07985770388830137,0.012507197672513425,0.6322223922165192,0.0093985642740819,-0.3673174185678363,0.16796626150608063,1.0789395309984684,-0.37439975420115795,-8.572881668806076,-8.340588212013245,13.293132185935974,0.0,0.0,0.0,0.0,0.0,0.0,0.0,0.0,0.0,0.0,0.0,0.0,0.0,0.0,0.0,0.0,False,0,5.4214630126953125,0.029931884765625
STABILIZE,1.9765822887420654,29.880344803020588,0.03242448170979818,0.03254270553588867,0.0,0.0,0.0,-0.1253908005780626,-1.4730905905153335,5.7276890624932655,-0.0037972475214392313,-0.025010703345153134,0.0030854114595881285,0.4,-0.0976683618348421,0.009016601813821547,0.6229673378477089,0.0180965486104242,-0.7083423435688019,-0.10387719376012683,1.128015574067831,0.22763147537716036,-21.00687175989151,-0.4733006935566664,14.435447752475739,0.0,0.0,0.0,0.0,0.0,0.0,0.0,0.0,0.0,0.0,0.0,0.0,0.0,0.0,0.0,0.0,False,0,5.47866678237915,0.034919921875
STABILIZE,2.00997257232666,29.950115321722613,0.03240397771199544,0.03252077102661133,0.0,0.0,0.0,-0.1258032799709079,-1.47199754680472,5.735365341346713,-0.010659480283623991,-0.013817135445428595,0.002898276443330683,0.4,-0.09150055939474085,0.014263609730261383,0.6179142810162827,0.01710369082713665,0.13281289720907807,0.27910603675991297,1.0037686675786972,-0.0676415578157114,14.347440004348755,-6.152255833148956,13.89123946428299,0.0,0.0,0.0,0.0,0.0,0.0,0.0,0.0,0.0,0.0,0.0,0.0,0.0,0.0,0.0,0.0,False,0,5.507504224777222,0.034919921875
STABILIZE,2.0434107780456543,29.90441831780232,0.0324437936147054,0.032552480697631836,0.0,0.0,0.0,-0.12468579698967035,-1.4712360874339692,5.7265193925979005,-0.007725718481458567,-0.031647760169842894,0.002022616689028644,0.4,-0.0984070871496659,0.015252137633872611,0.6142349882322243,0.01268299057525132,-0.5877956748008728,0.04681276623159647,1.067313365638256,-0.2521127409923372,-7.933899760246277,13.250800967216492,12.47384324669838,0.0,0.0,0.0,0.0,0.0,0.0,0.0,0.0,0.0,0.0,0.0,0.0,0.0,0.0,0.0,0.0,False,0,5.53620171546936,0.034920166015625
STABILIZE,2.076876163482666,29.882260741943988,0.03243902524312337,0.03255510330200195,0.0,0.0,0.0,-0.12404130460845618,-1.4721264666253038,5.726682036477511,-0.006016532356980226,-0.02510044741116488,0.002264479148077805,0.4,-0.09171949994164133,0.01583571876754617,0.6075217887025233,0.013846009909670658,0.17008461290970445,0.028298984398134053,0.8869878947734833,0.06204682580257099,18.169724941253662,-13.947360217571259,16.758471727371216,0.0,0.0,0.0,0.0,0.0,0.0,0.0,0.0,0.0,0.0,0.0,0.0,0.0,0.0,0.0,0.0,False,0,5.564812898635864,0.034919921875
STABILIZE,2.1103079319000244,29.912522554004806,0.03241566022237142,0.03254413604736328,0.0,0.0,0.0,-0.1248575122142727,-1.4703080354804938,5.739996209603982,-0.0012160074890645379,-0.023291374619497967,0.002486023232370639,0.4,-0.09137390218215374,0.012087525411103967,0.6038550569321901,0.01490387986226664,-0.18094112165272236,-0.20911579485982656,1.04520870372653,0.05921317775108839,-8.157803863286972,1.6305472701787949,16.84623956680298,0.0,0.0,0.0,0.0,0.0,0.0,0.0,0.0,0.0,0.0,0.0,0.0,0.0,0.0,0.0,0.0,False,0,5.593515157699585,0.029930908203125
STABILIZE,2.1438417434692383,29.82064827125296,0.03242996533711751,0.03257393836975098,0.0,0.0,0.0,-0.12305386202571332,-1.4697778420461716,5.728323843199253,-0.00030470355533399914,-0.012172614578165831,0.002654689984813438,0.4,-0.09074972698115685,0.008174924132579055,0.5978911956604975,0.015694673581660632,-0.18094112165272236,-0.20911579485982656,1.04520870372653,0.05921317775108839,-8.157803863286972,1.6305472701787949,16.84623956680298,0.0,0.0,0.0,0.0,0.0,0.0,0.0,0.0,0.0,0.0,0.0,0.0,0.0,0.0,0.0,0.0,False,0,5.622185945510864,0.029930908203125
STABILIZE,2.185173749923706,24.194464633879026,0.03233006795247396,0.040380239486694336,0.0,0.0,0.0,-0.12247313586370356,-1.470879316771542,5.72803654836729,-0.002359206180134851,-0.01488782760834884,0.003763236051886436,0.4,-0.08923520983854208,0.01611907333875112,0.5927441047937149,0.021149947105927575,0.30328077264130116,0.13401557225733995,1.1135268025100231,0.6568937102302408,12.14870885014534,-12.052377313375473,11.506972461938858,0.0,0.0,0.0,0.0,0.0,0.0,0.0,0.0,0.0,0.0,0.0,0.0,0.0,0.0,0.0,0.0,False,0,5.680561065673828,0.034920166015625
STABILIZE,2.218587875366211,29.92789000121301,0.03237655957539876,0.03249526023864746,0.0,0.0,0.0,-0.12417870880464979,-1.470903222433637,5.743812150915904,-0.0008943638847630098,-0.005834749268791172,0.0027141021979829073,0.4,-0.08281595776193759,0.014974503309174278,0.591858050475031,0.015851288710172495,0.18060298170894384,-0.05980068235658109,1.131582073867321,-0.29941692363655303,3.675375133752823,5.636829137802124,13.71740996837616,0.0,0.0,0.0,0.0,0.0,0.0,0.0,0.0,0.0,0.0,0.0,0.0,0.0,0.0,0.0,0.0,False,0,5.709726333618164,0.029783935546875
STABILIZE,2.2521419525146484,29.801790535739663,0.03240087827046712,0.03267478942871094,0.0,0.0,0.0,-0.12330812648973762,-1.4696073007603327,5.731058480188197,-0.0013098942750780114,-0.01569086052044322,0.003054310457652193,0.4,-0.09044927193735784,0.015974695035948172,0.5912874620569123,0.017493578118297468,-0.6486013997346163,0.0772843137383461,1.2978981249034405,0.11663884697161685,-3.8678761571645737,-6.196559965610504,13.563138246536255,0.0,0.0,0.0,0.0,0.0,0.0,0.0,0.0,0.0,0.0,0.0,0.0,0.0,0.0,0.0,0.0,False,0,5.738749027252197,0.04489794921875
STABILIZE,2.2856040000915527,29.883538171066224,0.03245666821797689,0.03258037567138672,0.0,0.0,0.0,-0.12387465866487844,-1.4715797313265855,5.744877660426425,-0.0021955470449102304,-0.013301019155073654,0.005820294903530198,0.4,-0.08705111937057297,0.01420980127289605,0.5959168906171664,0.031219045449753617,0.056140904780477285,-0.10971974115818739,1.1156696826219559,0.7698315818474892,-2.069946750998497,-4.098890721797943,14.927670359611511,0.0,0.0,0.0,0.0,0.0,0.0,0.0,0.0,0.0,0.0,0.0,0.0,0.0,0.0,0.0,0.0,False,0,5.766619443893433,0.024943115234375
STABILIZE,2.319410562515259,29.58109880809648,0.03244164784749349,0.03291201591491699,0.0,0.0,0.0,-0.12323571581236491,-1.470939294370191,5.745214047243048,-0.002714598285308433,-0.0100434821177113,0.008288664106166148,0.4,-0.08227049846050928,0.011821454152460616,0.5894885612083391,0.043414200605289714,0.056140904780477285,-0.10971974115818739,1.1156696826219559,0.7698315818474892,-2.069946750998497,-4.098890721797943,14.927670359611511,0.0,0.0,0.0,0.0,0.0,0.0,0.0,0.0,0.0,0.0,0.0,0.0,0.0,0.0,0.0,0.0,False,1,5.795337200164795,0.024943115234375
STABILIZE,2.3529622554779053,29.805178931809785,0.032424004872639973,0.03255724906921387,0.0,0.0,0.0,-0.12358661678097431,-1.4694988715072588,5.737330301393562,0.0005566408856390177,-0.003997912576519562,0.006446575301321627,0.4,-0.0734338901233536,0.012556152129786434,0.5780633675131074,0.0340897227755941,-0.3266764571890235,-0.07865512743592262,1.0123741813004017,-0.19623173506086303,-12.677058577537537,-4.069886356592178,15.042653679847717,0.0,0.0,0.0,0.0,0.0,0.0,0.0,0.0,0.0,0.0,0.0,0.0,0.0,0.0,0.0,0.0,False,0,5.853644371032715,0.034919921875
STABILIZE,2.39058256149292,26.58105239142421,0.03230861028035482,0.03658127784729004,0.0,0.0,0.0,-0.12389808407929748,-1.469643265975181,5.744937851468486,-0.001682216363988682,-0.007500574448712897,0.007619555385582895,0.4,-0.0729346779845586,0.014771418644413314,0.5796433200642085,0.039804926144892686,-0.14241891913115978,0.1490387599915266,1.1839384213089943,0.36123194989416674,-6.333578377962112,3.882753476500511,16.75637513399124,0.0,0.0,0.0,0.0,0.0,0.0,0.0,0.0,0.0,0.0,0.0,0.0,0.0,0.0,0.0,0.0,False,0,5.882456064224243,0.034919921875
STABILIZE,2.4240102767944336,29.917643282570705,0.0322912057240804,0.03241086006164551,0.0,0.0,0.0,-0.12292942451677215,-1.4690779610996567,5.740894379479839,-0.003695644672395116,0.000744214520991388,0.007139027894959789,0.4,-0.06810700712777173,0.018156411186133047,0.5787749318076705,0.03727769121840376,0.12174168368801475,0.21853826474398375,1.0345020331442356,-0.13300135220096254,13.279412686824799,2.033929154276848,18.672069907188416,0.0,0.0,0.0,0.0,0.0,0.0,0.0,0.0,0.0,0.0,0.0,0.0,0.0,0.0,0.0,0.0,False,0,5.911064863204956,0.02993212890625
STABILIZE,2.4574198722839355,29.92938490081347,0.03229955037434896,0.032440185546875,0.0,0.0,0.0,-0.12297792953204982,-1.4681385966453684,5.742189127214379,-0.007203231084943702,0.0024657424592088783,0.006562722813239833,0.4,-0.06320421433452614,0.021346774962746333,0.5752518242859754,0.034281426166479875,0.12174168368801475,0.21853826474398375,1.0345020331442356,-0.13300135220096254,13.279412686824799,2.033929154276848,18.672069907188416,0.0,0.0,0.0,0.0,0.0,0.0,0.0,0.0,0.0,0.0,0.0,0.0,0.0,0.0,0.0,0.0,False,0,5.93984317779541,0.02993212890625
STABILIZE,2.4914004802703857,29.429581813078865,0.032355340321858723,0.033019065856933594,0.0,0.0,0.0,-0.12184763994611848,-1.4701273556326058,5.747523504956159,-0.008848879047711602,-0.0020073151980866183,0.006788645362202221,0.4,-0.06535668695802506,0.021652148796406322,0.5709079068947311,0.03529116618454588,-0.3019993891939521,0.045337440678849816,0.966718140989542,0.11129996023776763,-4.783245921134949,-6.00181557238102,12.37870454788208,0.0,0.0,0.0,0.0,0.0,0.0,0.0,0.0,0.0,0.0,0.0,0.0,0.0,0.0,0.0,0.0,False,1,5.968464374542236,0.034919921875
STABILIZE,2.524953842163086,29.799884901491307,0.032351287206014,0.03266000747680664,0.0,0.0,0.0,-0.1215610921660953,-1.4703444275821653,5.748181337550596,-0.015878477046069248,-0.0034639707563901647,0.007126016243362501,0.4,-0.06033725923173875,0.03141200486629323,0.5748429769137321,0.03685412712010616,-0.1694682752713561,0.3865387290716171,1.2920401990413666,-0.06704843859561778,2.94397696852684,6.041921675205231,19.100284576416016,0.0,0.0,0.0,0.0,0.0,0.0,0.0,0.0,0.0,0.0,0.0,0.0,0.0,0.0,0.0,0.0,False,0,6.025773763656616,0.029931884765625
STABILIZE,2.5584516525268555,29.855247423267468,0.03242972691853841,0.03254103660583496,0.0,0.0,0.0,-0.1214120553039715,-1.4700075071570131,5.747260969559937,-0.019111022373442855,-0.003891422438173261,0.006739898321733494,0.4,-0.0605357935346767,0.03714880140547119,0.5760251655442086,0.03480712383922385,-0.1694682752713561,0.3865387290716171,1.2920401990413666,-0.06704843859561778,2.94397696852684,6.041921675205231,19.100284576416016,0.0,0.0,0.0,0.0,0.0,0.0,0.0,0.0,0.0,0.0,0.0,0.0,0.0,0.0,0.0,0.0,False,0,6.054510593414307,0.029931884765625
STABILIZE,2.591869831085205,29.923833169242183,0.032245906194051106,0.03238821029663086,0.0,0.0,0.0,-0.12118644561794951,-1.4712620208084741,5.750343946196551,-0.017398993774788183,-0.0088888528239901,0.006959539782916216,0.4,-0.06327216683003586,0.037554653978739576,0.5741736836880033,0.03578560565791592,-0.3221646649762988,0.06448252825066447,1.09342560172081,0.11854581711158589,-8.97597223520279,5.8891598135232925,8.732254803180695,0.0,0.0,0.0,0.0,0.0,0.0,0.0,0.0,0.0,0.0,0.0,0.0,0.0,0.0,0.0,0.0,False,0,6.083240985870361,0.034920166015625
STABILIZE,2.629190444946289,26.794672118056663,0.03242066701253255,0.03642606735229492,0.0,0.0,0.0,-0.1207406690529004,-1.4710016198463673,5.752021611411435,-0.018515602293698752,-0.01121082731916721,0.007226408048914253,0.4,-0.06239640555850384,0.04183139243886017,0.5759410850276866,0.03698189917334918,-0.08513336069881916,0.2801743568852544,1.1337042786180973,0.11633331606817779,-5.651747435331345,2.1948248147964478,14.530229568481445,0.0,0.0,0.0,0.0,0.0,0.0,0.0,0.0,0.0,0.0,0.0,0.0,0.0,0.0,0.0,0.0,False,0,6.111870527267456,0.039907958984375
STABILIZE,2.662698268890381,29.84505037855069,0.03242972691853841,0.03253889083862305,0.0,0.0,0.0,-0.12101670474490413,-1.4708311852822344,5.746778587449804,-0.018034581585738275,-0.003971488725126522,0.006696668964748014,0.4,-0.05460601088984923,0.041425295022284106,0.576444813752936,0.0342186383626618,0.34231015015393496,-0.027330059674568474,0.8961153216660023,-0.13624115638422288,12.230939418077469,-5.630848184227943,11.591777205467224,0.0,0.0,0.0,0.0,0.0,0.0,0.0,0.0,0.0,0.0,0.0,0.0,0.0,0.0,0.0,0.0,False,1,6.140481472015381,0.029931884765625
STABILIZE,2.696176528930664,29.86779084092317,0.032347710927327473,0.032553911209106445,0.0,0.0,0.0,-0.12098644914131508,-1.4719278575308445,5.752699507686559,-0.014223419203873933,-0.005038486499070526,0.005609548037865028,0.4,-0.05210053186715689,0.04401808762813669,0.5785299676026301,0.02868698443650807,-0.13316910481080413,0.13385930797085166,1.2556086294353008,0.12050374686606559,-3.5321809351444244,-1.4898919500410557,15.574678778648376,0.0,0.0,0.0,0.0,0.0,0.0,0.0,0.0,0.0,0.0,0.0,0.0,0.0,0.0,0.0,0.0,False,0,6.198238849639893,0.034919921875
STABILIZE,2.7296230792999268,29.899088977915913,0.03240254720052083,0.03256487846374512,0.0,0.0,0.0,-0.12031319526039282,-1.4706249989466647,5.750839134911377,-0.012624126679943646,-0.003229755541018362,0.004616624147935105,0.4,-0.049892625302524744,0.04639415609039826,0.5775686514971384,0.023643236909953184,0.0023283100745175034,0.18064258620142937,0.9654918685555458,-0.2516949521946293,2.646685391664505,6.297465413808823,10.52594929933548,0.0,0.0,0.0,0.0,0.0,0.0,0.0,0.0,0.0,0.0,0.0,0.0,0.0,0.0,0.0,0.0,False,0,6.227075815200806,0.064830078125
STABILIZE,2.7631354331970215,29.840379060601318,0.0324433167775472,0.03255605697631836,0.0,0.0,0.0,-0.1202804316967179,-1.4702879717998067,5.751551182132351,-0.016144755718965943,-0.00011177096253275169,0.0035801609093588094,0.4,-0.04795483462066095,0.05128240987616,0.5927472659586492,0.018399403432179905,0.0023283100745175034,0.18064258620142937,0.9654918685555458,-0.2516949521946293,2.646685391664505,6.297465413808823,10.52594929933548,0.0,0.0,0.0,0.0,0.0,0.0,0.0,0.0,0.0,0.0,0.0,0.0,0.0,0.0,0.0,0.0,False,0,6.2559425830841064,0.064830078125
STABILIZE,2.796506643295288,29.96530734718372,0.03235581715901693,0.032468318939208984,0.0,0.0,0.0,-0.11990167636289954,-1.4700824257944718,5.757074670736776,-0.018898635471588064,-0.002047047391441065,0.005377316914791758,0.4,-0.04984943161690982,0.057840587834663455,0.6079103076379525,0.02729394149360628,-0.20648220088332891,0.2732155378907919,1.0883144102990627,0.5271863368184359,-10.398274660110474,-1.3374844565987587,15.907624363899231,0.0,0.0,0.0,0.0,0.0,0.0,0.0,0.0,0.0,0.0,0.0,0.0,0.0,0.0,0.0,0.0,False,0,6.284300088882446,0.034921142578125
STABILIZE,2.829928159713745,29.91999086914341,0.03242233594258626,0.032541751861572266,0.0,0.0,0.0,-0.11936273174870322,-1.4701294900667214,5.753735135119463,-0.019866879582615505,-0.001888918334705424,0.0046607582080917115,0.4,-0.04357820869768039,0.058774853659933346,0.6064356342537919,0.023632122438901264,0.20332266576588154,0.1320239156484604,1.1554647237062454,-0.13649016480423745,5.164939910173416,2.609613351523876,15.416719019412994,0.0,0.0,0.0,0.0,0.0,0.0,0.0,0.0,0.0,0.0,0.0,0.0,0.0,0.0,0.0,0.0,False,0,6.312986850738525,0.034919921875
STABILIZE,2.864253520965576,29.133989969853992,0.03244784673055013,0.03338813781738281,0.0,0.0,0.0,-0.11860916978418042,-1.4698247995967153,5.754930845111038,-0.020719075361679735,-6.925963966429708e-05,0.004428307538928159,0.4,-0.039171629234201755,0.06194787503507255,0.6063669357513184,0.0223931500835041,0.11130188358947635,0.25115751195698977,1.2161810882389545,-0.011873710242898593,6.132140755653381,0.8006475865840912,19.183996319770813,0.0,0.0,0.0,0.0,0.0,0.0,0.0,0.0,0.0,0.0,0.0,0.0,0.0,0.0,0.0,0.0,False,0,6.341675758361816,0.029930908203125
STABILIZE,2.8976430892944336,29.94968760041415,0.03234556516011556,0.032454490661621094,0.0,0.0,0.0,-0.1190205819599679,-1.469711247701764,5.759358942127322,-0.020157708095588138,-0.0013747325079242715,0.004442510961892866,0.4,-0.03914693336266886,0.06305508194723103,0.6012712806705922,0.022389320544607693,0.1812600647099316,0.24217406753450632,1.0888490825891495,-0.008158974458590963,2.241268754005432,4.674889892339706,13.034190237522125,0.0,0.0,0.0,0.0,0.0,0.0,0.0,0.0,0.0,0.0,0.0,0.0,0.0,0.0,0.0,0.0,False,0,6.399286270141602,0.034919921875
STABILIZE,2.9311325550079346,29.860348559061396,0.03239920934041341,0.03253793716430664,0.0,0.0,0.0,-0.11838665502762609,-1.4697545767143112,5.755861458385453,-0.017617697031139697,-0.002476761009988901,0.004914271501300281,0.4,-0.03906607371621312,0.06354504168868541,0.599605738053079,0.024665576000490744,-0.10202111443504691,0.1180769526399672,1.0922475717961788,0.17091671945948178,4.130340367555618,-1.023376826196909,20.27563452720642,0.0,0.0,0.0,0.0,0.0,0.0,0.0,0.0,0.0,0.0,0.0,0.0,0.0,0.0,0.0,0.0,False,0,6.427795886993408,0.029930908203125
STABILIZE,2.964567184448242,29.907616833758787,0.032382996877034505,0.03250432014465332,0.0,0.0,0.0,-0.11880569780537695,-1.4688502169795192,5.756397201348475,-0.013674194932363415,-0.0013050383078018085,0.00535876388302566,0.4,-0.03901106381656281,0.0635074867157787,0.5952299430290448,0.026798442144397992,-0.10202111443504691,0.1180769526399672,1.0922475717961788,0.17091671945948178,4.130340367555618,-1.023376826196909,20.27563452720642,0.0,0.0,0.0,0.0,0.0,0.0,0.0,0.0,0.0,0.0,0.0,0.0,0.0,0.0,0.0,0.0,False,0,6.45635724067688,0.029930908203125
STABILIZE,2.997957944869995,29.948618350589076,0.032405885060628255,0.03252124786376953,0.0,0.0,0.0,-0.11929138828838833,-1.4695174410840648,5.758344232148752,-0.012919356388672408,-0.004430705084977639,0.005622715558915124,0.4,-0.03819071517297407,0.06324324089056282,0.5936264200713184,0.028024488988425304,-0.05756212631240487,0.10502336081117392,1.2231158092617989,0.12381648199501433,-2.242664247751236,4.598332941532135,11.454417556524277,0.0,0.0,0.0,0.0,0.0,0.0,0.0,0.0,0.0,0.0,0.0,0.0,0.0,0.0,0.0,0.0,False,0,6.4849913120269775,0.034919921875
STABILIZE,3.031419277191162,29.88651926379319,0.03244760831197103,0.032561302185058594,0.0,0.0,0.0,-0.11921070667881754,-1.469494389195616,5.756992708466735,-0.013012662444522115,-0.005892896012754293,0.00435112129820246,0.4,-0.036741039632087455,0.06576434585418135,0.5933948411727231,0.02159432814588305,-0.016468488320242614,0.23436995688825846,1.122966967523098,-0.31007137841153826,-1.5343383885920048,-1.0209150612354279,21.433132886886597,0.0,0.0,0.0,0.0,0.0,0.0,0.0,0.0,0.0,0.0,0.0,0.0,0.0,0.0,0.0,0.0,False,0,6.513834238052368,0.034921142578125
STABILIZE,3.065692186355591,29.178172913710103,0.03241470654805501,0.03294682502746582,0.0,0.0,0.0,-0.1184528224852106,-1.468082247584716,5.759955729906052,-0.011932254015629602,-0.005094947231595073,0.0046527327480592505,0.4,-0.035667008585373194,0.06520331845694005,0.5914998429325753,0.02302448111683675,-0.03460408188402653,0.06575469160452485,1.0292768478393555,0.1279821903574213,1.1109255254268646,-1.0956832207739353,15.199856460094452,0.0,0.0,0.0,0.0,0.0,0.0,0.0,0.0,0.0,0.0,0.0,0.0,0.0,0.0,0.0,0.0,False,1,6.5424394607543945,0.02993115234375
STABILIZE,3.0988361835479736,30.171592993561845,0.031998427708943684,0.032144784927368164,0.0,0.0,0.0,-0.11879465210882857,-1.4676245181886192,5.759706001114523,-0.014547671073714866,-0.005706124329056616,0.005173306626388393,0.4,-0.036392255014206495,0.0689834373063782,0.5803075335213272,0.02554178806636419,-0.11236269492655993,0.21913412492722273,0.8885100483894348,0.12066629736418395,-2.903563529253006,4.485812783241272,6.702402979135513,0.0,0.0,0.0,0.0,0.0,0.0,0.0,0.0,0.0,0.0,0.0,0.0,0.0,0.0,0.0,0.0,False,0,6.599773406982422,0.034919921875
STABILIZE,3.1322124004364014,29.961026344362534,0.03231862386067708,0.03244328498840332,0.0,0.0,0.0,-0.11781841530519276,-1.468214048891356,5.760686987034067,-0.014147113620866441,-0.00683495799323137,0.004799527331915597,0.4,-0.037813093016936125,0.06842123282319383,0.5759396934822703,0.023594012076696678,-0.16706661554053426,0.07027957472018898,0.8688525296747684,-0.0645641707284372,1.2460177764296532,-1.2985051609575748,8.506949990987778,0.0,0.0,0.0,0.0,0.0,0.0,0.0,0.0,0.0,0.0,0.0,0.0,0.0,0.0,0.0,0.0,False,0,6.628452301025391,0.0349208984375
STABILIZE,3.1656086444854736,29.942204454597373,0.03235486348470052,0.03247427940368652,0.0,0.0,0.0,-0.1182910857400988,-1.4674688112198842,5.761074173382641,-0.015122531840886678,-8.860886366929898e-05,0.005297326365890886,0.4,-0.028386122594711176,0.06946953226197146,0.576403127377212,0.02599609337067453,0.450989231467247,0.16505747335031629,1.1419194750487804,0.18295711566659778,4.427799582481384,0.8674203418195248,19.253943860530853,0.0,0.0,0.0,0.0,0.0,0.0,0.0,0.0,0.0,0.0,0.0,0.0,0.0,0.0,0.0,0.0,False,0,6.657240629196167,0.02993115234375
STABILIZE,3.199090003967285,29.86715278568987,0.032441171010335286,0.032586097717285156,0.0,0.0,0.0,-0.11859983163492453,-1.467060173808447,5.762896126343742,-0.014042561913586575,0.006168078424741517,0.00576382622446249,0.4,-0.019101691103901464,0.07001132574071312,0.574241779274807,0.02823409875910147,0.450989231467247,0.16505747335031629,1.1419194750487804,0.18295711566659778,4.427799582481384,0.8674203418195248,19.253943860530853,0.0,0.0,0.0,0.0,0.0,0.0,0.0,0.0,0.0,0.0,0.0,0.0,0.0,0.0,0.0,0.0,False,0,6.6857826709747314,0.02993115234375
STABILIZE,3.2343034744262695,28.398031104220127,0.03242638905843099,0.03436589241027832,0.0,0.0,0.0,-0.11907383609115284,-1.4663202722222641,5.764259602856806,-0.014045793831458335,0.0058225410961807765,0.005361171732536814,0.4,-0.01870649299346859,0.06955325087684013,0.5710610756370914,0.02612873572271904,-0.05331581924110651,0.10693272342905402,1.0652167722582817,-0.06811664282921075,-3.2263964414596558,-1.274615339934826,12.889215350151062,0.0,0.0,0.0,0.0,0.0,0.0,0.0,0.0,0.0,0.0,0.0,0.0,0.0,0.0,0.0,0.0,False,0,6.715157747268677,0.0698408203125
STABILIZE,3.267852783203125,29.80941551057539,0.032476218541463216,0.032593488693237305,0.0,0.0,0.0,-0.1189348310693725,-1.4664782203468207,5.763982126421774,-0.020250452889869035,0.015059377057220637,0.006862922057328514,0.4,-0.007235623896306999,0.08054802176050355,0.5922292004642967,0.033525372526734536,0.21828280296176672,0.3476295620203018,1.281292736530304,0.22722553268879417,3.980880230665207,4.799050837755203,15.438428521156311,0.0,0.0,0.0,0.0,0.0,0.0,0.0,0.0,0.0,0.0,0.0,0.0,0.0,0.0,0.0,0.0,False,0,6.772356033325195,0.029930908203125
STABILIZE,3.301208257675171,29.97751491977272,0.032334359486897786,0.032445430755615234,0.0,0.0,0.0,-0.1194664118858699,-1.4660032020343874,5.766133636010328,-0.01971547439005053,0.01629787981796359,0.006865569946707324,0.4,-0.0067290705898570904,0.07939888003473747,0.5864842088046539,0.03342682988566849,-0.024347729049623013,0.09378884569741786,1.0025540366768837,0.05808470243415535,2.4874795228242874,0.8110607042908669,14.24659639596939,0.0,0.0,0.0,0.0,0.0,0.0,0.0,0.0,0.0,0.0,0.0,0.0,0.0,0.0,0.0,0.0,False,0,6.801097631454468,0.034920166015625
STABILIZE,3.3346664905548096,29.88864897991178,0.032444032033284505,0.03256940841674805,0.0,0.0,0.0,-0.11970413448549808,-1.4672432015338621,5.764904201959726,-0.01701187605326375,0.016008592802443652,0.0060056085253297605,0.4,0.0002333948459961122,0.07668349993013925,0.580876598530393,0.029029929754388426,0.32483034301549196,-0.024211300478782505,0.8300676941871643,-0.19398220158554874,-1.1761711910367012,-1.213508564978838,12.804591655731201,0.0,0.0,0.0,0.0,0.0,0.0,0.0,0.0,0.0,0.0,0.0,0.0,0.0,0.0,0.0,0.0,False,0,6.830315351486206,0.034921142578125
STABILIZE,3.368192195892334,29.827858651514397,0.032430203755696614,0.03255462646484375,0.0,0.0,0.0,-0.11947708405644805,-1.4664761926344108,5.764972076964603,-0.016623802279419016,0.009578268874076791,0.005515453088927556,0.4,-0.0009162684427055853,0.07659121615831188,0.5816573971420373,0.026490548929716973,-0.12084835907444358,0.12450405629351735,1.1799688450992107,-0.08857111839237504,-1.3809019699692726,-1.0968048125505447,16.036655008792877,0.0,0.0,0.0,0.0,0.0,0.0,0.0,0.0,0.0,0.0,0.0,0.0,0.0,0.0,0.0,0.0,False,0,6.859063148498535,0.064850830078125
STABILIZE,3.40183162689209,29.727440251750632,0.032305034001668294,0.03273892402648926,0.0,0.0,0.0,-0.12006165219986593,-1.4660497326981081,5.768814485259559,-0.018837106073992523,0.00939826881608184,0.005119442600437288,0.4,-0.0008576419040277204,0.07913861783807236,0.5989153410055463,0.02442807779341845,-0.12084835907444358,0.12450405629351735,1.1799688450992107,-0.08857111839237504,-1.3809019699692726,-1.0968048125505447,16.036655008792877,0.0,0.0,0.0,0.0,0.0,0.0,0.0,0.0,0.0,0.0,0.0,0.0,0.0,0.0,0.0,0.0,False,0,6.887693166732788,0.064850830078125
STABILIZE,3.435377597808838,29.810262970859984,0.03246191342671712,0.03260445594787598,0.0,0.0,0.0,-0.11968375063969382,-1.4657598765452058,5.7651603340536015,-0.012365493749438025,0.00040005335830592506,0.005148085806014665,0.4,-0.0036466523793724365,0.0792651225134403,0.6121643293781749,0.02448930671572068,-0.21755914203822613,0.03150214324705303,1.0661163367331028,0.03874323421069241,-0.34379372373223305,2.7953976765275,15.188102424144745,0.0,0.0,0.0,0.0,0.0,0.0,0.0,0.0,0.0,0.0,0.0,0.0,0.0,0.0,0.0,0.0,False,0,6.9163408279418945,0.034919921875
STABILIZE,3.4688024520874023,29.918070089091465,0.03237584431966146,0.032486677169799805,0.0,0.0,0.0,-0.11968017546255015,-1.465973640121886,5.766523810566666,-0.017837585375371345,0.002933769503131731,0.00436264334668857,0.4,4.521429662628627e-05,0.08547407499054066,0.6120307665246437,0.020493628478363668,-0.0011310348781989887,0.26940072420984507,1.3448117300868034,-0.002277174397111673,0.910734012722969,0.8983856998383999,14.185309410095215,0.0,0.0,0.0,0.0,0.0,0.0,0.0,0.0,0.0,0.0,0.0,0.0,0.0,0.0,0.0,0.0,False,0,6.973726272583008,0.02993115234375
STABILIZE,3.5023207664489746,29.834011437676047,0.03239134152730306,0.0325314998626709,0.0,0.0,0.0,-0.11946321023469646,-1.4652979850025836,5.7696494758855925,-0.02069318758784343,-0.0010672653644940128,0.004149759506755425,0.4,0.00025761896869033133,0.08706621508483249,0.61052221112002,0.01936436643703185,-0.0011310348781989887,0.26940072420984507,1.3448117300868034,-0.002277174397111673,0.910734012722969,0.8983856998383999,14.185309410095215,0.0,0.0,0.0,0.0,0.0,0.0,0.0,0.0,0.0,0.0,0.0,0.0,0.0,0.0,0.0,0.0,False,0,7.00429892539978,0.02993115234375
STABILIZE,3.5357792377471924,29.890352971358936,0.03232720692952474,0.032472848892211914,0.0,0.0,0.0,-0.11992125979591044,-1.4650777114018507,5.768402112588419,-0.0214493899485802,-0.0007181104530690511,0.003009741446170688,0.4,-0.0001854387766222663,0.08796370245891105,0.6038585560808739,0.013618710659526842,-0.03415595565456897,0.2350177150219679,1.0566094890236855,-0.24406517732447547,-4.20491099357605,2.7662239968776703,10.390140116214752,0.0,0.0,0.0,0.0,0.0,0.0,0.0,0.0,0.0,0.0,0.0,0.0,0.0,0.0,0.0,0.0,False,0,7.032932281494141,0.034920166015625
STABILIZE,3.5692288875579834,29.892057157110788,0.03232267697652181,0.032558441162109375,0.0,0.0,0.0,-0.12040668347465736,-1.4652881666056516,5.7715260703600535,-0.017504941842734607,-0.003367927019276283,0.004223367643770742,0.4,-0.0035956652761354813,0.08477384597948331,0.5992658402918843,0.01962104620431307,-0.1938242232427001,-0.007327727507799864,0.9800405241549015,0.36141887296184294,0.5160681903362274,-1.0373382829129696,13.077524304389954,0.0,0.0,0.0,0.0,0.0,0.0,0.0,0.0,0.0,0.0,0.0,0.0,0.0,0.0,0.0,0.0,False,0,7.061654806137085,0.034919921875
STABILIZE,3.6026830673217773,29.892057157110788,0.03245213826497396,0.0325775146484375,0.0,0.0,0.0,-0.11976075035041514,-1.464734814561175,5.772488273259379,-0.01825351213516145,0.004517085906276131,0.004014387026612109,0.4,0.004504029690113053,0.08582899464406128,0.5971145901700426,0.0185141921648513,0.41019534692168236,0.21432905923575163,1.097298040986061,-0.010481747372024414,1.0189292021095753,0.850993487983942,10.908286273479462,0.0,0.0,0.0,0.0,0.0,0.0,0.0,0.0,0.0,0.0,0.0,0.0,0.0,0.0,0.0,0.0,False,0,7.090547561645508,0.02993212890625
STABILIZE,3.636183261871338,29.85078535894498,0.03244784673055013,0.03256702423095703,0.0,0.0,0.0,-0.12054296709294027,-1.4648134684583358,5.7723354477767,-0.013436813661188596,-0.000997344878877405,0.0033346969333966506,0.4,0.00019866557855547327,0.08438471053770143,0.590816482572372,0.01506535901683364,-0.23638498969376087,0.10810359381139278,1.019221730530262,-0.13680081834955402,-2.9847370460629463,1.0191396810114384,17.652805149555206,0.0,0.0,0.0,0.0,0.0,0.0,0.0,0.0,0.0,0.0,0.0,0.0,0.0,0.0,0.0,0.0,False,0,7.119020700454712,0.034919921875
STABILIZE,3.669687271118164,29.848448619413606,0.03227094014485677,0.032401323318481445,0.0,0.0,0.0,-0.12040172091533852,-1.4649772862767103,5.775032518725209,-0.011810170380667047,-0.004306133900251515,0.0026705634630965463,0.4,-0.00394519882052997,0.08349115647351782,0.5878857063336335,0.011705543173136206,-0.23638498969376087,0.10810359381139278,1.019221730530262,-0.13680081834955402,-2.9847370460629463,1.0191396810114384,17.652805149555206,0.0,0.0,0.0,0.0,0.0,0.0,0.0,0.0,0.0,0.0,0.0,0.0,0.0,0.0,0.0,0.0,False,0,7.148738145828247,0.034919921875
