Mode,Time,Freq,North-Vision,East-Vision,Down-Vision,Yaw-Vision,North-Desired,East-Desired,Down-Desired,Roll-UAV,Pitch-UAV,Yaw-UAV,Roll-Control,Pitch-Control,Yaw-Control,Thrust-Control,northVraw,eastVraw,downVraw,N-Velocity,E-Velocity,D-Velocity,yawVraw,yawRate,Q-Size
GUIDED_NOGPS,0.007772922515869141,128.95631053036126,-6.930475965026805,56.60890938436874,95.67040968175834,8.096006723927779,-2.4234967537271475,61.065983525944304,100.24812128273122,-0.41000478329249396,0.10030837159421882,5.604148869654306,4.523462826510441,-3.396804977795777,10.0,0.5091579686354919,1.7818930392361554,63.38914551245425,100.49659502899503,13.196304440498352,12.30904757976532,-1.006504986435175,10.360514697929824,-2.8331588391832927,1
GUIDED_NOGPS,0.03764486312866211,33.48317979339964,-2.3187586548149146,62.998793821830674,103.2519199918813,9.109983000689663,-2.423602423384627,61.06568971820856,100.24782127320479,-0.4082295210776724,0.07402973236080383,5.786944368637711,-4.582865372042722,3.316224507136349,10.0,0.49398712361229064,2.6580794115890076,63.556439184327445,100.49941125976144,9.584404528141022,11.85634732246399,0.28769122436642647,10.379168756007134,-3.4685480723377182,1
GUIDED_NOGPS,0.04256868362426758,203.22224913997772,-1.4177707865023779,63.40568776422771,102.98128580260123,9.248973683799276,-2.4243278156452313,61.063672811343345,100.2457454168426,-0.4082295210776724,0.07402973236080383,5.786944368637711,-4.590896526514713,3.305097439234605,10.0,0.4945232584246607,3.534142262246283,63.86698980903789,100.48819529879822,6.225022673606873,11.788744479417801,1.0953493416309357,10.362491646063496,-1.4806082809139904,0
GUIDED_NOGPS,0.07519888877868652,30.65093064213211,-0.8049550238645881,63.488491997298986,102.63354324283884,9.337967201918127,-2.42625378052844,61.058317788956046,100.24018400292418,-0.47728465457720537,0.10459650309337035,5.916434083130574,-0.585763277530249,1.3702947712818525,6.140991889532879,0.4952012888284029,4.212461667329084,64.12804515076448,100.44033053695611,7.03689381480217,11.724452674388885,3.3669520169496536,10.361976318812545,-3.3030105403962318,0
GUIDED_NOGPS,0.1082143783569336,30.294063689483075,-0.07360066040401642,63.8949832438287,102.49428735394662,9.379187047666896,-2.4299196496921445,61.048125073807554,100.22949857573875,-0.14526254227712712,-0.13113389577255907,6.054346701530533,-1.3077236363066171,1.5769588440062752,5.876958280200137,0.49545244181215625,4.179983937551728,64.26113583567499,100.48080479914832,8.092135936021805,10.895241796970367,-0.8238109759986401,10.367602237715058,-3.6306741382321954,0
GUIDED_NOGPS,0.14188623428344727,29.702388624115684,0.5453153493923644,64.65887859802478,102.5427589217919,9.34899613284566,-2.4358242133352728,61.03170781159689,100.21212095175743,0.050743503056434575,-0.1695411967338779,6.265483643588083,-2.0096133092100517,1.2576352445787775,5.4300809689560685,0.4953144650093072,3.842531127939882,68.44243821592818,102.1214125120262,9.547090530395508,10.972723364830017,0.5254043731838465,10.205494047603631,-5.74166747151652,0
GUIDED_NOGPS,0.1827254295349121,24.48899709819995,1.0494013549458905,65.07048985889529,102.35597856025676,9.297012557067223,-2.4444266971004165,61.00778915474581,100.18655223680562,0.10528241683664094,-0.11970208009266178,6.408760948694264,-1.1787891905305106,1.017218664481585,5.323419430446236,0.49562980636820764,3.935346854309989,65.4764409618949,100.06057074776429,6.1105407774448395,11.152953654527664,-1.7621995881199837,10.125233793314601,-5.715168471970985,0
GUIDED_NOGPS,0.2098848819732666,36.82864593851801,1.5664760715520913,65.56027945778733,102.28035024287651,9.224376187175732,-2.4561477389764548,60.97519954618344,100.15136184323521,0.017347213068377894,0.0681122672392737,6.621510669169583,-1.8532941002351242,1.4495281233283914,4.998768362788057,0.49570606480818236,4.177867482335657,65.56798789172129,100.10022258767984,6.0732632875442505,13.040915131568909,2.436538413167,10.051301764493694,-5.089097110948338,0
GUIDED_NOGPS,0.24321198463439941,30.01204974455114,2.04178217106361,65.94676416777004,102.11652432735067,9.091942014679196,-2.4713703662011803,60.93287400313092,100.10518650709686,-0.36449181775811396,0.30153932487985513,6.9439438362051975,-1.4259292123193497,1.2281547418004684,4.65967750061388,0.49593600835085155,5.0691781996692065,66.28244618994694,99.96748971002134,9.627365320920944,15.458334982395172,-0.15143733471632004,9.827881157394923,-9.455328835051192,0
GUIDED_NOGPS,0.28670358657836914,22.995213789549286,2.568987871458444,66.40089580337946,102.01779356408345,8.99079784151117,-2.4904409721639262,60.879849400886,100.04672930531234,-0.9137830479690913,0.5481521894451719,7.217810089373791,-1.3661434124818568,1.1346565973991558,4.929994796926233,0.49600968809567825,5.473108270419644,66.53974274635407,99.88640016921158,10.715163499116898,15.545311570167542,1.8634643405675888,9.771446470037791,-6.303810396341963,0
GUIDED_NOGPS,0.31314706802368164,37.82161825838391,2.9346163371708953,66.850923376541,101.8945619508891,8.82016441841774,-2.5136702933081896,60.81526175660767,99.9747586728467,-1.2040650204775754,0.6459656210016319,7.3995605694141835,-1.9302159671438752,1.2382977060189955,4.002883506960521,0.4961081445435525,5.058965234066385,67.13988244395219,99.69146659201658,4.885381832718849,14.010703563690186,0.4363657906651497,9.452018395637884,-8.93026572656928,0
GUIDED_NOGPS,0.3437011241912842,32.73577572077486,3.1965649751300287,67.17761022773512,101.76843143163688,8.689367103895014,-2.541334386034259,60.73834351310077,99.88810741988073,-1.684436707116215,0.931305898284759,7.754431585478659,-1.5071505356623935,0.9652771170737493,4.3563867990622835,0.49618251265651664,5.647077885089029,67.28632755094364,99.72067473819305,1.531729195266962,13.02228569984436,0.357380835339427,9.339776397059365,-8.156081713394904,0
GUIDED_NOGPS,0.37873244285583496,28.549771291657592,3.472229423060702,67.5387213653774,101.63736924540338,8.544447160653256,-2.573675603601839,60.64842082260067,99.785671748983,-1.8681028417753849,1.0557762775113093,7.936100957022658,-1.5124353082802755,0.9465460206148145,4.299564884201615,0.49623457459950315,5.617317007422408,67.69964889419697,99.60643648237982,2.343752607703209,11.80131733417511,-0.7993861101567745,9.084077705483404,-7.247034761284983,0
GUIDED_NOGPS,0.4113335609436035,30.681199069536085,3.7555497596050715,68.03610299583846,101.72103095007967,8.334533431483605,-2.610903573032676,60.54491083055782,99.66641027228238,-2.121424739694226,1.0996986627427228,8.348313118716682,-1.9264836551326674,0.994217798250248,3.712676764454957,0.4958233707387165,5.581305901579695,69.7289900673648,101.75188209451402,2.5085609406232834,10.427091270685196,2.916896529495716,8.9005273745261,-9.568786814901568,0
GUIDED_NOGPS,0.448941707611084,26.592006492189086,4.006661782248242,68.4412438202913,101.80989968621026,8.145080991884175,-2.653196172013184,60.4273189594224,99.52934302864016,-2.1180945955870216,1.0561653848505885,8.719491211424563,-1.6536314309586855,0.9221072311314717,3.8799625208093165,0.49536463450755097,5.997631199792792,69.84623389104453,102.64130579248294,1.7233991995453835,8.49289670586586,0.35265630576759577,8.289337482752655,-7.102252680127284,0
GUIDED_NOGPS,0.49100232124328613,23.777907537061708,4.2480211132707355,68.86322889602017,102.04061548885235,7.89346839560367,-2.7007005057970703,60.29523619242899,99.37355050082239,-2.069081371546422,0.9541557625445076,9.01677690259666,-1.6383630819152604,0.891164844537126,3.540953189621505,0.4945826338083481,7.1848388268590915,70.01517064572116,104.27119678647836,-4.169105738401413,6.8070098757743835,2.8789767995476723,7.967561783210995,-8.687881095945745,0
GUIDED_NOGPS,0.5153591632843018,41.06386269960153,4.255109285584065,69.4244131035833,102.1589799834397,7.60117051740561,-2.75353388410796,60.14833635738111,99.19817263267215,-2.0649330988426966,0.8046645861192022,9.362916375580921,-2.6718573711583753,0.45585122463440203,2.160596282276769,0.49398937975304347,3.8667495325537486,72.73880381280283,102.73709339474873,-6.224415823817253,4.702579602599144,1.9084876403212547,8.105801048067448,-10.72422344980959,0
GUIDED_NOGPS,0.5494282245635986,29.357691311621135,4.411295255596067,69.58945315186703,102.04873221837607,7.381240115312661,-2.8117847980420247,59.98637341043592,99.00240784628186,-1.9729003552015947,0.6085472300465105,9.662193066896076,-1.4781716082430256,0.9119539309049919,3.1344337489686205,0.49381006356248675,7.956085857333589,69.97618075652449,99.2528819575493,-4.940314218401909,4.6270497143268585,2.860818989574909,7.4686840771426795,-10.725775610298475,0
GUIDED_NOGPS,0.5829763412475586,29.814289065332204,4.52323266993877,69.8361360741486,101.91015995540657,7.142485843045574,-2.8755138969706033,59.80917871988877,98.78551205916548,-1.8314249393758282,0.4888055295205773,10.066268765741324,-1.6929869503676536,0.8310609342601447,2.8624810980872057,0.49364502840368585,6.420357124539074,70.34961194961171,99.1827901802093,-4.1885025799274445,2.9579956084489822,-0.2634604927152395,7.272291316350346,-8.49309776119532,0
GUIDED_NOGPS,0.6166775226593018,29.68010925790952,4.783962307504497,70.19004254661672,101.92880916782524,6.890021089051669,-2.944754965442833,59.616658349957916,98.5467977014309,-1.894731614915149,0.3040025685709968,10.405521700494917,-2.0029923396185274,1.151810050976466,2.6362348524215764,0.4931211801380184,7.667824128317237,72.52067125729977,100.761787024918,2.103159949183464,3.7294700741767883,3.578042984008789,7.267444790509883,-10.080613016771997,0
GUIDED_NOGPS,0.6505630016326904,29.51345037469655,4.8472846802198974,70.56142187197763,101.99622493319312,6.636101694026254,-3.01951590008827,59.408790344569056,98.28563273295212,-1.7811609369434696,0.04654726561606749,10.633806259350608,-2.055392509005808,0.7645544267814883,2.480899888771593,0.49245397372649685,5.806915268719383,73.502360132505,102.95634533002641,-3.1460024416446686,3.1262025237083435,-0.8647152222692966,7.023921573680981,-9.928944397383631,0
GUIDED_NOGPS,0.687126636505127,27.353680805551207,5.135292655460763,70.99791084850256,102.04939900791013,6.372496088679464,-3.0997796865195175,59.18562201114,98.00143966054162,-1.7857224360919803,0.01131491872648023,10.948006914002242,-2.2321640553817708,1.2213892317677595,2.3574788713141444,0.4917675935811806,10.19829202430464,75.57482341621014,102.58938017871375,-2.7300141751766205,2.1381186321377754,-0.11477246880531311,6.615071150464459,-9.903873334261455,0
GUIDED_NOGPS,0.7183339595794678,32.04816809933142,5.245249545897597,71.13673998557285,101.9819453865569,6.084245138354323,-3.185505376234854,58.94726720436527,97.69369455512255,-1.8525229668351744,-0.09154105673224715,11.314835883756118,-1.8057356323325322,1.0069292925979836,1.8407435338684024,0.49127608264352,7.336438150600873,70.75008063298722,99.68524366747782,-3.3917874097824097,0.9142477996647358,2.175275608897209,6.076707238331927,-9.40819967600446,0
GUIDED_NOGPS,0.7515554428100586,30.108566752329406,5.316736355926165,71.30765999564188,102.04552693987998,5.816493812814894,-3.2766290635208515,58.693903610000746,97.36192606890108,-1.8311592023284322,-0.176054315716014,11.667545144948283,-1.8870550817609364,0.9342139564745163,1.8758365910674055,0.49047295139753794,8.709307859485042,72.97632096593037,101.18486236268531,-9.230592101812363,-2.0657630637288094,5.357550084590912,5.437582792226167,-8.5069621914368,0
GUIDED_NOGPS,0.784665584564209,30.20570654913653,5.288402029354595,71.6767145423218,102.10967099716122,5.53615811560465,-3.3730648623550095,58.425770028648294,97.00571445253867,-1.8626926916225002,-0.15872118991279924,11.942788108121457,-2.3276401505367668,0.7064679755433928,1.6309356522516059,0.4896186998966724,6.5727496090853,76.96521732146226,102.15013533896902,-8.256732672452927,-1.9200164824724197,2.2216077893972397,4.885496576549306,-7.820741623262081,0
GUIDED_NOGPS,0.8266220092773438,23.83845135182754,5.278518316184813,71.85648876527,102.05216554246637,5.261755284166612,-3.4747058833083746,58.14316365954034,96.62469057232428,-1.9277186538419604,-0.18158068580649478,12.260367998864954,-1.834067571290531,0.7815164861463716,1.8427422916365703,0.4889535326075664,5.902600980240939,73.59089206752958,100.7404581451047,-4.514668881893158,-1.636660099029541,-0.7389751262962818,4.9429485646362,-8.43927160166739,0
GUIDED_NOGPS,0.8604483604431152,29.566919031707766,5.38751349535475,71.9197235171402,102.01720390728143,4.950033867076436,-3.5814252104481694,57.84643738432457,96.2185349273468,-1.9420059154817462,-0.12778571569707767,12.625643100582652,-1.8526527668510002,1.1008206500753492,1.135781802576942,0.4881953772225553,7.1873205064960795,71.05387141209482,99.92199283400893,-1.5227419324219227,-3.7989087402820587,2.480252832174301,4.884562165933564,-7.573335096051294,0
GUIDED_NOGPS,0.8941309452056885,29.692926318174095,5.402831607181716,71.92765160173538,101.93626830172066,4.729128151473446,-3.693076878240417,57.53599705084847,95.78697666666714,-1.972404099269711,-0.17866603598032404,12.854382720791794,-1.7841810515676932,0.9436861418923118,1.5275290931185952,0.4874775399391545,6.457994404107376,71.3434059785539,100.00029234271037,-3.828805312514305,-3.6571789532899857,0.005223602056503296,4.60238917583912,-5.5402242754385105,0
GUIDED_NOGPS,0.927464485168457,30.004320766864584,5.480543428328228,72.00245320888529,101.98984676771205,4.506967022821152,-3.809496848452565,57.21229875694402,95.32979260649067,-1.9431252127319818,-0.19807799389045563,13.101649229124595,-1.9870505182223288,1.0970226071647113,1.3703439987887316,0.48643826631909737,7.188836339727425,73.55762151956064,101.5560219686867,-1.7402267083525658,-5.586235597729683,3.3474482595920563,4.3683005590891515,-5.939503473939116,0
GUIDED_NOGPS,0.9609580039978027,29.861198917841378,5.427730961412031,72.0054894443894,102.10622930886322,4.252015430332642,-3.9305039870561154,56.87584613421228,94.84680624733943,-1.8237781157131756,-0.12103690182772327,13.45563402814426,-1.8702807204839882,0.854456792483995,1.029151535169079,0.48522007273631473,5.519845988663985,72.96542866615903,101.87117715869664,-4.666983708739281,-7.525953650474548,6.317760795354843,4.035120461682359,-7.709477841682574,0
GUIDED_NOGPS,0.9956588745117188,28.82088916374631,5.47112679142639,71.91135717303078,102.2094727450307,3.9893408795873073,-4.055901041129246,56.52718763180802,94.33788679122439,-1.718839516191923,-0.08267615154044496,13.706611036743672,-1.719996857243665,1.087755636324591,0.8775223495641931,0.4839739258095049,6.417815094455385,71.24783121183114,100.36648419525456,-1.0815885849297047,-7.8410618007183075,10.193245112895966,3.5810404025157814,-7.426418580777966,0
GUIDED_NOGPS,1.027726173400879,31.192069429674195,5.534294654658645,71.78289539555031,102.30593450220945,3.755326328884377,-4.185475615759436,56.16691380022435,93.8029481588178,-1.610067259555589,0.01552465979768197,13.948574756959605,-1.7317219068080902,1.1909127440764191,0.7951486686703797,0.48268928954927554,6.00171074310828,70.93488205859799,100.57152218493249,1.6522474586963654,-8.867881447076797,8.98255929350853,3.4790938925977484,-5.913985887199948,0
GUIDED_NOGPS,1.0613489151000977,29.74599302147457,5.608056695709365,71.62318556071028,102.41263638616702,3.5360678298476205,-4.3190011509460975,55.795654575077336,93.24194800662538,-1.5093787452453766,-0.02497301922509796,14.16603005088624,-1.6863176714992651,1.2315918088294362,0.8136476962389945,0.48132928899835015,6.316194290650924,70.4833335624341,100.87029007793323,1.6522474586963654,-8.867881447076797,8.98255929350853,3.2289885826692544,-5.913985887199948,0
GUIDED_NOGPS,1.0945463180541992,30.12868051115916,5.599240251943575,71.45422590223731,102.57858283136939,3.3058879385879645,-4.4562378985031925,55.41407656089063,92.65488674415872,-1.393413872526196,0.11745017205939387,14.369312702285098,-1.6937422386402148,1.0862911560573298,0.6017899372080942,0.4797968231004087,6.041758663128817,70.40625349629192,101.00079791033384,-2.845262363553047,-9.402640908956528,12.056152522563934,2.8255526872485666,-5.444642181306529,0
GUIDED_NOGPS,1.1290178298950195,29.010665523108635,5.561489414753522,71.29992785738186,102.66992968212692,3.086662857858398,-4.596933898961865,55.022880314880084,92.04180655110741,-1.3472413668500867,0.11143612379413154,14.523032939745406,-1.7367444936196705,1.0388931188922126,0.5807016889926744,0.4783586452222119,6.008228912365014,70.70942439368915,100.89575059198026,-4.471449181437492,-9.232460707426071,7.857921719551086,2.6822942888661903,-5.186257832552239,0
GUIDED_NOGPS,1.1618351936340332,30.477209146859852,5.509173586824019,71.08988777775674,102.92005882141179,2.9028430551150195,-4.740825958473065,54.62279763073838,91.40279039451147,-1.2906645620773438,0.1604847127399848,14.615423201100874,-1.6795696411335443,1.0429753884154147,0.6167142101024858,0.47655024451098404,6.577736048058295,70.29413386809257,102.62884672810313,-7.01896995306015,-11.47344708442688,12.378295511007309,2.5761469867334226,-2.999669673081506,0
GUIDED_NOGPS,1.2051887512207031,23.08266009201576,5.461035293428845,70.88957432920182,103.02577831343473,2.734416522418055,-4.88764062571017,54.21458882241968,90.73796104593353,-1.2547270948724987,0.3064757107003496,14.813056432282487,-1.6385072277344097,1.0288126782287352,0.8313010295809267,0.4749682330632121,6.370146442054599,70.87376777534016,102.84687882689491,-5.903304740786552,-12.478790432214737,3.421683609485626,2.263915612005543,-2.5522017824391683,0
GUIDED_NOGPS,1.2422950267791748,26.935081781927703,5.422513387740463,70.67424141492067,103.1770610693836,2.5185837761908116,-5.03709516877162,53.79904000792418,90.04748009863113,-1.280365490582611,0.3096584454514434,14.944500007764796,-1.6617963582353255,1.0777130692087917,0.40237806520017894,0.473243812950108,6.497631658323119,70.71720917990181,102.97801953718641,-5.425173044204712,-12.54318505525589,4.240182787179947,2.2146137268212396,-2.729665678445144,0
GUIDED_NOGPS,1.278515100479126,27.613180157345536,5.218610332715146,70.41144567373543,103.28593935157343,2.313662750535662,-5.188898552083531,53.37696039308279,89.33154698472904,-1.2542447127623666,0.32681868209129217,15.00455103094755,-1.6102056669841467,0.7807250092120687,0.2550461515316764,0.4715538135848108,3.2102168035840757,70.04619690696035,103.3124148726642,-6.07023686170578,-13.219907879829407,1.7824163660407066,1.8397576372620807,-2.9204885706940176,0
GUIDED_NOGPS,1.3094491958618164,32.330776761144215,5.129121060872646,70.13344503696135,103.36044286216475,2.1307062385890965,-5.342752413302331,52.94917955534177,88.59039799239152,-1.1996454611977538,0.4094151992289043,15.115693576669289,-1.6576254576961522,1.0369274822411552,0.0943397561403383,0.46988599392735336,4.523609829059616,69.5518090770072,103.66688088507371,-2.9251325875520706,-12.934450805187225,-0.14705723151564598,1.7543611105667967,-3.1999427723773275,0
GUIDED_NOGPS,1.342432975769043,30.32516574965115,4.967959400865571,69.86015970385915,103.48556679677802,1.9779658195607321,-5.498352040217382,52.51654472754729,87.82430528299453,-1.2399805030110296,0.4054368541612099,15.147976465781355,-1.6602272306452985,0.8833327613406468,0.26263545409736866,0.46806214531793355,4.140566962052004,69.82221222670378,103.69880471366923,-6.805023550987244,-14.408683776855469,4.17281948029995,1.652790782350675,-3.543254120158379,0
GUIDED_NOGPS,1.3838396072387695,24.153641499329115,4.919097582526028,69.64862896678007,103.5751827652055,1.8758391875554585,-5.6553873476536,52.07991808173013,87.03357590829816,-1.2140691131775283,0.40837399558687404,15.230949603818669,-1.7849977961460457,1.1186907996033717,0.5468396452385502,0.4662547445827824,5.121533538156806,71.02005917696769,103.2864742586922,-2.5455916300415993,-14.007963240146637,3.0922697857022285,1.803094000014125,-0.7829528021299068,0
GUIDED_NOGPS,1.4119102954864502,35.632823318522796,4.834942722559565,69.40439501219316,103.71683547677125,1.7390070147261683,-5.813543854374092,51.64017401289022,86.21855082761877,-1.2335274683492485,0.32490761650586375,15.257460983082073,-1.7546944120904306,1.0684215412227895,0.23955000258098813,0.4642937320318283,5.15242506998206,70.73118074328679,103.42746527222897,-4.806434735655785,-14.86002653837204,5.687007308006287,1.7371798998391037,-2.4996622597961378,0
GUIDED_NOGPS,1.4555959701538086,22.89342284809781,4.686707423974558,68.97813985626148,103.79685352713038,1.6259362194850535,-5.972503659982773,51.19819642278134,85.37960392500132,-1.1204746040940206,0.2734813613366923,15.246548048335686,-1.4009732662483538,0.9482480981179078,0.45843332688562743,0.4623913708383476,4.488742007976345,67.1805564180277,102.77793545310652,-7.194694876670837,-16.450107097625732,4.449452832341194,1.4115240145175667,-1.0960980858330682,0
GUIDED_NOGPS,1.4784793853759766,43.70933419481237,4.4904256238881555,68.54949144923603,103.72622565582158,1.5544635180041095,-6.131946421826991,50.754876003695706,84.5171410263917,-1.1678408987710012,0.17010412705144862,15.224609480721604,-1.4162307113563017,0.8158573935028637,0.30406724097435167,0.46077275579027316,3.574359261149293,67.1856561041821,102.6749139435947,-7.92093425989151,-17.525403201580048,-4.019675031304359,1.2942313968070367,0.7945825865740287,0
GUIDED_NOGPS,1.5173094272613525,25.75768406443253,4.3006659343034235,68.16199961969241,103.72559348034282,1.4861865850892704,-6.291550331900158,50.31110752224859,83.63159891680894,-1.182191553104021,0.16952497503459912,15.210402687247978,-1.473652011156171,0.8729260559665258,0.5409501478084274,0.45894035413323353,3.2702430549270636,66.72676533125934,102.81674343043431,-8.521904051303864,-18.218253552913666,1.7391195520758629,1.262709180771491,-1.9580429862095245,0
GUIDED_NOGPS,1.5473620891571045,33.28178759601346,4.147180101481353,67.68816019536146,103.74354627467675,1.425134786590508,-6.450993093744377,49.867787103162954,82.7234443575175,-1.030622398345445,0.274020866239844,15.185438345831582,-1.3128777448872595,0.9474221168907248,0.4494899910632725,0.4570375144208505,2.756649584207329,66.41672856649495,102.88562994857907,-2.3282526060938835,-17.014314234256744,-0.14962608693167567,1.235068207212255,2.6003290028783708,0
GUIDED_NOGPS,1.5791058540344238,31.505798930352743,3.976420874334595,67.2566058155103,103.79867298685025,1.3738246882868945,-6.609952899353057,49.42580951305408,81.79317310319958,-0.9929511303084744,0.22964734167766615,15.10784910440753,-1.3995583211569094,0.9059636271950885,0.5019188244236754,0.4550106793582869,2.62279323971211,65.90134169024488,103.09176106654922,-5.064624547958374,-17.635448276996613,3.3851109445095062,1.2683545187188172,0.31282874712381353,0
GUIDED_NOGPS,1.612825632095337,29.66100927811722,3.6569002042163845,66.81835221350129,103.86494335472712,1.3327267908709817,-6.768109406073549,48.98606544421417,80.8413089191274,-1.0208005863189666,0.1915008952457036,15.050239873853057,-1.3736782050380945,0.5830427612772761,0.5549890425068169,0.4529125269471029,0.5856140240734123,65.98363515182092,102.82904833157303,-9.02748703956604,-18.12494993209839,4.673026129603386,1.206529057119579,1.237396557070649,0
GUIDED_NOGPS,1.6462585926055908,29.914015918751605,3.371140647528038,66.31114055569104,104.00557316143139,1.3226800597762796,-6.925144713509767,48.549438798397006,79.86840259833545,-1.0377736064064482,0.1379647252728065,14.984565897436092,-1.230527516895736,0.6428818081426679,0.7336939926888104,0.4506206953404324,0.4225825832457799,64.68971339703344,103.17429011512337,-6.55180886387825,-18.75544935464859,8.197887241840363,1.2884415745723103,2.912501091346511,0
GUIDED_NOGPS,1.6801159381866455,29.542137106714467,3.0498069122997924,65.81583768601783,104.044019897855,1.298391700518572,-7.080744340424819,48.116803970602525,78.87503097879281,-1.0439688014270614,0.2782340524211105,14.966518830101625,-1.2405965237136656,0.5544875512604398,0.6355148602862911,0.4484889078187557,0.4225825832457799,64.68971339703344,103.17429011512337,-9.476624429225922,-18.95345151424408,1.9581647589802742,1.2884415745723103,1.623941188028883,0
GUIDED_NOGPS,1.7130286693572998,30.387341698785754,2.731578420134963,65.32646229363428,104.07562791080412,1.2809741860641035,-7.23459820164362,47.68902313286151,77.86179596057538,-1.0516070873532513,0.16253723794642652,14.896359126947255,-1.2347179734715001,0.5339529409825252,0.6628243643410345,0.4463301477532458,0.31466680393497093,64.56429630596055,103.07669497273949,-9.476624429225922,-18.95345151424408,1.9581647589802742,1.3388243541476323,1.623941188028883,0
GUIDED_NOGPS,1.7477078437805176,28.841103501389004,2.4499520772026706,64.8005071465978,104.09076770245785,1.3059254796473494,-7.386401584955528,47.26694351802013,76.82932352303821,-1.014585114174255,0.24954907217605524,14.895635126895233,-1.1556863118121243,0.6102851931745744,0.9279455091356631,0.44415954885015413,0.20258313817049284,63.47820248618241,103.35913772847684,-7.402946799993515,-19.380076229572296,0.40055811405181885,1.443792523895527,3.5117248997325423,0
GUIDED_NOGPS,1.7818305492401123,29.310300489168412,2.119660547452356,64.26128174733773,104.03494716305121,1.3024388946937866,-7.53585612801698,46.85139470352461,75.77826274198775,-1.0231495310632164,0.20617689069879827,14.875989795294984,-1.102147852521654,0.484852750354313,0.760878471326286,0.44209249223900166,0.32329741996684996,63.35191364966665,103.2837408952688,-11.330141872167587,-20.228134095668793,-3.7981539964675903,1.49632175362543,1.5126576629338058,0
GUIDED_NOGPS,1.8144378662109375,30.67155152871319,1.8559011433440302,63.721511171435786,103.9827229538611,1.307009294668472,-7.682670795254086,46.44318589520591,74.70928480685413,-0.9599220430295852,0.21134766406561525,14.870071436379169,-1.072752422590603,0.5999826097098431,0.8120043933290276,0.4399819793098022,0.23182096021941795,62.73784396823603,103.37937682112164,-7.473231106996536,-20.006828010082245,-3.523143008351326,1.5768352808338295,1.4687045418511275,0
GUIDED_NOGPS,1.851017951965332,27.343694586419108,1.5337082626278808,63.186399851932876,103.9574934303113,1.2664679556438785,-7.826562854765284,46.043103211064214,73.62308203786347,-0.9171832015152882,0.22433294757529376,14.892607645545624,-1.0674440660131321,0.47479577270018053,0.5264915773663864,0.4377757240212661,-1.4367381872334506,62.23600875598051,103.10878408359193,-7.294203341007233,-19.689759612083435,-0.8294173516333103,1.554737011274916,-1.5025379906264915,0
GUIDED_NOGPS,1.881831169128418,32.458879886084866,1.1915589176037042,62.78228926041752,104.06741873881073,1.1987433561600154,-7.967258855223958,45.65190696505367,72.52036690321015,-0.8887272994116928,0.19236475409315154,14.908911307094446,-1.29113704769212,0.37697704338109256,0.30066483643397,0.43526877633992933,-1.8541197902097597,65.01173148561462,105.1771305989042,-7.949144393205643,-20.138852298259735,1.7824696376919746,1.6544460050104304,-3.5564735244101158,0
GUIDED_NOGPS,1.9156670570373535,29.55900095844844,0.7711631434489858,62.20249351755573,104.04569008825376,1.1636356204029232,-8.10449560278105,45.27032895086696,71.40187103622904,-0.8671910726284079,0.19873668025853874,14.953488536712534,-0.9222729033839924,0.21596328975913115,0.49276672560203655,0.4329859746154149,-1.435532393777257,61.387301625553164,103.10497368142141,-15.525631606578827,-22.791342437267303,-0.15150783583521843,1.6232002830433405,-1.7232276992902444,0
GUIDED_NOGPS,1.9587366580963135,23.221960159009623,0.3396503715746263,61.60116271294513,104.00198043687297,1.0808213476449848,-8.238021137967714,44.89906972571995,70.26834425256784,-0.745733767321185,0.3060919127659331,14.988353237330864,-0.9361163598948372,0.2857211510949879,0.2635959611495159,0.4306902104706876,-2.670311737940098,60.54452129659469,102.97303815941761,-12.951448559761047,-21.70976549386978,-1.2676061131060123,1.6227184871757552,-4.566637585200668,0
GUIDED_NOGPS,1.989905595779419,32.08862367072145,-0.1278843221525778,60.85789083631744,103.89644181428187,1.0084989277382232,-8.367595712597904,44.53879589413627,69.1205535673594,-0.6085124387704257,0.24863305309490663,15.076904932372786,-0.45171753288215477,-0.008443818624250032,0.14140096307448213,0.42851892316302886,-3.1427061020013296,59.80272863718509,102.75386240658484,-10.211709886789322,-21.640200912952423,-5.00464029610157,1.5892615274127144,-2.8731777713040434,0
GUIDED_NOGPS,2.0237743854522705,29.529657765230187,-0.5921338114089224,60.295468425222865,103.72458731144324,0.9669302726175926,-8.492992766671037,44.19013739173201,67.95928221239382,-0.6032089569624695,0.15091557769215727,15.123780520646584,-0.7906809610003465,-0.04205138425768943,0.3150552229888369,0.42645036035175354,-3.1427061020013296,59.80272863718509,102.75386240658484,-16.405129432678223,-22.10800051689148,-8.106520771980286,1.5892615274127144,-2.6084594893116244,0
GUIDED_NOGPS,2.058523654937744,28.780742865377093,-0.9629349919624611,59.80545665104434,103.58167163984288,0.9431310425863227,-8.61399990527459,43.85368476900027,66.78532865329097,-0.531359422318755,0.10516704400258459,15.222761914551116,-0.9593434657367046,0.2204971549168774,0.43815489328335544,0.42427858222270765,-4.750856695783678,59.22234396449512,102.15624479470799,-8.66481214761734,-20.560036599636078,-4.727625846862793,1.4201179467117369,-1.6004709504934267,0
GUIDED_NOGPS,2.0891525745391846,32.65422045061738,-1.3743841034302515,59.175961841523865,103.40374973895557,0.917655343829031,-8.730419875486728,43.52998647509584,65.59950560667261,-0.31872730916320713,0.07730981731789006,15.303120797683608,-0.5514610979009336,-0.004534364347174902,0.3841026209851246,0.4221702255532591,-4.893436881343073,58.02776374055234,102.16511619536752,-8.067726343870163,-20.164452493190765,-7.160796970129013,1.4266259540430473,-0.8886742053630665,0
GUIDED_NOGPS,2.123790979385376,28.873266972312862,-1.7469512520311552,58.64860402914199,103.23014790594041,0.8741824242136823,-8.84207154327898,43.21954614161973,64.40263905733467,-0.24179872845879485,0.0459514616780628,15.380937142897563,-0.7795847427287005,0.11614708599754871,0.27321931156665213,0.42001622225626556,-5.644309884173541,58.13240788833157,101.89501373970026,-6.393767893314362,-19.327569007873535,-6.315719336271286,1.3421414381146257,-2.4220252070478954,0
GUIDED_NOGPS,2.161938428878784,26.21784109164328,-2.1486170652463614,58.07498691770949,103.0527124661298,0.7998874881161325,-8.948790870418776,42.92281986640394,63.19556727541964,-0.18044263221646784,-0.10383212888603055,15.424508627160368,-0.6944286586762308,0.07872335700317125,0.09043496753835756,0.4178353083759046,-6.407470127780955,57.832741153997475,101.70926156402024,-5.529448017477989,-19.673970341682434,-6.035615876317024,1.306788523332488,-3.8955642421709222,0
GUIDED_NOGPS,2.19917368888855,26.859876404854152,-2.6771974488278936,57.45341595831476,102.85172805607193,0.768498059871415,-9.050431891372135,42.640213497296,61.97913983358877,-0.14446418387660254,-0.16381845870475925,15.448096685459006,-0.5425443381207115,-0.2225249431536681,0.29165199759427946,0.41568327827092677,-7.361809315343654,57.77058997148764,101.41895347320536,-10.272108018398285,-20.5414280295372,-6.523019075393677,1.2409733515502304,-0.8261346454449026,0
GUIDED_NOGPS,2.2248401641845703,38.970017374499434,-3.186401730329627,56.8350034855018,102.61178537333664,0.7165524502090101,-9.146867690206296,42.37207991594353,60.75421662419434,0.017369171059342426,-0.19144633377362283,15.525095115519854,-0.21991850520082146,-0.5742475953218339,0.025108581999313317,0.41362738069607535,-7.899263471909899,56.914181800939915,101.01614136680003,-9.063279628753662,-20.277589559555054,-7.932919263839722,1.1481893850321172,-2.1347290944237645,0
GUIDED_NOGPS,2.2584354877471924,29.770695663900856,-3.6369856657884627,56.404820935195495,102.3309688877294,0.7061846407728021,-9.237991377492296,42.118716321579015,59.521666876451974,0.0309296045219036,-0.17520718549594727,15.560147646340358,-0.7588069068936659,-0.23122903657493618,0.36238941212159986,0.41160810758277466,-9.310244861974326,56.23727225935412,100.42132400678958,-9.199515730142593,-19.780242443084717,-10.640879720449448,1.0170459116885564,-0.6584690826901336,0
GUIDED_NOGPS,2.29247784614563,29.378665938207007,-4.149685963294731,55.841865199732666,102.0365018545954,0.6454583024237162,-9.323717067207628,41.88036151480429,58.282368173612966,0.1726696901780082,-0.11644485359093262,15.610105357477124,-0.4539712127482173,-0.39825241437559133,0.03085018493175662,0.40959916956429604,-10.301941505695936,55.45458848037822,100.08447187955694,-6.663922965526581,-18.341821432113647,-9.758485108613968,0.9242513828917287,-2.6394711094644214,0
GUIDED_NOGPS,2.3262479305267334,29.61744435656988,-4.687595643236324,55.29251458379649,101.73388597525336,0.6313596943195804,-9.403980853638881,41.657193181375234,57.037205470136406,0.18747251103821092,-0.19314849161998407,15.603650828711462,-0.4196516183509165,-0.5110980861091543,0.29524798893743187,0.4075934245123114,-11.049064107415594,55.16517751007071,99.62945705518482,-7.713107764720917,-18.447725474834442,-9.39309149980545,0.8854255757953367,0.20534428797093107,0
GUIDED_NOGPS,2.3592586517333984,30.296689564507624,-5.212439899450675,54.76276684781425,101.46325360779821,0.6234107314969866,-9.478741788284317,41.44932517598636,55.787070108861656,0.27544130546336865,-0.24326201644719073,15.594993563938472,-0.3904544511685486,-0.5555338854219551,0.32591401618834526,0.4055137253988099,-10.56261991613831,55.018545017609156,99.5533096902806,-9.828974306583405,-18.493661284446716,-7.661644369363785,0.8342477246574544,0.4995034733906684,0
GUIDED_NOGPS,2.3921620845794678,30.39637067259959,-6.22516285067621,54.249089113886235,101.02421142659749,0.6318965866540691,-9.547982856756548,41.25680480605551,54.532858838180424,0.27997764496974137,-0.3317818550599378,15.568670014877242,-0.35296621857516475,-1.6939799238061688,0.4307336440162328,0.4037610455688629,-20.36269594898014,55.10848617396592,96.97094348247253,-15.688526630401611,-19.345669448375702,-11.427465826272964,0.7316838655475212,1.6190084040659587,0
GUIDED_NOGPS,2.4267492294311523,28.91965276868023,-6.829783917827297,53.71129877136706,100.56118064184776,0.6011543379689592,-9.611711955685127,41.07961011550839,53.27547282920929,0.21586567411902002,-0.30756435214059974,15.55913336324861,-0.29175922974143853,-0.8310196877062064,0.18252901051775355,0.402041788225144,-13.335601825372626,53.6133118944594,98.34360237714844,-10.48964038491249,-17.836321890354156,-17.58246272802353,0.7181782498398211,-0.8952764369695301,0
GUIDED_NOGPS,2.465303421020508,25.94056491165138,-7.467407684962223,53.163586199976464,100.06611202268381,0.5719861296536519,-9.669962869619187,40.91764716856318,52.01581669296179,0.2794518271253562,-0.40015442320971906,15.516301246963462,-0.2933010105614102,-0.836432997024055,0.1920674733912366,0.40036422758676804,-14.37482942289941,53.275722792487755,97.62489363811665,-10.48964038491249,-17.836321890354156,-17.58246272802353,0.7561769655655083,-0.8952764369695301,0
GUIDED_NOGPS,2.5042567253112793,25.675063203579803,-8.0996632760746,52.554727537910864,99.6056193458694,0.6141758434764948,-9.72279624793008,40.77074733351532,50.75479749752073,0.3443976680242009,-0.596417667854214,15.413648626380047,-0.13688383617537853,-0.8774846834529997,0.5850839315847987,0.3986109154543407,-13.882320742850435,52.57301654570527,97.36986691658629,-9.497775137424469,-16.37422740459442,-13.549710810184479,0.7722476866339016,3.5397263274520676,0
GUIDED_NOGPS,2.532844305038452,34.98606164240731,-8.58479527800301,52.086259133606205,99.10872001809088,0.629961555442207,-9.770300581713972,40.638664566521896,49.49332378521056,0.2321506060084758,-0.7690547545511061,15.334054724434596,-0.11522255765820273,-0.9494143088356329,0.4886452293509614,0.3969685325422826,-13.701965371694689,52.30677444934875,97.32171265046364,-5.673519521951675,-13.877679407596588,-16.184106469154358,0.7963910451867464,1.6198523593152785,0
GUIDED_NOGPS,2.5674591064453125,28.895943562610228,-9.08173552567363,51.70275613091419,98.71518289785807,0.620079825639485,-9.812593180694467,40.52107269538648,48.23230458976951,0.30094733957788544,-0.8503493735998903,15.273643408773125,-0.36412144718115524,-0.8386292638852642,0.31494856169886115,0.3950937816361445,-15.426458336655122,52.35186304229537,96.46515219033455,-6.769531965255737,-15.255989134311676,-12.618961930274963,0.8157734889369548,-0.6077087176041855,0
GUIDED_NOGPS,2.5994718074798584,31.240160881870995,-9.629711687957304,51.215076558792894,98.28220763878419,0.679017034850898,-9.849821150125305,40.417562703343634,46.972648453521956,0.24158098949857423,-1.0101527482897399,15.109344915835761,-0.053587557618950586,-1.0753755564047733,0.7745416012801442,0.39330862870791483,-15.373161200428484,51.693847830409865,96.10899500830848,-8.221323788166046,-15.154197812080383,-12.174821645021439,0.8669947445132753,3.6363414876960136,0
GUIDED_NOGPS,2.633500337600708,29.390812007736077,-10.168772502807219,50.756861566310164,97.85049034389316,0.7430106076804172,-9.882162367692889,40.3276400128435,45.71526244455086,0.20148080213908393,-1.1133310799958334,15.00046487027659,-0.09352176073264364,-1.0593822274360016,0.8251608866043825,0.39151657564579817,-16.500373060164627,51.197923539250475,95.55128017067202,-6.698943674564362,-15.644356608390808,-12.528960406780243,0.913816607070354,3.6579338500965393,0
GUIDED_NOGPS,2.6734962463378906,25.005240346494812,-10.755934532356001,50.306025890418006,97.36503361282912,0.8081791346571503,-9.909826460418945,40.25072176933662,44.46105117386966,0.25359411830986306,-1.08575461810873,14.926345364950903,-0.16644139717380785,-1.03944059053893,0.8109972697800871,0.3898099021352593,-16.83633878021248,51.27259490978669,95.23205433650396,-9.324117749929428,-15.058115124702454,-15.034772455692291,0.9591500465826006,3.6095125046362035,0
GUIDED_NOGPS,2.701368808746338,35.88617190574787,-11.320793448189324,49.862927148920186,96.85996437015729,0.8492650840087994,-9.933055781563223,40.186134125058274,43.21091581259485,0.09821210382861993,-1.2233992583054716,14.799887827562701,0.1395551765169567,-1.4585093675638152,0.8031238855618246,0.38819963441435346,-16.725694666879157,50.78953697901989,94.79793963450842,-9.12860706448555,-13.941271603107452,-15.454968810081482,1.0333380131912668,1.9167344289961104,0
GUIDED_NOGPS,2.7352683544158936,29.503485435732223,-11.776769892044971,49.53908010333528,96.43736669400403,0.9040582502447727,-9.952126387525976,40.13310952281337,41.965753109118324,0.10862574107450929,-1.2060686137819163,14.724130784383505,-0.20600561974742998,-1.0495162025521936,0.8652237873560658,0.386406560102199,-17.183489673528552,50.34516420253321,94.54051135037842,-7.256884872913361,-13.06222677230835,-14.567616581916809,1.062329612953722,2.7216393523967324,0
GUIDED_NOGPS,2.7679669857025146,30.58611109085473,-12.284061740797007,49.144523933598904,95.94473621597575,1.0012186014832405,-9.967349014750685,40.09078397976084,40.72645440627929,0.14495929255014914,-1.1886650783333121,14.673483224140568,0.010962656052823589,-1.248905051136291,1.1983073203739432,0.38476957594989675,-17.94008600088135,50.07811797342836,93.8881198427285,-5.861150473356247,-12.699025869369507,-15.081541240215302,1.1529333637447483,5.064726995989733,0
GUIDED_NOGPS,2.8106589317321777,23.426107548982372,-11.874240254037911,49.44744234888378,93.4437158100769,-0.07359688451995572,-9.979070056626728,40.058194371198496,39.493904658536934,0.1499632999114694,-1.1352627106990385,14.628455202037259,-1.247357451226466,0.5365580149777412,-5.047102223094699,0.38712107096444226,1.4078159691621632,64.76699934271531,49.07784991658275,-1.3621099293231964,-11.211878061294556,-15.45344889163971,-22.663393321901378,1.054875546314514,0
GUIDED_NOGPS,2.8350605964660645,40.98761861019632,-10.842534899020718,50.350088956844914,88.49966468555333,0.02191749452897289,-9.987672540391866,40.0342757143474,38.268981449142515,0.13350343780602458,-1.205526680959958,14.541518846734045,-3.274853373756319,2.919224797269226,0.7945283691829097,0.3944610849030352,19.274825747801998,81.01207060842384,-1.5825209068862622,-5.536278337240219,-11.16587445139885,-17.89470911026001,2.4287116069974033,-0.5880579431969416,0
GUIDED_NOGPS,2.868882179260254,29.572339105420497,-11.481748415583944,50.00737356034871,88.27887749146532,0.08548634308328794,-9.993577104034994,40.017858452136736,37.05255400731163,0.1565784848649722,-1.1713722132936035,14.48440651244169,-0.15476839779327473,-1.4306256067399805,0.42846172835375024,0.39233166408594833,-20.907733731933952,48.57747324694639,91.47096453690082,-11.277703195810318,-12.559433281421661,-15.991738438606262,1.4488018043730742,0.007116950393447505,0
GUIDED_NOGPS,2.9017739295959473,30.405625430425168,-12.092443566515046,49.59209642842702,87.85095810224503,0.11412802935488685,-9.99724297319872,40.007665736988216,35.845482225396594,0.09232892305507209,-0.9961233262911221,14.470689785041012,0.045011137957954465,-1.4579024124815245,0.24211803421751177,0.39063610852071784,-19.98001579649027,48.57182670037588,91.1160668261379,-8.105901628732681,-10.634592920541763,-19.7124183177948,1.513461590683065,-1.9950673072660479,0
GUIDED_NOGPS,2.937063217163086,28.342381425395473,-12.594450125088574,49.23160751423625,87.49499181820178,0.1665078463742305,-9.999168938081926,40.00231071460088,34.64861567605867,-0.041964708940984786,-0.7361150467008089,14.476975266624716,-0.06910629645454998,-1.2117188184039904,0.3981141714518338,0.38880579044926755,-20.545612472485764,48.34787738910312,89.75033970968781,-0.7514461409300566,-7.871609926223755,-12.749592959880829,1.6242642179886815,-0.7501093038973716,0
GUIDED_NOGPS,2.969367504119873,30.964785093094335,-13.136565796502197,48.87339411207346,87.11357097463187,0.21788127504719212,-9.999894330342524,40.0002938077357,33.46279262944027,-0.42007226868568115,-0.2648727616615375,14.459216774782684,0.016690120863476626,-1.433401792054727,0.447826410260967,0.387057913452705,-21.83620994987549,48.207362385020346,89.13169385669003,-0.7514461409300566,-7.871609926223755,-12.749592959880829,1.648296622104334,-0.7501093038973716,0
GUIDED_NOGPS,3.003013849258423,29.72406950704425,-13.666787839022891,48.53089918166349,86.79872498871298,0.3124852836262241,-9.999999999999996,39.99999999999996,32.28883907033746,-0.5540823944703296,0.005619564820054436,14.473906804140087,-0.00984747117062107,-1.4134689081854215,0.7492256071630048,0.3851928145584161,-21.54521654787998,47.66774837325712,88.36770486098575,-3.4916818141937256,-7.8254953026771545,-9.517239034175873,1.6744561944284988,1.8994064525151997,0
GUIDED_NOGPS,3.036238193511963,30.10316440705945,-14.121291916587031,48.210955427505226,86.32335707956051,0.39587123731334345,-10.0,40.0,31.12756771537188,-0.6473786163861783,0.08753791887827839,14.452649547895716,-0.018077947507437735,-1.3122026702648562,0.7403782161252093,0.38367456229547264,-21.233895069172576,47.8119799188973,88.09126780052054,-0.08723133360035717,-7.188355922698975,-19.137880206108093,1.7329044323247516,1.1562393955789114,0
GUIDED_NOGPS,3.0702016353607178,29.446937571962145,-14.612897187810553,47.859102433280064,85.93470305020314,0.40538586810622695,-10.0,40.0,29.97977703016339,-0.43777894713955745,0.19440938189336543,14.51291401449003,0.055794368619595816,-1.4107639220135917,0.2993022976935936,0.382004369430028,-21.136555946581822,47.62147908214973,87.82293591313768,-4.46530282497406,-10.08656695485115,-14.389120042324066,1.7276880276571287,-3.240697443937736,0
GUIDED_NOGPS,3.1061606407165527,27.81368700265252,-15.085166936955684,47.51567581710145,85.45275046493556,0.4479907690699451,-10.0,40.0,28.846250246502265,-0.3322704537094317,0.09356375989202957,14.531526279978316,0.02790634807562441,-1.3576706990058103,0.5054146154808793,0.3805381435070341,-21.872369952140673,47.36405375406923,86.60444693957706,-2.14814692735672,-9.468919783830643,-17.63398051261902,1.7256546185281558,-1.0666023407891911,0
GUIDED_NOGPS,3.1391971111297607,30.27329156682161,-15.619878983944952,47.13143975422922,84.86774528469947,0.4510866423836701,-10.0,40.0,27.7277543795211,-0.11888245739226026,-0.20252602118529422,14.563800631353919,0.1943039576342134,-1.6190014510442516,0.28938346147424265,0.37932005974518,-21.360877115550053,47.07493807012422,85.85337537898442,-7.763919979333878,-10.805508494377136,-21.041885018348694,1.7021007288379644,-3.283087945804362,0
GUIDED_NOGPS,3.173694133758545,28.992817988898643,-16.191952157264247,46.79226343327201,84.28632948038062,0.42981620635366535,-10.0,40.0,26.62503924486778,0.11417848476653132,-0.3719690606302796,14.634959249674404,0.10382526707108522,-1.7013601201945072,0.13442116723997377,0.37811852432271037,-22.580529138084664,46.92484457607786,84.72479541048516,-9.62999165058136,-10.535161942243576,-21.761637926101685,1.655172024110501,-4.525942891238909,0
GUIDED_NOGPS,3.205948829650879,31.007592391344527,-16.689603349297094,46.45798861976912,83.63091794705316,0.43545700359411227,-10.0,40.0,25.538836475877147,0.3728719262611907,-0.6178558173898858,14.686955772278418,0.1614124221027168,-1.6622158584359186,0.2962032911485622,0.3771068385822476,-22.24762985332264,46.706822327044414,84.51321436900784,-6.709367036819458,-10.13466864824295,-26.139938831329346,1.6305473545825062,-2.684511084398778,0
GUIDED_NOGPS,3.240339756011963,29.082074287734965,-17.153162941632,46.14825396554766,82.98925122972054,0.48693356458399867,-10.0,40.0,24.469858540743516,0.5236249267748031,-0.9558021582995981,14.734451200219395,0.09879024359970313,-1.5711006484086667,0.5920078537548773,0.3760914744401803,-22.939724259718425,45.96307495888087,83.36656080122056,-4.416447505354881,-8.366386592388153,-25.024530291557312,1.535571636066083,0.40335596766145676,0
GUIDED_NOGPS,3.274569272994995,29.217808056954574,-17.505227354974476,45.885680606931665,82.29973838046135,0.458547172686979,-10.0,40.0,23.41879775969302,0.6950132627923464,-1.1350010290764625,14.817398725047322,0.027219696444255453,-1.3771429506433166,0.10959545446273197,0.37520682345669837,-22.435247391317702,46.02811636222863,82.85572972466167,0.9447081014513969,-5.625275894999504,-26.30355954170227,1.4923485334327253,-4.223714704428661,0
GUIDED_NOGPS,3.307253360748291,30.601062277476217,-17.930357944464628,45.61047726576097,81.67064253378432,0.5212145992920413,-10.0,40.0,22.386325322155912,0.7590701385624581,-1.2215627911923843,14.858487435546825,0.10123122120344219,-1.607388329961552,0.6963954866903765,0.37424513599123144,-23.42476960594532,45.50613363548858,81.79191285323651,-2.6742935180664062,-6.374477595090866,-21.762335300445557,1.444606006706429,1.5104184281030995,0
GUIDED_NOGPS,3.342883825302124,28.070002610039953,-18.340582159028727,45.382339887056624,81.08369062698249,0.5471205354498214,-10.0,40.0,21.373090303938497,0.7945529179398214,-1.1649929233305174,14.925874081898172,0.0059596766773048135,-1.5767670484031608,0.4802438614425145,0.3732297120124647,-23.98790090490607,45.38513142897095,80.91888860622134,-2.004663087427616,-4.668154940009117,-19.251979887485504,1.347371786829073,-0.4484968479686297,0
GUIDED_NOGPS,3.383283853530884,24.756402613576668,-18.761380708711616,45.142807469520235,80.44421595718866,0.554120669117573,-10.0,40.0,20.379718684395797,0.7352881135635613,-1.2211480706437177,14.945792621065221,-0.03970235593907742,-1.477540300758812,0.3659507609362081,0.37232097182226137,-24.103937840393414,45.21255012696774,80.13878407834306,-3.025767020881176,-5.1151517778635025,-20.67699134349823,1.2725796595740766,-1.315934341015687,0
GUIDED_NOGPS,3.4090065956115723,38.88799881323246,-19.170453167498284,44.95277161399571,79.86598634579602,0.5499792331374311,-10.0,40.0,19.406812363603805,0.6162692925117388,-1.2622203460005315,14.961479858041448,0.0879556838784696,-1.9255566525117587,0.2976908689445351,0.37140757451104256,-24.159784878821263,45.4028466722428,79.73396237995085,-3.6284655332565308,-3.7155862897634506,-17.462365329265594,1.2664524411100546,-1.933508733267427,0
GUIDED_NOGPS,3.4426538944244385,29.723016306080943,-19.448444846717617,44.85240984687538,79.40646791514182,0.5972067834569078,-10.0,40.0,18.45494817953174,0.53226180770199,-1.1084785507556567,14.997739624797754,-0.19687028360944894,-1.4135998051246468,0.6380877918666484,0.3702582531688919,-23.87998100294932,45.188076507981904,79.0795317724696,-1.823912188410759,-3.16302627325058,-19.263693690299988,1.1962240524261238,1.2796502417104636,0
GUIDED_NOGPS,3.4815733432769775,25.698187655470733,-19.79327589982815,44.68168047049946,78.72564009923124,0.6524490352584282,-10.0,40.0,17.524676925213768,0.20571295810355308,-1.1341835408101766,14.966544443311014,-0.04218743439089023,-1.588943579586789,0.7218904607496641,0.3695956537622792,-24.26230352881523,44.829628911045006,77.74175133835932,-1.3287696056067944,-2.2519901394844055,-21.628880500793457,1.101069992715971,2.2624822333201524,0
GUIDED_NOGPS,3.509340763092041,36.01837714364228,-20.156013283532218,44.51231253351254,78.02097748353852,0.6780923623325178,-10.0,40.0,16.616522365922364,-0.018280974633112682,-1.1211605044970778,14.929181601003751,-0.026427903195483632,-1.6689306019708305,0.5621898762430686,0.36902647899606017,-23.074521624860388,44.92979449200894,77.40309509997918,-7.315785437822342,-3.5818707197904587,-24.677549302577972,0.9944876940808208,0.7359400764641801,0
GUIDED_NOGPS,3.5428924560546875,29.80962737112926,-20.48114970414633,44.371795374624185,77.28223845896333,0.7188887851337149,-10.0,40.0,15.730980256339578,-0.178431915238266,-1.0483025564554345,14.890336607646596,-0.07925087824163585,-1.6026550254558227,0.6724116324608711,0.3685662168963,-23.741977615315292,44.82788173334886,76.35630468766466,-3.639218583703041,-1.9078345969319344,-24.90631490945816,1.0054096261612246,1.657511034190967,0
GUIDED_NOGPS,3.5882062911987305,22.07377389968055,-20.743062668712508,44.236318646959106,76.47409257494414,0.7711163456763508,-10.0,40.0,14.868517357729942,-0.4184935344920562,-1.0894684267482186,14.81472982862914,-0.14233549152221414,-1.3684453917332904,0.6981353096998811,0.3682389515090256,-23.794426800798185,44.91710812457548,75.44450274363987,-0.15462470473721623,-2.4746565148234367,-27.658411860466003,0.9913175375424879,2.4119750105710445,0
GUIDED_NOGPS,3.6100454330444336,45.79934483511684,-21.070962498150514,44.03558247276914,75.50317631730094,0.8038505308393368,-10.0,40.0,14.029570455112477,-0.5715401445454706,-1.0575828625467778,14.763961032528435,0.256600643945991,-1.9874214000661545,0.7698044266686743,0.36839089970018823,-24.115119102129643,44.78192737229355,74.91291637019964,0.8012711070477962,-1.9662551581859589,-25.862210988998413,0.9822769582071103,1.0936059205596598,0
GUIDED_NOGPS,3.647533655166626,26.67877747034316,-21.162673657843026,44.01234911157711,74.94232279139759,0.8284173917988679,-10.0,40.0,13.214545374433087,-0.6245601283079293,-1.173496615568889,14.663910714018796,-0.28530518255378895,-1.1680771867797348,0.6289039478883562,0.36769853931961033,-23.64366490547941,44.76582795073449,73.89405674337013,3.102695941925049,-1.5884693711996078,-25.641363859176636,0.978813586031252,0.9500955352480525,0
GUIDED_NOGPS,3.678356170654297,32.44958841369066,-21.37469626685252,43.87512249309609,74.09642571385359,0.9192793148551351,-10.0,40.0,12.423815999736732,-0.5183869720941967,-1.098934321885916,14.629645362500133,-0.02099505390864022,-1.4900854667122878,1.1375411077638888,0.3676558659837635,-23.864342943957553,44.738307574112405,73.03666118620262,2.28424072265625,-2.3898793384432793,-24.276749789714813,0.9873444470467773,4.769767838003671,0
GUIDED_NOGPS,3.712031841278076,29.69986475290852,-21.52069396311936,43.78994051777111,73.40864799907487,0.9779682346833756,-10.0,40.0,11.65772329033966,-0.5720285030711265,-1.283383793865522,14.481348295240817,-0.13940063936268957,-1.3301194656126683,0.9348222421394584,0.36733263070690336,-24.17559462178614,44.69176020050544,72.47079427738345,3.1387098133563995,-2.6522839441895485,-23.204490542411804,1.04224189810104,2.8303746833228662,0
GUIDED_NOGPS,3.7446577548980713,30.65429085115402,-21.68008957952063,43.68777864206817,72.67309796497833,1.0546467285836045,-10.0,40.0,10.916574298002203,-0.49043148806901055,-1.270170366029309,14.383295807063407,-0.08684534714411211,-1.3877704631566938,1.1093116196453006,0.3671624346666015,-23.68951589359166,44.74974889903082,71.76837009488531,1.4876258559525013,-3.2066989690065384,-22.760498523712158,1.1289776650626133,3.657372493924129,0
GUIDED_NOGPS,3.778188943862915,29.827434414979482,-21.674208471677883,43.65474560614524,72.06676834290636,1.126288087153475,-10.0,40.0,10.20064118410015,-0.435295586406876,-1.28734402292366,14.3038854664519,-0.2328484495166964,-1.0317466707093383,1.0980286022921444,0.3667752849743202,-23.50292648791549,45.15396166036257,72.36483309933757,10.893931239843369,-0.7293480914086103,-19.527660310268402,1.3737999602431064,2.770640196719462,0
GUIDED_NOGPS,3.8119494915008545,29.62392908853339,-21.79067013553595,43.59150402652475,71.31286823396533,1.200307804917501,-10.0,40.0,9.510160236797773,-0.4042866342967239,-1.3087995680973739,14.1732137023458,-0.1626873774240714,-1.2955208038981358,1.159359127437183,0.36673546081309527,-23.14924110130027,45.12090839182258,71.6364295696865,1.4641092158854008,-2.5642327964305878,-27.059075236320496,1.4471144777888223,2.721338183743017,0
GUIDED_NOGPS,3.8555173873901367,22.955946823125043,-21.9185809959039,43.51833200462209,70.52949936306457,1.2400373591505298,-10.0,40.0,8.84533088821972,-0.3586001926295962,-1.2622458524882132,14.10910554679606,-0.16409122215724536,-1.281595947590583,0.9354930243433168,0.3667677514962123,-23.368920560789682,44.598368189309355,68.02645056551978,0.6105293519794941,-2.3042380809783936,-20.69266140460968,1.435172916519031,0.7728563951544528,0
GUIDED_NOGPS,3.8793838024139404,41.90741869411001,-22.0476039117295,43.43115819268941,69.69889118039276,1.2694614163566695,-10.0,40.0,8.20631473162392,-0.39406056044874543,-1.2401525384007492,14.040429702238875,-0.050051235485925945,-1.4234391760760905,0.9884710038590812,0.36702328773699633,-23.464905853404733,44.54813563829202,67.08144347848008,0.3744701389223337,-3.22716161608696,-22.360941767692566,1.5038756971696148,0.021870692609203955,0
GUIDED_NOGPS,3.912752866744995,29.973016235993597,-22.120443611848536,43.40220352250576,69.04661378602394,1.3298035502555752,-10.0,40.0,7.593234538572446,-0.5072708925808539,-1.0707550958045589,13.920985915354631,-0.21278552509951243,-1.2389628606242915,1.1595911882423033,0.36693765072460677,-23.284771624777335,44.460987217429036,66.70952991453166,0.6202544551342726,-2.407243475317955,-22.794660925865173,1.5114791174775877,2.5576772462759916,0
GUIDED_NOGPS,3.947413921356201,28.85538952640414,-22.19721733523012,43.33404440927092,68.24397491342785,1.4370809113829495,-10.0,40.0,7.006173276105912,-0.590134053900361,-0.9386255131974854,13.870086491886049,-0.13410451803679987,-1.246701735192366,1.48002427795443,0.3671986618765922,-23.044187080144034,44.242616058715896,66.70186200478251,1.654425635933876,-1.918351650238037,-24.438616633415222,1.5595273552277984,4.975811593374506,0
GUIDED_NOGPS,3.981135606765747,29.659121604898985,-22.208830121773055,43.30298642082232,67.41175169565862,1.4894126063713902,-10.0,40.0,6.445173123913477,-0.7712994855496601,-0.8057915673322543,13.777385456923344,-0.20155787124757146,-1.119473878396386,1.2051714220043122,0.3675772433502943,-23.097884050715777,44.478385169956056,65.38946356060364,5.87834045290947,-0.3606212558224797,-23.41548204421997,1.6383089835450027,1.326710458535263,0
GUIDED_NOGPS,4.013959169387817,30.472116474383192,-22.240321507351638,43.276324012748645,66.5539158737544,1.5564760607055264,-10.0,40.0,5.910234491506898,-0.895172970275775,-0.7080699698036191,13.713048490036408,-0.20416039127905827,-1.1663082682773467,1.3442054858343289,0.3680644502366154,-23.12790891348252,44.610256968295204,64.92873958737752,3.9139099419116974,-1.0453139431774616,-26.800355315208435,1.7093089174624896,2.2591132425120435,0
GUIDED_NOGPS,4.047175645828247,30.10899902371791,-22.255740278819026,43.2258065698709,65.69603022475462,1.6302451539850178,-10.0,40.0,5.4013150353917325,-0.9424905464940664,-0.6726157918434053,13.614675836741654,-0.15481204071409965,-1.131818100375442,1.4191596538849658,0.3686010126530941,-22.637836671570525,44.46188484202035,63.264542065868824,3.1279191374778748,-2.6276113465428352,-25.2520352602005,1.834167858253442,2.5310235002570742,0
GUIDED_NOGPS,4.080898761749268,29.65723417193444,-22.213674278084646,43.16598699795382,64.71788519477482,1.7156317481199739,-10.0,40.0,4.9183286762405345,-0.8635146165859428,-0.620033633878915,13.537685090643624,-0.13536044869807903,-1.0085622924521067,1.5354550489096046,0.3694298971518891,-22.66999370590155,44.27252734583742,61.78809750163168,6.911057233810425,-2.7390120550990105,-29.47426736354828,1.879956555696608,3.179733096396906,0
GUIDED_NOGPS,4.114407300949097,29.84908587573034,-22.135402408549457,43.104730584775574,63.84525927004963,1.788298139619834,-10.0,40.0,4.461144616064061,-0.7654620216868264,-0.5657087104590136,13.445711470827526,-0.12828247598242226,-0.9251915606816701,1.5078423566214523,0.37010200997126474,-21.719908055143566,44.20698544179564,62.94189613594732,6.273433566093445,-2.9536843299865723,-28.31275165081024,2.0961668583334614,1.9189514657120144,0
GUIDED_NOGPS,4.148349046707153,29.46555575850393,-22.097108299902334,43.02949090710517,62.979997137557696,1.906008569752957,-10.0,40.0,4.02958635538441,-0.6009558483100115,-0.6718719415541085,13.321127966592845,-0.09335948533549417,-1.0064287501579934,1.8363513961125015,0.3708091494338669,-21.495175971791987,44.217335695181106,62.58097728663628,2.6844026520848274,-4.23368327319622,-29.297518730163574,2.138561788132263,4.770814564493975,0
GUIDED_NOGPS,4.182830572128296,29.0070541370439,-22.05423707294828,42.97327138825738,62.10312360835728,2.0331847434331705,-10.0,40.0,3.6234307104069075,-0.4728783821497538,-0.7055121173203023,13.191023108187858,-0.12435146903389704,-0.9953749606359454,1.9645977892489714,0.3715907924486188,-21.43769254309785,44.582495263279256,61.75598692577413,2.6844026520848274,-4.23368327319622,-29.297518730163574,2.376905781662817,4.770814564493975,0
GUIDED_NOGPS,4.2161338329315186,30.03246478923664,-21.8972812063057,42.9601804074618,61.19480583620877,2.0987939105270934,-10.0,40.0,3.2424068301924507,-0.09395162659147903,-0.589311229548786,13.01847801560135,-0.21320305180085594,-0.7458809422764889,1.6496979909146179,0.3724895606489168,-21.732034049388403,44.27138358766619,60.04941229158206,10.942541062831879,-0.8240478113293648,-28.223195672035217,2.274147187703761,1.4408113299412648,0
GUIDED_NOGPS,4.249347448348999,30.115268353975946,-21.825545320738325,42.91727467432581,60.45233920173395,2.1750953114159337,-10.0,40.0,2.8861952138301916,0.023597343087042023,-0.5642686611220517,12.85914848528517,-0.14391600346765127,-0.9130922170129342,1.7652689656152583,0.37310936264479316,-21.732034049388403,44.27138358766619,60.04941229158206,5.083511397242546,-3.0906088650226593,-21.28271758556366,2.274147187703761,2.397530441136937,0
GUIDED_NOGPS,4.283252954483032,29.500165284606023,-21.813374645021092,42.87015703693604,59.59712053528438,2.305593445828338,-10.0,40.0,2.5544267276087993,0.130534519992464,-0.44706997876233173,12.711869116212185,-0.1267760019834283,-1.0384259819054857,2.15618568338778,0.3740021495505744,-21.785300990988482,44.03849892379739,57.94859024703898,1.1798986233770847,-2.99806147813797,-25.234854221343994,2.248027192863393,6.018153956005459,0
GUIDED_NOGPS,4.3172502517700195,29.41761000995946,-21.738565181648163,42.84238356287227,58.82037472729697,2.3893373433579046,-10.0,40.0,2.246681622189655,0.1372038261910112,-0.2697692602444962,12.501539417137167,-0.16612149364492002,-0.903934379831708,1.9298371594973862,0.3747873941719504,-22.121549029692027,44.19206032362377,57.4912093697922,6.253594160079956,-2.217673510313034,-20.26536613702774,2.2985389896627475,3.0924987740911494,0
