Mode,Time,Freq,North-Vision,East-Vision,Down-Vision,Yaw-Vision,North-Desired,East-Desired,Down-Desired,Roll-UAV,Pitch-UAV,Yaw-UAV,Roll-Control,Pitch-Control,Yaw-Control,Thrust-Control,northVraw,eastVraw,downVraw,yawVraw,zGyro
GUIDED_NOGPS,0.0036368370056152344,277.5846459298478,268.70565452033884,30.57322747736936,27.796300990201676,11.04869546563319,264.5529619251825,7.8455638303943545,7.3657360718605975,-0.5032110921712217,1.0216744236459052,123.19736515394894,1.5796429070350495,-2.26565715573813,-0.44194781862532756,0.4897847175408295,268.70565452033884,30.57322747736936,27.796300990201676,5.637724091178399,-3.666929888837269
GUIDED_NOGPS,0.010926246643066406,137.19429543373022,268.53060295308615,32.13651743076526,28.957007090297463,8.776786034644546,264.55291837297267,7.845540351212309,7.365751941385148,-0.5032110921712217,1.0216744236459052,123.19736515394894,0.9006004849167109,-0.27320320545750915,-0.35107144138578184,0.4892043724255438,268.3555513858334,33.69980738416116,30.11771319039325,7.884406779089872,-3.666929888837269
GUIDED_NOGPS,0.01302957534790039,476.84220100045474,271.33600408245053,34.124924576295165,30.566368179413406,8.592554008898981,264.5526170221023,7.8453778916730785,7.36586239051505,-0.5032110921712217,1.0216744236459052,123.19736515394894,1.3220715919738708,-1.7428010515071266,-0.34370216035595924,0.48839974710555084,276.94680634117935,38.10173886735496,33.7850903576453,1.1269967789326927,-3.666929888837269
GUIDED_NOGPS,0.02255415916442871,105.14148200140379,271.53036488833453,37.56476495847527,32.90449947598942,8.535276393641768,264.55180967485256,7.8449426473280885,7.366160251395557,-0.4394474876485975,1.0348147471136577,123.17955202059353,1.197617788129314,-0.47519756947459524,-0.3414110557456707,0.4872308303877031,272.1134473059864,40.892748623909675,34.81069487992972,6.220968590576561,-3.495042550298022
GUIDED_NOGPS,0.05584073066711426,30.058722776037897,271.2565937260492,40.94536720853206,34.775161861442065,8.48404430618583,264.55025847755337,7.844106390249495,7.3667364615291175,-0.008964956790972303,0.6725076827554486,123.05185480387098,1.0905754557501832,-0.41803534693356426,-0.3393617722474332,0.4862957873000435,270.16150907690775,43.84161413433152,35.72970034675117,7.21953224835228,-2.864788975654116
GUIDED_NOGPS,0.10447239875793457,20.562833680598114,271.21896500647813,43.94597338154272,35.617851904656284,8.433852096070872,264.5477357779066,7.842746392112658,7.367680076620413,1.0694530909940252,-0.566341890339415,122.89168686783418,1.151828300660764,-0.43219676453380806,-0.3373540838428349,0.48587491408598205,268.51751092248367,47.10355738638691,36.31316048728796,10.175494141504188,-0.5729577951308232
GUIDED_NOGPS,0.1475975513458252,23.19409406364918,271.8873457307505,48.43446845947744,36.32757457580093,8.374580858464824,264.54402398230974,7.840745347278612,7.369078283421396,2.000256543487965,-1.8375351839186391,122.87192030037616,1.3228506029003262,-0.4987500641151217,-0.334983234338593,0.4855207518538102,271.6974550071953,54.35823385771385,36.93986289336367,8.96988660066792,1.088619810748564
GUIDED_NOGPS,0.18401288986206055,27.47138768265446,271.1763517193212,53.10876379069956,36.63050684424737,8.371177776164886,264.5389154131794,7.837991295876544,7.371016412576322,2.234703640522299,-2.323832273105676,122.92184898320896,1.4990553736254666,-0.4617312692462984,-0.3348471110465955,0.48537025478416446,273.3918362840328,57.86450012799789,36.63849715209047,6.987248296274373,2.3491269600363753
STABILIZE,0.22227764129638672,26.137132103219855,272.19260583711576,57.97926418878276,36.58326032758136,8.345903824274583,264.5322121662746,7.834377546886261,7.373577951466786,2.881821162255283,-3.2059328482794287,123.0370879348854,1.6398316201950558,-0.5675650352678681,-0.3338361529709833,0.48539515881194273,277.1947178949593,61.715058580636466,36.17142093728992,3.6578982258354813,3.0366763141933633
STABILIZE,0.25897884368896484,27.254145656807193,273.9988400181723,61.64167952663939,35.90604148568102,8.390693009256715,264.5237259680203,7.8298026012206625,7.376844557056764,2.9990112001568345,-3.5811591087310113,123.14686273522585,1.720345005524202,-0.6750652084377626,-0.3356277203702686,0.4857354015356879,279.19267998219067,65.34547987128379,34.90820636766266,5.029659052044778,4.1252961249419275
STABILIZE,0.3000168800354004,24.37485979950603,275.2429977979488,64.66419270687403,34.516311171080055,8.518561673619354,264.51327803283107,7.824170074808218,7.3808960687376395,2.8614509768293663,-3.572231197712158,123.30394342575781,1.7911223032110681,-0.721147958076026,-0.34074246694477417,0.4864322924488288,274.7382998213661,66.9320396687018,32.4693062082876,8.097967774355794,4.640958140559668
STABILIZE,0.3448915481567383,22.285116172806053,276.16418553620053,67.42367506764606,32.86321216959515,8.673264241785029,264.5006989204343,7.817388621675436,7.385810521173248,2.184105812594256,-3.092052677360983,123.60199922075883,1.8592421366586072,-0.7614231470069327,-0.3469305696714012,0.48726129917578903,276.30339369845365,69.99350566295256,31.212123932835194,7.418783584035978,5.901465289847479
STABILIZE,0.38985419273376465,22.245049058605144,277.4237101868559,70.79406803338749,31.858882901212557,8.887089371734428,264.48582839319363,7.809371857029336,7.391664157144908,1.5149570888065729,-2.495408759490512,123.83351531286559,1.8916500926787658,-0.8316115051209465,-0.3554835748693771,0.4877663906279662,279.68945953730986,75.45665876850805,31.895218562514895,8.274527629587581,5.614986392282068
STABILIZE,0.43206119537353516,23.752188735233823,278.90496021616474,74.7095515795636,32.8143870403671,9.072289792630208,264.46851527343284,7.800038280339924,7.39853144039646,0.9345182216287805,-1.7673504011634096,124.07233970738424,1.8781590144020341,-0.9025026062866771,-0.36289159170520835,0.4872920722000147,284.6009680415034,78.67849030723013,35.33581862575122,6.691384337172195,5.443099053742821
STABILIZE,0.46955013275146484,26.633545421063996,280.66608065914613,79.04262714465214,37.44539023460259,9.175599423813606,264.4486173007587,7.789311198422665,7.406485068479299,1.0916532335089766,-1.0563334715371944,124.28318764706253,1.8636532357407267,-0.9828535104741463,-0.36702397695254424,0.48498054741693836,287.99828219709775,82.99273235821819,45.105133515541674,4.604203026247546,4.1252961249419275
STABILIZE,0.5151183605194092,21.94993850904048,282.47064705978244,81.68675526075722,43.45772406081991,9.307811204950724,264.426000989385,7.7771186485209505,7.415595985597414,3.3577914323040843,-0.45433628618302035,124.49264222815015,1.8504217770130826,-1.0512572062381482,-0.37231244819802894,0.4819789359623887,283.7611318245476,83.38904311682329,49.93222004116686,7.506223288931338,4.010704565915763
STABILIZE,0.5550854206085205,25.027173459036934,286.26975513848305,85.07532298329035,50.97398772604416,9.333945041941265,264.4005414854556,7.763393321388579,7.425933395452422,7.452767743048583,-0.01620497065139904,124.66200359880979,1.8161132327760456,-1.2522180179537392,-0.3733578016776506,0.47822597283470414,295.29893409195654,88.8441934748295,57.88460962142396,0.6447744074395416,3.7815214478634336
STABILIZE,0.5979044437408447,23.359698807594416,287.3087789101652,86.89054006066739,56.04530408268181,9.450502377035066,264.37212242436823,7.748072484372223,7.437564774088603,13.422728738044079,0.26570006832475535,124.86629455688487,1.8181193929946082,-1.2281270194772995,-0.37802009508140266,0.4756961303457034,284.8845783957203,88.43838359034932,60.319082585454616,6.906433927504395,4.354479242994256
STABILIZE,0.6270887851715088,34.26942937446892,285.57784920738493,90.83211620196813,59.56724945968563,9.698686441081987,264.3406357880977,7.731097904493904,7.450555882737939,18.196180609331325,0.2306653066682625,124.9894428676202,1.8380706247616727,-1.0898562966183918,-0.3879474576432795,0.47394165321152615,275.946319527602,95.21377154072556,60.49805617217831,13.801081289860988,4.583662361046586
STABILIZE,0.6662631034851074,25.5319003877597,283.16745667348573,92.95530889060016,60.43839830993708,9.879399386840708,264.3059817625194,7.712415771533464,7.464970780665148,21.851240230447758,0.05097855761341822,125.03053328566699,1.851304568610668,-1.0011429268426573,-0.3951759754736283,0.47351328623536404,275.946319527602,95.21377154072556,60.49805617217831,13.801081289860988,3.896113006889598
STABILIZE,0.7055861949920654,25.437599311039143,282.5220602782698,100.47781280296084,57.176969421065536,10.020006766310567,264.268068594733,7.69197662111104,7.480871838012719,28.190927902952506,-0.5656233864552414,124.96109758256465,1.845148986957826,-1.024800427147422,-0.4008002706524227,0.4751519512084736,280.53414984846785,111.00589532743135,50.53479591883998,10.037453514192805,3.151267873219528
STABILIZE,0.740624189376831,28.548022406599465,279.6697309416177,107.86220542764234,51.09235322209789,10.126638906765669,264.22681245038564,7.669735257769535,7.49831974864595,30.785523815796296,-0.9549074035183264,124.84423304586572,1.8743216255278163,-0.8587666825453076,-0.40506555627062674,0.47820298326327404,281.03728740869616,117.36694941477006,42.24420757527536,9.956610987790896,2.0053522829578814
STABILIZE,0.7801229953765869,25.323946723340537,275.00937271461925,113.93450787030399,41.13180582189463,10.336382028985662,264.18213727099555,7.64565067805709,7.5173735429979835,32.69167934898512,-1.2653670354954976,124.7383514533522,1.9108443446839363,-0.6537251067086534,-0.4134552811594265,0.4831927838605517,261.5827872607282,113.43067886871044,30.616413971568527,18.529818084005115,1.8334649444186344
STABILIZE,0.8166167736053467,27.40730285684414,276.5441728877181,119.06059066383607,32.70355153141426,10.426448717864053,264.13397463127546,7.6196859936095604,7.538090600914841,33.09275147214285,-1.3640742613378773,124.6982172617892,1.8692937247808756,-0.8691409780095971,-0.41705794871456214,0.4874172695347503,283.6203203930964,126.38414370802758,25.250033047398897,11.736967961057545,1.260507149287811
STABILIZE,0.8514461517333984,28.72043769130164,277.45647124596155,122.25546936767766,25.01858526306437,10.524607491467798,264.0822635964561,7.591808354232984,7.56052666450046,32.31689662394276,-1.3732223392357574,124.73102949056194,1.8635741113246127,-0.8936160394367879,-0.4209842996587119,0.49127097070071807,280.50781131881905,126.95158552629489,19.18930877022568,14.009193726965563,0.7448451336700702
STABILIZE,0.8890206813812256,26.62103632993983,279.93851635561253,129.09015153525812,20.539296387165937,10.525360136164306,264.02695057960955,7.561988870986056,7.5847358509617315,29.1269489796421,-1.250728125835162,124.80500043927317,1.8377634674798093,-1.027777555200786,-0.42101440544657226,0.4935227197318979,292.9443753967231,133.93472537145186,17.178547343873223,9.32999578200726,-0.057295779513082325
STABILIZE,0.9322953224182129,23.1142069877659,281.7757107264899,131.47741794010014,17.822744470433122,10.501949721457002,263.96798919897293,7.530202539262602,7.610770665453533,24.261631064018182,-1.045993632350853,124.85574874480636,1.828683115261534,-1.0767504280112008,-0.4200779888582801,0.4948940130975102,290.2232592630829,133.54594292255362,17.100377297200463,9.370048539296505,-1.0313240312354819
STABILIZE,0.9721212387084961,25.11228460921316,292.47805789019156,137.03853081231688,21.715970904403466,10.331801110325298,263.90534013527173,7.496428161874051,7.638682013923765,18.90775483970513,-0.8796925599653527,124.83924700777162,1.714207782007106,-1.69722430232577,-0.4132720444130119,0.49296135555476017,315.0945230792368,143.63492414294512,30.86898807213672,1.2813006304492376,-1.7188733853924698
STABILIZE,1.0059211254119873,29.59738060291295,298.77289842741965,140.2719304028146,26.279451147157967,10.147295610343237,263.8389709890432,7.460648272131905,7.66851921595839,13.623176860937381,-0.6668949214441378,124.82943885612347,1.6893070787231579,-1.8587495788512685,-0.4058918244137295,0.4906945340344002,315.0945230792368,143.63492414294512,30.86898807213672,1.2813006304492376,-1.8334649444186344
STABILIZE,1.0449869632720947,25.605626236233547,305.6902407795032,143.6349241429451,30.868988072136716,9.984560349207698,263.76885613796003,7.422849056930217,7.700330017626464,9.606703756305247,-0.5977753280343128,124.77858126756357,1.647912458863542,-2.1135988412801003,-0.3993824139683079,0.48841567097274485,315.0945230792368,143.63492414294512,30.86898807213672,1.2813006304492376,-0.8594366926962349
STABILIZE,1.0754716396331787,32.80413580584863,309.24778549192405,138.5842798808366,43.22855908931007,9.921459506185144,263.6949765941535,7.383020279828059,7.7341606043251785,6.54362644895075,-0.6661719886091741,124.77217455012209,1.6357053052255293,-2.193537385668673,-0.3968583802474058,0.48225280075750754,310.7320989588275,128.48299135661964,67.94770112365677,7.003908859811958,0.11459155902616465
STABILIZE,1.1178829669952393,23.584440121006285,315.5971740350652,132.44930190200594,60.970880837478596,9.833865362728602,263.6173198615374,7.341155204131994,7.770055613624887,4.4215344851519784,-1.146427828836188,124.77548036168038,1.6290304306712375,-2.248839457196476,-0.3933546145091441,0.47339958738807314,321.9702019787887,125.22999020645318,84.09595331664228,2.0227122453293163,1.6615776058793874
STABILIZE,1.1477363109588623,33.503239050730485,313.9176679558933,121.53716128212854,80.79479213284512,9.85405092840942,263.53587979313096,7.297250515978554,7.808058148114152,3.916585430002106,-1.6268664299843525,124.83979342290522,1.6347322091943575,-2.212744911921098,-0.39416203713637676,0.4635066330076345,306.69699268337746,110.8985022833129,90.3407219582363,6.286228432797131,3.4377467707849396
STABILIZE,1.198995590209961,19.51193007103614,310.3993797275565,112.05749036451009,89.58626846867458,9.950865449688724,263.4506564483829,7.25130624741671,7.8482097882447714,4.033127667149564,-3.480555971785424,125.01138143523428,1.6569835376288282,-2.069984727875524,-0.39803461798754897,0.4591309706597851,297.50308193755257,100.04397860376424,94.32213013114513,7.796071228806937,6.016056848873644
STABILIZE,1.2394888401031494,24.701727935546945,304.53919796388664,98.22503222556992,92.79428280252404,10.293669670600082,263.3616559504943,7.203325699490342,7.890550605176822,4.879378286917213,-4.804815673069122,125.204730430259,1.6990160552828681,-1.783607817966886,-0.4117467868240033,0.45754813390132637,285.79361426088735,83.7326157896327,93.71999631819067,13.945106240765298,10.026761414789407
STABILIZE,1.2785894870758057,25.583292161491215,301.07752233984434,88.2426690268959,93.55109631043378,10.698360609782277,263.26889034374256,7.153315365320714,7.935119173623688,6.061358317600375,-6.809492416167143,125.62377619621762,1.700485312466154,-1.7170498974147104,-0.4279344243912911,0.45719201143159494,293.423720838616,80.95141268729081,92.61116248196556,9.155476071494107,14.896902673401405
STABILIZE,1.3143138885498047,27.99655575209425,295.6691386935542,80.45934000789653,91.02168481139505,11.202898557996566,263.1723774508045,7.101284853188949,7.981952584697107,7.201741215577689,-8.508948922711628,125.99300256237017,1.7381826385826198,-1.4672091803960996,-0.4481159423198626,0.45848013388665104,294.9282837473382,76.69399154676613,86.73389563402893,9.56721349633601,16.443888720254627
STABILIZE,1.3560221195220947,23.98005808768038,292.6590273120702,76.25220562776111,85.54161552042439,11.776196243226583,263.07214073008015,7.047246809618498,8.031086458752194,8.341663075786029,-10.079865111057881,126.40626998829096,1.7306206158224198,-1.4434104554814888,-0.47104784972906333,0.4612447354691639,291.64643577595734,71.11121264922645,77.27978844527874,15.356717584498881,16.386592940741544
STABILIZE,1.3921163082122803,27.820328460375155,290.6815248555786,70.95416798804904,76.54509173293366,12.432978674995516,262.96820913301605,6.991216842457614,8.082554958232487,9.146655510985392,-11.280616636014352,126.78579627971189,1.6561618236024525,-1.3875689325686045,-0.49731914699982066,0.4657687316126494,287.61556965509436,65.05729976815456,65.62159111949335,17.157652159496806,15.52715624804531
STABILIZE,1.420424222946167,35.25306571858427,294.33634877319554,66.31217529638667,66.90624322658837,12.925016506703527,262.86061696142855,6.933213443961823,8.136390800514977,9.561309465307696,-11.922974583112897,127.09075056577461,1.4173705653483988,-1.6712184283757066,-0.5170006602681411,0.4706150737869633,304.06773384897224,62.768013471779064,57.81735011499307,11.535938815816522,15.699043586584557
STABILIZE,1.4568428993225098,27.467789572950707,294.2112822649003,60.74673990243932,55.85316554537574,13.37705390619069,262.74940372482763,6.873257913876402,8.192625270755148,9.749132837293876,-12.314037064041976,127.45112500676284,1.2669088723785211,-1.5170659268454063,-0.5350821562476277,0.4761697298626897,292.7983882971399,54.414906467384405,44.120555401640836,17.600199262210012,13.980170201192088
STABILIZE,1.4970078468322754,24.902209213268343,296.07815898212914,55.760028832729944,45.773028076447645,13.75659879375919,262.63461399774013,6.8113742825188455,8.251288234732012,9.28423771898425,-11.905953751701224,128.02402761396516,1.097388004139543,-1.6077615784573989,-0.5502639517503676,0.4812391300791422,304.26266733348234,50.09716655902643,35.38117871270904,14.638735180687945,7.104676659622208
STABILIZE,1.5422937870025635,22.086327374213422,299.2569350921425,49.54114009594235,35.61533217615912,14.004942862810937,262.51629727703323,6.74758923386134,8.31240815169314,7.625043043162876,-10.029558206499798,128.4094278680723,0.8500932342696726,-1.7022048381545938,-0.5601977145124375,0.486348537987767,307.54031632602386,44.11134726141627,27.3442624141275,13.266653796414005,0.5729577951308232
STABILIZE,1.5792841911315918,27.040486874000724,302.56043742571586,43.76958560872003,27.57468369974576,14.09495283819357,262.39450783923814,6.681932028613239,8.376012087199705,4.776577109719351,-6.466213084897825,128.56526546417533,0.6159216143547359,-1.7991160178741428,-0.5637981135277429,0.49040066419372697,304.1330813229612,37.100243005717424,19.99860997240075,16.603898361680393,-5.385803274229739
STABILIZE,1.6173760890960693,26.25427367814869,302.2533608554646,35.694795141249365,21.387244557260896,13.878737111346819,262.26930459787314,6.614434427303534,8.442125725971517,1.895567245871418,-3.1537437997181845,128.4681265137994,0.36010094085382266,-1.634481107896464,-0.5551494844538728,0.4935274405843553,302.5323509977158,25.872795156614448,16.818861285254464,10.171159247395877,-9.11002894258009
STABILIZE,1.6547505855560303,26.761164032641915,306.39427118190434,28.483425142683487,19.845609481378943,13.497544676622502,262.1407509607675,6.545130613363328,8.510773384732053,-1.5868230585929777,1.0819927847016397,128.09014384513088,0.09389873636717283,-1.8544119839571869,-0.5399017870649001,0.49433258195167656,313.50293992933854,22.477237265718635,22.71935718648164,5.677143015654536,-10.771606548459477
STABILIZE,1.693680763244629,25.69677067570134,308.2423257010756,23.609089896017224,20.752525219405907,13.063049634616181,262.0089146873846,6.4740571162083045,8.581978025053498,-5.078943607860291,5.67083200652114,127.30498627928124,0.008055370456229394,-1.8530426428003852,-0.5225219853846472,0.4939147264028238,313.50293992933854,22.477237265718635,22.71935718648164,5.677143015654536,-11.401860123103383
STABILIZE,1.738088846206665,22.522776211572022,308.1358987637134,19.86353847593458,30.34300152381122,12.596502324752946,261.8738677461457,6.401252734321204,8.655761266201784,-7.4580363802196015,9.390449721898888,126.34997556915172,-0.047746031531835875,-1.796155650305503,-0.5038600929901178,0.48915637987119526,307.0081816392131,14.636140896366514,45.590290198470385,4.036517855147636,-10.141352973815572
STABILIZE,1.7766098976135254,25.965777678726198,305.86954359210824,14.665036815095872,46.31471898831342,12.19638175356367,261.7356861717531,6.3267584583343,8.732143397981616,-7.755192297797469,10.841035906316087,125.8223707765249,-0.20458040925099294,-1.628237373838748,-0.4878552701425468,0.4812087122048341,292.8013054649354,6.881732283202507,70.63450957998825,9.537936463550977,-7.104676659622208
STABILIZE,1.8081111907958984,31.754101463429407,302.0175833671043,8.372479633774823,64.67257138528086,11.922814200287494,261.5944499225139,6.250617394111861,8.811143393581517,-7.171488600196411,11.238097000883732,125.59890064726044,-0.3978011358366383,-1.3845519131838913,-0.4769125680114998,0.4720692860041503,283.27254987269606,3.599565721755492,77.79291437738395,8.185367043924671,-4.010704565915763
STABILIZE,1.8495898246765137,24.111985559151716,294.44299235738237,4.214871167994876,76.15693477137411,11.81681463457985,261.4502427376631,6.172874685832633,8.89277892241886,-5.930398404888666,10.733423714621598,125.55671739894643,-0.3718568523434255,-1.040522215204436,-0.47267258538319407,0.46636792207552236,275.6299848807288,2.163315499026674,80.04338035675013,10.815375589692792,-1.1459155902616465
STABILIZE,1.893230676651001,22.91631289372606,286.40067698146214,2.572013252549118,78.55909580740487,11.77963158314036,261.30315199468754,6.093577439072308,8.977066362984903,-4.993224733776631,9.434600918467497,125.72282759956114,-0.3064141364159948,-0.7436473786400629,-0.4711852633256144,0.46520898527779003,273.2913630497373,1.9531585368652336,77.84099268808049,13.406667997917936,1.7188733853924698
STABILIZE,1.9374356269836426,22.62946797088704,278.09031298844695,2.101572379380074,75.854135827528,11.889686297632913,261.153268566649,6.012774643886001,9.064020815689831,-4.695916417602908,7.612434513955033,125.98083116526921,-0.23074762752649544,-0.43376230119338344,-0.47558745190531654,0.4666049424940809,265.45636167413693,2.1882431022483595,69.67803443775334,19.116807100175023,3.0366763141933633
STABILIZE,1.9803705215454102,23.295476761752422,273.7361258677175,2.238928267340193,64.89560098553133,12.072056945568388,261.0006866795078,5.930517097890711,9.153656115707784,-4.728635158161384,5.731694968441477,126.3241028125757,-0.197646189206516,-0.36133699276499504,-0.4828822778227355,0.47212902756508823,271.0303698612882,2.575383162907032,47.16777583076013,19.01631730452769,4.18259190445501
STABILIZE,2.0179948806762695,26.60280089303836,269.5184315395253,2.105332876096479,49.18206364048236,12.359292492302568,260.8455037694462,5.846857329347809,9.245984845821898,-4.745117258402272,4.701269578364905,126.55621996132942,-0.16902844350566537,-0.1967178598716726,-0.49437169969210276,0.4800319606026698,262.1840782317354,1.5523723631340913,30.70038065293358,24.431372835323685,4.92743703812508
STABILIZE,2.054753065109253,27.223896097152537,272.2733840919592,1.4884613424656787,31.57182596481002,12.542728563619429,260.68782034019205,5.761849520245503,9.34101834926934,-4.756988127179754,4.110589269413502,126.80422413009258,-0.26280055667150876,-0.4730942778253041,-0.5017091425447772,0.4888845961922297,289.4047476428979,0.33762850135595923,16.84732141073634,13.429246229664656,5.614986392282068
STABILIZE,2.0959458351135254,24.268800592500014,275.4960610105913,0.7425431219486543,21.465007824802097,12.73878975616448,260.527739820342,5.6755494293813085,9.438766742586342,-4.773425831191036,3.954901083698585,127.04232452455923,-0.3163265207586917,-0.5936307845676237,-0.5095515902465791,0.49398687945889214,289.4047476428979,0.33762850135595923,16.84732141073634,13.429246229664656,5.844169510334397
STABILIZE,2.1382088661193848,23.66374417476276,277.78120505552005,-0.6080848328853136,7.744333568444798,12.614025958998495,260.3653684206851,5.588014315444523,9.539238928453237,-4.873936333696005,4.2436012270839765,127.2734717864508,-0.3815575217744116,-0.652939589096238,-0.5045610383599398,0.5008974526800042,276.88208189878054,-2.4995115013678126,-10.461642116138314,-21.70095615698196,6.359831525952138
STABILIZE,2.1906726360321045,19.06770499479472,279.86487292376756,-2.1854168706128987,-7.128145777604197,12.940293576335304,260.20081499152633,5.499302860098702,9.642442608539502,-4.722910605863268,5.0190915139371155,127.49512508539605,-0.44759093795234,-0.7082074345035501,-0.5176117430534122,0.5083852941930719,281.4487092025255,-4.394367611826797,-27.770116627410648,22.98708877412608,4.870141258611998
STABILIZE,2.23870849609375,20.82170781229057,287.45680658786165,-4.252235332226978,-24.39298019348459,12.70055413359865,260.03419088001,5.409475091064129,9.748384296348785,0.937001102113786,1.767845803321647,127.3590677171294,-0.610461629800126,-1.093559102376896,-0.5080221653439461,0.5170706822449167,300.14374655220576,-5.862826883486277,-34.94718183690484,11.152066693044858,-22.803720246206765
STABILIZE,2.277066707611084,26.07165767423357,291.442043409536,-5.868761980594225,-35.115161812178464,12.93683023390307,259.86560978744313,5.318592305200287,9.85706933006394,3.4491031641009267,0.8867814959110325,128.4209982085263,-0.6866291427309232,-1.182239716192584,-0.5174732093561228,0.5224861155711212,309.33093175126965,-7.349091446469552,-42.628186972219936,7.709103132360298,33.689918353692406
STABILIZE,2.3105151653289795,29.901859997576086,295.313184121493,-6.980335587743681,-40.45833932523907,13.586019309583756,259.6951876266191,5.226716991588335,9.968501885392074,3.092762163261018,0.6752607825994926,128.78122238535278,-0.766454538238799,-1.3222492428845798,-0.5434407723833503,0.5252134206053156,308.76045120268327,-7.729088433275166,-43.79964916659248,11.66104311722745,20.569184845196556
STABILIZE,2.34613299369812,28.084851082065565,301.6888579822736,-7.602422771006643,-43.409161768468294,14.0098229738004,259.52304237914086,5.133912754613573,10.082684988409575,1.7400691315144976,2.2908860018704735,129.52716100498822,-0.8600670226093897,-1.6074921078673983,-0.560392918952016,0.526745923378439,308.76045120268327,-7.729088433275166,-43.79964916659248,11.66104311722745,10.886198107485642
STABILIZE,2.378751277923584,30.662134204735693,307.1512063823051,-7.729088433275181,-43.799649166592474,14.441919979375234,259.34929395274474,5.040244237047927,10.199620528407145,0.41418256454786745,3.138224756150269,130.00280171840956,-0.8952840647876812,-1.7135194183984426,-0.5776767991750094,0.5269996348474998,308.76045120268327,-7.729088433275166,-43.79964916659248,11.66104311722745,12.433184154338864
STABILIZE,2.420555591583252,23.941867832658815,312.0283477669012,-13.413503759365275,-51.388782831505125,14.845992503920025,259.17406403862367,4.945777043132408,10.319309270734845,-1.1807770636155936,3.805533811173692,130.48304597933148,-1.185217866917586,-1.6295574377841149,-0.593839700156801,0.53085404605112,324.52945347518664,-24.782334411545445,-66.56705016133043,20.763172823155188,8.938141604040842
STABILIZE,2.4645638465881348,22.715256678960394,313.7313629867525,-20.003977643379386,-56.46648380206913,15.08903404949297,258.9974759687507,4.850577661659597,10.441750869647123,-2.3879562234678717,3.8987684546653045,130.90418178317614,-1.4009872065055937,-1.5663403457309162,-0.6035613619797188,0.5334541173358581,317.8460078505259,-27.500510085317494,-59.032752078284496,-1.6384812286957384,8.766254265501596
STABILIZE,2.5120506286621094,21.063567791247753,314.28009172403733,-27.219815887444792,-58.0950414853395,15.45280357972827,258.8196545732024,4.754713389056106,10.566943881147854,-3.0253383777560603,3.6529328709636206,131.36506928799025,-1.6350357698598685,-1.492054211842181,-0.6181121431891308,0.5343309926832437,311.5040948891074,-29.376603165471384,-48.685322216403584,14.289697436915716,6.703606203030632
STABILIZE,2.5532262325286865,24.291429696639756,315.8908529549925,-29.29378749962137,-51.651684606407684,15.800475206696618,258.6407260374825,4.658252252465061,10.694885775835374,-2.7287301559722636,3.362283562343837,131.65339889361317,-1.6270107555629885,-1.4814155955455248,-0.6320190082678647,0.5311732851911215,316.8142573574592,-31.00424924807518,-47.23697952453496,15.666940394209874,6.703606203030632
STABILIZE,2.593904495239258,24.587044961603844,317.2213791872074,-30.907356919387855,-47.39719468535392,16.040826630526443,258.4608177598453,4.561262932828572,10.825572951747517,-1.1210014891554636,2.723186603687152,131.91436676142104,-1.671990440845344,-1.4601219415040423,-0.6416330652210577,0.5291113838185507,315.4130823637577,-32.34121834461697,-46.26928231512317,14.824523567462336,5.213915935690491
STABILIZE,2.6297767162323,27.885805465062163,316.3439287527377,-32.694536925697854,-46.26797194816675,16.09918975721274,258.2800582086189,4.463814687970196,10.959000747206659,0.7454412431256381,2.0254900370463425,132.07478058426796,-1.733403108634644,-1.4408916206474924,-0.6439675902885097,0.5286134863476867,320.1422013028382,-34.73814318440136,-45.29765400484212,-0.43424302840490725,4.755549699585833
STABILIZE,2.669715166091919,25.04405978134311,316.8713584872979,-34.44940622364391,-45.486222454437495,16.18396596378079,258.09857677952914,4.365977275677426,11.095163453664728,3.8570932016708257,0.7951856709333996,132.23478459576467,-1.7822188219811674,-1.423999209407367,-0.6473586385512315,0.5282906929540511,320.4831565233272,-36.26885714191339,-44.891731043347164,6.370510233992121,4.8128454790989155
STABILIZE,2.7115111351013184,23.92739014107808,320.18875818794476,-36.71687805909115,-44.93293326213789,16.35798195808278,257.9165036530226,4.267820876784147,11.234054328548275,7.529659451403648,-0.9290062589685802,132.2768722214303,-1.8614011440058091,-1.3948005009587714,-0.6543192783233113,0.528083493795343,328.09109339234135,-39.14363385095867,-44.609414738224345,15.028168112961012,4.870141258611998
STABILIZE,2.7534780502319336,23.84061933371606,320.85440045142616,-39.61734030627425,-44.035550521362524,16.594697049363514,257.7339696515902,4.169416018253127,11.375665608103485,11.475942970803793,-3.450110403560092,132.17283477999266,-1.965335905684073,-1.3553987384928907,-0.6637878819745405,0.527705608064733,320.14246867486594,-43.43952992595067,-42.60550578251601,17.570710240751623,6.41712730546522
STABILIZE,2.7928638458251953,25.396474783988182,323.33813287671825,-43.35222381400697,-43.98598710643867,16.71947572948359,257.55110609709095,4.070833496258471,11.51998852024122,13.41480657238051,-5.5736285962349275,131.9869580119199,-2.0996560814127427,-1.3114076906537513,-0.6687790291793436,0.5277529878133399,327.83174449021817,-47.47350766511152,-44.74304079857559,1.0591541796877522,7.505747116213785
STABILIZE,2.8389430046081543,21.704143359085947,324.8339747560153,-47.185306791046564,-45.06943366453462,16.83952118219678,257.368044668075,3.9721442992681055,11.667013297382061,14.44942569860747,-8.112290809305014,131.69935240634902,-2.2082233981697117,-1.2745350142623615,-0.6735808472878712,0.5283682234809584,327.6214106993235,-50.642882782077464,-47.859754412512196,2.4639865405655,6.41712730546522
STABILIZE,2.8830935955047607,22.655870707769093,325.2770167905266,-51.39826741943845,-50.152797138522594,17.162848190552054,257.1849172571075,3.8734195311262534,11.81672918930133,14.818595715699367,-9.888731658645183,131.49818967491382,-2.3514236437697766,-1.2170615806987386,-0.6865139276220822,0.530984763163912,322.6983666958837,-56.07841181112633,-57.85559620447992,21.56112662692108,6.0733526283867265
STABILIZE,2.926370620727539,23.112296459567432,325.9913984492417,-55.59596123902287,-57.131097073728675,17.218791378172078,257.00185582809155,3.7747303341358904,11.969124475974144,14.73609215316749,-11.100617245722422,131.45752272859556,-2.4789771059300985,-1.1765325338105472,-0.6887516551268832,0.5345501107748514,331.6630016859166,-60.06658912386479,-65.67794060419382,-6.742733365926327,6.245239966925974
STABILIZE,2.9703848361968994,22.724979411382254,327.7585327163705,-59.15141089219215,-64.7941399460381,17.30373338413463,256.8189922735923,3.6761478121412328,12.124186480420434,13.549802700004873,-11.94197446183658,131.50680937364638,-2.5043570121753076,-1.1645941903659787,-0.6921493353653853,0.5384591632132293,328.9781400105102,-61.30923174158531,-70.84888302944049,-0.7654632544523707,5.156620156177409
STABILIZE,3.0096371173858643,25.481024270222655,328.38295486598764,-61.826040003536214,-70.87099032236995,17.47575092639711,256.6364582721599,3.577742953610212,12.281901581549992,11.86152593247123,-12.31495828580628,131.54268152716728,-2.5082925330053523,-1.1544426619064354,-0.6990300370558845,0.54157644595196,330.95385523830373,-64.10229914515853,-76.08614733347547,14.800766601083865,3.151267873219528
STABILIZE,3.0497872829437256,24.913302763192284,329.6251025963949,-63.57006357099905,-74.81412235881778,17.548201601201928,256.45438514565336,3.479586554716933,12.442255227007502,9.499402338217992,-12.565607445325531,131.55660145269576,-2.509943338624126,-1.1501591945777772,-0.7019280640480772,0.5436281887929126,333.83214935136016,-65.29865982625327,-77.50733671353733,15.734863898076355,0.4583662361046586
STABILIZE,3.0870561599731445,26.83444335681337,331.47678682350653,-64.67984777135548,-76.8056499170459,17.564992149052102,256.2729037165636,3.3817491424241632,12.605231946017579,7.722293837886457,-12.700938252219226,131.4960040143794,-2.510325342470411,-1.1491658367670292,-0.7025996859620841,0.5447054409315317,331.95678783144155,-64.63858434265462,-76.82346570412484,16.528324859313088,-1.1459155902616465
STABILIZE,3.1288604736328125,23.92616170950702,332.26018443825853,-64.74102431749186,-77.25309433404767,17.458317144403885,256.09214416533723,3.284300897565787,12.770815362229804,6.008587422299209,-12.763192011409307,131.3369972105015,-2.5078947014352733,-1.1554727012502457,-0.6983326857761555,0.5450119548481387,335.57998975967666,-64.28582878356768,-77.42848058448081,12.486245818998071,-4.010704565915763
STABILIZE,3.168051242828369,25.519783395698337,333.7697416637273,-64.03802836393535,-77.128851592586,17.257869967599888,255.91223588769998,3.1873115779292966,12.938988206563758,4.7247761012803275,-12.479698179718758,131.14008285673003,-2.5033039082766857,-1.1672963505440621,-0.6903147987039955,0.5450339198995748,336.52592613785424,-63.18967196558376,-77.13460848915233,12.225846971405346,-6.531718864491385
STABILIZE,3.2185561656951904,19.80528574868848,335.7388339640346,-63.471267054441775,-77.16031375046278,16.895650575809164,255.7333073519801,3.090850441338251,13.109732330054056,3.427167798138019,-11.657978611242033,130.76378041459736,-2.4949304167299604,-1.1885707704274204,-0.6758260230323666,0.5451350230402584,340.7993167398401,-62.938300414173895,-76.91785217775517,3.7155030296996614,-9.167324722093172
STABILIZE,3.2642078399658203,21.90957860810606,336.0655028904216,-61.90778591271137,-75.39869712071443,16.44615522174617,255.55548595643182,2.994986168734764,13.283028716695393,2.471615155186538,-10.599502488017865,130.34452974296363,-2.4844007416598943,-1.2148034343868037,-0.6578462088698468,0.5443408629187049,335.4654939832953,-59.59538535837646,-72.14363069523573,12.813914532189429,-11.631043241155712
STABILIZE,3.302208423614502,26.322156327465564,338.0227753156502,-60.78725066062207,-72.62031249065983,15.923594814546808,255.3788978865588,2.8997867872619505,13.458857496287564,1.703027841706755,-9.231051889691008,129.8135371765085,-2.4719673141452163,-1.2450596150954683,-0.6369437925818724,0.5430395849934737,341.7431499575847,-59.82806620931588,-68.79945459898855,11.048508097083783,-13.464508185574346
STABILIZE,3.3470802307128906,22.289024221747493,338.6518856568995,-58.64463431774171,-65.48472931548838,15.357054056681541,255.20366797243773,2.8053195933464306,13.637197957280518,0.8763626293015598,-7.831850072173461,129.22069041692973,-2.3874354125032697,-1.2963157065064714,-0.6142821622672616,0.5395609636363845,338.72554146592296,-56.51045138553281,-55.5111026522408,6.407702369130291,-14.55312799632291
STABILIZE,3.3926138877868652,21.966147142617732,341.6133088319115,-57.78316199986591,-57.76566650028209,14.69298738814824,255.02991954604164,2.711651075780786,13.818028559619382,-0.06045612543768526,-6.229567947611217,128.48096726943902,-2.363559350612639,-1.335105463926729,-0.5877194955259296,0.5357918475299508,351.3330420129143,-57.010968404749065,-48.98644224961684,8.985622975889044,-15.75633936609764
STABILIZE,3.4309635162353516,26.080574054383444,342.01284844967034,-55.29140710479218,-45.451519036161756,13.998339990414374,254.85777429856344,2.6188468388060233,14.001326947589499,-0.6381089824654133,-5.313078223740097,128.0055451220711,-2.2297136007524014,-1.4012516110115532,-0.559933599616575,0.5297264229918757,342.79701482863413,-52.352801524094666,-31.85701220662757,10.70356230015031,-15.870930925123805
STABILIZE,3.4725799560546875,24.037503581867156,344.42505425085875,-53.52989066205462,-34.73139711035449,13.358331718218482,254.68735213773937,2.5269715251940728,14.187069962661464,-1.4806171388155702,-3.923981671099584,127.1900615163066,-2.1725845907615535,-1.4439335225387913,-0.5343332687287393,0.524459233536508,347.5265229892371,-51.22590205732013,-23.350736874818995,6.884147053446654,-16.27200138171538
STABILIZE,3.516526937484741,22.754197611904672,345.5817288571892,-51.60153521291164,-26.186161985421876,12.668195085237933,254.5187710451725,2.436088739330227,14.37523365633616,-2.1274594252693437,-2.691994410408173,126.37494674075728,-2.09002904693259,-1.4929597704184643,-0.5067278034095173,0.520280697820879,347.5265229892371,-51.22590205732013,-23.350736874818995,6.884147053446654,-16.558480279280793
STABILIZE,3.5527844429016113,27.589748987002054,346.5001204436591,-49.87212039684039,-18.53507348281424,11.909101907052989,254.35214693365614,2.3462609702956527,14.565793302989803,-2.385657224481928,-1.9119355807739418,125.84997840115011,-2.0082603747829335,-1.5425285691495947,-0.4763640762821196,0.5165504333929021,343.31749939827245,-47.16455707588092,-8.903746698804667,3.6388666387649096,-16.157409822689214
STABILIZE,3.5967094898223877,22.770750880850393,345.3926029571575,-48.04235420902541,-11.036244210942826,11.387494654269819,254.1875935044974,2.2575495149498366,14.758723412718961,-2.644755114561072,-0.6962176706029429,125.0557913252177,-1.9386139260524868,-1.5778620933372527,-0.4554997861707928,0.5128974838118309,345.79545458040616,-45.736603493875215,-0.8542490592047576,14.110677447395346,-15.068790011940651
STABILIZE,3.6402759552001953,22.957957251156298,346.33574922996166,-45.792371104823054,-1.4273421119986007,10.748521640537865,254.0252221048405,2.170014401013052,14.953997744185598,-2.814776879136084,0.32678020891635795,124.39990191959971,-1.8386521908291886,-1.6220042017059026,-0.4299408656215146,0.5081906699280921,347.51274619265473,-44.47595274471307,5.475969422013681,10.317106309507494,-13.980170201192088
STABILIZE,3.684088706970215,22.827262287676675,346.207139249412,-43.804489681437055,8.324805787298438,10.14670498858873,253.86514158499045,2.083714310148853,15.151589317462118,-2.8364819396579155,1.2109526259252985,123.79783440464143,-1.760599237561554,-1.658556459594908,-0.40586819954354925,0.5034133917650818,346.8834730864885,-41.20091280572293,20.352696999086447,5.986091152983306,-12.08940947726037
STABILIZE,3.727980375289917,22.78745205419913,346.0724066395239,-41.80136944988714,17.71287510454684,9.658734121020498,253.70745815573628,1.9987065010465468,15.351470426876391,-2.7827006032464117,1.719324779788111,123.27188251779377,-1.679748083835047,-1.6898219897857112,-0.3863493648408199,0.4988192976611648,346.8528599397966,-39.72724279922546,27.30995889254045,11.72626817812295,-9.912169855763242
STABILIZE,3.7683639526367188,24.76444192527514,346.42359483424644,-39.639652148428276,27.38737545091159,9.16750513213558,253.5522752456747,1.9150467325036473,15.55361265385679,-2.4437550270054675,1.6795521613643039,122.92119328504863,-1.5875408145885688,-1.7215244730092918,-0.3667002052854232,0.4940831186014726,345.07344037188534,-37.990800840336476,34.49947046110794,0.6945353173668423,-8.651662706475431
STABILIZE,3.8105762004852295,23.696766648399144,345.7526120773051,-38.126257001825216,34.00737685903414,8.806425796787979,253.3996933585335,1.8327891865083554,15.757986879777226,-1.595747341073834,1.1434433563340098,122.67366722952737,-1.5398013403255146,-1.7406839831704524,-0.35225703187151913,0.4908753050103715,342.4405407956995,-36.66072736591376,40.21270122345409,0.7990064460771009,-5.156620156177409
STABILIZE,3.8509597778320312,24.768682937775704,344.57174477628865,-36.682159126769555,40.05077539853128,8.604343244758564,253.24980993049496,1.751986391322049,15.964563298802195,-0.6324144723274737,0.3838287769895076,122.58072201530184,-1.4853293346704866,-1.7552695263066151,-0.34417372979034255,0.4879568939501355,341.6084096875724,-35.39494917405848,45.440154511031864,9.479546174931258,-2.4064227395494577
STABILIZE,3.893886089324951,23.29780592123535,343.6158339175655,-35.14848024517701,45.377079104749306,8.530928213418354,253.10271918751943,1.6726891445617262,16.173311430731793,0.8975133239227093,-1.0588833732534306,122.59737401649834,-1.4323838871686116,-1.7653873690842878,-0.34123712853673416,0.4853981161629912,342.1039187928728,-33.38976419555885,50.47838157976202,7.847400902016545,1.432394487827058
STABILIZE,3.940380334854126,21.510795646866953,343.01141107320433,-33.80150326735883,48.572273462057865,8.553083018026241,252.95851200266864,1.5949464362824983,16.384200133846775,2.2004713727324297,-2.540472213200141,122.70900662829303,-1.3932942007416527,-1.7705384168773286,-0.3421233207210496,0.4839059633358945,343.83074571799057,-32.61979643245922,49.798284295379744,5.296442237309094,4.354479242994256
STABILIZE,3.984621286392212,22.607756367066433,342.1078419539931,-32.54914798070171,47.82908811549033,8.717640244112,252.81727575342939,1.5188053720600543,16.59719761775358,3.7872464065578058,-4.154663199467125,123.0737387299717,-1.3569464805635711,-1.7712287413528658,-0.34870560976448,0.4843840547511316,340.5555947758293,-31.637883314087112,43.21059847132928,-4.324381725739187,11.631043241155712
STABILIZE,4.020118474960327,28.179951625907016,342.9758566411357,-32.21351091022469,43.715417991794105,9.058670048245274,252.6790941790368,1.4443110960731538,16.812271456229357,4.7304430238573225,-5.243092263522738,123.33532131480484,-1.369356646104819,-1.7594558725797187,-0.36234680192981095,0.48654842673221765,346.7806142314125,-32.38285298412779,38.137371208673315,-1.2288596489821941,12.662367272391194
STABILIZE,4.0630762577056885,23.282286983069664,342.2113258421021,-32.15683694400489,37.421395511050434,9.301203151974708,252.54404723779788,1.371506714186058,17.029388600067026,5.6872914817604014,-6.515111262939594,123.82187667051987,-1.379673609232292,-1.75071552737165,-0.3720481260789883,0.4898039965445083,337.78575569240445,-32.44977453379981,30.916216853148747,-10.963351108252098,12.261296815799618
STABILIZE,4.101462364196777,26.052872192407076,341.14723578379375,-33.067539997304,31.18845226485037,9.650630961963163,252.41221096441504,1.3004332170310349,17.248515389920282,5.84114576168317,-6.802432134999465,124.13830567438823,-1.4369009015878853,-1.7308145213898338,-0.38602523847852654,0.49303003156253494,336.7834685013311,-34.369992473984425,24.51176873272907,-8.513787395498667,11.745634800181877
STABILIZE,4.145779848098755,22.567978821858254,340.22565601774926,-35.66148566733575,22.290401775669196,10.036243451233272,252.28365732730936,1.2311294030908222,17.469617569148667,4.934025776692838,-6.102365919603485,124.78649062662244,-1.5555374909638726,-1.6983101934346783,-0.4014497380493309,0.4975896078967397,339.2228468877681,-40.164689994223046,11.443219741129788,7.595291553247705,11.115381225537972
STABILIZE,4.188519239425659,23.408588107915033,341.54343889048124,-39.59193798725205,13.890508555835366,10.508947007101042,252.15845408594438,1.1636318017811185,17.692660296662577,3.579710681740145,-4.637214356781233,125.29856356907663,-1.7183283678387973,-1.65304857603333,-0.4203578802840417,0.5019010758704137,347.14450913948923,-44.24113149354873,5.716537193647249,10.206903236117085,10.542423430407148
STABILIZE,4.235426902770996,21.321946185559675,341.2464466589173,-43.914911073100335,7.204590493538965,10.91147313136753,252.03666464814927,1.097974596533021,17.917608159768307,1.7123113494492717,-2.3142836686459987,125.86736806277696,-1.8645044973180223,-1.6109057389202606,-0.4364589252547012,0.5053565088331147,345.29565307359303,-47.33891173152929,4.45401454583987,5.941517151184726,10.255944532841736
STABILIZE,4.278640270233154,23.14417988688095,341.457585255087,-47.028567262113064,5.305991009254097,11.349546550120252,251.9183479274424,1.0341895478755099,18.14442518701309,-0.03410989801397756,0.21006561621406272,126.3428721724149,-1.9566182505407084,-1.575838849677153,-0.45398186200481006,0.5064192170888795,338.8414486732529,-49.505658561261235,5.747421288275183,10.502717111878198,9.281916281119337
STABILIZE,4.314281940460205,28.062114876392467,341.24264153438503,-50.83496944450538,9.099920649458968,11.68764746662742,251.80355820035487,0.97230591651795,18.37307486103013,-0.8675974688840237,1.5845920413336165,126.59582139813716,-2.1109334153231156,-1.5309081919255412,-0.4675058986650968,0.5046365771057856,335.7087498978213,-55.66033804072565,17.09832611426186,2.7628439271357763,8.995437383553925
STABILIZE,4.363473415374756,20.332766151355177,340.5701701557987,-54.61748379793269,15.475156575155259,11.980824152711891,251.69234496375395,0.9123503864325322,18.60352013138364,-1.7472136161080367,3.4732720019224286,127.02492120255404,-2.212766469823188,-1.497098657090903,-0.47923296610847566,0.5015641817781142,335.8604899948364,-58.686454791811244,23.57972232292874,8.842400852095679,8.938141604040842
STABILIZE,4.410890817642212,21.11191422962702,337.3403089994138,-58.430181007986555,23.66928357399131,12.376871058042136,251.58475279216648,0.8543469879367471,18.835723427413882,-1.9551356735006262,4.364856294758743,127.40185202209037,-2.3435722480212364,-1.4511940274043058,-0.49507484232168547,0.4975832199267113,330.9952033575649,-60.94375019142283,30.329802284783337,7.390763173789182,8.823550045014677
STABILIZE,4.452389240264893,24.102286505651616,334.1114687378836,-62.02948870665481,31.621730885849598,12.758835366323328,251.48082119510235,0.7983170207758548,19.06964667108219,-1.83475337593574,4.573857522040195,127.77979370962385,-2.392312224507833,-1.4222795735383453,-0.5103534146529332,0.4937239578926163,329.15145176594217,-66.45826113673043,40.955668049836696,8.53500329561146,8.938141604040842
STABILIZE,4.494900226593018,23.555300962586067,331.28862574115766,-65.20088536171556,38.41613504864592,13.058861294467206,251.380584474378,0.7442789772054041,19.305251289816013,-1.5791845592233762,4.395865780477425,128.15019486831363,-2.400180763589264,-1.4059514337779921,-0.5223544517786882,0.4904445581205851,324.72723368962306,-68.20064475699351,43.962934811317716,2.7791843969770014,9.568395178684748
STABILIZE,4.538050413131714,23.176407530405086,328.40119653154983,-68.13731148711142,43.145820248497216,13.378540361861832,251.28407158143997,0.6922484650736429,19.54249822935396,-1.2405801722758154,3.9565595390064288,128.55254765194076,-2.4084923032241075,-1.3884397371742319,-0.5351416144744733,0.48819833899042836,321.27160384978214,-69.75302856761039,44.51885788433722,3.7299352489070117,9.396507840145501
STABILIZE,4.577015399932861,25.671134613736797,324.6764148280193,-70.17246858205242,43.60734583337324,13.670592181011738,251.19130597468822,0.6422381309040119,19.78134796659082,-0.8136444172479178,3.376384060998505,128.95929907739335,-2.4160200135132786,-1.372340252830568,-0.5468236872404696,0.4880870010666088,317.2365814771835,-72.56373242155338,42.34024480446477,-0.07087115546319467,9.052733163067007
STABILIZE,4.621923208236694,22.271626178149475,323.59897742765975,-72.77853414483936,42.48613138576231,14.016730774233181,251.10230547679961,0.5942575829776473,20.021760522422607,-0.30243773487954984,2.757423780675487,129.31246083861802,-2.4248605210370644,-1.3531362116206618,-0.5606692309693273,0.48876781456833013,325.60801635576706,-76.01884144535431,40.59929146848496,17.802832330153095,7.964113352318443
STABILIZE,4.664670467376709,23.39605296919799,322.82795031032794,-75.43270104224943,40.039149649877544,14.32839922037787,251.01708213205154,0.5483133144158074,20.263695474591607,0.3218836569725464,2.2209632209029375,129.62062531359066,-2.4327449389509765,-1.3357323926319236,-0.5731359688151149,0.49011227291235704,325.2963161792831,-77.71552925984065,37.17791267668291,9.23712339172532,7.104676659622208
STABILIZE,4.7122626304626465,21.014389354282738,322.08910704998914,-77.33945211626055,36.93924582172695,14.563412388613875,250.93564206364513,0.5044086262623679,20.507111970531383,0.9579387268493427,1.701505243130371,129.88999431407763,-2.4386425817529442,-1.3225399004181448,-0.582536495544555,0.4917839330744022,321.03301738792896,-78.28398564358672,33.04053332001297,7.158561310826428,5.729577951308232
STABILIZE,4.757051706314087,22.33388711395101,319.83480338402586,-77.90285224586218,32.19251306954096,14.701090273767706,250.857985331029,0.46254355056630203,20.75196874021183,1.4707553061494238,1.184312753728133,130.05726564685125,-2.4420785488457115,-1.3147840658708576,-0.5880436109507082,0.4942797278353354,310.0000855199659,-77.70904183415922,26.359093211927,-2.2902545411135407,3.495042550298022
STABILIZE,4.806426286697388,20.25695588128758,320.4527364885422,-79.02643441246373,27.954628495861147,14.862222497834495,250.78410578722253,0.42271477346413633,20.998224108984232,1.9364570271113455,0.20266932175573227,130.12044489667386,-2.446081945637703,-1.3056816442024761,-0.5944888999133798,0.4965217978065615,320.3262469997653,-81.08627575964526,24.464258955643473,17.66584728482728,1.3178029288008934
STABILIZE,4.849947690963745,22.97707389491791,319.6900496081539,-80.31088753859113,23.873767523411882,14.903052609726743,250.71399093613928,0.38491555826245616,21.245836010426252,2.2354575226519393,-1.5369558474627145,130.04816783487678,-2.4470933157350063,-1.303370825627645,-0.5961221043890698,0.49868603424350716,321.79458195382534,-82.13734502196893,20.79795040266517,10.216046039904214,-0.6875493541569879
STABILIZE,4.890380382537842,24.74019370745691,316.13560148268164,-80.6400490351452,20.888133297251656,14.726566261857517,250.64762178991077,0.3491356685202973,21.494761999187016,2.5703713662918717,-3.9166507436860445,129.83014819656998,-2.4427127965775046,-1.3133467298491837,-0.5890626504743007,0.5003033143509676,307.5240755519219,-78.69652632382144,17.402190533446326,-4.915601736369069,-3.552338329811104
STABILIZE,4.935718536376953,22.05810210993542,316.54989523078666,-80.94222042507278,17.095345737635384,14.670221001001185,250.58497272620957,0.31536129113175093,21.744959263832094,2.9164034772401153,-6.208060962575316,129.5881819150331,-2.4413093834867015,-1.3165247714154888,-0.5868088400400474,0.5023248067630983,323.104486128454,-81.992789929428,13.085896276794662,24.396213238001522,-4.469070802020421
STABILIZE,4.981367111206055,21.911753335631968,316.68292949456253,-79.49684079779654,7.8192661380070625,14.358143490387816,250.52601134557293,0.28357495940829125,21.9963846396886,3.477678327710733,-9.78689866076217,129.07045357594615,-2.4334936341556896,-1.3340659604779506,-0.5743257396155127,0.5070885592508407,310.66525683884544,-77.80120614014022,-7.030288396219793,-1.7839804333014229,-6.932789321082962
STABILIZE,5.023843288421631,23.54749861049511,313.6674075551689,-78.49353121266502,-4.482345777898875,13.9480615536381,250.4706983287264,0.2537554761613663,22.248994621690166,4.010067667851132,-12.452315097562531,128.54175595305213,-2.423113710573345,-1.3569565347903,-0.557922462145524,0.5133656701997945,305.248637302797,-75.68659756842692,-19.502645214271485,-6.3062051703669795,-8.193296470370772
STABILIZE,5.063715696334839,25.09125279668824,314.21770183308297,-77.68999127176744,-20.476873458343885,13.572162091597166,250.41898729390704,0.22587783678479667,22.50274537722205,4.534933981507585,-14.728310860155553,127.9727465536767,-2.4134899561342347,-1.377776950783383,-0.5428864836638867,0.521489809417783,324.5460533433959,-79.58217010673523,-34.897686764540374,7.8514980746509195,-9.797578296737077
STABILIZE,5.1044745445251465,24.540291957990814,312.5435207350205,-75.72537738386961,-37.24171594532498,13.051005505081598,250.37082465418695,0.1999131523372597,22.757592758966055,4.763802948424134,-16.72739623964427,127.34221081025781,-2.3999755742332676,-1.4063802929618183,-0.5220402202032639,0.5299996543521455,299.15317006160916,-71.90736447644674,-57.324815857163046,-11.226939850051366,-10.943493886998723
STABILIZE,5.142971038818359,25.98459870520088,311.4461789160123,-75.6464180614541,-55.1790570574538,12.57685374013611,250.32614947479684,0.1758285726248161,23.013492317745744,4.649201765661429,-17.67070512817827,126.7983228466497,-2.3875075634826457,-1.4321322919244155,-0.5030741496054444,0.5390962746875998,317.61777703341323,-75.44971960118038,-73.31466855065794,4.235135150955543,-11.802930579694959
STABILIZE,5.182997703552246,24.989001823099745,312.83668295492583,-74.26893455960249,-67.98471765282632,12.096019253242154,250.28489333044948,0.15358720928330882,23.270399315371264,4.3989363773961685,-17.73320135908389,126.40534108256384,-2.374696853827758,-1.457976377222392,-0.4838407701296862,0.5456275584840988,317.61777703341323,-75.44971960118038,-73.31466855065794,4.235135150955543,-12.433184154338864
STABILIZE,5.221919775009155,25.7013370589605,315.88110299169114,-74.67778314591611,-80.09922773717845,11.565739041184374,250.24698016266308,0.13314805886088266,23.528268737484552,3.7817848165427344,-16.40323033899359,125.82160579533787,-2.360374888685161,-1.4861540308776418,-0.46262956164737495,0.5518137482373315,320.4707374866237,-73.13391023538756,-93.66834611021946,5.93470242293435,-14.094761760218251
STABILIZE,5.259297132492065,26.755871958765518,310.5371481822266,-71.4456445975937,-85.94658295447209,10.904277458046659,250.21232613708483,0.11446592590045412,23.787055306404298,3.3650290849467703,-14.773193740739,125.44972931578735,-2.3422266884125937,-1.5208130878867563,-0.43617109832186635,0.5548668191304382,297.82627929607315,-65.7533039562132,-90.85673420253886,-10.787977001270875,-15.2406773504799
STABILIZE,5.293959856033325,28.85697773619176,314.8570653355972,-68.87577351590441,-93.37655518427232,10.356203628092045,250.18083950081427,0.09749134602213161,24.046713493970977,2.6907709527730947,-11.470434423238178,124.90310927651123,-2.3269528603129146,-1.5491084025702302,-0.4142481451236818,0.5587116343391216,320.75275582846234,-67.7401063561125,-95.6045852400586,8.658666820276153,-16.27200138171538
STABILIZE,5.3298420906066895,27.876168069014103,315.48406109460706,-67.0778388894794,-94.02196822755202,9.799021955556087,250.15242043972688,0.08217050900576339,24.307197534391918,2.2799999609939428,-9.503305791328655,124.59691189601956,-2.311206963932806,-1.577471104751009,-0.3919608782222435,0.5591645828809719,320.75275582846234,-67.7401063561125,-95.6045852400586,8.658666820276153,-17.1887338539247
STABILIZE,5.357543468475342,36.10861068544568,316.1110568536169,-67.74010635611249,-95.60458524005861,9.185500750955475,250.12696093579746,0.06844518187339332,24.568461437086306,1.736513591164683,-7.233757727312124,124.21406613266201,-2.293616142344367,-1.6082202799413063,-0.367420030038219,0.5600865233385725,320.75275582846234,-67.7401063561125,-95.6045852400586,8.658666820276153,-19.022198798343332
STABILIZE,5.396068811416626,25.964331036702756,316.16746052198465,-67.74010635611249,-95.60458524005861,8.668427268162413,250.1043446244238,0.05625263197168806,24.830458999530236,0.9149682992335,-4.114661342819299,123.53924344266476,-2.2785863566453415,-1.6337345519259547,-0.3467370907264965,0.5602175221197945,320.75275582846234,-67.7401063561125,-95.6045852400586,8.658666820276153,-21.25673419935354
STABILIZE,5.4351513385772705,25.589379407960564,323.4017134398016,-63.36905396058182,-81.0446091184636,7.9109426009515875,250.08444665174966,0.045525550054428265,25.09314382010175,-0.5140450528553314,-0.020238650923541143,122.22686357478182,-2.1986971263523705,-1.6783515362761896,-0.3164377040380635,0.5530688764692827,333.9975438851579,-54.62694916952053,-51.92465687527359,9.452854209367743,-24.6371851906254
STABILIZE,5.480137586593628,22.231018344296096,323.2285920565386,-55.60671652324339,-55.27880380931398,6.961352379717409,250.06713353198884,0.03619197336502111,25.356469310925874,-1.844109027551365,2.3850738836381264,120.92431917930371,-1.8728140693816904,-1.7582715409202874,-0.2784540951886964,0.5403176365601199,319.88714891214744,-44.45309404409723,-18.307169312609734,3.6289189898185157,-26.642537473583282
STABILIZE,5.520500421524048,24.782439658483263,322.0437366051061,-46.28862699254961,-25.279448166172713,5.837532707777337,250.05226300474823,0.028175208718913325,25.620388710719617,-2.807574871543129,3.540601445439475,119.71705592274728,-1.4933158864357834,-1.837746433814054,-0.23350130831109348,0.5254499184384461,314.82847857129985,-39.78583776403115,-5.606518310634805,5.285037742465406,-27.903044622871093
STABILIZE,5.5657639503479,22.09819655116094,321.9013957782419,-40.126541869237094,-6.343914084121567,4.796315957573413,250.03968389235143,0.021393755586139207,25.884855097637093,-3.5133289269704377,4.106870658297253,118.49102330635165,-1.3388090573832885,-1.881053602537686,-0.19185263830293653,0.5161143845908793,320.04105169414123,-36.14069379958297,4.881945370879852,5.007284116126357,-27.501974166279517
STABILIZE,5.6081366539001465,23.60488046463464,320.18244083261084,-34.19363829788155,5.44142544322555,3.7127987423705573,250.0292359571622,0.015761229173698155,26.14982140211444,-4.01938276521856,4.263506532759509,117.4077826247443,-1.1099142392625916,-1.9239296141654783,-0.1485119496948223,0.5103541979794445,312.1579811003068,-26.654383330030598,17.048849269431617,9.408347364681703,-26.241467016991706
STABILIZE,5.6487016677856445,24.65294414990537,315.6160182816178,-28.31260110656271,13.773839218448595,2.6421795006299273,250.02074975890795,0.01118628350808848,26.415240419714976,-4.369096988459675,4.166823070623863,116.36309153081251,-0.8822316493976594,-1.9572043505026544,-0.1056871800251971,0.5063207006006332,311.16543113019287,-22.14272619007463,19.390723015034332,-5.751968162039788,-24.236114734033823
STABILIZE,5.691398620605469,23.428724640271696,311.33705571612245,-21.721433598441724,18.558996999089505,1.792826583122594,250.01404651200312,0.007572534517805707,26.681064823974133,-4.562720044824843,4.031706987802202,115.68774974643833,-0.6334173650818689,-1.979204114767194,-0.07171306332490376,0.5040610339124423,298.4923360846705,-16.367191275220026,19.237418712802587,19.75251446589192,-22.459945569128273
STABILIZE,5.732628345489502,24.2593959304545,306.46039782254127,-16.80275249170578,19.115750060102865,1.0505874816610226,250.00893794287273,0.004818483115720085,26.947247179244577,-4.79605040592988,3.8241447960015074,114.61200861253967,-0.478986715840265,-1.9908814836321396,-0.0420234992664409,0.5039157485595709,290.4451891033941,-11.898340009822768,18.71910845247169,23.468160158833214,-18.27735366467326
STABILIZE,5.77863335609436,21.740706184818894,302.3399938236287,-10.742845829157352,18.209924517789837,0.2735326210091147,250.00522614727595,0.0028174382817027777,27.213739953541157,-4.973497439906342,3.608736424391761,113.85690387903807,-0.24808471279962024,-1.9987928454929265,-0.010941304840364588,0.5045019077178756,299.4390316995781,-3.9630062024293466,16.67324638809525,-8.91782236079301,-15.29797312999298
STABILIZE,5.814157962799072,28.158006391149065,299.691201700588,-5.348175116129183,16.960733472033727,-0.4852417614009096,250.00270344762913,0.0014574401448612662,27.48049553138604,-4.964901219949057,3.5529734793473073,113.45280256698344,-0.033479810593859335,-1.9132706939405864,0.019409670456036383,0.5052598810296761,298.9140204851036,-0.18317913613551828,15.489845575534256,-9.803806233174669,-12.891550390443523
STABILIZE,5.860755205154419,21.464890508334058,297.24970656317714,-0.20433274445263905,15.444996964994909,-0.920437105804911,250.00115225032994,0.000621183066272124,27.74746622665365,-4.742027024689664,3.4253928027274623,112.99254343957296,0.11131503780009791,-1.835530906532306,0.03681748423219644,0.5061512346308293,298.9579554431387,3.533187105206863,14.171898931355242,-7.443375824365404,-8.766254265501596
