Mode,Time,Freq,North-Vision,East-Vision,Down-Vision,Yaw-Vision,North-Desired,East-Desired,Down-Desired,Roll-UAV,Pitch-UAV,Yaw-UAV,Roll-Control,Pitch-Control,Yaw-Control,Thrust-Control,northVraw,eastVraw,downVraw,N-Velocity,E-Velocity,D-Velocity,N-Acceleration,E-Acceleration,D-Acceleration,yawVraw,yawRate,Landing-State,Q-Size
GUIDED_NOGPS,0.015661239624023438,63.90346613849318,-21.949216822053394,43.35972785685241,75.0336223827593,1.0072929367102033,-21.25169606285562,42.82121599307407,74.32187754536979,-0.611487626484201,0.24020281207053906,0.5684763244550439,-2.1765467960766274,-2.9240880055751437,10.0,0.4985756681446928,-24.625684038015795,44.02353940559328,76.5358267346734,-12.618207931518555,14.96577113866806,10.013654828071594,0.7491633296012878,4.004108160734177,-76.68265104293823,0.8220443405047273,-1.2206629137692353,False,4
GUIDED_NOGPS,0.030572891235351562,67.07881269191402,-24.58090747587666,45.37834309554434,78.15497849969037,1.1015902513289944,-21.684973713984455,43.32072509663351,74.72817620654128,-0.6248643918911122,0.1724602488304121,0.6227748342527644,-3.922359946040835,-4.076161485232711,3.172059219810152,0.4931414353552502,-25.02144495924464,44.70616232089343,77.26417857601996,-11.345644295215607,15.47035425901413,9.463591873645782,-33.83599817752838,13.72702568769455,-48.25386703014374,0.7538153371838061,0.43609477190062035,False,4
GUIDED_NOGPS,0.05034637451171875,50.583757447116426,-24.708288380244774,45.535722755440666,78.15394053847398,1.085517733689537,-22.11736381893825,43.81939084062102,75.1336645548872,-0.6248643918911122,0.1724602488304121,0.6227748342527644,0.8849973287392665,0.7354932802133464,0.32597782957128185,0.49394971320220954,-25.02144495924464,44.70616232089343,77.26417857601996,-11.345644295215607,15.47035425901413,9.463591873645782,-33.83599817752838,13.72702568769455,-48.25386703014374,0.7538153371838061,0.43609477190062035,False,3
GUIDED_NOGPS,0.08332180976867676,30.32933213779539,-24.92483075507283,45.7741062350413,78.28422147335881,1.0712403000792554,-22.548008998566385,44.31639794578477,75.53755275638707,-0.8178366059335718,0.25288988845383775,0.716580385509455,0.34882394891552676,0.20467926468285838,0.46997018995418005,0.49448966453472565,-25.455844351846203,45.38307692456591,77.92025500590545,-11.345644295215607,15.47035425901413,9.463591873645782,-33.83599817752838,13.72702568769455,-48.25386703014374,0.6959629744263802,0.43609477190062035,False,3
GUIDED_NOGPS,0.0974111557006836,70.99964451967837,-25.17650776340447,45.93605633319738,78.20518177472555,1.0245193608521064,-22.976084395123024,44.81096140903881,75.9390731258314,-0.8178366059335718,0.25288988845383775,0.716580385509455,1.3146091916460432,0.597765521222636,-0.7106980709029271,0.4954482284867703,-25.527032979271716,45.88745684986489,78.42756760819952,-21.0762158036232,16.123037040233612,1.418809313327074,-64.9844765663147,8.725059032440186,-77.98399329185486,0.6734116546404463,-1.5034515284279806,False,3
GUIDED_NOGPS,0.1014251708984375,249.37891670134965,-25.165990250460652,45.99099655465448,78.09152833248959,1.0044898521846817,-23.400797245383103,45.30232611086146,76.33747991594788,-0.8178366059335718,0.25288988845383775,0.716580385509455,3.929262269266409,4.0695083264836045,-1.4015968753243837,0.4964717880312223,-25.80742755631295,46.02868861086065,78.60310630637575,-10.696811974048615,16.02851003408432,3.284411132335663,-25.06161630153656,12.303049117326736,-67.25513935089111,0.6457621192062607,0.17659240655656405,False,2
GUIDED_NOGPS,0.12339973449707031,45.51950772169346,-25.189333350187212,46.06842840433534,78.03117151061811,0.9834893263708224,-23.821386453758276,45.78976642269367,76.73204910652744,-0.8178366059335718,0.25288988845383775,0.716580385509455,1.0836054933059764,0.9969898834930799,0.20657972531917623,0.4973793636531524,-26.319934931449474,46.721947730053465,79.03461992704355,-10.696811974048615,16.02851003408432,3.284411132335663,-25.06161630153656,12.303049117326736,-67.25513935089111,0.5708873845909145,0.17659240655656405,False,1
GUIDED_NOGPS,0.1515827178955078,35.4914112609792,-25.209309917695634,46.16263664059094,77.95992999651656,0.969275122100545,-24.237122165412885,46.272585814337404,77.12207819355035,-0.8376899914992418,0.29513231395369227,0.7545577847594598,0.8593681337096316,0.8167772019350323,0.370747460559926,0.49830009712838674,-26.47139016764423,46.91228989431019,79.22392436422503,-9.446359425783157,18.017712235450745,-0.5684954579919577,-10.408052802085876,36.59988045692444,-65.87274074554443,0.5334400291385084,0.7800515725582381,False,1
GUIDED_NOGPS,0.1624617576599121,91.92793582606409,-25.53770255551694,46.57668428463991,78.16057451291637,0.9614059613481992,-24.64730533937993,46.75011646135403,77.50688597831234,-0.8376899914992418,0.29513231395369227,0.7545577847594598,0.32274518484979753,0.3392355784280626,0.31670050354620477,0.49866779090805524,-26.65437018085564,47.45610524617498,79.54139066721363,-9.446359425783157,18.017712235450745,-0.5684954579919577,-10.408052802085876,36.59988045692444,-65.87274074554443,0.5040494167821368,0.7800515725582381,False,1
GUIDED_NOGPS,0.17235493659973145,101.10898440324952,-25.664161807894434,46.7903638177474,78.20110210810616,0.949258685775989,-25.05126732167703,47.221718852462665,77.88581235655069,-0.8376899914992418,0.29513231395369227,0.7545577847594598,1.5607607264928776,1.6480160419482455,0.08175639845787702,0.4993443372288343,-26.881533410294264,47.96813112710332,79.75102754517215,-9.446359425783157,18.017712235450745,-0.5684954579919577,-10.408052802085876,36.59988045692444,-65.87274074554443,0.4883882398385426,0.7800515725582381,False,0
GUIDED_NOGPS,0.19685077667236328,40.83557909494509,-25.79113514354451,46.99349815755423,78.22202706376066,0.9087403348203393,-25.448369418422402,47.68678139693857,78.25821810757031,-0.8050664467023222,0.3070093192292569,0.8065169547664508,0.6869416555478296,0.6449033902535323,-0.11669504303817502,0.5000473697095227,-27.805252986364874,49.0194880728405,79.8597511571767,-9.057015925645828,17.155352234840393,-1.2622363865375519,50.05307197570801,-12.231254577636719,14.542093873023987,0.4858757200969389,-2.226113183537127,False,0
GUIDED_NOGPS,0.23653459548950195,25.201610286606982,-26.094367450496676,47.3934289905258,78.37100087940034,0.8723683407149054,-25.838002468950805,48.144720032011506,78.62348468336991,-0.753562978379018,0.23499996883113472,0.8086041645272715,0.14605106511776134,0.11189645109727006,0.15634881875907353,0.5004807557995212,-27.805252986364874,49.0194880728405,79.8597511571767,-9.057015925645828,17.155352234840393,-1.2622363865375519,50.05307197570801,-12.231254577636719,14.542093873023987,0.4858757200969389,-2.226113183537127,False,0
GUIDED_NOGPS,0.2717702388763428,28.38880503570341,-26.586133030440294,48.01837049863505,78.62643987524362,0.8333417992151713,-26.219586418929524,48.59497783026414,78.981013997768,-0.7843296722170462,0.16568267346134963,0.8265599848032945,-0.2490575885570375,-0.2217403898556554,0.05579202466773914,0.5006859332773355,-28.255564161034158,49.46855105583724,79.88220567314673,-9.057015925645828,17.155352234840393,-1.2622363865375519,50.05307197570801,-12.231254577636719,14.542093873023987,0.48138474687657873,-2.226113183537127,False,0
GUIDED_NOGPS,0.3262195587158203,18.365541490242098,-26.908677839930853,48.523641598205984,78.80168228446986,0.8409434504551307,-26.59256989347433,49.03702460703039,79.33022821552906,-0.7350683202105044,0.259508875368109,0.8697172287651077,-0.02900357835236652,0.02909625413241967,0.5603232641984881,0.501036182790552,-28.255564161034158,49.46855105583724,79.88220567314673,-2.503652684390545,15.432873368263245,-1.8089378252625465,-21.024571359157562,11.699573695659637,-21.799451112747192,0.48138474687657873,2.089482933153838,False,0
GUIDED_NOGPS,0.331589937210083,186.38865928987246,-27.435400366457344,49.333047447681196,79.09815842849127,0.8525938392938086,-26.956429770265444,49.470356527793804,79.67056954148964,-0.8202998496247134,0.17725808319637584,0.845357999420492,-3.972171632437488,-1.8997380476531118,1.370650405327725,0.5011241615579346,-28.414300619310048,50.15934765254545,80.01579872810308,-2.503652684390545,15.432873368263245,-1.8089378252625465,-21.024571359157562,11.699573695659637,-21.799451112747192,0.4699713426439967,2.089482933153838,False,0
GUIDED_NOGPS,0.36563825607299805,29.373316619162004,-27.456676608379894,49.43712485805123,78.99955142578662,0.8593848387678714,-27.31067075266351,49.89449571558595,80.0015000096844,-0.5740814018035385,0.20306702019232684,0.9515708561087752,0.591734764287144,0.5831655574858176,0.5953920868121763,0.5019859663417957,-28.414300619310048,50.15934765254545,80.01579872810308,-7.976901531219482,18.465207517147064,-5.607383698225021,-35.723575949668884,55.869483947753906,-87.71637082099915,0.4699713426439967,1.9084261442010246,False,0
GUIDED_NOGPS,0.39948606491088867,29.546923651323667,-27.808239838335727,50.025056717815474,79.05852864015428,0.8886833034001191,-27.65482494282554,50.308989858384784,80.32250127247234,-0.6581786395678494,0.06969546373422167,0.9774701863895231,-0.2841724274579851,-0.030523932119196188,0.879281871985987,0.5025134386943279,-29.113910100658664,50.74510491390231,79.90719416773172,-7.598833739757538,22.07481414079666,-6.643611192703247,-0.15947222709655762,37.29808032512665,-106.6656231880188,0.4487954265486717,3.354468972159696,False,0
GUIDED_NOGPS,0.43361568450927734,29.30661412261211,-28.162760490246594,50.63267393006729,79.09627857427132,0.8959076321465196,-27.988451414820926,50.71341181651301,80.6330743896627,-0.5086292998128931,0.08159984312731922,1.0133014654971157,-0.35094442751758437,-0.05699896570716227,0.6224529303099083,0.5030632692682432,-29.339384515631465,51.11498159934172,79.90342400105528,-8.880817890167236,23.9136204123497,-6.516121327877045,3.321486711502075,62.25334405899048,-37.01398968696594,0.44716427187551605,1.4085190493190907,False,0
GUIDED_NOGPS,0.46633100509643555,30.56872362600121,-28.491165910684153,51.26544061120877,79.06293557247471,0.8742213404281411,-28.311135787747343,51.10735923003648,80.93273961764125,-0.4658878969776573,0.07387244457680181,1.0068011531196734,-0.44949815556033323,-0.032475160798207496,0.25982691305487793,0.5037341876652058,-29.543303348939396,51.93054212385549,79.7031103884008,-7.721782475709915,24.65234249830246,-9.912849217653275,-11.082538962364197,11.233548074960709,-32.473570108413696,0.530531527630494,-1.0667338219307139,False,0
GUIDED_NOGPS,0.4996626377105713,30.00711132732853,-28.811417261433828,51.918221347661635,79.00581181928679,0.8523869094513971,-28.622489798846768,51.49045412616254,81.22103619849632,-0.4998439689929641,0.0009167394526626489,0.9895448936250478,-0.5190638815922103,-0.03960007875982872,0.2494861731482586,0.5044309371137433,-29.922375601418878,53.07428792587527,79.57214276365067,-7.721782475709915,24.65234249830246,-9.912849217653275,-11.082538962364197,11.233548074960709,-32.473570108413696,0.563302590589604,-1.0667338219307139,False,0
GUIDED_NOGPS,0.533144474029541,29.868003532059134,-29.147913567267697,52.59245529044216,78.97305925033943,0.8833791638933297,-28.922150876621423,51.86234252663844,81.49752214914486,-0.5155055393989505,0.04393700610510531,0.996539434221964,-0.5989163351268408,-0.09407465837110991,0.9002612938524841,0.5050561764785735,-30.510840653055077,54.48148587364952,79.23493686407693,-7.9090893268585205,22.66928106546402,-6.372328847646713,24.683597683906555,-3.7913434207439423,17.939645051956177,0.6527572183822177,2.5508590099370263,False,0
GUIDED_NOGPS,0.5942835807800293,16.359014161963565,-29.483996484261265,53.296466375642375,78.96659497495243,0.9239486164310756,-29.209781713949734,52.222694055149674,81.7617740504586,-0.6440496462177375,-0.09932738567467574,0.9716874707617552,-0.530132973769929,-0.09409281244211368,0.904955573882211,0.5056079593882806,-30.79076412023621,55.553469432798096,80.10806522251004,-7.9090893268585205,22.66928106546402,-6.372328847646713,24.683597683906555,-3.7913434207439423,17.939645051956177,0.8610278433251097,2.5508590099370263,False,0
GUIDED_NOGPS,0.6019525527954102,130.44829409386372,-29.809990043544676,53.99204970168358,79.03938465255786,0.929422999821486,-29.485069841202325,52.57120154471836,82.01338683639013,-0.7426212287720692,-0.1268750327012181,0.987624756694628,-1.0378986822187108,-0.17904423950970508,0.6551009491090565,0.5059709519542642,-30.354327928298687,55.84284886641376,81.43170596844857,-8.971703052520752,21.834364533424377,-4.019389674067497,62.598717212677,-2.0480047911405563,167.89487600326538,0.8198852119521751,0.14792311440225864,False,0
GUIDED_NOGPS,0.6617865562438965,16.713637323620947,-30.020249243997476,54.47946430724429,79.02773644380311,0.934189788710346,-29.747727199357943,52.90758064510166,82.25197358309899,-0.9398683941830162,-0.4577049568260118,0.9964990934171786,-0.27858171553190164,0.02552635106962735,0.5924772976514956,0.5064868087099211,-30.89118077806488,56.7198680561619,79.9931340520269,-8.971703052520752,21.834364533424377,-4.019389674067497,62.598717212677,-2.0480047911405563,167.89487600326538,0.9507843787008856,0.14792311440225864,False,0
GUIDED_NOGPS,0.6703510284423828,116.84925477085945,-30.267689796680184,55.131473827320036,79.02026454958299,0.9481064316896298,-29.997489713119464,53.23156943019008,82.47716529807776,-0.9874947696569861,-0.44177482124742645,0.9916627858762807,-2.420882101359996,-0.04646080043160333,1.2105814416279181,0.5069545349127862,-30.89118077806488,56.7198680561619,79.9931340520269,-4.605301842093468,20.972439646720886,-4.759193584322929,-2.825493738055229,-3.020915389060974,-55.26793599128723,0.9507843787008856,0.4885758110488827,False,0
GUIDED_NOGPS,0.7039875984191895,29.733340894912946,-30.29626485702288,55.41246609772348,78.95515930707194,0.9604936500410781,-30.23411686402984,53.5429280054059,82.68861070927824,-0.6410283013662119,-0.39290940676933384,0.9747788784131265,-0.10219134431969044,0.36315798018478807,0.7234119213957663,0.5075176956915748,-31.609115913549882,59.33602963865641,79.23632158955056,-4.605301842093468,20.972439646720886,-4.759193584322929,-2.825493738055229,-3.020915389060974,-55.26793599128723,1.20236178242349,0.4885758110488827,False,0
GUIDED_NOGPS,0.7372407913208008,30.0779071768688,-30.55653706879704,56.13165920909366,78.9161592224385,0.9831502384552768,-30.457391263588057,53.84143811510153,82.88597605423743,0.14677895099457575,0.10862876930291084,0.9275804569793401,-0.9424169186956126,-0.091794655050912,0.8627139359388978,0.5080009760712508,-31.609115913549882,59.33602963865641,79.23632158955056,-4.605301842093468,20.972439646720886,-4.759193584322929,-2.825493738055229,-3.020915389060974,-55.26793599128723,1.20236178242349,0.4885758110488827,False,0
GUIDED_NOGPS,0.7758376598358154,25.912038896130774,-30.802732018789214,56.82803182467249,78.87335711683508,1.0051556429182529,-30.66711822636512,54.12690274995789,83.06894486920372,0.4992601479014867,0.4397985486997656,0.8882797085776454,-0.8540663424507091,-0.08335747536985152,0.8309880918267006,0.5084654818790628,-31.609115913549882,59.33602963865641,79.23632158955056,-4.605301842093468,20.972439646720886,-4.759193584322929,-2.825493738055229,-3.020915389060974,-55.26793599128723,1.20236178242349,0.4885758110488827,False,0
GUIDED_NOGPS,0.8070065975189209,32.08715076960739,-31.08301689298245,57.60318628654278,78.82839361997556,1.0290351331703864,-30.863125343120004,54.39914575438278,83.23721777826296,0.5653085040623331,0.5499421792553912,0.8762352035848568,-1.220875069610723,-0.20244289529265908,0.9234638170590981,0.5089029628761743,-31.609115913549882,59.33602963865641,79.23632158955056,-4.605301842093468,20.972439646720886,-4.759193584322929,-2.825493738055229,-3.020915389060974,-55.26793599128723,1.20236178242349,0.4885758110488827,False,0
GUIDED_NOGPS,0.837418794631958,32.88515335884087,-31.314857187653583,58.261922542420834,78.84745295860093,1.066915841996657,-31.04526205391563,54.658011433909245,83.39051228246454,0.6537785569993332,0.6612111368376293,0.8324535309225164,-1.0766861650833417,-0.14065442233445188,1.1386965640489604,0.5091824793417686,-31.833424537375254,60.05170257239347,79.10066805682513,-6.417965888977051,22.872306406497955,0.47679413110017776,1.8681138753890991,7.764600962400436,51.18750333786011,1.2410670080486532,1.6795371136037887,False,0
GUIDED_NOGPS,0.8712904453277588,29.529449865528942,-31.53229498254652,58.88968367944426,78.8660515142875,1.1039770998058218,-31.213399221234823,54.90336416259397,83.52856254894756,0.4472449489989604,0.8451122726929301,0.7762345640292588,-0.9972072878794246,-0.1332022812104959,1.1010969968453548,0.5094339868605169,-31.833424537375254,60.05170257239347,79.10066805682513,-6.417965888977051,22.872306406497955,0.47679413110017776,1.8681138753890991,7.764600962400436,51.18750333786011,1.2410670080486532,1.6795371136037887,False,0
GUIDED_NOGPS,0.9053096771240234,29.39554963731296,-31.756799477506842,59.52567104906731,78.8315895917811,1.097727620355834,-31.367428703096284,55.13508799041564,83.65111920006684,0.13685532646078188,0.7285023206231536,0.7207748687117833,-1.059931401922721,-0.17618364589973778,0.5854753110350869,0.5097611979966298,-31.496895371474967,59.646894407488425,78.97776004374165,-6.511155515909195,21.441805362701416,-2.919152192771435,-39.00296092033386,2.703157067298889,-81.52453303337097,1.0519440218235967,-0.9389580580327004,False,0
GUIDED_NOGPS,0.9390532970428467,29.638163612852168,-31.990895352176487,60.17466918519835,78.78518617216147,1.0904286828516316,-31.507262926170554,55.35308625067334,83.75794910251909,-0.38603279365730614,0.6393460471179789,0.6917230326031043,-1.1519387758634567,-0.22960886655800936,0.5675419288090253,0.5100810586854584,-32.07857450879102,60.700458918520624,78.70947092463526,-6.511155515909195,21.441805362701416,-2.919152192771435,-39.00296092033386,2.703157067298889,-81.52453303337097,1.0593467146914026,-0.9389580580327004,False,0
GUIDED_NOGPS,0.9720978736877441,30.268703678311887,-32.22181163142194,60.77406818614742,78.75611085350766,1.0728642124789567,-31.632834458895978,55.55728116738488,83.84883515646898,-0.9736705734985861,0.41146249507176275,0.6114992057892782,-1.134826939474797,-0.2612220256429851,0.4305246933440201,0.5103344078610119,-32.07857450879102,60.700458918520624,78.70947092463526,-7.468003034591675,20.65473347902298,-1.6814302653074265,16.92722886800766,2.4213863536715508,27.321845293045044,1.0593467146914026,-1.5556891353653555,False,0
GUIDED_NOGPS,1.0059287548065186,29.56066756878665,-32.408915928002195,61.336846598377065,78.73501866274201,1.1003473694011698,-31.744095584594668,55.7476134626852,83.92357608467523,-1.1150465246945644,0.2136112314452398,0.5748253054536882,-1.105295136249123,-0.2096942128187795,0.9843769701620994,0.510540150523184,-32.07857450879102,60.700458918520624,78.70947092463526,-5.260346457362175,19.97954547405243,-1.1291362345218658,-54.957515001297,0.13851365074515343,128.89699935913086,1.0593467146914026,1.5947904742597976,False,0
GUIDED_NOGPS,1.0397205352783203,29.596545203082222,-32.65376482362564,62.01753357807153,78.71519716379633,1.1426677498353077,-31.841017874588488,55.92404196422478,83.98198622161676,-1.3401001906294268,0.1244674977404944,0.48438186145508333,-1.378990480572733,-0.3562280881690425,1.1863080846844438,0.5107108587612511,-33.48187885215447,63.499999392902424,78.74896509436013,-5.260346457362175,19.97954547405243,-1.1291362345218658,-54.957515001297,0.13851365074515343,128.89699935913086,1.4176704122460884,1.5947904742597976,False,0
GUIDED_NOGPS,1.0742027759552002,29.00504819993638,-32.87083598048832,62.72591754725309,78.72217617004027,1.1796950684639795,-31.923591761314988,56.08654321256793,84.02389530261873,-1.3021002197386493,0.14617821451273197,0.4767456032413033,-1.480187792745939,-0.3420315527785696,1.13825704810027,0.5107953129775192,-33.162721632960285,65.02800450145307,79.41042312555223,-5.260346457362175,19.97954547405243,-1.1291362345218658,-54.957515001297,0.13851365074515343,128.89699935913086,1.3014202953344258,1.5947904742597976,False,0
GUIDED_NOGPS,1.1193983554840088,22.12815886381142,-33.06433227848781,63.48639827750704,78.7363211955597,1.2159312961381679,-31.9918261114434,56.23511106859125,84.04914825297865,-1.2750377295865893,0.08578023906448436,0.3925809707197914,-1.3918208534601018,-0.2830716897029404,1.0504678688734557,0.5108367259709279,-32.72484145301999,66.64798103022453,79.60187432040998,-5.260346457362175,19.97954547405243,-1.1291362345218658,-54.957515001297,0.13851365074515343,128.89699935913086,1.283593459667913,1.5947904742597976,False,0
GUIDED_NOGPS,1.1591880321502686,25.13621354044935,-33.38084123160107,64.4001789975897,78.78017623818182,1.1932237804390249,-32.04574779899059,56.36975632088195,84.05760497709258,-1.0926006020911985,0.12770287297296481,0.31926507983863983,-1.8119180062663012,-0.5421065722157851,0.4875972514466611,0.5107827237789101,-33.14919258079276,66.4532160535287,78.63351688467466,-7.916227728128433,19.378289580345154,3.604113683104515,71.15556597709656,6.860094517469406,82.09783434867859,1.2189501147466548,-2.419347346006427,False,0
GUIDED_NOGPS,1.1937828063964844,28.908889149269058,-33.62294723126465,65.12015250195533,78.82866276875721,1.1635930865760833,-32.085401278437004,56.490506293136235,84.04914014758103,-1.1402567529210814,0.23167526753092524,0.26527488904892205,-1.7224737105277796,-0.509701900307264,0.35652746231678323,0.5106833103807459,-33.14919258079276,66.4532160535287,78.63351688467466,-7.916227728128433,19.378289580345154,3.604113683104515,71.15556597709656,6.860094517469406,82.09783434867859,1.2189501147466548,-2.419347346006427,False,0
GUIDED_NOGPS,1.2127246856689453,52.81367969074631,-33.83391304827787,65.67857268452518,78.8591371938099,1.12712369044958,-32.110848157842696,56.59740445155771,84.02364299441528,-1.2340237242811323,0.1864509308498312,0.23815919812653008,-2.153831625643183,-0.7719223327996747,-0.09695330526002355,0.5105791619353076,-33.81513245868038,66.32238578911964,78.19948734704556,-7.916227728128433,19.378289580345154,3.604113683104515,71.15556597709656,6.860094517469406,82.09783434867859,1.1194807323795883,-2.419347346006427,False,0
GUIDED_NOGPS,1.2883691787719727,13.219774643448114,-33.91985124709632,65.95651656450346,78.92718870209089,1.0969775478731059,-32.12216677196322,56.690510012255714,83.98101709404335,-1.3547610849611533,0.2015741969718559,0.22827628792349186,-0.8910864599288806,-0.22182557937459643,0.4990482996258908,0.5103884428101794,-33.81513245868038,66.32238578911964,78.19948734704556,-6.395691633224487,18.3992862701416,6.428802013397217,-19.054776430130005,-9.274690598249435,67.78616905212402,1.1194807323795883,-2.006600295123026,False,1
GUIDED_NOGPS,1.313194990158081,40.287234655652675,-34.25317696593185,66.86381072965777,79.03098639112439,1.0710494258968006,-32.119451755365645,56.76989754864371,83.92118015851611,-1.4176622180185048,0.2459026049329147,0.22526115961132792,-2.8022411312905384,-1.0392616802128074,0.2238836717576182,0.510070862951411,-34.458481732512,67.66484535152426,78.68021677723345,-6.395691633224487,18.3992862701416,6.428802013397217,-19.054776430130005,-9.274690598249435,67.78616905212402,1.2026973984195326,-2.006600295123026,False,1
GUIDED_NOGPS,1.3342669010162354,47.47856601125186,-34.22327106920507,66.87069916649472,79.00730800037387,1.0564159516263916,-32.1028136155445,56.83565659883767,83.8440638246134,-1.4645666211528634,0.34114126861569155,0.22070839830247807,-0.42913101120813485,-0.09384079718513155,0.0037577973768838646,0.5099675816420174,-34.458481732512,67.66484535152426,78.68021677723345,-4.45391982793808,16.935642063617706,0.10718824341893196,-2.17503160238266,-0.9598867036402225,-67.21817255020142,1.2026973984195326,-1.4858090430801318,False,0
GUIDED_NOGPS,1.3529927730560303,53.39797321383104,-34.31826000387192,67.0619694013949,79.11368713939427,1.0428652208580365,-32.07237830603774,56.88789127305444,83.74961344297019,-1.481110940148221,0.3160868540796154,0.23450051124807755,-1.087649374189561,-0.4477912002019831,0.4484310988743367,0.509577261471189,-35.2782610116138,70.12319800171244,78.94341227612466,-8.50575789809227,16.64484441280365,8.719337731599808,-47.11822867393494,2.4063613265752792,74.6962308883667,1.1783448981501368,-1.4687519262884945,False,0
GUIDED_NOGPS,1.4078526496887207,18.229922026443205,-34.5367225681138,67.6705088807986,79.25922431455565,1.0225640793624327,-32.02828679954273,56.92671986101013,83.63778786720255,-1.5972710068672757,0.3613015324463362,0.24326572502646665,-1.4847128630827884,-0.51729687507696,0.4652550276097501,0.5090817186589615,-34.88463130151137,71.45224901484602,79.56961442526585,-8.50575789809227,16.64484441280365,8.719337731599808,-47.11822867393494,2.4063613265752792,74.6962308883667,1.0798098277814716,-1.4687519262884945,False,1
GUIDED_NOGPS,1.4184398651123047,94.49823138447674,-34.94201927226248,68.76039420866921,79.45061715323631,0.9944815823319979,-31.970694661032194,56.95227443931843,83.50855924303389,-1.5972710068672757,0.3613015324463362,0.24326572502646665,-3.9494705623376904,-2.9456111497087196,-0.46963849605382135,0.5084438955352284,-34.88463130151137,71.45224901484602,79.56961442526585,-8.50575789809227,16.64484441280365,8.719337731599808,-47.11822867393494,2.4063613265752792,74.6962308883667,1.0798098277814716,-1.4687519262884945,False,0
GUIDED_NOGPS,1.4434127807617188,40.04949965625239,-34.92626497730665,68.93207576413668,79.54362868802107,0.9658704152353567,-31.899771620870172,56.96470047888907,83.36191279742091,-1.6424999859425713,0.34170507938733496,0.24617784021212505,-1.3439496796064794,-0.3998434556299265,0.12170166086824452,0.507972215443503,-35.43912234381912,71.37402226793833,79.75180756941168,-1.1437227949500084,15.037761628627777,7.07814022898674,115.1113510131836,-12.753628194332123,-20.12643665075302,1.010073534162473,-2.3571680785669815,False,0
GUIDED_NOGPS,1.4768178462982178,29.938998536707235,-35.0155851484437,69.36863002201642,79.66125255929707,0.9333035013487907,-31.815701147928017,56.96415645232615,83.19784662767988,-1.6863833110296687,0.38634399415136483,0.25600949731596173,-1.7770540523938372,-0.5982370961226503,0.1712971929127397,0.5074183176708368,-35.43912234381912,71.37402226793833,79.75180756941168,-1.1437227949500084,15.037761628627777,7.07814022898674,115.1113510131836,-12.753628194332123,-20.12643665075302,1.010073534162473,-2.3571680785669815,False,0
GUIDED_NOGPS,1.5115931034088135,28.760810236296063,-35.15934786630936,69.95586850362383,79.7988906846892,0.8962650574512397,-31.718680022700344,56.9508134413265,83.0163714906126,-1.6715344797740608,0.30897593346254454,0.2404737518010917,-2.0788003748263524,-0.726624583637494,0.11144337145176464,0.506789036290948,-35.43912234381912,71.37402226793833,79.75180756941168,-1.1437227949500084,15.037761628627777,7.07814022898674,115.1113510131836,-12.753628194332123,-20.12643665075302,1.010073534162473,-2.3571680785669815,False,0
GUIDED_NOGPS,1.5541398525238037,23.504612039496543,-35.35841506172701,70.57532826409768,79.97598952950287,0.9036256566028792,-31.60891791042097,56.9248547440781,82.81751059163253,-1.6715344797740608,0.30897593346254454,0.2404737518010917,-2.003701654651502,-0.7703604706274106,0.6113472065483233,0.5060467925584924,-35.70687401858559,73.3661110130843,80.08265893137383,-5.123890936374664,13.228580355644226,9.017574787139893,67.25770235061646,8.36583748459816,129.91639375686646,0.923022555214891,1.185989138282548,False,0
GUIDED_NOGPS,1.586503505706787,30.90227513851232,-35.57125712258233,71.23245522065527,80.16414058142854,0.9110321763816188,-31.48663693417894,56.88647548265838,82.60129937389092,-1.714218573053292,0.40201735730584004,0.2650305497035354,-2.4381833261922785,-0.9914828386967285,0.6382922055664716,0.5052443689835133,-35.70687401858559,73.3661110130843,80.08265893137383,-5.123890936374664,13.228580355644226,9.017574787139893,67.25770235061646,8.36583748459816,129.91639375686646,0.923022555214891,1.185989138282548,False,0
GUIDED_NOGPS,1.6118297576904297,39.49290045572671,-35.68198457413004,71.7809654063597,80.33614007752416,0.8998473258251154,-31.35207124803443,56.83588221043271,82.36778530740294,-1.7187751630033368,0.2970993017129502,0.24587595118689579,-2.614217475639391,-0.9720424714662734,0.36340731503363954,0.5044374617013695,-35.40458803141034,73.87886745417141,80.76312281202748,-1.8469758331775665,13.118994235992432,7.25800022482872,13.340672850608826,0.8683144114911556,33.33529829978943,0.9077240177086123,-0.3605197959514871,False,0
GUIDED_NOGPS,1.6457788944244385,29.45789876600437,-35.721015706812096,72.19919956014431,80.51318701093432,0.8873925260393268,-31.205466610134756,56.773292519452646,82.11702767817367,-1.6378330457487484,0.25616272300503745,0.2819901762169415,-2.0914867814562377,-0.7267926798838419,0.3853180182335849,0.5035861975144705,-34.82483593006492,74.33400986382776,81.62112782228263,-1.8469758331775665,13.118994235992432,7.25800022482872,13.340672850608826,0.8683144114911556,33.33529829978943,0.7892665718750453,-0.3605197959514871,False,0
GUIDED_NOGPS,1.6789414882659912,30.161178746323607,-35.824814147271574,72.74724013026776,80.7147615478621,0.8670066891274093,-31.047079955830327,56.698934647854394,81.84909737732431,-1.6794692385989116,0.2416626582839235,0.31679548620600423,-2.413263287759151,-0.8972801850348749,0.2745193721345782,0.5026501997501334,-35.404944282278166,74.52373244488294,81.6216448446174,-1.8469758331775665,13.118994235992432,7.25800022482872,13.340672850608826,0.8683144114911556,33.33529829978943,0.6578927913768546,-0.3605197959514871,False,0
GUIDED_NOGPS,1.7229726314544678,22.711566681286786,-35.892786388684605,73.24110945573365,80.89005622265624,0.8650846257683162,-30.87717897079059,56.61304708725716,81.56407669021822,-1.7558570070592763,0.13992944519581654,0.3593011941540216,-2.1282822189921937,-0.7626400342416347,0.5015837779411703,0.5017319424348915,-35.404944282278166,74.52373244488294,81.6216448446174,0.06962026236578822,11.1421599984169,5.7178787887096405,-17.843806743621826,8.280330151319504,15.318894386291504,0.6578927913768546,0.88831412632776,False,0
GUIDED_NOGPS,1.7490732669830322,38.32129446053485,-36.00696395681705,73.89397105362634,81.10454306831534,0.8607211766386829,-30.69604166412004,56.5158781901615,81.26205908558707,-1.7985902990448728,0.044562075135867255,0.40663245743107945,-3.1172315553195595,-1.1558552695802065,0.4495652155257095,0.5006992624537898,-35.404944282278166,74.52373244488294,81.6216448446174,0.06962026236578822,11.1421599984169,5.7178787887096405,-17.843806743621826,8.280330151319504,15.318894386291504,0.6578927913768546,0.88831412632776,False,0
GUIDED_NOGPS,1.7798333168029785,32.51448859672243,-35.88308397536502,74.23187955143692,81.31629907676206,0.8241142766943373,-30.503955941474143,56.40768577734774,80.94314900465687,-1.8518085717366732,-0.02715982034773258,0.46811283109978896,-2.3093695765256363,-0.6022774574606208,0.01806387811388066,0.4996370127446959,-34.615665101081674,75.19226046338652,82.49284141737357,7.3105961084365845,10.859009623527527,8.627838641405106,64.61973190307617,1.4260857366025448,32.02136158943176,0.6960984103044487,-1.9074737596986309,False,0
GUIDED_NOGPS,1.8130366802215576,30.12694923897975,-35.8219981398396,74.66700672216766,81.52483615469835,0.7864292071715691,-30.30121917817533,56.288736745274306,80.60746165027416,-1.9224589812942274,-0.11254497565741402,0.5166735017470226,-2.4823301050240207,-0.7372727131615957,0.01855983480459722,0.4985461233595591,-35.71365138165468,76.20003970193247,82.09974859439077,7.3105961084365845,10.859009623527527,8.627838641405106,64.61973190307617,1.4260857366025448,32.02136158943176,0.6903903196781216,-1.9074737596986309,False,0
GUIDED_NOGPS,1.8467073440551758,29.700705995652143,-35.89737756321937,75.13397431545744,81.65055379023813,0.7717800398030259,-30.088137792328947,56.15930667347614,80.25512277603202,-1.9846352605259112,-0.13262210327925494,0.5222234039736283,-2.592911559579753,-1.0211208218337637,0.2886823132314492,0.4975862592248559,-36.71899506642908,76.67599123198559,81.61888103031252,1.0996527038514614,9.78929027915001,3.687296062707901,-4.975245147943497,-3.1705521047115326,-28.182369470596313,0.5749168679133941,0.05420011238498993,False,0
GUIDED_NOGPS,1.8796253204345703,30.38051847398576,-35.96707232910448,75.58135144943836,81.77142098225335,0.7579037260951831,-29.86502681793924,56.01967943196303,79.88626847539624,-2.145382055094869,-0.09542254518183829,0.5747979313361552,-2.6424765190725066,-1.0619037209077855,0.2866598193458477,0.4966018360222255,-36.71899506642908,76.67599123198559,81.61888103031252,1.0996527038514614,9.78929027915001,3.687296062707901,-4.975245147943497,-3.1705521047115326,-28.182369470596313,0.5749168679133941,0.05420011238498993,False,0
GUIDED_NOGPS,1.9131455421447754,29.838468488336524,-36.020575221757596,76.02282009126822,81.90210237156228,0.7484969944618407,-29.632209478025274,55.870146788618015,79.50104497083136,-2.186572364658277,-0.28476168555523285,0.6139222687581931,-2.683327948504584,-1.0662085674238637,0.3367636757385195,0.49556359227920466,-36.48673143389754,77.16832525257263,82.02590570572796,1.0996527038514614,9.78929027915001,3.687296062707901,-4.975245147943497,-3.1705521047115326,-28.182369470596313,0.6624035554526683,0.05420011238498993,False,0
GUIDED_NOGPS,1.9527897834777832,25.227834016011357,-36.00457882679479,76.42198872392466,82.11971091378369,0.7645509133477122,-29.39001675773698,55.71100801659577,79.09960840292683,-2.237644250403401,-0.3370466769299747,0.6767378110075079,-2.5204934356116024,-0.9139934916497378,0.6212498958525313,0.4943159554824735,-36.04649012482734,77.27682351726827,82.49246362841609,4.285898432135582,7.671699672937393,8.509495109319687,17.744290828704834,-10.965024679899216,56.176793575286865,0.5797009305994889,1.953044781840956,False,0
GUIDED_NOGPS,1.9840734004974365,31.969511497976324,-35.97517762489308,76.87371232187964,82.37797295976425,0.7796983427122146,-29.13878697747104,55.54256950172095,78.68212461952312,-2.1123647072036156,-0.33042993117152486,0.7223706250174804,-2.9067299096974724,-1.0183824861755302,0.660725907427113,0.4929551772547076,-35.53169340874423,77.09184567986958,82.95022983810073,4.285898432135582,7.671699672937393,8.509495109319687,17.744290828704834,-10.965024679899216,56.176793575286865,0.5578616604574385,1.953044781840956,False,0
GUIDED_NOGPS,2.01442289352417,32.95155043327284,-35.934600010961546,77.15303151252162,82.50367936388709,0.7802245510954958,-28.878865365986893,55.36514434988655,78.2487689648377,-1.8986717802926,-0.23167692171736484,0.7669483882440976,-2.665057949316813,-1.044210653415102,0.4750898264222441,0.4918267517656753,-36.211417130719084,77.52735840392646,82.52536079033584,5.1352910697460175,5.23802638053894,4.122747480869293,117.9428219795227,-11.125554144382477,-62.139976024627686,0.6311459667388901,0.585730396154701,False,0
GUIDED_NOGPS,2.048182249069214,29.626230805091332,-35.890911294278645,77.40871875840864,82.62134009918375,0.7811523997949806,-28.610603633522704,55.17905199445237,77.7997260685913,-1.8771876337017366,-0.4460546818143799,0.8117920486006691,-2.5800297808376103,-1.0249257427196534,0.47966079253222704,0.4906802936589938,-36.211417130719084,77.52735840392646,82.52536079033584,5.1352910697460175,5.23802638053894,4.122747480869293,117.9428219795227,-11.125554144382477,-62.139976024627686,0.6311459667388901,0.585730396154701,False,0
GUIDED_NOGPS,2.082367181777954,29.255918418592973,-35.77580971001363,77.66987608750553,82.8126657598709,0.744125729964225,-28.334359544911322,54.984617803643275,77.33518963513387,-1.9244341866248305,-0.4903530476152612,0.8112059329925174,-2.637357781388918,-0.9223756245919975,0.012600740046429859,0.4893536112202462,-35.89555417708684,77.19319595924199,83.01607003178091,9.17997807264328,4.618874937295914,6.9797903299331665,80.06409406661987,0.1480867271311581,60.93803644180298,0.36788391475064797,-1.2006144942862496,False,0
GUIDED_NOGPS,2.1159915924072266,29.743250813731677,-35.657273813979316,77.91739215641877,82.99982059251661,0.7073913010938463,-28.050496492696226,54.78217268794763,76.85536223257085,-1.903350886760882,-0.6391441296506404,0.8545603986666147,-2.675358145416012,-0.9459382547728119,-0.011489795865484542,0.48800307777945345,-35.89555417708684,77.19319595924199,83.01607003178091,9.17997807264328,4.618874937295914,6.9797903299331665,80.06409406661987,0.1480867271311581,60.93803644180298,0.36788391475064797,-1.2006144942862496,False,0
GUIDED_NOGPS,2.150378465652466,29.085502683660874,-35.49284805698848,78.20427822779368,83.19986745766539,0.6841793398941566,-27.759383070247534,54.57205270751571,76.36045508188907,-1.8764446371860861,-0.7211786502856075,0.8949766023371372,-2.785630516531551,-0.8839775615121479,0.1400254527381682,0.4865943877410398,-34.875719937884796,78.88435737918476,83.60047970820916,9.17997807264328,4.618874937295914,6.9797903299331665,80.06409406661987,0.1480867271311581,60.93803644180298,0.6740160419256447,-1.2006144942862496,False,0
GUIDED_NOGPS,2.1832854747772217,30.39086456250181,-35.34056079126224,78.45874507916297,83.35299470395024,0.6983226815057478,-27.461392644877925,54.35459867955796,75.85068784608298,-1.9398896240560999,-0.6711902032975766,0.9119529841583509,-2.815328420984517,-0.9412862920936166,0.5908166468540889,0.48524883748011327,-34.875719937884796,78.88435737918476,83.60047970820916,8.311296999454498,2.5762993842363358,3.884444013237953,45.98405361175537,-5.999696254730225,20.773032307624817,0.6740160419256447,1.2591095149987082,False,0
GUIDED_NOGPS,2.219491481781006,27.623910008166707,-35.18875003281246,78.67382326514654,83.48977555078102,0.713465160198499,-27.15690293095864,54.130155785743504,75.32628841928073,-1.9546983279503338,-0.6838268003140406,0.926305986368898,-2.7212552595628154,-0.9414558564768651,0.5955678625458005,0.4839028592667631,-34.875719937884796,78.88435737918476,83.60047970820916,8.311296999454498,2.5762993842363358,3.884444013237953,45.98405361175537,-5.999696254730225,20.773032307624817,0.6740160419256447,1.2591095149987082,False,0
GUIDED_NOGPS,2.2500784397125244,32.69979028121029,-34.9893230986439,78.84771172936394,83.61505113500938,0.7322036119577419,-26.84629556303542,53.899073179598396,74.78749271587026,-2.016954008131119,-0.6816490371858644,0.9171693276935367,-2.8212831576669153,-0.918049715941746,0.6846567173805845,0.48255314095794766,-34.867998172851614,78.29733404973072,83.66203090966802,11.193182319402695,0.1328979036770761,2.3281175643205643,22.001217305660248,-7.103569060564041,36.17209792137146,0.6766139732303762,1.4846300883963643,False,0
GUIDED_NOGPS,2.2840840816497803,29.4132777929719,-34.76322217690135,78.93015713819095,83.72347239709303,0.7500217658415996,-26.5299556689445,53.661703593904136,74.23454445962538,-2.026628117316796,-0.6341145491005722,0.9231011335442811,-2.616251661445389,-0.8644109490881237,0.6589648834398714,0.48120450884412114,-34.021917037334646,77.98652753530988,84.10265634770164,11.193182319402695,0.1328979036770761,2.3281175643205643,22.001217305660248,-7.103569060564041,36.17209792137146,0.6361575603085783,1.4846300883963643,False,0
GUIDED_NOGPS,2.3187222480773926,28.871279495580826,-34.483733281968625,79.03747257096026,83.86801626082134,0.7683786934765573,-26.20827144292853,53.41840294809589,73.66769497283192,-2.1260325560630458,-0.6608531388755854,0.8982365769227901,-2.6908085803842248,-0.7844495163388414,0.6727149545285813,0.47975341681960604,-32.809751333639895,78.06047406838483,84.7477669644913,11.193182319402695,0.1328979036770761,2.3281175643205643,22.001217305660248,-7.103569060564041,36.17209792137146,0.6471462951986631,1.4846300883963643,False,0
GUIDED_NOGPS,2.351958990097046,30.100571969887255,-34.26678869318053,79.13570737210824,83.94391611206142,0.7932190386439969,-25.8816337187526,53.16952995566094,73.08720296541378,-2.10577720319255,-0.6239527217194742,0.9061055951768795,-2.744599335162303,-0.9227683543746503,0.7779452040769566,0.47841205856493957,-32.809751333639895,78.06047406838483,84.7477669644913,7.029262185096741,-0.6931010168045759,-2.208096534013748,-68.50945353507996,-2.522256411612034,-21.842044591903687,0.6471462951986631,1.879555788353027,False,0
GUIDED_NOGPS,2.3840227127075195,31.18534380204616,-33.976328844212226,79.17668736449868,84.00591207717973,0.829140672784444,-25.550435542820193,52.91544573153714,72.49333432405908,-2.214141142582564,-0.6336576734781219,0.9265178289548742,-2.68539357927838,-0.8029513989260678,0.9417179623503869,0.4770705395733165,-32.809751333639895,78.06047406838483,84.7477669644913,12.721112370491028,-1.7834875732660294,-1.7258057370781898,-86.20409965515137,-11.851824074983597,-39.989012479782104,0.6471462951986631,2.6241902687438103,False,0
GUIDED_NOGPS,2.4176900386810303,29.70575445306137,-33.70180802183772,79.25282972153695,84.04205795116378,0.8726947047323025,-25.21507174728909,52.65651339951111,71.88636190134619,-2.3005029082218518,-0.5680849759599433,0.9264266886181368,-2.7639768697004987,-0.8447549266825776,1.0422887622355583,0.4757516392765594,-33.066212836748285,79.06761262382454,84.25836248852417,12.721112370491028,-1.7834875732660294,-1.7258057370781898,-86.20409965515137,-11.851824074983597,-39.989012479782104,0.8298173145322287,2.6241902687438103,False,0
GUIDED_NOGPS,2.450995922088623,30.03074455669557,-33.35245509085563,79.36080047789676,84.08033732345345,0.9420490438567362,-24.87593852318736,52.39309769961674,71.26656530486989,-2.3607906401480268,-0.6205284490677706,0.8983785167914795,-2.8681268680312693,-0.722433623902029,1.3995231195109574,0.4744014008988288,-32.92869122985692,80.15422190755584,84.00579654534585,17.17379242181778,-2.846681885421276,-0.9209991432726383,92.01836585998535,-12.042185664176941,10.91698706150055,0.9847981667696992,3.8642012941626933,False,0
GUIDED_NOGPS,2.4850237369537354,29.39040011211548,-33.06780179182194,79.42481189111852,84.07132318489384,0.9597911643294184,-24.53343299352947,52.125564595533596,70.63423068636749,-2.343092552791466,-0.5953422332250544,0.8799123533184096,-2.8062727836059347,-0.8475496754647562,0.7835806419848614,0.4731180307037526,-32.98788736108232,79.7854171933397,83.79526906024523,13.54195773601532,-3.6893263459205627,-2.992212399840355,17.13247150182724,-11.663975566625595,-35.045066475868225,1.0497762821231589,0.33900619416982786,False,0
GUIDED_NOGPS,2.522207736968994,26.898288997768258,-32.7979431268591,79.47836197135841,84.12348786328425,0.9986567103076552,-24.187952786431975,51.854280881985105,69.98965053084484,-2.358161444204395,-0.6317635766439127,0.8166421766024659,-2.7767431826285986,-0.8764311036868576,1.0185116384870494,0.4716826200260894,-32.98788736108232,79.7854171933397,83.79526906024523,12.825679779052734,-3.8290269672870636,1.2477289885282516,75.48484206199646,-1.39018464833498,209.69407558441162,1.0497762821231589,1.7680608475587967,False,0
GUIDED_NOGPS,2.555680990219116,29.876513662136365,-32.45070876288796,79.46056653493186,84.1858625334217,1.0347385673975595,-23.83989560822972,51.57961379213716,69.33312344570254,-2.4053262483008604,-0.6800380730370934,0.7738644350264114,-2.734491349043642,-0.7571406194700966,1.0510380792361536,0.47020495258514305,-31.178145089897438,78.12110748766233,84.21987716753705,11.904338747262955,-4.513924941420555,0.3154963720589876,13.356423377990723,-8.649718761444092,87.58570551872253,1.0435843798116515,1.496585587486531,False,0
GUIDED_NOGPS,2.596076726913452,24.758010058319364,-32.084126665789064,79.39082677651635,84.20264519983178,1.0624892555107854,-23.489658816591746,51.301930604996365,68.66495394986192,-2.395352037678526,-0.6072281497630517,0.7664872971142688,-2.603063797221333,-0.7296626321228776,0.9123321248758383,0.4687848449289721,-31.178145089897438,78.12110748766233,84.21987716753705,15.16532450914383,-5.778099969029427,-1.56342014670372,13.52708488702774,-19.7924941778183,16.80716872215271,1.0435843798116515,1.1796078206070522,False,0
GUIDED_NOGPS,2.640815258026123,22.355194780968016,-31.612238746135723,79.31883758880605,84.243944305402,1.0876458634699813,-23.137638993637136,51.021598252808424,67.9854522628913,-2.4198160677382194,-0.6752323946257548,0.728316571494241,-2.5952040361247004,-0.5853272820018595,0.8775110948139815,0.4672850534799356,-29.384843355707094,77.83341019747603,84.20219655214338,14.421629905700684,-6.74089640378952,-0.8256680332124233,-3.031732141971588,-15.553076565265656,41.92747175693512,1.2759609832465217,0.10151069833155263,False,0
GUIDED_NOGPS,2.667271614074707,37.801847595872204,-31.219930996093186,79.22797255871335,84.25707144749231,1.1652184888629318,-22.78423151905118,50.738982928456515,67.29493409413192,-2.4070269654041936,-0.8037882941930307,0.7088498386686171,-2.768048315824281,-0.6616891919911262,1.8795121048676975,0.46584209173133323,-29.384843355707094,77.83341019747603,84.20219655214338,7.972878962755203,-7.922663539648056,-2.759586274623871,-37.660372257232666,-18.49345564842224,40.41287899017334,1.2759609832465217,3.2709101454010527,False,0
GUIDED_NOGPS,2.7001497745513916,30.419297520361464,-30.866965906208943,79.07005562872637,84.14983462950325,1.2060205858729418,-22.429830143201198,50.45444969285974,66.59372043182414,-2.381482911681992,-0.799623799790027,0.6602749206736616,-2.570511204006144,-0.7516062481310475,1.2187557091532333,0.464607843488938,-30.070251345879424,78.1373195702942,83.01430076661805,16.450749337673187,-8.370479941368103,-4.203082248568535,53.83809208869934,-10.020743310451508,-2.3948565125465393,1.454379202496444,1.459225093056796,False,0
GUIDED_NOGPS,2.733482837677002,30.004964696287924,-30.39544456392342,78.90233913743091,84.06703658420386,1.2492025987981232,-22.074826560252493,50.16836208237134,65.88213733223353,-2.356972350958578,-0.7667711234907946,0.6272597605773769,-2.5685657650684677,-0.5325187642763676,1.267284029019991,0.4633017408210955,-28.780203537424235,77.65775838097468,83.27206316831409,18.020306527614594,-9.0694859623909,-4.282069206237793,21.959346532821655,-15.963001549243927,18.456268310546875,1.4763135436316754,1.2786784338576178,False,0
GUIDED_NOGPS,2.7618703842163086,35.2311530352538,-29.848375371205233,78.66511605239276,83.94431391755863,1.276865805444552,-21.719609981284467,49.8810817161772,65.16051570877694,-2.3233451952404898,-0.8116790836750996,0.5592381734374843,-2.471515149511541,-0.3209449483141371,1.1557003590755235,0.46206126154409216,-28.363651175700312,76.8944958691308,83.04525798498408,22.203892469406128,-11.355288326740265,-6.183314323425293,-56.55965805053711,-9.96766984462738,-83.08326005935669,1.4070502818512338,0.54722088247967,False,0
GUIDED_NOGPS,2.79542875289917,29.805178931809785,-29.35800394742055,78.43137685840675,83.79326784039536,1.3043515075347718,-21.364566707406436,49.59296790369427,64.42919112114865,-2.354574954559904,-0.8206093425714797,0.5146852230074613,-2.465718959296179,-0.47487887993263306,1.110490797922693,0.4608487601125734,-28.263816726493403,77.04642210946356,82.46549947063248,22.203892469406128,-11.355288326740265,-6.183314323425293,-56.55965805053711,-9.96766984462738,-83.08326005935669,1.5358643041062798,0.54722088247967,False,0
GUIDED_NOGPS,2.8354716300964355,24.981113645703665,-28.7959152030711,78.22095471231437,83.66079991716921,1.3388497361374747,-21.010079702873643,49.304377251968745,63.688503564446414,-2.477695731095142,-0.7919681182257947,0.45862521809496526,-2.4960587828793876,-0.39151582739511004,1.1486279528131071,0.4595684716516786,-27.401023169311358,77.42840472335497,82.77024171446615,22.203892469406128,-11.355288326740265,-6.183314323425293,-56.55965805053711,-9.96766984462738,-83.08326005935669,1.6238068243969734,0.54722088247967,False,0
GUIDED_NOGPS,2.862900733947754,36.45794254422183,-28.27475729544421,77.97835898964219,83.48204171053337,1.3537176494354193,-20.656528168203277,49.015663273074644,62.93879725829758,-2.4871762471065315,-0.8063794972094043,0.44411189320190797,-2.4856440261504957,-0.32641261482645095,1.0276160357884994,0.4583811966870409,-27.401023169311358,77.42840472335497,82.77024171446615,16.817064583301544,-13.196371495723724,-9.084758162498474,27.69869565963745,-21.611887216567993,196.98361158370972,1.6238068243969734,-0.9024334080026456,False,0
GUIDED_NOGPS,2.897202491760254,29.15667273763677,-27.892073332958425,77.74530849730742,83.30841670494063,1.3578496002396794,-20.30428711329031,48.72717599151199,62.18042043598524,-2.4823404731741623,-0.7195611761127838,0.3898291248557903,-2.481598408010852,-0.6355570179342577,0.8629543360672854,0.45715378820390296,-27.401023169311358,77.42840472335497,82.77024171446615,16.817064583301544,-13.196371495723724,-9.084758162498474,27.69869565963745,-21.611887216567993,196.98361158370972,1.6238068243969734,-0.9024334080026456,False,0
GUIDED_NOGPS,2.930504083633423,30.03504550760131,-27.434123869642143,77.47515390562896,83.11584653803428,1.3675737501002796,-19.953726930523633,48.43926155160539,61.41372513357427,-2.5443948762178437,-0.6509735904062793,0.32174937438624684,-2.42341194910198,-0.4857053428511278,0.9376967027936981,0.4559478941565238,-26.800935719341986,76.64872738441048,82.35978216882447,16.817064583301544,-13.196371495723724,-9.084758162498474,27.69869565963745,-21.611887216567993,196.98361158370972,1.6773273756506382,-0.9024334080026456,False,0
GUIDED_NOGPS,2.9745357036590576,22.714026546515974,-26.913452385750098,77.14097600766038,82.9400626654911,1.355528056454379,-19.605212967901952,48.1522618249023,60.63906697903742,-2.5804125981454367,-0.6380824621215265,0.1867194960224302,-2.327230547797668,-0.4293393309737875,0.7039312194755126,0.4546715594746764,-25.291903567875625,75.93780716235734,81.65093747394755,18.232974410057068,-15.688848495483398,-6.211342290043831,-22.192049026489258,-20.857873558998108,89.36851024627686,1.722679105254566,-2.3316611639983917,False,0
GUIDED_NOGPS,2.9966416358947754,45.237701823829504,-26.27624963721703,76.77346207113379,82.74678338843744,1.3467694626522688,-19.25910510214958,47.86651401757133,59.85680498138149,-2.6168892234078895,-0.6229983095046707,0.1261256595636472,-2.179108696496123,0.1489776685058126,0.6504293883033716,0.45345289495611163,-25.291903567875625,75.93780716235734,81.65093747394755,18.232974410057068,-15.688848495483398,-6.211342290043831,-22.192049026489258,-20.857873558998108,89.36851024627686,1.722679105254566,-2.3316611639983917,False,0
GUIDED_NOGPS,3.0321497917175293,28.16992068129462,-25.82640805841482,76.40214565383819,82.5430770758483,1.3470581850359256,-18.915757311832753,47.58235027780078,59.067301319773364,-2.6657325464928854,-0.5914452901384447,0.06741322672619199,-2.2285814271423714,-0.444005572843548,0.8115995416623577,0.45221683689045367,-23.39441772501363,74.52112283769597,81.63424646110323,18.848803639411926,-17.26653277873993,-9.828035533428192,61.357301473617554,-14.161364734172821,6.178769469261169,1.816176631341985,-1.3851143389109843,False,0
GUIDED_NOGPS,3.0665314197540283,29.08832667554372,-25.239726612055758,75.96626033034005,82.28230172046462,1.3517862776117957,-18.57551725047526,47.30009730319687,58.27092113266613,-2.7345836280909643,-0.5651325199694995,-0.000357251587536104,-2.116358834235632,-0.1909745986444955,0.8644596360883283,0.4510775799907716,-23.194788206810713,73.90007684057983,80.7881369047997,18.848803639411926,-17.26653277873993,-9.828035533428192,61.357301473617554,-14.161364734172821,6.178769469261169,1.8477204123960393,-1.3851143389109843,False,0
GUIDED_NOGPS,3.1030173301696777,27.409810354066735,-24.660674573667134,75.53244868947097,82.0229917919663,1.355466431222326,-18.238725819674638,47.020075948182246,57.46803230692515,-2.733701466470975,-0.5653959091393682,-0.02187097108615498,-2.1139240814967697,-0.19195811262097798,0.8535451072250122,0.44991860560907776,-23.194788206810713,73.90007684057983,80.7881369047997,18.848803639411926,-17.26653277873993,-9.828035533428192,61.357301473617554,-14.161364734172821,6.178769469261169,1.8477204123960393,-1.3851143389109843,False,0
GUIDED_NOGPS,3.1322503089904785,34.21631234602144,-23.979931328798607,75.04557191476935,81.8160551999757,1.3474968484994811,-17.905716742218065,46.7426008313942,56.659005266954296,-2.813740611372946,-0.511944983128964,-0.07179590031645265,-1.9282825946539495,0.15864107620931173,0.6991045179071154,0.44865577668788853,-23.194788206810713,73.90007684057983,80.7881369047997,25.79379677772522,-20.736895501613617,-6.4774781465530396,28.507238626480103,-7.201322913169861,49.773141741752625,1.8477204123960393,-2.070266836254242,False,0
GUIDED_NOGPS,3.1723413467407227,24.94619767566346,-23.344050832862752,74.59904265454547,81.64336222252398,1.3352389271395981,-17.576816135198218,46.46797994308319,55.844212763821815,-2.8532617934579325,-0.5194344989972945,-0.18416799348060733,-2.0859623502457763,-0.07861355278269064,0.6792354305678135,0.4472885657553265,-21.33026476040059,73.433601655296,80.83530003921153,25.79379677772522,-20.736895501613617,-6.4774781465530396,28.507238626480103,-7.201322913169861,49.773141741752625,1.7814492362083116,-2.070266836254242,False,0
GUIDED_NOGPS,3.2005600929260254,35.44282575629542,-22.726035825221715,74.02977551413477,81.26871021883308,1.3024895968623196,-17.252342083129367,46.19651425251114,55.024029664386646,-2.8682028322673356,-0.4932939776614806,-0.20302996107999421,-1.6901834260029391,0.12223127822919974,0.3163532380560645,0.4463383733406436,-21.57399182613499,71.77645808781104,78.89318777281157,20.54331600666046,-21.721822023391724,-13.034062087535858,4.207733646035194,-16.619238257408142,-89.85320329666138,1.6056155174820539,-2.8747130697634153,False,0
GUIDED_NOGPS,3.2443161010742188,22.856246049218562,-22.200446197433045,73.50457886744302,80.85674556742502,1.2852999393753475,-16.932604211063367,45.92849731534982,54.19883274042443,-2.9372628749653344,-0.4468802809303052,-0.2776033004595157,-1.9466045162818675,-0.21037705958109598,0.6141399314842465,0.44541853328926384,-20.758943241993865,71.097298309525,78.41543453023866,20.235498249530792,-21.5379536151886,-16.677868366241455,4.381558299064636,-9.785205125808716,-52.51767635345459,1.5905342930336308,-1.858904924840905,False,0
GUIDED_NOGPS,3.268660545349121,41.0884012539185,-21.539319543319493,72.90142737560434,80.43628626731206,1.2732023271509487,-16.61790325770551,45.66421488107922,53.36900045775359,-2.8695827439230897,-0.4786488781422097,-0.2824550292868991,-1.447048265392355,0.4051822303431776,0.5640531027840074,0.4445473608751988,-20.758943241993865,71.097298309525,78.41543453023866,21.006648242473602,-21.96551114320755,-14.735986292362213,-38.452357053756714,-13.93253356218338,169.4861888885498,1.5905342930336308,-1.3731690851045724,False,0
GUIDED_NOGPS,3.312849521636963,22.631055283973797,-21.036155366203158,72.40568614472504,80.16118690547692,1.2444580747113931,-16.308530648530596,45.40394450038601,52.534912765361476,-2.861647558211416,-0.4874313274760825,-0.3006684757606785,-1.9386119073536021,-0.1859387429041196,0.4872047454843499,0.44333144964977267,-19.33510125386397,70.12438344116516,78.08271685835285,23.111137747764587,-22.677943110466003,-10.226213186979294,49.71584677696228,-1.3930700719356537,0.7204361259937286,1.5577373603068692,-2.6695399500683448,False,0
GUIDED_NOGPS,3.3454582691192627,30.671327239488118,-20.0606756801854,71.6586733934339,79.73540337303135,1.1974549763207292,-16.004768068898795,45.14795513256173,51.69695088453044,-2.8541544138050887,-0.4727773700552317,-0.31906276216490465,-1.3391637885790633,0.8540316800030733,0.14255944473083404,0.4424338656202401,-15.414362121005873,68.87364565686084,77.12927927830924,23.111137747764587,-22.677943110466003,-10.226213186979294,49.71584677696228,-1.3930700719356537,0.7204361259937286,1.312464965507612,-2.6695399500683448,False,0
GUIDED_NOGPS,3.3681390285491943,44.09765123956515,-19.525539407704557,71.09982995642339,79.4585685766444,1.1522845560754424,-15.7068870371717,44.89650675290131,50.85549709796398,-2.8555488396128292,-0.47927789587608555,-0.3250709807569887,-1.390577921598655,0.2673319318134452,-0.10718133352573211,0.44125285342253495,-15.580008968572596,68.04141373863837,76.65812474073724,19.198811054229736,-24.61930513381958,-8.362282812595367,-32.805436849594116,-5.654758587479591,93.96876692771912,1.261744961705502,-3.1116269323051817,False,0
GUIDED_NOGPS,3.4027843475341797,28.86929229244387,-18.980081962938492,70.53539236918142,79.18817126077779,1.1065275342686767,-15.415148477828229,44.64984996010144,50.01093453891274,-2.8289915700159387,-0.47013355323790784,-0.3342561177672014,-1.6193575134279041,0.10145349275224272,0.12701296740848766,0.44002495179089884,-14.829637489258637,67.30814391841673,76.52248042620602,19.198811054229736,-24.61930513381958,-8.362282812595367,-32.805436849594116,-5.654758587479591,93.96876692771912,1.194784490764493,-3.1116269323051817,False,0
GUIDED_NOGPS,3.4439024925231934,24.32566420953121,-18.268038990937818,69.85010798260278,78.85537495709487,1.053768648628053,-15.129802294580617,44.408225583658904,49.16364698030072,-2.8214544562668293,-0.4730460953103894,-0.33686492986502886,-1.5097104590294905,0.3070958629727836,0.12548977645753057,0.43889705273182844,-14.829637489258637,67.30814391841673,76.52248042620602,19.198811054229736,-24.61930513381958,-8.362282812595367,-32.805436849594116,-5.654758587479591,93.96876692771912,1.194784490764493,-3.1116269323051817,False,0
GUIDED_NOGPS,3.472623586654663,34.819638380182305,-17.506510731067507,69.03314024809185,78.44655632494883,0.9985009784961038,-14.851086943490504,44.171864291268946,48.31401862385137,-2.8129107433887897,-0.4574687816911175,-0.30544862100390896,-0.9008298381269788,0.7494240872976403,-0.1690079971286378,0.43794605329448155,-16.025109108086156,66.16020676048389,75.65017245538908,19.198811054229736,-24.61930513381958,-8.362282812595367,-32.805436849594116,-5.654758587479591,93.96876692771912,1.285453543804839,-3.1116269323051817,False,0
GUIDED_NOGPS,3.515782594680786,23.17256620056021,-16.838852767876002,68.38369073692274,78.10176894148832,0.9637748921202791,-14.579229006084613,43.940986196223626,47.462433889213585,-2.812657172615853,-0.38712338276868674,-0.25552428708062636,-1.4865533710597847,0.31879140209519613,0.25434781392877437,0.4368273468459015,-15.258002612258876,66.04777434307526,75.46043191101039,27.263933420181274,-26.19146704673767,-10.255364328622818,24.702569842338562,1.3055657967925072,33.496254682540894,1.2310579827809267,-2.3811853715662736,False,0
GUIDED_NOGPS,3.5430634021759033,36.667342728258205,-15.951890906593254,67.55353486072013,77.67039839592144,0.9161338573652953,-14.314442762470943,43.71580046481036,46.60927720308783,-2.886871873703096,-0.3034389445623385,-0.23589317614767258,-0.719546957027232,1.184840301088494,-0.14280805915593908,0.4359153935083736,-15.258002612258876,66.04777434307526,75.46043191101039,27.263933420181274,-26.19146704673767,-10.255364328622818,24.702569842338562,1.3055657967925072,33.496254682540894,1.2310579827809267,-2.3811853715662736,False,0
GUIDED_NOGPS,3.575216054916382,31.103939250118653,-15.507822648217724,66.99014229065334,77.29765166878708,0.883096985066558,-14.056929764454775,43.49650492370998,45.75493278835247,-2.9170186211522395,-0.2197054143713308,-0.18888753413516715,-1.35427323123025,0.18180921603273267,0.11879391156150354,0.4348710762004613,-15.164279006366563,66.07921672372055,74.95628058971094,18.40101033449173,-26.042255759239197,-13.665975630283356,-22.025080025196075,-1.973821222782135,-25.483673810958862,1.2702949780146002,-2.693207836202908,False,0
GUIDED_NOGPS,3.609766721725464,28.94739602744075,-14.990195643338591,66.36675206827731,76.89863342287555,0.8452650022238023,-13.806878408654445,43.28328566739545,44.89978445318954,-2.8328570301993428,-0.16951003399578973,-0.15769077850326613,-1.2548632781542044,0.32201515835560585,0.06914636720696876,0.4338703743790733,-15.164279006366563,66.07921672372055,74.95628058971094,18.40101033449173,-26.042255759239197,-13.665975630283356,-22.025080025196075,-1.973821222782135,-25.483673810958862,1.2702949780146002,-2.693207836202908,False,0
