E-kp,E-ki,E-kd,E-I-Tot,E-P,E-I,E-D,E-PID,N-kp,N-ki,N-kd,N-I-Tot,N-P,N-I,N-D,N-PID,D-kp,D-ki,D-kd,D-I-Tot,D-P,D-I,D-D,D-PID,Y-kp,Y-ki,Y-kd,Y-I-Tot,Y-P,Y-I,Y-D,Y-PID,errorN,desiredN,actualN,errorE,desiredE,actualE,errorD,desiredD,actualD,errorY,desiredY,actualY,roll,pitch,yaw-rate,thrust,dt,Time,Mode
0.16,0.015,0.11,0.0011995697562808742,0.0057578579544507145,1.7993546344213114e-05,0.11875423477045469,0.12453008627124962,0.16,0.015,0.11,0.004432769848715436,0.021277011195086598,6.649154773073154e-05,0.4388324968527208,0.4601759995955381,0.002,8e-05,0,-0.021737904766604838,-0.001304256872288355,-1.739032381328387e-06,-0.0,-0.0013059959046696835,0.2,0.02,0.0,-0.00017100215706588963,-0.001025999243827553,-3.4200431413177928e-06,-0.0,-0.001029419286968871,0.13298131996929125,0.0,-0.13298131996929125,0.03598661221531697,0.0,-0.03598661221531697,-0.6521284361441775,0.0,0.6521284361441775,-0.005129996219137765,0,0.005129996219137765,0.124571287779557,-0.4601648479093339,0.001029419286968871,0.4,0.033333778381347656,0.03363513946533203,STABILIZE
0.16,0.015,0.11,0.00280455509167095,0.007677796971521535,4.2068326375064254e-05,0.07910932669549758,0.08682919199339419,0.16,0.015,0.11,0.008750256106031508,0.020653636005310096,0.00013125384159047262,0.21300949820454035,0.23379438805144093,0.002,8e-05,0,-0.04323651791054396,-0.0012855412386706651,-3.458921432843517e-06,-0.0,-0.0012890001601035086,0.2,0.02,0.0,-0.000473116511360024,-0.0018065372805173786,-9.46233022720048e-06,-0.0,-0.001815999610744579,0.1290852250331881,0.0,-0.1290852250331881,0.04798623107200959,0.0,-0.04798623107200959,-0.6427706193353325,0.0,0.6427706193353325,-0.009032686402586892,0,0.009032686402586892,0.08686604862710422,-0.23378069651382044,0.001815999610744579,0.4,0.0334467887878418,0.06701278686523438,STABILIZE
0.16,0.015,0.11,0.0040817837818759445,0.006089716340762416,6.122675672813916e-05,0.04189447981629273,0.04804542291378329,0.16,0.015,0.11,0.014041510817804284,0.02522824653762449,0.00021062266226706426,0.17324654531948333,0.19868541451937488,0.002,8e-05,0,-0.06464572278570571,-0.0012759655511464987,-5.1716578228564575e-06,-0.0,-0.0012811372089693552,0.2,0.02,0.0,-0.0007761195980668727,-0.0018058657609351016,-1.5522391961337456e-05,-0.0,-0.0018213881528964392,0.15767654086015306,0.0,-0.15767654086015306,0.0380607271297651,0.0,-0.0380607271297651,-0.6379827755732493,0.0,0.6379827755732493,-0.009029328804675508,0,0.009029328804675508,0.04807673345290495,-0.19867784050114506,0.0018213881528964392,0.4,0.03355765342712402,0.10067033767700195,STABILIZE
0.16,0.015,0.11,0.005827775401486216,0.006546699267259969,8.741663102229323e-05,0.03326151717082944,0.0398956330691117,0.16,0.015,0.11,0.01933171530240226,0.01983593588536443,0.0002899757295360339,0.10821550671686574,0.1283414183317662,0.002,8e-05,0,-0.09111588571949995,-0.0012406430988598032,-7.289270857559997e-06,-0.0,-0.0012479323697173633,0.2,0.02,0.0,-0.0007398219344491751,0.00017012530668837926,-1.4796438688983503e-05,-0.0,0.00015532886799939576,0.12397459928352768,0.0,-0.12397459928352768,0.040916870420374805,0.0,-0.040916870420374805,-0.6203215494299016,0.0,0.6203215494299016,0.0008506265334418963,0,-0.0008506265334418963,0.0398937276780234,-0.12834201061751496,-0.00015532886799939576,0.4,0.04267168045043945,0.14324498176574707,STABILIZE
0.16,0.015,0.11,0.0068298976868051975,0.004787897577038518,0.00010244846530207796,0.01938777516923838,0.024278121211578976,0.16,0.015,0.11,0.024459410831641642,0.02449888737123712,0.0003668911624746246,0.10571795082374386,0.1305837293574556,0.002,8e-05,0,-0.1118183069778817,-0.0012363894361241282,-8.945464558230536e-06,-0.0,-0.0012453349006823586,0.2,0.02,0.0,-0.0009140747838558842,-0.0010406723905966176,-1.8281495677117685e-05,-0.0,-0.0010589538862737352,0.153118046070232,0.0,-0.153118046070232,0.029924359856490737,0.0,-0.029924359856490737,-0.618194718062064,0.0,0.618194718062064,-0.0052033619529830875,0,0.0052033619529830875,0.024289980177066055,-0.13058152398200548,0.0010589538862737352,0.4,0.03348851203918457,0.17676520347595215,STABILIZE
0.16,0.015,0.11,0.007458892658544057,0.003012262669581104,0.00011188338987816086,-0.011670794428643978,-0.008546648369184713,0.16,0.015,0.11,0.030558053798836072,0.02920645692031082,0.00045837080698254106,0.03732571158207358,0.06699053930936694,0.002,8e-05,0,-0.13240575698616253,-0.001232418578609049,-1.0592460558893002e-05,0.0,-0.001243011039167942,0.2,0.02,0.0,-0.0012964341284216882,-0.0022889029955537737,-2.5928682568433764e-05,-0.0,-0.0023148316781222075,0.1825403557519426,0.0,-0.1825403557519426,0.0188266416848819,0.0,-0.0188266416848819,-0.6162092893045245,0.0,0.6162092893045245,-0.011444514977768869,0,0.011444514977768869,-0.008533267209164905,-0.066992245118695,0.0023148316781222075,0.4,0.033409833908081055,0.21020174026489258,STABILIZE
0.16,0.015,0.11,0.008168369200266352,0.0033826509193082884,0.0001225255380039953,-0.018046072073065085,-0.014540895615752801,0.16,0.015,0.11,0.03636936488914403,0.027707239980474353,0.0005455404733371604,0.03374561220472405,0.061998392658535566,0.002,8e-05,0,-0.15300576812482589,-0.001227712308267478,-1.2240461449986071e-05,0.0,-0.001239952769717464,0.2,0.02,0.0,-0.0018111350681064915,-0.003067496781794804,-3.622270136212983e-05,-0.0,-0.0031037194831569337,0.1731702498779647,0.0,-0.1731702498779647,0.0211415682456768,0.0,-0.0211415682456768,-0.613856154133739,0.0,0.613856154133739,-0.01533748390897402,0,0.01533748390897402,-0.014524298770458534,-0.06200228288358931,0.0031037194831569337,0.4,0.03355836868286133,0.2437455654144287,STABILIZE
0.16,0.015,0.11,0.008683586315096796,0.002459673848589926,0.00013025379472645193,-0.015325729026393616,-0.012735801383077238,0.16,0.015,0.11,0.042303658913060184,0.02833063460105299,0.0006345548836959028,0.017559086562171283,0.04652427604692018,0.002,8e-05,0,-0.17349530755227413,-0.0012227268574902743,-1.387962460418193e-05,0.0,-0.0012366064820944563,0.2,0.02,0.0,-0.002039030471756915,-0.0013599809391941177,-4.07806094351383e-05,0.0,-0.0014007615486292559,0.17706646625658118,0.0,-0.17706646625658118,0.015372961553687036,0.0,-0.015372961553687036,-0.6113634287451372,0.0,0.6113634287451372,-0.006799904695970588,0,0.006799904695970588,-0.012730279758550579,-0.046525787213418116,0.0014007615486292559,0.4,0.03351449966430664,0.277254581451416,STABILIZE
0.16,0.015,0.11,0.008912949796644563,0.001096975590079223,0.00013369424694966843,-0.02239911991371786,-0.02116845007668897,0.16,0.015,0.11,0.049091840203978755,0.03246580112457589,0.0007363776030596813,0.05193067443779086,0.08513285316542643,0.002,8e-05,0,-0.19392995333043817,-0.0012216584926300147,-1.5514396266435055e-05,0.0,-0.0012371728888964499,0.2,0.02,0.0,-0.0024824089249578184,-0.0026506799221391168,-4.964817849915637e-05,-0.0,-0.002700328100638273,0.20291125702859927,0.0,-0.20291125702859927,0.006856097437995143,0.0,-0.006856097437995143,-0.6108292463150073,0.0,0.6108292463150073,-0.013253399610695583,0,0.013253399610695583,-0.021148756965420436,-0.08513774747756081,0.002700328100638273,0.4,0.033453941345214844,0.3107168674468994,STABILIZE
0.16,0.015,0.11,0.008987182489821601,0.0003552551352634054,0.000134807737347324,-0.018228160902415025,-0.017738098029804295,0.16,0.015,0.11,0.05504607929448869,0.028495180801873715,0.0008256911894173303,0.016455127514768377,0.04577599950605942,0.002,8e-05,0,-0.21419831759841265,-0.0012124779833217684,-1.7135865407873012e-05,0.0,-0.0012296138487296413,0.2,0.02,0.0,-0.002425338027270964,0.00034140498966192745,-4.8506760545419285e-05,0.0,0.0002928982291165082,0.17809488001171073,0.0,-0.17809488001171073,0.002220344595396284,0.0,-0.002220344595396284,-0.6062389916608842,0.0,0.6062389916608842,0.001707024948309637,0,-0.001707024948309637,-0.017739461835703844,-0.04577547101093888,-0.0002928982291165082,0.4,0.033432960510253906,0.3441593647003174,STABILIZE
0.16,0.015,0.11,0.008967861088759299,-9.244196885748544e-05,0.00013451791633138947,-0.01276119996865723,-0.012719124021183326,0.16,0.015,0.11,0.06181817853102783,0.03240066207959282,0.0009272726779654173,0.013138734030788624,0.04646666878834686,0.002,8e-05,0,-0.23488859392411537,-0.00123739077822693,-1.8791087513929233e-05,-0.0,-0.0012561818657408593,0.2,0.02,0.0,-0.002756296293659044,-0.0019793099925777455,-5.5125925873180877e-05,0.0,-0.0020344359184509262,0.20250413799745515,0.0,-0.20250413799745515,-0.000577762305359284,0.0,0.000577762305359284,-0.618695389113465,0.0,0.618695389113465,-0.009896549962888728,0,0.009896549962888728,-0.012711097765463229,-0.046468865036161655,0.0020344359184509262,0.4,0.033441781997680664,0.37757396697998047,STABILIZE
0.16,0.015,0.11,0.008816083380326781,-0.0007262895276329154,0.0001322412507049017,-0.016885375662188704,-0.01747942393911672,0.16,0.015,0.11,0.06876616928317951,0.03324765522877635,0.0010314925392476927,0.022764621149773626,0.057043768917797666,0.002,8e-05,0,-0.2552740701788698,-0.0012193620256017701,-2.0421925614309588e-05,0.0,-0.0012397839512160798,0.2,0.02,0.0,-0.003102840177226491,-0.002072860337163584,-6.205680354452981e-05,0.0,-0.002134917140708114,0.2077978451798522,0.0,-0.2077978451798522,-0.004539309547705721,0.0,0.004539309547705721,-0.609681012800885,0.0,0.609681012800885,-0.010364301685817921,0,0.010364301685817921,-0.017469104938005867,-0.057046929858279,0.002134917140708114,0.4,0.03343629837036133,0.41103458404541016,STABILIZE
0.16,0.015,0.11,0.008583913130680665,-0.0010302639495038879,0.00012875869696020995,-0.014257884780208504,-0.015159390032752181,0.16,0.015,0.11,0.07534576327329412,0.02919718827334646,0.0011301864490994118,0.004760531141651955,0.035087905864097824,0.002,8e-05,0,-0.2770958944598604,-0.001210439262964435,-2.2167671556788833e-05,0.0,-0.0012326069345212239,0.2,0.02,0.0,-0.003222068899547817,-0.0006613522541125803,-6.444137799095634e-05,0.0,-0.0007257936321035366,0.18248242670841536,0.0,-0.18248242670841536,-0.006439149684399299,0.0,0.006439149684399299,-0.6052196314822175,0.0,0.6052196314822175,-0.003306761270562901,0,0.003306761270562901,-0.015157364948607194,-0.03508878071275249,0.0007257936321035366,0.4,0.0360560417175293,0.4470672607421875,STABILIZE
0.16,0.015,0.11,0.008561020980901122,-0.00010368267302578338,0.00012841531471351683,-0.005050520524611418,-0.005025787882923684,0.16,0.015,0.11,0.08210671980905694,0.03062159092045748,0.001231600797135854,-0.006691383356389774,0.02516180836120356,0.002,8e-05,0,-0.29822674100829555,-0.0011963176648645177,-2.3858139280663647e-05,0.0,-0.0012201758041451814,0.2,0.02,0.0,-0.003672335469225396,-0.0025491730772287894,-7.344670938450792e-05,0.0,-0.002622619786613297,0.19138494325285926,0.0,-0.19138494325285926,-0.0006480167064111461,0.0,0.0006480167064111461,-0.5981588324322589,0.0,0.5981588324322589,-0.012745865386143945,0,0.012745865386143945,-0.005020190330234614,-0.025162925761888163,0.002622619786613297,0.4,0.035326480865478516,0.4825131893157959,STABILIZE
0.16,0.015,0.11,0.008533338931692187,-0.00013289867764577467,0.0001280000839753828,-0.00212057951863235,-0.0021254781123027423,0.16,0.015,0.11,0.0891730670475363,0.03392480797543976,0.0013375960057130445,0.02326693587560139,0.058529339856754195,0.002,8e-05,0,-0.31792228993639887,-0.0011819538666991863,-2.543378319491191e-05,0.0,-0.0012073876498940983,0.2,0.02,0.0,-0.0042529318640075866,-0.0034842296414761644,-8.505863728015173e-05,-0.0,-0.003569288278756316,0.21203004984649848,0.0,-0.21203004984649848,-0.0008306167352860917,0.0,0.0008306167352860917,-0.5909769333495931,0.0,0.5909769333495931,-0.01742114820738082,0,0.01742114820738082,-0.002107681794207066,-0.058529983416430946,0.003569288278756316,0.4,0.03332710266113281,0.5158042907714844,STABILIZE
0.16,0.015,0.11,0.008584670826800193,0.00024336454734478555,0.0001287700624020029,0.0012531904787501731,0.0016253250884969614,0.16,0.015,0.11,0.0953921838736371,0.029484836826768605,0.0014308827581045564,-0.01088069377144005,0.02003502581343311,0.002,8e-05,0,-0.3376996124123433,-0.0011720537304153117,-2.7015968992987467e-05,0.0,-0.0011990696994082992,0.2,0.02,0.0,-0.004714153140184139,-0.0027333129545071243,-9.428306280368278e-05,-0.0,-0.0028275960173108072,0.18428023016730377,0.0,-0.18428023016730377,0.0015210284209049097,0.0,-0.0015210284209049097,-0.5860268652076559,0.0,0.5860268652076559,-0.013666564772535621,0,0.013666564772535621,0.001630103927856169,-0.020034637560300824,0.0028275960173108072,0.4,0.03374814987182617,0.549494743347168,STABILIZE
0.16,0.015,0.11,0.008637100693600684,0.000249080334181807,0.00012955651040401025,0.003883095716933669,0.004261732561519486,0.16,0.015,0.11,0.10157988029929313,0.029396097826889202,0.001523698204489397,-0.01472607274563908,0.016193723285739522,0.002,8e-05,0,-0.3574021584735929,-0.0011700193650698478,-2.8592172677887434e-05,0.0,-0.0011986115377477353,0.2,0.02,0.0,-0.005117485725344772,-0.0023951571220013914,-0.00010234971450689544,-0.0,-0.0024975068365082867,0.18372561141805752,0.0,-0.18372561141805752,0.0015567520886362938,0.0,-0.0015567520886362938,-0.5850096825349239,0.0,0.5850096825349239,-0.011975785610006956,0,0.011975785610006956,0.00426511723007054,-0.016192832157926336,0.0024975068365082867,0.4,0.03367900848388672,0.5831692218780518,STABILIZE
0.16,0.015,0.11,0.008580556500223456,-0.0002705936964439214,0.00012870834750335183,0.002905113302286586,0.0027632279533460163,0.16,0.015,0.11,0.10817297225861139,0.031551411696061724,0.0016225945838791707,0.009584275267884709,0.042758281547825606,0.002,8e-05,0,-0.37707255439480913,-0.001176664840571632,-3.0165804351584734e-05,0.0,-0.0012068306449232167,0.2,0.02,0.0,-0.0057150836316966205,-0.0035747752511936337,-0.00011430167263393241,-0.0,-0.003689076923827566,0.19719632310038576,0.0,-0.19719632310038576,-0.0016912106027745085,0.0,0.0016912106027745085,-0.588332420285816,0.0,0.588332420285816,-0.017873876255968167,0,0.017873876255968167,0.0027765666062740902,-0.042757417456228575,0.003689076923827566,0.4,0.033434152603149414,0.6166081428527832,STABILIZE
0.16,0.015,0.11,0.008415191455460715,-0.0007859279825595028,0.00012622787183191072,-0.002806185706211808,-0.0034658858169394,0.16,0.015,0.11,0.1152659934861297,0.03371089622715256,0.0017289899022919456,0.012860190056149525,0.048300076185594024,0.002,8e-05,0,-0.39699532486088634,-0.001183583176682335,-3.175962598887091e-05,0.0,-0.0012153428026712059,0.2,0.02,0.0,-0.006516022337545477,-0.0047582618060603675,-0.00013032044675090953,-0.0,-0.004888582252811277,0.21069310141970346,0.0,-0.21069310141970346,-0.0049120498909968925,0.0,0.0049120498909968925,-0.5917915883411675,0.0,0.5917915883411675,-0.023791309030301837,0,0.023791309030301837,-0.003445829555636271,-0.04830151118447281,0.004888582252811277,0.4,0.03366518020629883,0.6502664089202881,STABILIZE
0.16,0.015,0.11,0.00844157219274929,0.00012426344570216338,0.00012662358289123934,0.0009987965015049683,0.0012496835300983711,0.16,0.015,0.11,0.12129161632561984,0.028383007205070348,0.0018193742448842976,-0.02233535664649977,0.007867024803454876,0.002,8e-05,0,-0.41692009560674176,-0.00117316692129465,-3.3353607648539346e-05,0.0,-0.0012065205289431894,0.2,0.02,0.0,-0.007225007950675836,-0.004174494550565201,-0.00014450015901351673,-0.0,-0.0043189947095787174,0.17739379503168967,0.0,-0.17739379503168967,0.0007766465356385211,0.0,-0.0007766465356385211,-0.5865834606473249,0.0,0.5865834606473249,-0.020872472752826002,0,0.020872472752826002,0.0012525493521101834,-0.007866569030022029,0.0043189947095787174,0.4,0.03396749496459961,0.6844644546508789,STABILIZE
0.16,0.015,0.11,0.008435422618266032,-2.6747398287330932e-05,0.00012653133927399048,-0.0010986641923907354,-0.000998880251404076,0.16,0.015,0.11,0.1283911937602581,0.03087940894658231,0.0019258679064038714,0.005085524131547809,0.03789080098453399,0.002,8e-05,0,-0.43843372634491234,-0.0011696615178963495,-3.507469810759299e-05,0.0,-0.0012047362160039425,0.2,0.02,0.0,-0.008428180467042929,-0.006541455549333167,-0.00016856360934085858,-0.0,-0.0067100191586740255,0.19299630591613942,0.0,-0.19299630591613942,-0.00016717123929581832,0.0,0.00016717123929581832,-0.5848307589481747,0.0,0.5848307589481747,-0.03270727774666583,0,0.03270727774666583,-0.000977250137980639,-0.037891365021255494,0.0067100191586740255,0.4,0.03678607940673828,0.7210268974304199,STABILIZE
0.16,0.015,0.11,0.008394305598966046,-0.00018446354981670285,0.0001259145839844907,-0.0017300617624889415,-0.0017886107283211538,0.16,0.015,0.11,0.13586501613597202,0.03352985769871129,0.0020379752420395802,0.015666407586406833,0.05123424052715771,0.002,8e-05,0,-0.45933382880031326,-0.0011720533115277872,-3.674670630402506e-05,-0.0,-0.0012088000178318123,0.2,0.02,0.0,-0.010024574940860778,-0.008952393575751874,-0.00020049149881721555,-0.0,-0.00915288507456909,0.20956161061694556,0.0,-0.20956161061694556,-0.0011528971863543928,0.0,0.0011528971863543928,-0.5860266557638936,0.0,0.5860266557638936,-0.04476196787875937,0,0.04476196787875937,-0.0017485837579433302,-0.051235622232715904,0.00915288507456909,0.4,0.03566408157348633,0.7567083835601807,STABILIZE
0.16,0.015,0.11,0.008270432587519139,-0.0005923413028595363,0.0001240564888127871,-0.0012690018575633954,-0.0017372866716101444,0.16,0.015,0.11,0.1423937132975139,0.031219205357743016,0.0021359056994627087,-0.0026928390951044827,0.030662271962101244,0.002,8e-05,0,-0.4789260998492793,-0.0011710895722527614,-3.831408798794235e-05,0.0,-0.0012094036602407036,0.2,0.02,0.0,-0.011397792979486563,-0.00820814147295557,-0.00022795585958973127,-0.0,-0.0084360973325453,0.19512003348589385,0.0,-0.19512003348589385,-0.003702133142872102,0.0,0.003702133142872102,-0.5855447861263807,0.0,0.5855447861263807,-0.04104070736477784,0,0.04104070736477784,-0.0017153229812726634,-0.030663508506482626,0.0084360973325453,0.4,0.03345990180969238,0.7901690006256104,STABILIZE
0.16,0.015,0.11,0.008134140567468258,-0.0006514021435556921,0.00012201210851202387,0.0005932145266994882,6.382449165581987e-05,0.16,0.015,0.11,0.14958942825818275,0.03439162577563655,0.002243841423872741,0.0015173283114591407,0.03815279551096843,0.002,8e-05,0,-0.49891611418418325,-0.0011942682138143723,-3.9913289134734664e-05,-0.0,-0.001234181502949107,0.2,0.02,0.0,-0.013091726872812131,-0.010120109826881092,-0.0002618345374562426,-0.0,-0.010381944364337335,0.21494766109772845,0.0,-0.21494766109772845,-0.004071263397223076,0.0,0.004071263397223076,-0.5971341069071862,0.0,0.5971341069071862,-0.050600549134405454,0,0.050600549134405454,9.751895821574985e-05,-0.03815272426603763,0.010381944364337335,0.4,0.03347659111022949,0.8236517906188965,STABILIZE
0.16,0.015,0.11,0.008071571972198903,-0.0002996330217720218,0.00012107357958298353,-0.001643545381247669,-0.0018221048234367072,0.16,0.015,0.11,0.15598228305610093,0.030614566182983506,0.002339734245841514,0.007540305485636204,0.040494605914461225,0.002,8e-05,0,-0.5185703233877301,-0.0011765187608987558,-4.1485625871018416e-05,-0.0,-0.0012180043867697742,0.2,0.02,0.0,-0.014501258913615271,-0.008437586437176686,-0.00029002517827230546,-0.0,-0.008727611615448992,0.1913410386436469,0.0,-0.1913410386436469,-0.0018727063860751363,0.0,0.0018727063860751363,-0.5882593804493779,0.0,0.5882593804493779,-0.04218793218588343,0,0.04218793218588343,-0.001792287411943892,-0.0404959365861329,0.008727611615448992,0.4,0.03341078758239746,0.8570547103881836,STABILIZE
0.16,0.015,0.11,0.00797752172285635,-0.0004496117932379751,0.00011966282584284526,-0.0016952483622429831,-0.002025197329638113,0.16,0.015,0.11,0.16280339112867287,0.03260863903942421,0.002442050866930093,0.006401405325856168,0.04145209523221047,0.002,8e-05,0,-0.5382592408946143,-0.0011765478519549827,-4.306073927156915e-05,-0.0,-0.001219608591226552,0.2,0.02,0.0,-0.015948926296169643,-0.008650805452834592,-0.00031897852592339287,-0.0,-0.008969783978757985,0.2038039939964013,0.0,-0.2038039939964013,-0.002810073707737344,0.0,0.002810073707737344,-0.5882739259774913,0.0,0.5882739259774913,-0.043254027264172955,0,0.043254027264172955,-0.001993903524628265,-0.04145361229252155,0.008969783978757985,0.4,0.03346896171569824,0.8905344009399414,STABILIZE
0.16,0.015,0.11,0.007852493133977184,-0.0005977989389345716,0.00011778739700965775,-0.0016960767209735915,-0.0021760882628985056,0.16,0.015,0.11,0.1700421537924064,0.034610681271954435,0.0025506323068860957,0.004409060474645054,0.041570374053485584,0.002,8e-05,0,-0.5579508817392289,-0.0011768950314003626,-4.4636070539138316e-05,-0.0,-0.001221531101939501,0.2,0.02,0.0,-0.017430677550836843,-0.008855867843364652,-0.00034861355101673685,0.0,-0.009204481394381389,0.21631675794971522,0.0,-0.21631675794971522,-0.0037362433683410723,0.0,0.0037362433683410723,-0.5884475157001813,0.0,0.5884475157001813,-0.04427933921682326,0,0.04427933921682326,-0.0021439611889789885,-0.04157204336443884,0.009204481394381389,0.4,0.03346371650695801,0.9239909648895264,STABILIZE
0.16,0.015,0.11,0.007525038631859087,-0.0015673884572852787,0.00011287557947788631,-0.0040083232942825855,-0.005462836172089978,0.16,0.015,0.11,0.17712144921249387,0.03388564168574443,0.002656821738187408,0.01092201788789557,0.04746448131182741,0.002,8e-05,0,-0.5775800785037997,-0.0011744599721320128,-4.620640628030398e-05,-0.0,-0.0012206663784123167,0.2,0.02,0.0,-0.01879001404341385,-0.00813322276167487,-0.000375800280868277,0.0,-0.008509023042543147,0.21178526053590266,0.0,-0.21178526053590266,-0.009796177858032992,0.0,0.009796177858032992,-0.5872299860660064,0.0,0.5872299860660064,-0.04066611380837435,0,0.04066611380837435,-0.0054291465235614,-0.047468346645629114,0.008509023042543147,0.4,0.033426761627197266,0.9574213027954102,STABILIZE
0.16,0.015,0.11,0.007312917715895161,-0.00101468321080165,0.00010969376573842741,-0.0014936616405805455,-0.002398651085643768,0.16,0.015,0.11,0.18360604394279972,0.03101914477313117,0.0027540906591419956,-0.013891902225137736,0.01988133320713543,0.002,8e-05,0,-0.5970293503684979,-0.0011629481193395394,-4.7762348029479836e-05,0.0,-0.0012107104673690192,0.2,0.02,0.0,-0.02020190388075185,-0.008442242169626381,-0.000404038077615037,0.0,-0.008846280247241418,0.1938696548320698,0.0,-0.1938696548320698,-0.006341770067510312,0.0,0.006341770067510312,-0.5814740596697696,0.0,0.5814740596697696,-0.042211210848131904,0,0.042211210848131904,-0.002384003368554757,-0.019883094956835205,0.008846280247241418,0.4,0.033448219299316406,0.9908697605133057,STABILIZE
0.16,0.015,0.11,0.007062168784695225,-0.0011994437340186956,0.00010593253177042838,-0.0037008539772887404,-0.004794365179537008,0.16,0.015,0.11,0.19017489334278012,0.03142173015380315,0.0028526234001417018,0.003307286693728423,0.03758164024767328,0.002,8e-05,0,-0.6165416687399122,-0.0011667012843670642,-4.9323333499192985e-05,0.0,-0.0012160246178662573,0.2,0.02,0.0,-0.02146882191806442,-0.007575291019676193,-0.0004293764383612884,0.0,-0.008004667458037481,0.1963858134612697,0.0,-0.1963858134612697,-0.0074965233376168465,0.0,0.0074965233376168465,-0.583350642183532,0.0,0.583350642183532,-0.03787645509838096,0,0.03787645509838096,-0.004769520082032378,-0.03758480144110626,0.008004667458037481,0.4,0.03344869613647461,1.0243711471557617,STABILIZE
0.16,0.015,0.11,0.00669269652234338,-0.001760211255329101,0.0001003904478351507,-0.005380575082750945,-0.007040395890244896,0.16,0.015,0.11,0.19662912397129706,0.030748747753049217,0.0029494368595694557,-0.007640233994306577,0.026057950618312092,0.002,8e-05,0,-0.6357025220746509,-0.00114105824503678,-5.085620176597208e-05,0.0,-0.0011919144468027522,0.2,0.02,0.0,-0.02285840534603071,-0.008275182738196291,-0.0004571681069206142,0.0,-0.008732350845116905,0.1921796734565576,0.0,-0.1921796734565576,-0.011001320345806882,0.0,0.011001320345806882,-0.57052912251839,0.0,0.57052912251839,-0.04137591369098145,0,0.04137591369098145,-0.007021576413264819,-0.026063028016530463,0.008732350845116905,0.4,0.0335843563079834,1.0578908920288086,STABILIZE
0.16,0.015,0.11,0.006376491652159989,-0.001511406668751769,9.564737478239983e-05,-0.0037496777626186825,-0.005165437056588052,0.16,0.015,0.11,0.20247086421575938,0.027922546409469225,0.0030370629632363905,-0.02747558238083066,0.003484026991874955,0.002,8e-05,0,-0.6546658346542524,-0.0011330184872631465,-5.23732667723402e-05,0.0,-0.0011853917540354867,0.2,0.02,0.0,-0.024088660821850585,-0.007350520602924803,-0.0004817732164370117,0.0,-0.007832293819361815,0.17451591505918265,0.0,-0.17451591505918265,-0.009446291679698557,0.0,0.009446291679698557,-0.5665092436315732,0.0,0.5665092436315732,-0.03675260301462401,0,0.03675260301462401,-0.005163201151237221,-0.0034873396647801497,0.007832293819361815,0.4,0.033473968505859375,1.091383934020996,STABILIZE
0.16,0.015,0.11,0.00605180990652065,-0.001553761791818887,9.077714859780975e-05,6.451338497788011e-05,-0.001398471258243197,0.16,0.015,0.11,0.2082297180688445,0.027558947189880088,0.0031234457710326673,-0.025988466778649494,0.004693926182263261,0.002,8e-05,0,-0.6737197018610213,-0.0011397765369428148,-5.3897576148881705e-05,0.0,-0.0011936741130916964,0.2,0.02,0.0,-0.02528966454780502,-0.007184241670045198,-0.0005057932909561004,0.0,-0.007690034961001299,0.17224341993675055,0.0,-0.17224341993675055,-0.009711011198868044,0.0,0.009711011198868044,-0.5698882684714074,0.0,0.5698882684714074,-0.03592120835022599,0,0.03592120835022599,-0.0013955281577576028,-0.004694802021978619,0.007690034961001299,0.4,0.033434391021728516,1.1248140335083008,STABILIZE
0.16,0.015,0.11,0.005713577826951054,-0.0016185721762639854,8.570366740426581e-05,-0.0024740939320336223,-0.004006962440893342,0.16,0.015,0.11,0.21386433548282938,0.026963837912044875,0.0032079650322424406,-0.01665213395964292,0.013519668984644396,0.002,8e-05,0,-0.6926256305475265,-0.001130902861777185,-5.541005044380212e-05,0.0,-0.0011863129122209872,0.2,0.02,0.0,-0.02655211016299052,-0.007551617181706702,-0.0005310422032598105,0.0,-0.008082659384966513,0.16852398695028045,0.0,-0.16852398695028045,-0.010116076101649909,0.0,0.010116076101649909,-0.5654514308885925,0.0,0.5654514308885925,-0.03775808590853351,0,0.03775808590853351,-0.003998052070140645,-0.013522306648701975,0.008082659384966513,0.4,0.03343510627746582,1.1582508087158203,STABILIZE
0.16,0.015,0.11,0.00538655372842664,-0.0015650380631969019,8.079830592639959e-05,-0.0014944151765197487,-0.0029786549337902507,0.16,0.015,0.11,0.21918378794725624,0.025457284707026212,0.0032877568192088433,-0.024503084340766233,0.004241957185468822,0.002,8e-05,0,-0.7115027306407452,-0.0011292508832670776,-5.692021845125962e-05,0.0,-0.0011861711017183373,0.2,0.02,0.0,-0.02756047258760157,-0.006032145578623137,-0.0005512094517520314,0.0,-0.0065833550303751685,0.15910802941891383,0.0,-0.15910802941891383,-0.009781487894980637,0.0,0.009781487894980637,-0.5646254416335388,0.0,0.5646254416335388,-0.030160727893115684,0,0.030160727893115684,-0.0029764215379410198,-0.00424352457356198,0.0065833550303751685,0.4,0.033432960510253906,1.1916923522949219,STABILIZE
0.16,0.015,0.11,0.005084386925812952,-0.0014449039390857224,7.626580388719428e-05,0.0012951365357931437,-7.350159940538439e-05,0.16,0.015,0.11,0.22437267782150475,0.024812280349568994,0.003365590167322571,-0.02439834096601115,0.0037795295508804144,0.002,8e-05,0,-0.730167234283353,-0.0011156261459321407,-5.841337874266824e-05,0.0,-0.001174039524674809,0.2,0.02,0.0,-0.02852138910152918,-0.005743649054499193,-0.0005704277820305836,0.0,-0.006314076836529777,0.1550767521848062,0.0,-0.1550767521848062,-0.009030649619285765,0.0,0.009030649619285765,-0.5578130729660703,0.0,0.5578130729660703,-0.028718245272495963,0,0.028718245272495963,-7.160718445825098e-05,-0.003779565917169248,0.006314076836529777,0.4,0.033460140228271484,1.2251553535461426,STABILIZE
0.16,0.015,0.11,0.004812732348713563,-0.0012938008366954138,7.219098523070344e-05,0.0008915822310402888,-0.00033002762042442157,0.16,0.015,0.11,0.22921505491795394,0.023062639348382864,0.003438225823769309,-0.01995037820480155,0.006550486967350624,0.002,8e-05,0,-0.7489831483606348,-0.0011201746366797667,-5.9918651868850794e-05,0.0,-0.0011800932885486174,0.2,0.02,0.0,-0.02935919015700606,-0.004987711407876051,-0.0005871838031401213,0.0,-0.005574895211016172,0.1441414959273929,0.0,-0.1441414959273929,-0.008086255229346336,0.0,0.008086255229346336,-0.5600873183398833,0.0,0.5600873183398833,-0.024938557039380256,0,0.024938557039380256,-0.00032717642474673706,-0.0065506299946465705,0.005574895211016172,0.4,0.033594608306884766,1.2587401866912842,STABILIZE
0.16,0.015,0.11,0.0045036691505391194,-0.001477070776297636,6.755503725808679e-05,0.0003130585447328847,-0.0010964571943066646,0.16,0.015,0.11,0.23389795305932187,0.022380445274137694,0.003508469295889828,-0.02125691344644207,0.004632001123585451,0.002,8e-05,0,-0.7675291679951108,-0.0011079361672845036,-6.140233343960887e-05,0.0,-0.0011693385007241126,0.2,0.02,0.0,-0.03008274824832109,-0.004322524155043104,-0.0006016549649664218,0.0,-0.004924179120009526,0.1398777829633606,0.0,-0.1398777829633606,-0.009231692351860225,0.0,0.009231692351860225,-0.5539680836422518,0.0,0.5539680836422518,-0.021612620775215516,0,0.021612620775215516,-0.0010947098727475653,-0.004632414390180647,0.004924179120009526,0.4,0.033478498458862305,1.292313575744629,STABILIZE
0.16,0.015,0.11,0.004210599574035113,-0.0014021220754362994,6.315899361052668e-05,0.0008877374347895109,-0.0004512256470362617,0.16,0.015,0.11,0.2389189267526763,0.024021661134590522,0.0035837839012901446,-0.012061739566212148,0.015543705469668517,0.002,8e-05,0,-0.7862758651535314,-0.0011211142350944891,-6.290206921228251e-05,0.0,-0.0011840163043067716,0.2,0.02,0.0,-0.030797730849314538,-0.004275831444039679,-0.0006159546169862908,0.0,-0.004891786061025969,0.15013538209119076,0.0,-0.15013538209119076,-0.00876326297147687,0.0,0.00876326297147687,-0.5605571175472446,0.0,0.5605571175472446,-0.021379157220198394,0,0.021379157220198394,-0.00044542568903018837,-0.015543872756423936,0.004891786061025969,0.4,0.03344297409057617,1.3256793022155762,STABILIZE
0.16,0.015,0.11,0.00391824911833076,-0.0013039636693186491,5.8773736774961395e-05,0.0010438132992918467,-0.000201376633251841,0.16,0.015,0.11,0.24464478550366361,0.02553890935093388,0.003669671782554954,-5.003876443274102e-05,0.029158542369056094,0.002,8e-05,0,-0.8064264645146743,-0.001123465389279986,-6.451411716117395e-05,0.0,-0.0011879795064411599,0.2,0.02,0.0,-0.03155937578265032,-0.004246433102001234,-0.0006311875156530064,0.0,-0.00487762061765424,0.15961818344333675,0.0,-0.15961818344333675,-0.008149772933241557,0.0,0.008149772933241557,-0.561732694639993,0.0,0.561732694639993,-0.021232165510006167,0,0.021232165510006167,-0.00019057130376822474,-0.029158614991364715,0.00487762061765424,0.4,0.03587222099304199,1.3615317344665527,STABILIZE
0.16,0.015,0.11,0.0035667446331803074,-0.0014606233244180637,5.350116949770461e-05,-9.293839385372295e-06,-0.0014164159943057314,0.16,0.015,0.11,0.2502986939844544,0.023493955127296306,0.003754480409766816,-0.004702014398559415,0.022546421138503706,0.002,8e-05,0,-0.8278310322762172,-0.0011117927452694812,-6.622648258209738e-05,0.0,-0.0011780192278515785,0.2,0.02,0.0,-0.03228898820194138,-0.003789741533971701,-0.0006457797640388276,0.0,-0.004435521298010529,0.14683721954560192,0.0,-0.14683721954560192,-0.009128895777612897,0.0,0.009128895777612897,-0.5558963726347406,0.0,0.5558963726347406,-0.018948707669858504,0,0.018948707669858504,-0.0014089594246054686,-0.02254688833882643,0.004435521298010529,0.4,0.038504600524902344,1.4000623226165771,STABILIZE
0.16,0.015,0.11,0.0032285199558258304,-0.0016178330321191666,4.8427799337387454e-05,-0.001273981561139822,-0.002843386793921601,0.16,0.015,0.11,0.2551309875106141,0.023114351527115894,0.003826964812659211,0.0008987041696013331,0.027840020509376437,0.002,8e-05,0,-0.8461181447039877,-0.0010934112931652287,-6.768945157631902e-05,0.0,-0.0011611007447415477,0.2,0.02,0.0,-0.03296116251773066,-0.004019021541878369,-0.0006592232503546132,0.0,-0.004678244792232982,0.14446469704447434,0.0,-0.14446469704447434,-0.010111456450744792,0.0,0.010111456450744792,-0.5467056465826143,0.0,0.5467056465826143,-0.020095107709391845,0,0.020095107709391845,-0.002833622405969009,-0.027841016046163597,0.004678244792232982,0.4,0.033449649810791016,1.4335062503814697,STABILIZE
0.16,0.015,0.11,0.002937490289160842,-0.0013920053540252037,4.406235433741263e-05,0.0004069758653491116,-0.0009409671343386795,0.16,0.015,0.11,0.2597557954417535,0.022120622530537246,0.003896336931626302,-0.0003840922353433462,0.0256328672268202,0.002,8e-05,0,-0.8642884053943293,-0.0010863626230459475,-6.914307243154634e-05,0.0,-0.0011555056954774938,0.2,0.02,0.0,-0.03363757592658267,-0.0040441370524448034,-0.0006727515185316533,0.0,-0.004716888570976457,0.1382538908158578,0.0,-0.1382538908158578,-0.008700033462657523,0.0,0.008700033462657523,-0.5431813115229738,0.0,0.5431813115229738,-0.020220685262224015,0,0.020220685262224015,-0.000931920787614919,-0.02563319771431785,0.004716888570976457,0.4,0.03345155715942383,1.466963768005371,STABILIZE
0.16,0.015,0.11,0.002707473578789322,-0.001091874695596028,4.061210368183983e-05,0.0013231785966865463,0.00027191600477235794,0.16,0.015,0.11,0.2641315304381576,0.020771335741175973,0.003961972956572364,-0.012636191040828006,0.012097117656920332,0.002,8e-05,0,-0.8826359190930081,-0.0010886810083456306,-7.061087352744065e-05,0.0,-0.0011592918818730713,0.2,0.02,0.0,-0.03421673896657931,-0.0034365626467714443,-0.0006843347793315862,0.0,-0.0041208974261030306,0.12982084838234983,0.0,-0.12982084838234983,-0.006824216847475175,0.0,0.006824216847475175,-0.5443405041728153,0.0,0.5443405041728153,-0.01718281323385722,0,0.01718281323385722,0.0002755438777399074,-0.012097035566223035,0.0041208974261030306,0.4,0.033705949783325195,1.500702142715454,STABILIZE
0.16,0.015,0.11,0.002540971652093952,-0.0007956474945411129,3.811457478140928e-05,0.0021634240863343344,0.0014058911665746306,0.16,0.015,0.11,0.26821991641214415,0.019536795288086318,0.004023298746182162,-0.023521662851438183,3.8431182830298005e-05,0.002,8e-05,0,-0.9010798153552004,-0.0011017019548847662,-7.208638522841603e-05,0.0,-0.0011737883401131822,0.2,0.02,0.0,-0.03468935917921489,-0.002823083608673338,-0.0006937871835842978,0.0,-0.003516870792257636,0.12210497055053948,0.0,-0.12210497055053948,-0.004972796840881956,0.0,0.004972796840881956,-0.5508509774423831,0.0,0.5508509774423831,-0.01411541804336669,0,0.01411541804336669,0.0014059005918364953,-3.808482558846533e-05,0.003516870792257636,0.4,0.03348255157470703,1.5341603755950928,STABILIZE
0.16,0.015,0.11,0.0023643910057302765,-0.0008453808868808279,3.5465865085954145e-05,0.002518239755420809,0.0017083247336259354,0.16,0.015,0.11,0.27239767061370296,0.020001022902645733,0.0040859650592055445,-0.014309173075062907,0.00977781488678837,0.002,8e-05,0,-0.9195051082684816,-0.0011026399824126554,-7.356040866147854e-05,0.0,-0.001176200391074134,0.2,0.02,0.0,-0.03509654755638108,-0.002436770949315713,-0.0007019309511276216,0.0,-0.0031387019004433343,0.12500639314153583,0.0,-0.12500639314153583,-0.005283630543005174,0.0,0.005283630543005174,-0.5513199912063277,0.0,0.5513199912063277,-0.012183854746578564,0,0.012183854746578564,0.0017104039314901499,-0.009777451393229292,0.0031387019004433343,0.4,0.03342032432556152,1.5675733089447021,STABILIZE
0.16,0.015,0.11,0.0021896296046309952,-0.0008269723449482169,3.284444406946493e-05,0.003239334378862535,0.002445206477983783,0.16,0.015,0.11,0.27646628547278496,0.019252717988881122,0.004146994282091775,-0.01579178713417071,0.007607925136802186,0.002,8e-05,0,-0.9379373764201839,-0.0010902705002539513,-7.503499011361473e-05,0.0,-0.001165305490367566,0.2,0.02,0.0,-0.03544861198556039,-0.002082464611320751,-0.0007089722397112078,0.0,-0.002791436851031959,0.120329487430507,0.0,-0.120329487430507,-0.005168577155926356,0.0,0.005168577155926356,-0.5451352501269756,0.0,0.5451352501269756,-0.010412323056603754,0,0.010412323056603754,0.0024465890206616615,-0.0076074806454658975,0.002791436851031959,0.4,0.03381228446960449,1.601396083831787,STABILIZE
0.16,0.015,0.11,0.0021170163053278275,-0.00034714872107881686,3.175524457991741e-05,0.004282437453280617,0.003967043976781718,0.16,0.015,0.11,0.2804841299448251,0.019208458827065986,0.0042072619491723764,-0.011888980368049414,0.011526740408188949,0.002,8e-05,0,-0.9562050420474976,-0.0010916727411635382,-7.649640336379981e-05,-0.0,-0.001168169144527338,0.2,0.02,0.0,-0.035570679059808645,-0.0007294708599831218,-0.0007114135811961729,0.0,-0.0014408844411792948,0.12005286766916241,0.0,-0.12005286766916241,-0.0021696795067426052,0.0,0.0021696795067426052,-0.5458363705817691,0.0,0.5458363705817691,-0.0036473542999156086,0,0.0036473542999156086,0.003967777741920749,-0.011526487849393427,0.0014408844411792948,0.4,0.03346729278564453,1.634864091873169,STABILIZE
0.16,0.015,0.11,0.0021279144002813544,5.086899293297868e-05,3.191871600422031e-05,0.004654653817545168,0.004737441526482367,0.16,0.015,0.11,0.2849142883216912,0.020678632010987474,0.004273714324825368,-0.0004873945220568177,0.024464951813756027,0.002,8e-05,0,-0.9751491398723273,-0.00110531609249407,-7.801193118978619e-05,-0.0,-0.001183328023683856,0.2,0.02,0.0,-0.03565789403768666,-0.000508866241329993,-0.0007131578807537333,0.0,-0.0012220241220837263,0.12924145006867171,0.0,-0.12924145006867171,0.0003179312058311167,0.0,-0.0003179312058311167,-0.552658046247035,0.0,0.552658046247035,-0.0025443312066499644,0,0.0025443312066499644,0.004738527935869675,-0.024464741414272632,0.0012220241220837263,0.4,0.034278154373168945,1.6691250801086426,STABILIZE
0.16,0.015,0.11,0.002149326341301616,0.00010090240982983689,3.223989511952424e-05,0.0036407851257437432,0.0037739274306931043,0.16,0.015,0.11,0.28916590713977325,0.020035483192131744,0.004337488607096598,0.001977797780089911,0.026350769579318256,0.002,8e-05,0,-0.9940768051457278,-0.0011149427302803903,-7.952614441165823e-05,-0.0,-0.0011944688746920486,0.2,0.02,0.0,-0.035678352783029645,-0.00012051316980374666,-0.0007135670556605929,0.0,-0.0008340802254643395,0.1252217699508234,0.0,-0.1252217699508234,0.0006306400614364805,0.0,-0.0006306400614364805,-0.5574713651401951,0.0,0.5574713651401951,-0.0006025658490187332,0,0.0006025658490187332,0.003774204555151847,-0.026350729888379436,0.0008340802254643395,0.4,0.03395271301269531,1.7031245231628418,STABILIZE
0.16,0.015,0.11,0.0021364883488723388,-6.140895591958323e-05,3.204732523308508e-05,0.0031781856930511066,0.0031488240623646084,0.16,0.015,0.11,0.29295232815152666,0.018111878651173422,0.0043942849222729,-0.00783954572332536,0.014666617850120961,0.002,8e-05,0,-1.0125793901914535,-0.0011063104645553277,-8.100635121531629e-05,-0.0,-0.001187316815770644,0.2,0.02,0.0,-0.03558117129116235,0.0005810696243156538,-0.0007116234258232471,0.0,-0.0001305538015075933,0.11319924156983388,0.0,-0.11319924156983388,-0.0003838059744973952,0.0,0.0003838059744973952,-0.5531552322776638,0.0,0.5531552322776638,0.002905348121578269,0,-0.002905348121578269,0.0031480803450626813,-0.014666777501491021,0.0001305538015075933,0.4,0.03344917297363281,1.7365398406982422,STABILIZE
0.16,0.015,0.11,0.002162007563261408,0.00012202540082104068,3.243011344892112e-05,0.0038571090811476416,0.004011564595417604,0.16,0.015,0.11,0.2967633743326562,0.018223305416448184,0.004451450614989843,-0.004338628192077085,0.018336127839360943,0.002,8e-05,0,-1.0310994965432774,-0.0011069714795950026,-8.24879597234622e-05,-0.0,-0.0011894594393184648,0.2,0.02,0.0,-0.035644392110134586,-0.0003778792744999895,-0.0007128878422026917,0.0,-0.0010907671167026812,0.11389565885280115,0.0,-0.11389565885280115,0.0007626587551315042,0.0,-0.0007626587551315042,-0.5534857397975013,0.0,0.5534857397975013,-0.0018893963724999473,0,0.0018893963724999473,0.004012169248827384,-0.01833599554328478,0.0010907671167026812,0.4,0.03346085548400879,1.7700073719024658,STABILIZE
0.16,0.015,0.11,0.0022272833265674597,0.00031207174717014203,3.3409249898511896e-05,0.002666567923399964,0.003012048920468618,0.16,0.015,0.11,0.30061307131157544,0.018404712583048044,0.0045091960696736315,-0.003411475283335456,0.01950243336938622,0.002,8e-05,0,-1.0497313685936915,-0.001113445590165204,-8.397850948749533e-05,-0.0,-0.0011974240996526994,0.2,0.02,0.0,-0.03586518631731393,-0.0013194720082483878,-0.0007173037263462787,-0.0,-0.0020367757345946666,0.11502945364405028,0.0,-0.11502945364405028,0.0019504484198133876,0.0,-0.0019504484198133876,-0.556722795082602,0.0,0.556722795082602,-0.006597360041241939,0,0.006597360041241939,0.0030142945209537626,-0.019502086415755453,0.0020367757345946666,0.4,0.03346705436706543,1.803468942642212,STABILIZE
0.16,0.015,0.11,0.002336007714240721,0.0004883520391042085,3.5040115713610816e-05,0.0017504432023193104,0.00227383535713713,0.16,0.015,0.11,0.30442480327765314,0.017120970906240804,0.004566372049164797,-0.014264042033733047,0.007423300921672553,0.002,8e-05,0,-1.069834505529343,-0.0011287035187105238,-8.558676044234744e-05,-0.0,-0.0012142902791528712,0.2,0.02,0.0,-0.03606809380489136,-0.0011392371048082543,-0.0007213618760978272,-0.0,-0.0018605989809060814,0.10700606816400501,0.0,-0.10700606816400501,0.0030522002444013036,0.0,-0.0030522002444013036,-0.5643517593552618,0.0,0.5643517593552618,-0.005696185524041271,0,0.005696185524041271,0.002274573349633353,-0.007423074826661068,0.0018605989809060814,0.4,0.03562164306640625,1.839111566543579,STABILIZE
0.16,0.015,0.11,0.002416697808201708,0.0003858336213198173,3.625046712302562e-05,0.0011265465636233066,0.0015486306520661496,0.16,0.015,0.11,0.3080222296110358,0.01720171537179526,0.004620333444165537,-0.011327650900747574,0.010494397915213222,0.002,8e-05,0,-1.0885272107193684,-0.0011172799816075217,-8.708217685754948e-05,-0.0,-0.0012043621584650712,0.2,0.02,0.0,-0.036277310239630704,-0.0012505056490287893,-0.0007255462047926141,-0.0,-0.0019760518538214033,0.10751072107372038,0.0,-0.10751072107372038,0.002411460133248858,0.0,-0.002411460133248858,-0.5586399908037608,0.0,0.5586399908037608,-0.006252528245143946,0,0.006252528245143946,0.0015497758671496427,-0.010494228854992205,0.0019760518538214033,0.4,0.03346109390258789,1.8725969791412354,STABILIZE
0.16,0.015,0.11,0.0025046924968441836,0.00042079778192242984,3.7570387452662755e-05,0.0019374510092459852,0.002395819178621078,0.16,0.015,0.11,0.3114659546019018,0.01646817393257704,0.004671989319028526,-0.0064348247530011905,0.014705338498604375,0.002,8e-05,0,-1.1072391036911633,-0.0011185224897625795,-8.857912829529307e-05,-0.0,-0.0012071016180578726,0.2,0.02,0.0,-0.03655535976809505,-0.0016620694192941107,-0.000731107195361901,-0.0,-0.0023931766146560117,0.10292608707860648,0.0,-0.10292608707860648,0.0026299861370151865,0.0,-0.0026299861370151865,-0.5592612448812897,0.0,0.5592612448812897,-0.008310347096470553,0,0.008310347096470553,0.0023979520586306672,-0.014704990847317571,0.0023931766146560117,0.4,0.03345823287963867,1.9060254096984863,STABILIZE
0.16,0.015,0.11,0.002610431288283391,0.0005058714203173907,3.9156469324250865e-05,0.0015334387876925599,0.0020784666773342015,0.16,0.015,0.11,0.3148284970798632,0.01608694516034698,0.004722427456197948,-0.00846008804291337,0.01234928457363156,0.002,8e-05,0,-1.1260358103298302,-0.0011240809256433807,-9.008286482638643e-05,-0.0,-0.0012141637904697672,0.2,0.02,0.0,-0.036867503127209524,-0.0018666801732439829,-0.0007373500625441905,-0.0,-0.0026040302357881735,0.10054340725216862,0.0,-0.10054340725216862,0.003161696376983692,0.0,-0.003161696376983692,-0.5620404628216903,0.0,0.5620404628216903,-0.009333400866219914,0,0.009333400866219914,0.00208047833061405,-0.012348945830522071,0.0026040302357881735,0.4,0.03344368934631348,1.9394793510437012,STABILIZE
0.16,0.015,0.11,0.0026888819238434915,0.00037528837954994187,4.033322885765237e-05,0.00021579823765715696,0.0006314198460647512,0.16,0.015,0.11,0.317988386462177,0.01511612694249122,0.0047698257969326545,-0.013196472114933983,0.0066894806244898915,0.002,8e-05,0,-1.14472531925269,-0.0011175746805886138,-9.157802554021522e-05,-0.0,-0.001209152706128829,0.2,0.02,0.0,-0.03716471514903585,-0.0017772357301126121,-0.0007432943029807169,-0.0,-0.0025205300330933293,0.09447579339057012,0.0,-0.09447579339057012,0.0023455523721871365,0.0,-0.0023455523721871365,-0.5587873402943069,0.0,0.5587873402943069,-0.00888617865056306,0,0.00888617865056306,0.0006324573305892476,-0.006689382615190584,0.0025205300330933293,0.4,0.033446550369262695,1.9729366302490234,STABILIZE
0.16,0.015,0.11,0.0027211483459591746,0.00015260211235890948,4.081722518938762e-05,-0.0013697236975198637,-0.0011763043599715666,0.16,0.015,0.11,0.32094668100911855,0.01399107701574709,0.0048142002151367784,-0.012813823626609556,0.005991453604274314,0.002,8e-05,0,-1.1634154377208497,-0.0011049224594276927,-9.307323501766797e-05,0.0,-0.0011979956944453607,0.2,0.02,0.0,-0.03733957275000496,-0.001033723198927607,-0.0007467914550000992,0.0,-0.0017805146539277062,0.08744423134841932,0.0,-0.08744423134841932,0.0009537632022431843,0.0,-0.0009537632022431843,-0.5524612297138464,0.0,0.5524612297138464,-0.005168615994638036,0,0.005168615994638036,-0.0011757638699497577,-0.005991559693567323,0.0017805146539277062,0.4,0.03383064270019531,2.0067319869995117,STABILIZE
0.16,0.015,0.11,0.0027321504821606825,5.257714605543485e-05,4.098225723241023e-05,-0.001359231620621093,-0.0012656722173332478,0.16,0.015,0.11,0.32386231797960213,0.013933282412985443,0.004857934769694032,-0.013382973233435803,0.005408243949243672,0.002,8e-05,0,-1.1822006287183728,-0.0011221363204682174,-9.457605029746984e-05,-0.0,-0.0012167123707656873,0.2,0.02,0.0,-0.03739042061736737,-0.00030374053047015445,-0.0007478084123473474,0.0,-0.0010515489428175018,0.08708301508115901,0.0,-0.08708301508115901,0.00032860716284646783,0.0,-0.00032860716284646783,-0.5610681602341087,0.0,0.5610681602341087,-0.0015187026523507722,0,0.0015187026523507722,-0.0012655288640186738,-0.0054082774957092995,0.0010515489428175018,0.4,0.03348112106323242,2.040287733078003,STABILIZE
0.16,0.015,0.11,0.0027212914733664153,-5.1970143369034254e-05,4.0819372100496225e-05,-0.0019329112420896353,-0.0019440620133581734,0.16,0.015,0.11,0.3266378856192776,0.013283592535677678,0.004899568284289163,-0.013040509330381951,0.00514265148958489,0.002,8e-05,0,-1.2014552265524476,-0.0011518825393141004,-9.611641812419582e-05,-0.0,-0.0012479989574382963,0.2,0.02,0.0,-0.03741669674077055,-0.0001571936636111783,-0.000748333934815411,0.0,-0.0009055275984265893,0.08302245334798548,0.0,-0.08302245334798548,-0.00032481339605646407,0.0,0.00032481339605646407,-0.5759412696570502,0.0,0.5759412696570502,-0.0007859683180558915,0,0.0007859683180558915,-0.0019439914676451034,-0.005142678157228483,0.0009055275984265893,0.4,0.0334315299987793,2.0736703872680664,STABILIZE
0.16,0.015,0.11,0.0026899577430036484,-0.00014982017124875142,4.034936614505472e-05,-0.002684752193979013,-0.0027942229990827096,0.16,0.015,0.11,0.3292494147682417,0.012486854893722862,0.004938741221523626,-0.01474696060218857,0.0026786355130579177,0.002,8e-05,0,-1.2206879681177472,-0.0011495011133114664,-9.765503744941979e-05,-0.0,-0.0012471561507608861,0.2,0.02,0.0,-0.037434239175902814,-0.00010484750001068377,-0.0007486847835180563,0.0,-0.0008535322835287401,0.07804284308576788,0.0,-0.07804284308576788,-0.0009363760703046965,0.0,0.0009363760703046965,-0.5747505566557332,0.0,0.5747505566557332,-0.0005242375000534188,0,0.0005242375000534188,-0.00279419849033358,-0.002678661079165367,0.0008535322835287401,0.4,0.0334627628326416,2.1071231365203857,STABILIZE
0.16,0.015,0.11,0.0026536388037420623,-0.00017389450385842304,3.9804582056130935e-05,-0.0022469785321791763,-0.0023810684539814684,0.16,0.015,0.11,0.3316881670523528,0.011676707169904743,0.004975322505785292,-0.014089384810309174,0.00256264486538086,0.002,8e-05,0,-1.2397407741444104,-0.0011403066549019718,-9.917926193155284e-05,-0.0,-0.0012394859168335247,0.2,0.02,0.0,-0.03740028921255244,0.00020318985606600896,-0.0007480057842510488,0.0,-0.0005448159281850398,0.07297941981190464,0.0,-0.07297941981190464,-0.001086840649115144,0.0,0.001086840649115144,-0.5701533274509859,0.0,0.5701533274509859,0.0010159492803300447,0,-0.0010159492803300447,-0.0023811138935545375,-0.002562602644681796,0.0005448159281850398,0.4,0.0334169864654541,2.1405439376831055,STABILIZE
0.16,0.015,0.11,0.0025590784442061074,-0.0004517639823938194,3.838617666309161e-05,-0.002482744230254364,-0.0028961220359850917,0.16,0.015,0.11,0.33398987451001894,0.010996452768196384,0.0050098481176502835,-0.01230968150767326,0.0036966193781734075,0.002,8e-05,0,-1.2592685764952514,-0.0011661807601922314,-0.00010074148611962012,-0.0,-0.0012669222463118515,0.2,0.02,0.0,-0.03712196743411244,0.0016621097311814714,-0.0007424393486822488,0.0,0.0009196703824992227,0.0687278298012274,0.0,-0.0687278298012274,-0.002823524889961371,0.0,0.002823524889961371,-0.5830903800961157,0.0,0.5830903800961157,0.008310548655907357,0,-0.008310548655907357,-0.0028966581869868386,-0.0036961992671077277,-0.0009196703824992227,0.4,0.03349018096923828,2.1740269660949707,STABILIZE
0.16,0.015,0.11,0.0025151005235128057,-0.00021023559447571843,3.772650785269209e-05,-0.0010797094237555234,-0.0012522185103785498,0.16,0.015,0.11,0.336260227069318,0.010853376249923814,0.00504390340603977,-0.012660121692466912,0.0032371579634966705,0.002,8e-05,0,-1.2786879376308662,-0.0011604234773730606,-0.0001022950350104693,-0.0,-0.0012627185123835298,0.2,0.02,0.0,-0.03680129786519666,0.0019161932962177706,-0.0007360259573039332,0.0,0.0011801673389138373,0.06783360156202384,0.0,-0.06783360156202384,-0.00131397246547324,0.0,0.00131397246547324,-0.5802117386865303,0.0,0.5802117386865303,0.009580966481088853,0,-0.009580966481088853,-0.0012527598085152868,-0.0032369485229971342,-0.0011801673389138373,0.4,0.033469438552856445,2.207507848739624,STABILIZE
0.16,0.015,0.11,0.0025206837042803373,2.6669199585433977e-05,3.781025556420506e-05,0.00032277079200795114,0.0003872502471575902,0.16,0.015,0.11,0.33851521269383916,0.010771397915749159,0.005077728190407587,-0.01032454207789227,0.005524584028264478,0.002,8e-05,0,-1.2985573378483786,-0.001186377940522068,-0.0001038845870278703,-0.0,-0.0012902625275499383,0.2,0.02,0.0,-0.036400724091464665,0.0023917777260757957,-0.0007280144818292933,0.0,0.0016637632442465023,0.06732123697343224,0.0,-0.06732123697343224,0.00016668249740896235,0.0,-0.00016668249740896235,-0.593188970261034,0.0,0.593188970261034,0.011958888630378977,0,-0.011958888630378977,0.0003860971366054812,-0.005524664735563926,-0.0016637632442465023,0.4,0.03349590301513672,2.2410030364990234,STABILIZE
0.16,0.015,0.11,0.002580918979002426,0.0002880356317346529,3.871378468503639e-05,0.0017988992398111075,0.0021256486562307966,0.16,0.015,0.11,0.3407885834111878,0.010870902038045248,0.005111828751167817,-0.006641809331690065,0.009340921457522997,0.002,8e-05,0,-1.3182186891012124,-0.001175218705940041,-0.000105457495128097,-0.0,-0.001280676201068138,0.2,0.02,0.0,-0.03602810732922854,0.002227243608516444,-0.0007205621465845708,0.0,0.0015066814619318733,0.0679431377377828,0.0,-0.0679431377377828,0.0018002226983415805,0.0,-0.0018002226983415805,-0.5876093529700205,0.0,0.5876093529700205,0.01113621804258222,0,-0.01113621804258222,0.002123833080306066,-0.009341334429959512,-0.0015066814619318733,0.4,0.03345990180969238,2.2744851112365723,STABILIZE
0.16,0.015,0.11,0.0025802781174165982,-3.064106541522532e-06,3.870417176124897e-05,0.0007018664596871161,0.0007375065249068425,0.16,0.015,0.11,0.3430131238482356,0.010636039131964831,0.005145196857723534,-0.004273336694267281,0.011507899295421082,0.002,8e-05,0,-1.3376583238125894,-0.0011618170210455612,-0.00010701266590500716,-0.0,-0.0012688296869505684,0.2,0.02,0.0,-0.03593268780059684,0.0005702783727699154,-0.0007186537560119367,0.0,-0.0001483753832420213,0.0664752445747802,0.0,-0.0664752445747802,-1.9150665884515826e-05,0.0,1.9150665884515826e-05,-0.5809085105227806,0.0,0.5809085105227806,0.002851391863849577,0,-0.002851391863849577,0.0007369338198487487,-0.011507935984050153,0.0001483753832420213,0.4,0.03346419334411621,2.307950258255005,STABILIZE
0.16,0.015,0.11,0.00252241886906883,-0.00027643944386391797,3.783628303603245e-05,0.0007202540432808904,0.0004816508824530049,0.16,0.015,0.11,0.3451891369599443,0.010396537660250218,0.005177837054399164,-0.002463801765348093,0.013110572949301291,0.002,8e-05,0,-1.3568277264174853,-0.0011448426886419662,-0.00010854621811339883,0.0,-0.001253388906755365,0.2,0.02,0.0,-0.03609722070908656,-0.0009826299817885197,-0.0007219444141817312,-0.0,-0.0017045743959702509,0.06497836037656386,0.0,-0.06497836037656386,-0.001727746524149487,0.0,0.001727746524149487,-0.5724213443209831,0.0,0.5724213443209831,-0.004913149908942598,0,0.004913149908942598,0.00048277512073546423,-0.01311053159922653,0.0017045743959702509,0.4,0.03348827362060547,2.341407060623169,STABILIZE
0.16,0.015,0.11,0.002476129248893958,-0.00022148542475684645,3.714193873340937e-05,-4.6032713378094514e-05,-0.0002303761994015316,0.16,0.015,0.11,0.3473507317683064,0.010342745144021717,0.005210260976524596,-0.0020972014848957177,0.013455804635650596,0.002,8e-05,0,-1.3757369950798954,-0.0011309574872599417,-0.00011005895960639164,0.0,-0.0012410164468663334,0.2,0.02,0.0,-0.03629761346255673,-0.0011985428361925869,-0.0007259522692511346,-0.0,-0.0019244951054437215,0.06464215715013573,0.0,-0.06464215715013573,-0.0013842839047302903,0.0,0.0013842839047302903,-0.5654787436299709,0.0,0.5654787436299709,-0.0059927141809629336,0,0.0059927141809629336,-0.00022896882063831833,-0.013455828657694117,0.0019244951054437215,0.4,0.03343939781188965,2.3748698234558105,STABILIZE
0.16,0.015,0.11,0.0024081675390249043,-0.00032502855202070843,3.612251308537356e-05,-0.0014440824712416845,-0.0017329885101770195,0.16,0.015,0.11,0.3494158903804976,0.009876671948173772,0.005241238355707464,-0.003676234589968067,0.01144167571391317,0.002,8e-05,0,-1.3945727258580123,-0.0011260293319685377,-0.00011156581806864099,0.0,-0.0012375951500371786,0.2,0.02,0.0,-0.03662465960534905,-0.0019551327953740497,-0.0007324931921069811,-0.0,-0.002687625987481031,0.061729199676086074,0.0,-0.061729199676086074,-0.0020314284501294277,0.0,0.0020314284501294277,-0.5630146659842689,0.0,0.5630146659842689,-0.009775663976870248,0,0.009775663976870248,-0.001731036334593673,-0.011441971225583138,0.002687625987481031,0.4,0.03345513343811035,2.4083757400512695,STABILIZE
0.16,0.015,0.11,0.002319241145685524,-0.00042510483723976416,3.478861718528286e-05,-0.002929270833019729,-0.0033195870530742105,0.16,0.015,0.11,0.3513893989603168,0.009434184971536424,0.005270840984404752,-0.005902946842052803,0.008802079113888374,0.002,8e-05,0,-1.4133480296820196,-0.0011219212002913299,-0.00011306784237456158,0.0,-0.0012349890426658914,0.2,0.02,0.0,-0.03707397488557417,-0.0026848904455800946,-0.0007414794977114834,-0.0,-0.003426369943291578,0.058963656072102646,0.0,-0.058963656072102646,-0.002656905232748526,0.0,0.002656905232748526,-0.560960600145665,0.0,0.560960600145665,-0.013424452227900473,0,0.013424452227900473,-0.003317524626990759,-0.008802856654484251,0.003426369943291578,0.4,0.03346991539001465,2.441838264465332,STABILIZE
0.16,0.015,0.11,0.0021867839377799256,-0.0006336559751897279,3.280175906669888e-05,-0.0025905597679330124,-0.0031914139840560412,0.16,0.015,0.11,0.3533958737775813,0.009598683054934231,0.005300938106663719,-0.004261653694827117,0.010637967466770834,0.002,8e-05,0,-1.432428367317273,-0.0011409694253702474,-0.00011459426938538186,0.0,-0.0012555636947556292,0.2,0.02,0.0,-0.03767762849701426,-0.003609738608057484,-0.0007535525699402853,-0.0,-0.004363291177997769,0.05999176909333894,0.0,-0.05999176909333894,-0.0039603498449357994,0.0,0.0039603498449357994,-0.5704847126851237,0.0,0.5704847126851237,-0.01804869304028742,0,0.01804869304028742,-0.003188062769006114,-0.010638972263455723,0.004363291177997769,0.4,0.03344583511352539,2.475248336791992,STABILIZE
0.16,0.015,0.11,0.0020494386759662368,-0.0006541485923620124,3.074158013949355e-05,-0.0015519809072407093,-0.002175387919463228,0.16,0.015,0.11,0.35537404216766066,0.00942162875324235,0.00533061063251491,-0.0040029704768764236,0.010749268908880836,0.002,8e-05,0,-1.4513068855847555,-0.0011239335805506565,-0.00011610455084678045,0.0,-0.001240038131397437,0.2,0.02,0.0,-0.038256470083459504,-0.0034461364372310372,-0.0007651294016691901,-0.0,-0.0042112658389002276,0.05888517970776468,0.0,-0.05888517970776468,-0.004088428702262578,0.0,0.004088428702262578,-0.5619667902753283,0.0,0.5619667902753283,-0.017230682186155186,0,0.017230682186155186,-0.00217215517053619,-0.010749922631846784,0.0042112658389002276,0.4,0.03359365463256836,2.5088350772857666,STABILIZE
0.16,0.015,0.11,0.001910238456975555,-0.0006654154989433414,2.8653576854633324e-05,-0.0018242322404135587,-0.002460994162502267,0.16,0.015,0.11,0.35730479606699755,0.009229536983343925,0.005359571941004963,-0.004570902734828691,0.010018206189520198,0.002,8e-05,0,-1.4697698170667464,-0.0011032239077213703,-0.00011758158536533972,0.0,-0.00122080549308671,0.2,0.02,0.0,-0.03879936673847685,-0.0032439949735030694,-0.0007759873347695371,-0.0,-0.004019982308272606,0.05768460614589953,0.0,-0.05768460614589953,-0.004158846868395884,0.0,0.004158846868395884,-0.5516119538606851,0.0,0.5516119538606851,-0.016219974867515346,0,0.016219974867515346,-0.0024581579902405327,-0.010018902475751906,0.004019982308272606,0.4,0.033470869064331055,2.5423195362091064,STABILIZE
0.16,0.015,0.11,0.0018501822272960673,-0.00028747033501761793,2.775273340944101e-05,0.0001560277340756576,-0.00010368986753251934,0.16,0.015,0.11,0.35913775762477457,0.008773812074129373,0.005387066364371618,-0.0045300013493128595,0.009630877089188132,0.002,8e-05,0,-1.487939319165137,-0.0010871463466827663,-0.00011903514553321097,0.0,-0.0012061814922159771,0.2,0.02,0.0,-0.03911940435518819,-0.0019148996154363684,-0.0007823880871037637,0.0,-0.002697287702540132,0.05483632546330858,0.0,-0.05483632546330858,-0.0017966895938601119,0.0,0.0017966895938601119,-0.5435731733413831,0.0,0.5435731733413831,-0.009574498077181842,0,0.009574498077181842,-0.00010208048377901502,-0.00963089428197139,0.002697287702540132,0.4,0.03342604637145996,2.57574200630188,STABILIZE
0.16,0.015,0.11,0.0017778921506730772,-0.00034586956885885326,2.666838226009616e-05,0.0003270404759319399,7.839289333182837e-06,0.16,0.015,0.11,0.361000541940786,0.008912432222419584,0.00541500812911179,-0.002142233125739013,0.01218520722579236,0.002,8e-05,0,-1.506081863698749,-0.001085030330056264,-0.00012048654909589993,0.0,-0.001205516879152164,0.2,0.02,0.0,-0.03949558725810201,-0.0022497938949738653,-0.0007899117451620403,0.0,-0.0030397056401359054,0.0557027013901224,0.0,-0.0557027013901224,-0.002161684805367833,0.0,0.002161684805367833,-0.542515165028132,0.0,0.542515165028132,-0.011248969474869327,0,0.011248969474869327,1.0231629846839043e-05,-0.012185205451846527,0.0030397056401359054,0.4,0.03344154357910156,2.609198570251465,STABILIZE
0.16,0.015,0.11,0.001693894654834391,-0.0004016914669302552,2.5408419822515864e-05,0.0009550095639918575,0.0005787265168841182,0.16,0.015,0.11,0.3628883232551465,0.009027717288921147,0.005443324848827198,-0.0023447194684400557,0.012126322669308288,0.002,8e-05,0,-1.5241169822366865,-0.0010780906545830244,-0.00012192935857893493,0.0,-0.0012000200131619594,0.2,0.02,0.0,-0.039924046760547977,-0.002561215134143014,-0.0007984809352109595,0.0,-0.0033596960693539736,0.056423233055757166,0.0,-0.056423233055757166,-0.0025105716683140947,0.0,0.0025105716683140947,-0.5390453272915122,0.0,0.5390453272915122,-0.012806075670715069,0,0.012806075670715069,0.000581436834773215,-0.012126193016305397,0.0033596960693539736,0.4,0.03345751762390137,2.642679452896118,STABILIZE
