E-kp,E-ki,E-kd,E-I-Tot,E-P,E-I,E-D,E-PID,N-kp,N-ki,N-kd,N-I-Tot,N-P,N-I,N-D,N-PID,D-kp,D-ki,D-kd,D-I-Tot,D-P,D-I,D-D,D-PID,Y-kp,Y-ki,Y-kd,Y-I-Tot,Y-P,Y-I,Y-D,Y-PID,errorN,desiredN,actualN,errorE,desiredE,actualE,errorD,desiredD,actualD,errorY,desiredY,actualY,roll,pitch,yaw-rate,thrust,dt,Time,Mode
0.035,0.005,0.05,-0.003078883087312412,-0.003265600783938948,-1.5394415436562062e-05,-0.1413731389564139,-0.1446541341557894,0.035,0.005,0.05,-0.0028970378689259536,-0.0030727276312799653,-1.4485189344629769e-05,-0.13302334826983445,-0.13611056109045905,0.002,8e-05,0,-0.00404303254525945,-0.00024504118399664603,-3.23442603620756e-07,-0.0,-0.00024536462660026677,0.1,0.02,0,-0.002972279973738471,-0.009007236471400408,-5.944559947476942e-05,-0.0,-0.009066682070875179,-0.08779221803657043,0.0,0.08779221803657043,-0.0933028795411128,0.0,0.0933028795411128,-0.122520591998323,0.0,0.122520591998323,-0.09007236471400408,0,0.09007236471400408,-0.14486792919808975,0.13588298811322175,0.009066682070875179,0.4,0.03299880027770996,0.03332996368408203,STABILIZE
0.035,0.005,0.05,-0.007000644015669688,-0.003832466926793472,-3.500322007834844e-05,-0.0819918603041962,-0.08585933045106801,0.035,0.005,0.05,-0.006616697230282861,-0.0036349669808427936,-3.3083486151414306e-05,-0.07772469054230924,-0.08139274100930345,0.002,8e-05,0,-0.009559092101269555,-0.00030802658296791275,-7.647273681015645e-07,-0.0,-0.0003087913103360143,0.1,0.02,0,-0.006764890036178509,-0.010589304794491118,-0.00013529780072357017,-0.0,-0.010724602595214688,-0.10385619945265123,0.0,0.10385619945265123,-0.10949905505124205,0.0,0.10949905505124205,-0.15401329148395637,0.0,0.15401329148395637,-0.10589304794491117,0,0.10589304794491117,-0.08600961235393537,0.0812339183915131,0.010724602595214688,0.4,0.03581547737121582,0.0690450668334961,STABILIZE
0.035,0.005,0.05,-0.011120500593325654,-0.004307981923983941,-5.5602502966628274e-05,-0.06142625349833123,-0.0657898379252818,0.035,0.005,0.05,-0.010467416607800352,-0.004026555089963454,-5.233708303900176e-05,-0.057387470277580246,-0.0614663624505827,0.002,8e-05,0,-0.015723083165118258,-0.0003683118794082894,-1.2578466532094609e-06,-0.0,-0.0003695697260614989,0.1,0.02,0,-0.010692948739841793,-0.011735502765873443,-0.00021385897479683585,-0.0,-0.011949361740670279,-0.11504443114181295,0.0,0.11504443114181295,-0.12308519782811259,0.0,0.12308519782811259,-0.1841559397041447,0.0,0.1841559397041447,-0.11735502765873443,0,0.11735502765873443,-0.0659155971823327,0.061331480784648465,0.011949361740670279,0.4,0.03347158432006836,0.10254812240600586,STABILIZE
0.035,0.005,0.05,-0.01563599132906876,-0.004609041307744759,-7.81799566453438e-05,-0.04920537013457918,-0.053892591398969285,0.035,0.005,0.05,-0.014589679895318178,-0.004207667092122298,-7.294839947659089e-05,-0.04492697235990217,-0.04920758785150106,0.002,8e-05,0,-0.022898403724083735,-0.00041851295320921334,-1.831872297926699e-06,-0.0,-0.00042034482550714003,0.1,0.02,0,-0.014979096002004966,-0.012499846758317668,-0.0002995819200400993,-0.0,-0.012799428678357767,-0.12021905977492278,0.0,0.12021905977492278,-0.13168689450699309,0.0,0.13168689450699309,-0.20925647660460667,0.0,0.20925647660460667,-0.12499846758317668,0,0.12499846758317668,-0.05399981604917535,0.04908989688840951,0.012799428678357767,0.4,0.03428959846496582,0.13684868812561035,STABILIZE
0.035,0.005,0.05,-0.02060329683072145,-0.005189581225353784,-0.00010301648415360725,-0.044315461579057865,-0.04960805928856526,0.035,0.005,0.05,-0.019059955922631523,-0.004670310802461385,-9.529977961315762e-05,-0.039887259303977955,-0.0446528698860525,0.002,8e-05,0,-0.03168896592648377,-0.0005247954311384042,-2.5351172741187018e-06,-0.0,-0.0005273305484125229,0.1,0.02,0,-0.019661904267668666,-0.013978152512512238,-0.0003932380853533733,-0.0,-0.01437139059786561,-0.13343745149889671,0.0,0.13343745149889671,-0.14827374929582238,0.0,0.14827374929582238,-0.26239771556920205,0.0,0.26239771556920205,-0.13978152512512237,0,0.13978152512512237,-0.0497168488278019,0.044531710926844395,0.01437139059786561,0.4,0.03350090980529785,0.17031216621398926,STABILIZE
0.035,0.005,0.05,-0.025610763799220126,-0.005241163279415818,-0.00012805381899610064,-0.016481563307335086,-0.021850780405747006,0.035,0.005,0.05,-0.023555506236795108,-0.004705355696919294,-0.00011777753118397554,-0.013582021686565669,-0.018405154914668938,0.002,8e-05,0,-0.04110979217207399,-0.0005634566925269551,-3.2887833737659197e-06,-0.0,-0.000566745475900721,0.1,0.02,0,-0.024445683300388293,-0.014305816927775886,-0.0004889136660077659,-0.0,-0.014794730593783651,-0.1344387341976941,0.0,0.1344387341976941,-0.14974752226902335,0.0,0.14974752226902335,-0.28172834626347754,0.0,0.28172834626347754,-0.14305816927775886,0,0.14305816927775886,-0.021896666901842582,0.01835053978396524,0.014794730593783651,0.4,0.03343939781188965,0.20378565788269043,STABILIZE
0.035,0.005,0.05,-0.031568614142541945,-0.006107825940835381,-0.00015784307071270974,-0.019212336457975814,-0.025478005469523904,0.035,0.005,0.05,-0.02887855111216678,-0.0054570406607257335,-0.00014439275556083392,-0.015387484157526827,-0.020988917573813395,0.002,8e-05,0,-0.05320618818933856,-0.0007086226179613515,-4.256495055147085e-06,-0.0,-0.0007128791130164985,0.1,0.02,0,-0.030221345152443947,-0.016917289315849907,-0.000604426903048879,-0.0,-0.017521716218898788,-0.15591544744930666,0.0,0.15591544744930666,-0.1745093125952966,0.0,0.1745093125952966,-0.35431130898067575,0.0,0.35431130898067575,-0.16917289315849907,0,0.16917289315849907,-0.02553986670264853,0.020913599222428636,0.017521716218898788,0.4,0.034140586853027344,0.23791193962097168,STABILIZE
0.035,0.005,0.05,-0.03814380545873274,-0.006809565520072602,-0.00019071902729366372,-0.02108600805316248,-0.028086292600528747,0.035,0.005,0.05,-0.0347524010682846,-0.006083224686218279,-0.00017376200534142302,-0.01733879248406144,-0.02359577917562114,0.002,8e-05,0,-0.06753303014978666,-0.0008478586017732215,-5.402642411982934e-06,-0.0,-0.0008532612441852044,0.1,0.02,0,-0.03662777219565917,-0.018956530302413996,-0.0007325554439131834,-0.0,-0.01968908574632718,-0.17380641960623652,0.0,0.17380641960623652,-0.1945590148592172,0.0,0.1945590148592172,-0.42392930088661074,0.0,0.42392930088661074,-0.18956530302413993,0,0.18956530302413993,-0.02816420628416174,0.0235027256149234,0.01968908574632718,0.4,0.03379535675048828,0.2717409133911133,STABILIZE
0.035,0.005,0.05,-0.044597699123212015,-0.006745427183157021,-0.00022298849561606007,-0.018030234850040693,-0.024998650528813775,0.035,0.005,0.05,-0.04046204275633534,-0.005967556060093757,-0.0002023102137816767,-0.01484281041449017,-0.0210126766883656,0.002,8e-05,0,-0.08247087691937442,-0.0008921494340871022,-6.597670153549954e-06,-0.0,-0.0008987471042406521,0.1,0.02,0,-0.04281278105269809,-0.018469703956480142,-0.0008562556210539618,-0.0,-0.019325959577534104,-0.17050160171696446,0.0,0.17050160171696446,-0.19272649094734343,0.0,0.19272649094734343,-0.44607471704355106,0.0,0.44607471704355106,-0.1846970395648014,0,0.1846970395648014,-0.025066256390815722,0.02093198271596445,0.019325959577534104,0.4,0.03348731994628906,0.30521106719970703,STABILIZE
0.035,0.005,0.05,-0.05111065031948081,-0.006742490665931081,-0.00025555325159740404,-0.013054252966446904,-0.02005229688397539,0.035,0.005,0.05,-0.04616240087848627,-0.0059012589335977,-0.00023081200439243135,-0.010336854124436898,-0.01646892506242703,0.002,8e-05,0,-0.09851224048174048,-0.0009489553162498144,-7.880979238539239e-06,-0.0,-0.0009568362954883537,0.1,0.02,0,-0.04894103559130422,-0.018126388386912735,-0.0009788207118260844,-0.0,-0.01910520909873882,-0.16860739810279143,0.0,0.16860739810279143,-0.19264259045517373,0.0,0.19264259045517373,-0.4744776581249072,0.0,0.4744776581249072,-0.18126388386912734,0,0.18126388386912734,-0.020104298389455794,0.016405404271234877,0.01910520909873882,0.4,0.03380846977233887,0.33901071548461914,STABILIZE
0.035,0.005,0.05,-0.05770695516244125,-0.006903117943067183,-0.00028853477581220627,-0.013985756210461288,-0.021177408929340676,0.035,0.005,0.05,-0.05179130920568384,-0.005890725034460153,-0.0002589565460284192,-0.009947431385291458,-0.01609711296578003,0.002,8e-05,0,-0.11712206364348376,-0.001112881116179425,-9.369765091478702e-06,-0.0,-0.0011222508812709037,0.1,0.02,0,-0.055014665346036246,-0.018160376382839214,-0.001100293306920725,-0.0,-0.019260669689759938,-0.16830642955600436,0.0,0.16830642955600436,-0.19723194123049093,0.0,0.19723194123049093,-0.5564405580897125,0.0,0.5564405580897125,-0.18160376382839213,0,0.18160376382839213,-0.021228323612590135,0.01602990865204009,0.019260669689759938,0.4,0.03344440460205078,0.3724558353424072,STABILIZE
0.035,0.005,0.05,-0.06418963483500639,-0.006673877238665831,-0.00032094817417503197,-0.0048063211113488795,-0.011801146524189742,0.035,0.005,0.05,-0.05734985592600571,-0.005722488278082343,-0.00028674927963002854,-0.0022428957056336166,-0.00825213326334599,0.002,8e-05,0,-0.1366377986693784,-0.0011480756756134499,-1.0931023893550273e-05,-0.0,-0.0011590066995070003,0.1,0.02,0,-0.061020537790161,-0.017665734994833083,-0.00122041075580322,-0.0,-0.018886145750636303,-0.16349966508806693,0.0,0.16349966508806693,-0.19068220681902373,0.0,0.19068220681902373,-0.5740378378067249,0.0,0.5740378378067249,-0.17665734994833082,0,0.17665734994833082,-0.011826533800170007,0.008215708183404115,0.018886145750636303,0.4,0.033997297286987305,0.40648627281188965,STABILIZE
0.035,0.005,0.05,-0.07034518179419148,-0.006434932264866622,-0.0003517259089709574,0.0031654613593307054,-0.0036211968145068735,0.035,0.005,0.05,-0.06265737190652158,-0.005548411222556621,-0.0003132868595326079,0.004536553180373086,-0.001325144901716143,0.002,8e-05,0,-0.15642077821326011,-0.0011817646212312625,-1.2513662257060811e-05,-0.0,-0.0011942782834883233,0.1,0.02,0,-0.0667636103196912,-0.017153533211489703,-0.001335272206393824,0.0,-0.018488805417883527,-0.15852603493018916,0.0,0.15852603493018916,-0.18385520756761775,0.0,0.18385520756761775,-0.5908823106156312,0.0,0.5908823106156312,-0.17153533211489702,0,0.17153533211489702,-0.0036251478733314493,0.0013142976361614166,0.018488805417883527,0.4,0.03348040580749512,0.4399421215057373,STABILIZE
0.035,0.005,0.05,-0.0763530178685585,-0.006287591561443841,-0.0003817650893427925,0.0038770210464999146,-0.0027923356042867196,0.035,0.005,0.05,-0.06773554051527331,-0.005314634037404286,-0.00033867770257636656,0.005546916163904705,-0.00010639557607594781,0.002,8e-05,0,-0.1768679316082463,-0.0012228158363316783,-1.4149434528659705e-05,-0.0,-0.001236965270860338,0.1,0.02,0,-0.07214677409389043,-0.016096660952012846,-0.0014429354818778087,0.0,-0.017539596433890654,-0.15184668678297958,0.0,0.15184668678297958,-0.17964547318410973,0.0,0.17964547318410973,-0.6114079181658392,0.0,0.6114079181658392,-0.16096660952012845,0,0.16096660952012845,-0.0027926234917950606,9.855038635223918e-05,0.017539596433890654,0.4,0.03344273567199707,0.47339677810668945,STABILIZE
0.035,0.005,0.05,-0.08223973992256799,-0.006137211151493919,-0.0004111986996128399,0.0051320358848895315,-0.0014163739662172272,0.035,0.005,0.05,-0.07264760762419384,-0.005121083136109786,-0.0003632380381209692,0.006633880395977631,0.0011495592217468757,0.002,8e-05,0,-0.198283333547088,-0.0012758091601203264,-1.5862666683767042e-05,-0.0,-0.0012916718268040934,0.1,0.02,0,-0.07732243313756627,-0.015416832325721911,-0.0015464486627513256,0.0,-0.016963280988473238,-0.14631666103170815,0.0,0.14631666103170815,-0.1753488900426834,0.0,0.1753488900426834,-0.6379045800601632,0.0,0.6379045800601632,-0.1541683232572191,0,0.1541683232572191,-0.0014132756720549194,-0.0011533661566297659,0.016963280988473238,0.4,0.033571481704711914,0.5069749355316162,STABILIZE
0.035,0.005,0.05,-0.08791513220508879,-0.005870073128858282,-0.00043957566102544396,0.008759791568680729,0.0024501427787970032,0.035,0.005,0.05,-0.07740262878666809,-0.004918130864532061,-0.00038701314393334047,0.008257473913773091,0.00295232990530769,0.002,8e-05,0,-0.21991039752523506,-0.0012782245152861682,-1.7592831802018804e-05,-0.0,-0.001295817347088187,0.1,0.02,0,-0.08216549414931856,-0.014311973461824426,-0.0016433098829863712,0.0,-0.0159552833448108,-0.140518024700916,0.0,0.140518024700916,-0.1677163751102366,0.0,0.1677163751102366,-0.6391122576430841,0.0,0.6391122576430841,-0.14311973461824426,0,0.14311973461824426,0.0024575097833751834,-0.002946200463458058,0.0159552833448108,0.4,0.03383922576904297,0.5408024787902832,STABILIZE
0.035,0.005,0.05,-0.09315103945634898,-0.005464097074469592,-0.0004657551972817449,0.010291769930388626,0.0043619176586372896,0.035,0.005,0.05,-0.0816236999459418,-0.004405032684061441,-0.000408118499729709,0.011214708326723038,0.006401557142931888,0.002,8e-05,0,-0.24232152941173915,-0.0013364484270433166,-1.9385722352939134e-05,-0.0,-0.0013558341493962558,0.1,0.02,0,-0.0864692447175399,-0.012832329724385475,-0.001729384894350798,0.0,-0.014561714618736274,-0.12585807668746973,0.0,0.12585807668746973,-0.15611705927055977,0.0,0.15611705927055977,-0.6682242135216583,0.0,0.6682242135216583,-0.12832329724385474,0,0.12832329724385474,0.004376244044117009,-0.006391771865553753,0.014561714618736274,0.4,0.0335383415222168,0.574329137802124,STABILIZE
0.035,0.005,0.05,-0.09817714638807375,-0.00526153598526465,-0.0004908857319403687,0.009983681731727496,0.0042312600145224775,0.035,0.005,0.05,-0.08577953670287411,-0.004350501281114063,-0.00042889768351437056,0.010195179604074168,0.0054157806394457345,0.002,8e-05,0,-0.26494267103776087,-0.0013531853614950867,-2.1195413683020873e-05,-0.0,-0.0013743807751781076,0.1,0.02,0,-0.09050692640579958,-0.01207660480902668,-0.0018101385281159915,0.0,-0.013886743337142671,-0.12430003660325893,0.0,0.12430003660325893,-0.15032959957898998,0.0,0.15032959957898998,-0.6765926807475433,0.0,0.6765926807475433,-0.1207660480902668,0,0.1207660480902668,0.004242665800785822,-0.005406850113322396,0.013886743337142671,0.4,0.03343391418457031,0.6077830791473389,STABILIZE
0.035,0.005,0.05,-0.10301011768675747,-0.005055208018328875,-0.0005150505884337873,0.010486653174828052,0.004916394568065389,0.035,0.005,0.05,-0.0897964601211746,-0.004201635436721135,-0.00044898230060587304,0.009469042193105823,0.004818424455778815,0.002,8e-05,0,-0.2879758619641439,-0.0013767049503771633,-2.303806895713151e-05,-0.0,-0.0013997430193342947,0.1,0.02,0,-0.09435388250324477,-0.011496721231902908,-0.0018870776500648954,0.0,-0.013383798881967803,-0.12004672676346101,0.0,0.12004672676346101,-0.14443451480939642,0.0,0.14443451480939642,-0.6883524751885817,0.0,0.6883524751885817,-0.11496721231902908,0,0.11496721231902908,0.004926053104584468,-0.004808549739345944,0.013383798881967803,0.4,0.03346133232116699,0.6412596702575684,STABILIZE
0.035,0.005,0.05,-0.10767158403103576,-0.0048772414770466965,-0.0005383579201551788,0.010726858285510774,0.005311258888308898,0.035,0.005,0.05,-0.09364990958103264,-0.004031822209419513,-0.0004682495479051632,0.009272200888013922,0.004772129130689246,0.002,8e-05,0,-0.3116105107245136,-0.0014130671793681506,-2.4928840857961092e-05,-0.0,-0.0014379960202261118,0.1,0.02,0,-0.09808645600182893,-0.011158145735325309,-0.0019617291200365785,0.0,-0.013119874855361887,-0.11519492026912893,0.0,0.11519492026912893,-0.13934975648704845,0.0,0.13934975648704845,-0.7065335896840753,0.0,0.7065335896840753,-0.11158145735325309,0,0.11158145735325309,0.005320542359459184,-0.00476177660330823,0.013119874855361887,0.4,0.03345155715942383,0.674755334854126,STABILIZE
0.035,0.005,0.05,-0.11229509085789062,-0.004747385893730599,-0.0005614754542894531,0.009559783076652065,0.004250921728632014,0.035,0.005,0.05,-0.09728588059131542,-0.003733390720647394,-0.0004864294029565771,0.010060065297375832,0.0058402451737718615,0.002,8e-05,0,-0.33580389503112684,-0.0014195202989545372,-2.686431160249015e-05,-0.0,-0.0014463846105570272,0.1,0.02,0,-0.10176413094265374,-0.010789177250473033,-0.002035282618853075,0.0,-0.012824459869326107,-0.10666830630421124,0.0,0.10666830630421124,-0.13563959696373137,0.0,0.13563959696373137,-0.7097601494772686,0.0,0.7097601494772686,-0.10789177250473032,0,0.10789177250473032,0.004261911756386059,-0.005832230054918924,0.012824459869326107,0.4,0.03408670425415039,0.7088165283203125,STABILIZE
0.035,0.005,0.05,-0.11676262936041544,-0.004552087895076731,-0.0005838131468020772,0.0077257004592353636,0.002589799417356555,0.035,0.005,0.05,-0.10090975905275269,-0.0036924613561170514,-0.0005045487952637634,0.006029404761050652,0.0018323946096698365,0.002,8e-05,0,-0.36065481251487413,-0.0014469273096568587,-2.8852385001189933e-05,-0.0,-0.0014757796946580487,0.1,0.02,0,-0.1053187087677456,-0.010348140532014166,-0.002106374175354912,0.0,-0.012454514707369078,-0.1054988958890586,0.0,0.1054988958890586,-0.13005965414504944,0.0,0.13005965414504944,-0.7234636548284293,0.0,0.7234636548284293,-0.10348140532014165,0,0.10348140532014165,0.002593104663488256,-0.0018277142095751411,0.012454514707369078,0.4,0.034349918365478516,0.74312424659729,STABILIZE
0.035,0.005,0.05,-0.12084470973815939,-0.004230302858201521,-0.000604223548690797,0.008716883477361393,0.0038823570704690754,0.035,0.005,0.05,-0.10423444978152303,-0.0034454119936575883,-0.0005211722489076152,0.007653356869293947,0.003686772626728743,0.002,8e-05,0,-0.38560324984225053,-0.0014773901815789423,-3.084825998738005e-05,-0.0,-0.0015082384415663224,0.1,0.02,0,-0.10862250637714142,-0.009782172097587355,-0.0021724501275428285,0.0,-0.011954622225130183,-0.09844034267593109,0.0,0.09844034267593109,-0.12086579594861488,0.0,0.12086579594861488,-0.7386950907894712,0.0,0.7386950907894712,-0.09782172097587355,0,0.09782172097587355,0.0038886458769187005,-0.0036801388652795116,0.011954622225130183,0.4,0.03377366065979004,0.7769184112548828,STABILIZE
0.035,0.005,0.05,-0.12480956299518313,-0.003998097236139371,-0.0006240478149759156,0.008866572860085945,0.004244427808970658,0.035,0.005,0.05,-0.10750936543043783,-0.0033023747300914134,-0.0005375468271521892,0.007559686447021133,0.0037197648897775307,0.002,8e-05,0,-0.41159392516203674,-0.0014976342005286517,-3.292751401296294e-05,-0.0,-0.0015305617145416146,0.1,0.02,0,-0.1118871626866283,-0.00940579819858909,-0.002237743253732566,0.0,-0.011643541452321656,-0.09435356371689751,0.0,0.09435356371689751,-0.11423134960398203,0.0,0.11423134960398203,-0.7488171002643258,0.0,0.7488171002643258,-0.09405798198589088,0,0.09405798198589088,0.004250528532949451,-0.003712792136838217,0.011643541452321656,0.4,0.03470897674560547,0.8116352558135986,STABILIZE
0.035,0.005,0.05,-0.128505404103739,-0.0038671112415221104,-0.0006425270205186951,0.008465361459723651,0.003955723197682845,0.035,0.005,0.05,-0.11051222037804058,-0.003142011191350255,-0.0005525611018902029,0.007479043714038032,0.003784471420797574,0.002,8e-05,0,-0.4368050953047275,-0.0015073993652722877,-3.4944407624378204e-05,-0.0,-0.0015423437728966658,0.1,0.02,0,-0.11493940660672838,-0.009124825467787727,-0.0022987881321345676,0.0,-0.011423613599922295,-0.089771748324293,0.0,0.089771748324293,-0.11048889261491743,0.0,0.11048889261491743,-0.7536996826361438,0.0,0.7536996826361438,-0.09124825467787726,0,0.09124825467787726,0.003961745261532223,-0.0037781668086847076,0.011423613599922295,0.4,0.03344988822937012,0.8451011180877686,STABILIZE
0.035,0.005,0.05,-0.1320503214502249,-0.0037111773677204643,-0.0006602516072511245,0.00870954494787844,0.0043381159729068515,0.035,0.005,0.05,-0.11329316931115122,-0.0029113781035197926,-0.0005664658465557561,0.006948615498198305,0.003470771548122756,0.002,8e-05,0,-0.46221776980767043,-0.0015202601882472553,-3.6977421584613636e-05,-0.0,-0.001557237609831869,0.1,0.02,0,-0.11765613593728995,-0.008126132971596652,-0.002353122718745799,0.0,-0.01047925569034245,-0.08318223152913692,0.0,0.08318223152913692,-0.10603363907772755,0.0,0.10603363907772755,-0.7601300941236276,0.0,0.7601300941236276,-0.08126132971596652,0,0.08126132971596652,0.004343034126261689,-0.003464615406040671,0.01047925569034245,0.4,0.0334320068359375,0.8785068988800049,STABILIZE
0.035,0.005,0.05,-0.13546538413373874,-0.0035737287310646866,-0.0006773269206686937,0.008259263506161203,0.0040082078544278225,0.035,0.005,0.05,-0.11603146717722679,-0.0028655209772426395,-0.000580157335886134,0.00699991112586664,0.0035542328127378666,0.002,8e-05,0,-0.4880058005899409,-0.0015420662612319431,-3.9040464047195275e-05,-0.0,-0.0015811067252791385,0.1,0.02,0,-0.12022969640946478,-0.00769465650341438,-0.002404593928189296,0.0,-0.010099250431603675,-0.08187202792121827,0.0,0.08187202792121827,-0.10210653517327675,0.0,0.10210653517327675,-0.7710331306159716,0.0,0.7710331306159716,-0.0769465650341438,0,0.0769465650341438,0.004012977469717687,-0.003548846702659563,0.010099250431603675,0.4,0.03344607353210449,0.9119596481323242,STABILIZE
0.035,0.005,0.05,-0.1387606947094732,-0.0034357995249690056,-0.0006938034735473659,0.0067110212238564145,0.002581418225340043,0.035,0.005,0.05,-0.11873726916818646,-0.0028211584254474713,-0.0005936863458409323,0.00528753566192296,0.0018726908906345568,0.002,8e-05,0,-0.5140615262332912,-0.0015523748105627409,-4.1124922098663296e-05,-0.0,-0.0015934997326614042,0.1,0.02,0,-0.12267378246105201,-0.007280813578684731,-0.0024534756492210403,0.0,-0.00973428922790577,-0.08060452644135632,0.0,0.08060452644135632,-0.09816570071340015,0.0,0.09816570071340015,-0.7761874052813704,0.0,0.7761874052813704,-0.0728081357868473,0,0.0728081357868473,0.002583795846873303,-0.0018694090637588273,0.00973428922790577,0.4,0.0335688591003418,0.9455223083496094,STABILIZE
0.035,0.005,0.05,-0.1417961235652555,-0.003177317542181975,-0.0007089806178262776,0.007008261440326977,0.0031219632803187246,0.035,0.005,0.05,-0.1212065825108319,-0.0025847394136039852,-0.0006060329125541595,0.006130259297004505,0.0029394869708463606,0.002,8e-05,0,-0.5404121943732403,-0.001576137655988607,-4.3232975549859226e-05,-0.0,-0.0016193706315384662,0.1,0.02,0,-0.12473333133276145,-0.006159488089276891,-0.002494666626655229,0.0,-0.00865415471593212,-0.07384969753154243,0.0,0.07384969753154243,-0.09078050120519927,0.0,0.09078050120519927,-0.7880688279943034,0.0,0.7880688279943034,-0.061594880892768905,0,0.061594880892768905,0.0031251215225783775,-0.002936129057884099,0.00865415471593212,0.4,0.03343701362609863,0.9789717197418213,STABILIZE
0.035,0.005,0.05,-0.14472233904042262,-0.0030610346993439745,-0.0007236116952021131,0.006882418767405682,0.0030977723728595943,0.035,0.005,0.05,-0.12348378206224689,-0.002382116731787747,-0.0006174189103112345,0.006490774398517344,0.003491238756418362,0.002,8e-05,0,-0.5667517039677443,-0.0015744598346850993,-4.534013631741955e-05,-0.0,-0.001619799971002519,0.1,0.02,0,-0.12665607487881134,-0.005746656889707659,-0.002533121497576227,0.0,-0.008279778387283887,-0.06806047805107847,0.0,0.06806047805107847,-0.08745813426697069,0.0,0.08745813426697069,-0.7872299173425497,0.0,0.7872299173425497,-0.05746656889707659,0,0.05746656889707659,0.0031012724597090815,-0.003488129994570125,0.008279778387283887,0.4,0.03345847129821777,1.012434959411621,STABILIZE
0.035,0.005,0.05,-0.14754264225689606,-0.002952472863475892,-0.0007377132112844803,0.0064775380789014935,0.002787352004141121,0.035,0.005,0.05,-0.12557014547057624,-0.002184137971570287,-0.0006278507273528812,0.00621164593256569,0.0033996572336425215,0.002,8e-05,0,-0.5932118031681711,-0.001582863743116574,-4.7456944253453694e-05,-0.0,-0.0016303206873700276,0.1,0.02,0,-0.12843950077583738,-0.00533429631074879,-0.0025687900155167477,0.0,-0.007903086326265537,-0.06240394204486533,0.0,0.06240394204486533,-0.08435636752788263,0.0,0.08435636752788263,-0.791431871558287,0.0,0.791431871558287,-0.053342963107487894,0,0.053342963107487894,0.0027905159117066914,-0.0033970607071053672,0.007903086326265537,0.4,0.03343319892883301,1.04585599899292,STABILIZE
0.035,0.005,0.05,-0.15020476676863806,-0.0027855504225595476,-0.0007510238338431903,0.006729186982095806,0.0031926127256930678,0.035,0.005,0.05,-0.12753046151305886,-0.0020512035242538206,-0.0006376523075652943,0.006955401852599352,0.004266546020780237,0.002,8e-05,0,-0.6198540522857873,-0.0015929989742118622,-4.958832418286299e-05,-0.0,-0.0016425872983947252,0.1,0.02,0,-0.13009607946396778,-0.004952525102597409,-0.002601921589279356,0.0,-0.007554446691876765,-0.05860581497868058,0.0,0.05860581497868058,-0.07958715493027278,0.0,0.07958715493027278,-0.7964994871059311,0.0,0.7964994871059311,-0.04952525102597409,0,0.04952525102597409,0.003196299444027028,-0.0042637848008319455,0.007554446691876765,0.4,0.03344917297363281,1.0793206691741943,STABILIZE
0.035,0.005,0.05,-0.15271012805096418,-0.002619670498783403,-0.0007635506402548209,0.00697113632117804,0.003587915182139816,0.035,0.005,0.05,-0.12925876647395962,-0.0018071603288963897,-0.0006462938323697981,0.008660903986225297,0.006207449824959109,0.002,8e-05,0,-0.6476861673003931,-0.0016629702102528066,-5.181489338403145e-05,-0.0,-0.0017147851036368382,0.1,0.02,0,-0.13174396659196602,-0.004923066756302936,-0.0026348793318393205,0.0,-0.007557946088142257,-0.05163315225418256,0.0,0.05163315225418256,-0.07484772853666866,0.0,0.07484772853666866,-0.8314851051264033,0.0,0.8314851051264033,-0.04923066756302936,0,0.04923066756302936,0.0035932475290921073,-0.006204364663548374,0.007557946088142257,0.4,0.03347277641296387,1.1127946376800537,STABILIZE
0.035,0.005,0.05,-0.15504947130900448,-0.002448868595286508,-0.0007752473565450224,0.006222027217297116,0.0029979112654655855,0.035,0.005,0.05,-0.1307926785284611,-0.0016057280372555613,-0.0006539633926423055,0.00836207042681591,0.006102378996918043,0.002,8e-05,0,-0.6756264342541276,-0.0016713370192194034,-5.405011474033021e-05,-0.0,-0.0017253871339597336,0.1,0.02,0,-0.13319362307892063,-0.0043357934908258905,-0.0026638724615784125,0.0,-0.006999665952404303,-0.045877943921587463,0.0,0.045877943921587463,-0.06996767415104307,0.0,0.06996767415104307,-0.8356685096097016,0.0,0.8356685096097016,-0.0433579349082589,0,0.0433579349082589,0.003002528313119979,-0.006100108614323586,0.006999665952404303,0.4,0.03343462944030762,1.1462781429290771,STABILIZE
0.035,0.005,0.05,-0.15734311566574738,-0.0024002427948349634,-0.0007867155783287369,0.005644438500248065,0.002457480127084365,0.035,0.005,0.05,-0.13225438900098171,-0.0015296443057914403,-0.0006612719450049086,0.0072817575353324865,0.005090841284536138,0.002,8e-05,0,-0.7034972513988402,-0.0016666359640056271,-5.627978011190722e-05,-0.0,-0.0017229157441175343,0.1,0.02,0,-0.13441727325138944,-0.003658628618976612,-0.002688345465027789,0.0,-0.006346974084004401,-0.043704123022612576,0.0,0.043704123022612576,-0.06857836556671323,0.0,0.06857836556671323,-0.8333179820028136,0.0,0.8333179820028136,-0.036586286189766115,0,0.036586286189766115,0.0024607303884302944,-0.005089271019979958,0.006346974084004401,0.4,0.03344559669494629,1.1796789169311523,STABILIZE
0.035,0.005,0.05,-0.15948442492815465,-0.0022432905161697187,-0.0007974221246407733,0.006058951120367853,0.0030182384795573607,0.035,0.005,0.05,-0.13367301139983404,-0.0014861852181938969,-0.0006683650569991702,0.005961529710322756,0.0038069794351296886,0.002,8e-05,0,-0.7308951473873339,-0.0016401564971222202,-5.8471611790986716e-05,-0.0,-0.0016986281089132068,0.1,0.02,0,-0.1353327885112906,-0.002740335065094128,-0.002706655770225812,0.0,-0.0054469908353199405,-0.042462434805539906,0.0,0.042462434805539906,-0.06409401474770625,0.0,0.06409401474770625,-0.8200782485611101,0.0,0.8200782485611101,-0.02740335065094128,0,0.02740335065094128,0.003020058931432041,-0.0038055354405994763,0.0054469908353199405,0.4,0.03340888023376465,1.2131543159484863,STABILIZE
0.035,0.005,0.05,-0.16160023900754497,-0.002147702345962978,-0.0008080011950377248,0.005425214273130068,0.0024695107321293657,0.035,0.005,0.05,-0.13498169004666202,-0.001328402257685128,-0.0006749084502333102,0.0061334741267449755,0.004130163418826537,0.002,8e-05,0,-0.7591905586088742,-0.001641249285624517,-6.073524468870994e-05,-0.0,-0.001701984530313227,0.1,0.02,0,-0.1363255222615693,-0.002879130375069278,-0.002726510445231386,0.0,-0.0056056408203006645,-0.037954350219575085,0.0,0.037954350219575085,-0.061362924170370786,0.0,0.061362924170370786,-0.8206246428122586,0.0,0.8206246428122586,-0.028791303750692776,0,0.028791303750692776,0.0024715858399548553,-0.004128921960760421,0.0056056408203006645,0.4,0.03448033332824707,1.2475504875183105,STABILIZE
0.035,0.005,0.05,-0.1637706196168186,-0.0019714337313056357,-0.0008188530980840931,0.005316338382228796,0.002526051552839067,0.035,0.005,0.05,-0.13630988832534677,-0.0012064496325082448,-0.0006815494416267338,0.004954666174955965,0.003066667100820986,0.002,8e-05,0,-0.7908645401315448,-0.0016440343705282753,-6.32691632105236e-05,0.0,-0.001707303533738799,0.1,0.02,0,-0.13736142267226287,-0.002688414587862337,-0.0027472284534452575,0.0,-0.005435643041307595,-0.03446998950023556,0.0,0.03446998950023556,-0.05632667803730387,0.0,0.05632667803730387,-0.8220171852641377,0.0,0.8220171852641377,-0.02688414587862337,0,0.02688414587862337,0.0025274902066272417,-0.0030654814972956267,0.005435643041307595,0.4,0.03853201866149902,1.286137342453003,STABILIZE
0.035,0.005,0.05,-0.16554595194250918,-0.0018568227078190446,-0.0008277297597125459,0.004835303187871169,0.0021507507203395787,0.035,0.005,0.05,-0.13734520005451747,-0.001082834070318504,-0.0006867260002725874,0.004288760719220751,0.002519200648629659,0.002,8e-05,0,-0.8184857577518831,-0.0016508041372754753,-6.547886062015065e-05,0.0,-0.001716282997895626,0.1,0.02,0,-0.13814067035473246,-0.002328618013631563,-0.002762813407094649,0.0,-0.005091431420726212,-0.0309381162948144,0.0,0.0309381162948144,-0.053052077366258416,0.0,0.053052077366258416,-0.8254020686377377,0.0,0.8254020686377377,-0.02328618013631563,0,0.02328618013631563,0.0021517743975048927,-0.0025183263313835577,0.005091431420726212,0.4,0.03346395492553711,1.3195629119873047,STABILIZE
0.035,0.005,0.05,-0.16725223188042465,-0.0017850076743094647,-0.0008362611594021233,0.0050332041338008076,0.0024119353000892196,0.035,0.005,0.05,-0.13824748060545858,-0.0009439117650165041,-0.0006912374030272929,0.004825188574625252,0.003190039406581455,0.002,8e-05,0,-0.8459164317818841,-0.0016397900005234874,-6.767331454255074e-05,0.0,-0.0017074633150660381,0.1,0.02,0,-0.13885224094318116,-0.002126864134524386,-0.0027770448188636234,0.0,-0.004903908953388009,-0.026968907571900114,0.0,0.026968907571900114,-0.0510002192659847,0.0,0.0510002192659847,-0.8198950002617437,0.0,0.8198950002617437,-0.02126864134524386,0,0.02126864134524386,0.002413119301455742,-0.0031891438575738142,0.004903908953388009,0.4,0.03345632553100586,1.3530597686767578,STABILIZE
0.035,0.005,0.05,-0.16880549898335226,-0.0016260008614224562,-0.0008440274949167613,0.005049737038113545,0.002579708681774327,0.035,0.005,0.05,-0.13899405284890626,-0.0007815314627291116,-0.0006949702642445313,0.005841148711140849,0.004364646984167207,0.002,8e-05,0,-0.8734791616114103,-0.0016487651778441862,-6.987833292891283e-05,-0.0,-0.001718643510773099,0.1,0.02,0,-0.1393505466757529,-0.001490398710261797,-0.0027870109335150577,0.0,-0.004277409643776855,-0.0223294703636889,0.0,0.0223294703636889,-0.04645716746921303,0.0,0.04645716746921303,-0.824382588922093,0.0,0.824382588922093,-0.01490398710261797,0,0.01490398710261797,0.002580843942374129,-0.00436397579327985,0.004277409643776855,0.4,0.033434391021728516,1.386476993560791,STABILIZE
0.035,0.005,0.05,-0.17058411851048152,-0.0015572031734143355,-0.0008529205925524076,0.004749364801995355,0.002339241036028612,0.035,0.005,0.05,-0.13982303319874884,-0.0007257824463203325,-0.0006991151659937442,0.004932152603890284,0.003507254991576207,0.002,8e-05,0,-0.9063801744110032,-0.0016460136883402771,-7.251041395288026e-05,-0.0,-0.0017185241022931574,0.1,0.02,0,-0.13995672189510636,-0.0015163252187191027,-0.0027991344379021273,0.0,-0.00431545965662123,-0.020736641323438068,0.0,0.020736641323438068,-0.04449151924040958,0.0,0.04449151924040958,-0.8230068441701386,0.0,0.8230068441701386,-0.015163252187191027,0,0.015163252187191027,0.002340169144488651,-0.00350663579171828,0.00431545965662123,0.4,0.03997659683227539,1.426450252532959,STABILIZE
0.035,0.005,0.05,-0.17201176227500994,-0.00149458030839347,-0.0008600588113750497,0.003977511447879024,0.0016228723281105045,0.035,0.005,0.05,-0.14047326712016164,-0.0006807208065060094,-0.0007023663356008083,0.0044129730421322705,0.003029885900025453,0.002,8e-05,0,-0.9337033940752936,-0.0016345312499937514,-7.469627152602349e-05,0.0,-0.0017092275215197749,0.1,0.02,0,-0.1404825272377182,-0.0015727379029126414,-0.002809650544754364,0.0,-0.004382388447667005,-0.019449165900171695,0.0,0.019449165900171695,-0.042702294525527706,0.0,0.042702294525527706,-0.8172656249968757,0.0,0.8172656249968757,-0.015727379029126413,0,0.015727379029126413,0.0016237039541174565,-0.003029440316280087,0.004382388447667005,0.4,0.0334324836730957,1.4598755836486816,STABILIZE
0.035,0.005,0.05,-0.1733078792527524,-0.0013560357615594837,-0.000866539396263762,0.004182226115871482,0.0019596509580482365,0.035,0.005,0.05,-0.14107871089645935,-0.000633433113192698,-0.0007053935544822968,0.0037614144966706727,0.002422587828995678,0.002,8e-05,0,-0.9608815992655764,-0.0016248365058714564,-7.687052794124611e-05,0.0,-0.0017017070338127026,0.1,0.02,0,-0.14098921571669473,-0.0015146068917750023,-0.0028197843143338945,0.0,-0.004334391206108897,-0.0180980889483628,0.0,0.0180980889483628,-0.03874387890169953,0.0,0.03874387890169953,-0.8124182529357282,0.0,0.8124182529357282,-0.015146068917750022,0,0.015146068917750022,0.001960291297686386,-0.00242206971303313,0.004334391206108897,0.4,0.03345346450805664,1.4933338165283203,STABILIZE
0.035,0.005,0.05,-0.17450900676004208,-0.0012565922904749153,-0.0008725450338002104,0.004418200975328561,0.002289063651053435,0.035,0.005,0.05,-0.14168226514805046,-0.0006314247361998329,-0.0007084113257402523,0.002592181349767943,0.001252345287827858,0.002,8e-05,0,-0.9882499248091026,-0.0016361211408201786,-7.905999398472822e-05,0.0,-0.001715181134804907,0.1,0.02,0,-0.14153611166606356,-0.0016347145958348422,-0.002830722233321271,0.0,-0.004465436829156113,-0.018040706748566653,0.0,0.018040706748566653,-0.035902636870711865,0.0,0.035902636870711865,-0.8180605704100893,0.0,0.8180605704100893,-0.016347145958348422,0,0.016347145958348422,0.002289420866418631,-0.0012516921406343043,0.004465436829156113,0.4,0.03345513343811035,1.526789903640747,STABILIZE
0.035,0.005,0.05,-0.1756330186906205,-0.001105899070249304,-0.0008781650934531025,0.004269730477360052,0.0022856663136576454,0.035,0.005,0.05,-0.1422234319164633,-0.000532446150931525,-0.0007111171595823166,0.001999525233090976,0.0007559619225771344,0.002,8e-05,0,-1.0173384208008514,-0.0016354142970031317,-8.138707366406812e-05,0.0,-0.0017168013706671998,0.1,0.02,0,-0.1422260139619629,-0.0019393853820581482,-0.002844520279239258,-0.0,-0.004783905661297406,-0.01521274716947214,0.0,0.01521274716947214,-0.031597116292837256,0.0,0.031597116292837256,-0.8177071485015658,0.0,0.8177071485015658,-0.01939385382058148,0,0.01939385382058148,0.0022859220656985205,-0.0007551882118574523,0.004783905661297406,0.4,0.03557324409484863,1.5624048709869385,STABILIZE
0.035,0.005,0.05,-0.1768209982068884,-0.0010362527305922253,-0.000884104991034442,0.004273959095678871,0.0023536013740522036,0.035,0.005,0.05,-0.14274180550398782,-0.00045216776735906844,-0.0007137090275199391,0.002172720451772129,0.0010068436568931216,0.002,8e-05,0,-1.0501733658985204,-0.001636646858943333,-8.401386927188163e-05,0.0,-0.0017206607282152146,0.1,0.02,0,-0.14294491555581706,-0.0017916704778566741,-0.0028588983111163414,-0.0,-0.004650568788973015,-0.012919079067401954,0.0,0.012919079067401954,-0.02960722087406358,0.0,0.02960722087406358,-0.8183234294716665,0.0,0.8183234294716665,-0.01791670477856674,0,0.01791670477856674,0.0023539161045125164,-0.0010061076236084065,0.004650568788973015,0.4,0.04012465476989746,1.6025052070617676,STABILIZE
0.035,0.005,0.05,-0.17779008472168656,-0.0010134029575778686,-0.0008889504236084328,0.003933842308160888,0.0020314889269745866,0.035,0.005,0.05,-0.14317587928658723,-0.00045392402884162166,-0.0007158793964329362,0.0017726308468788657,0.0006028274216043079,0.002,8e-05,0,-1.077571500533465,-0.001637203121389453,-8.620572004267721e-05,-0.0,-0.0017234088414321302,0.1,0.02,0,-0.1434636997377348,-0.0015500235568589931,-0.002869273994754696,0.0,-0.00441929755161369,-0.012969257966903475,0.0,0.012969257966903475,-0.02895437021651053,0.0,0.02895437021651053,-0.8186015606947264,0.0,0.8186015606947264,-0.015500235568589931,0,0.015500235568589931,0.002031651935623837,-0.0006022778205565695,0.00441929755161369,0.4,0.033469438552856445,1.6359999179840088,STABILIZE
0.035,0.005,0.05,-0.178798796500831,-0.0008782994742164264,-0.000893993982504155,0.003710879934773466,0.0019385864780528846,0.035,0.005,0.05,-0.1435513222893613,-0.0003269034810066239,-0.0007177566114468064,0.0022716087438099937,0.0012269486513565634,0.002,8e-05,0,-1.1102690142793266,-0.0016268676104618399,-8.882152114234614e-05,-0.0,-0.001715689131604186,0.1,0.02,0,-0.14410377667883317,-0.0015923541645551553,-0.0028820755335766633,-0.0,-0.004474429698131818,-0.00934009945733211,0.0,0.00934009945733211,-0.025094270691897895,0.0,0.025094270691897895,-0.8134338052309199,0.0,0.8134338052309199,-0.015923541645551553,0,0.015923541645551553,0.001938927394579544,-0.0012264098354563852,0.004474429698131818,0.4,0.040196895599365234,1.676185131072998,STABILIZE
0.035,0.005,0.05,-0.17963793895822125,-0.0008728346804884807,-0.0008981896947911062,0.0029080122682560807,0.0011369878929764939,0.035,0.005,0.05,-0.14382701747484042,-0.0002867645618578952,-0.0007191350873742021,0.002595277394087334,0.0015893777448552366,0.002,8e-05,0,-1.1378902004959714,-0.0016417256200946379,-9.103121603967773e-05,-0.0,-0.0017327568361343157,0.1,0.02,0,-0.14466469411008373,-0.0016669677225643641,-0.0028932938822016745,-0.0,-0.004560261604766039,-0.00819327319593986,0.0,0.00819327319593986,-0.024938133728242304,0.0,0.024938133728242304,-0.8208628100473189,0.0,0.8208628100473189,-0.01666967722564364,0,0.01666967722564364,0.0011374502596065582,-0.0015890468814787112,0.004560261604766039,0.4,0.03364896774291992,1.7098109722137451,STABILIZE
0.035,0.005,0.05,-0.18047191404782556,-0.000873076868041391,-0.0009023595702391278,0.0016956169939260754,-7.981944435444329e-05,0.035,0.005,0.05,-0.14406947418497973,-0.000253824541959014,-0.0007203473709248986,0.002081814937473433,0.0011076430245895205,0.002,8e-05,0,-1.165440296182298,-0.0016481034406963355,-9.323522369458385e-05,-0.0,-0.0017413386643909193,0.1,0.02,0,-0.14524805239874403,-0.0017448846886889626,-0.0029049610479748808,0.0,-0.004649845736663843,-0.007252129770257543,0.0,0.007252129770257543,-0.02494505337261117,0.0,0.02494505337261117,-0.8240517203481678,0.0,0.8240517203481678,-0.017448846886889625,0,0.017448846886889625,-7.948211924111165e-05,-0.0011076672814251645,0.004649845736663843,0.4,0.0334324836730957,1.7432494163513184,STABILIZE
0.035,0.005,0.05,-0.18132058223094893,-0.0008770382143873198,-0.0009066029111547447,0.0011662701066442618,-0.0006173710188978026,0.035,0.005,0.05,-0.14433450253177738,-0.00027388794897669204,-0.0007216725126588869,0.0013409213448802519,0.0003453608832446728,0.002,8e-05,0,-1.1930966610785354,-0.0016331935053325289,-9.544773288628284e-05,0.0,-0.0017286412382188118,0.1,0.02,0,-0.1458307811922139,-0.0017205964783078718,-0.0029166156238442783,0.0,-0.00463721210215215,-0.007825369970762629,0.0,0.007825369970762629,-0.025058234696780562,0.0,0.025058234696780562,-0.8165967526662644,0.0,0.8165967526662644,-0.017205964783078717,0,0.017205964783078717,-0.0006172672789343598,-0.0003455462646411082,0.00463721210215215,0.4,0.033867835998535156,1.7772109508514404,STABILIZE
0.035,0.005,0.05,-0.18207412768877737,-0.0007897717198077128,-0.0009103706384438869,0.0017178381470113531,1.769578875975334e-05,0.035,0.005,0.05,-0.14454493311890623,-0.00022054691587663903,-0.0007227246655945312,0.0018122841852164777,0.0008690126037453075,0.002,8e-05,0,-1.2204057368603334,-0.0016355396458537473,-9.763245894882667e-05,-0.0,-0.001733172104802574,0.1,0.02,0,-0.14623968283279998,-0.0012244552869103836,-0.0029247936566559997,0.0,-0.004149248943566383,-0.006301340453618257,0.0,0.006301340453618257,-0.022564906280220363,0.0,0.022564906280220363,-0.8177698229268736,0.0,0.8177698229268736,-0.012244552869103835,0,0.012244552869103835,1.7881503093813e-05,-0.0008690088021735652,0.004149248943566383,0.4,0.033394575119018555,1.8105230331420898,STABILIZE
0.035,0.005,0.05,-0.18281758583814198,-0.0007741532993328218,-0.0009140879291907099,0.0008903015170203488,-0.000797939711503183,0.035,0.005,0.05,-0.14488532960976222,-0.00035445043773169423,-0.0007244266480488111,-0.0002287816550057316,-0.001307658740786237,0.002,8e-05,0,-1.2478755296484894,-0.0016345107358566255,-9.983004237187916e-05,-0.0,-0.0017343407782285047,0.1,0.02,0,-0.14661443108332337,-0.0011149156519813372,-0.0029322886216664673,0.0,-0.0040472042736478045,-0.01012715536376269,0.0,0.01012715536376269,-0.02211866569522348,0.0,0.02211866569522348,-0.8172553679283127,0.0,0.8172553679283127,-0.011149156519813372,0,0.011149156519813372,-0.0007981941530421383,0.0013075034453483376,0.0040472042736478045,0.4,0.03361225128173828,1.844109296798706,STABILIZE
0.035,0.005,0.05,-0.18345941549441108,-0.0006717883576317579,-0.0009172970774720554,0.0017185368115786937,0.0001294513764748804,0.035,0.005,0.05,-0.14501347377968252,-0.00013412555903267434,-0.0007250673688984126,0.001312920070734668,0.00045372714280358115,0.002,8e-05,0,-1.2752449104094272,-0.0016369658363130366,-0.00010201959283275419,0.0,-0.0017389854291457907,0.1,0.02,0,-0.14677107028134334,-0.0004684304296576374,-0.002935421405626867,0.0,-0.003403851835284504,-0.0038321588295049808,0.0,0.0038321588295049808,-0.01919395307519308,0.0,0.01919395307519308,-0.8184829181565183,0.0,0.8184829181565183,-0.004684304296576374,0,0.004684304296576374,0.0001294884712003915,-0.00045371655779145626,0.003403851835284504,0.4,0.03343915939331055,1.877556562423706,STABILIZE
0.035,0.005,0.05,-0.18407783596511004,-0.0006469313329749502,-0.0009203891798255503,0.0019328759440509276,0.0003655554312504271,0.035,0.005,0.05,-0.1451516860078629,-0.00014458418704851655,-0.0007257584300393146,0.0009421017383979911,7.175912131015996e-05,0.002,8e-05,0,-1.3025986880548899,-0.0016351349166395855,-0.0001042078950443912,0.0,-0.0017393428116839768,0.1,0.02,0,-0.14675510335891132,4.772297398600027e-05,-0.0029351020671782263,0.0,-0.002887379093192226,-0.004130976772814758,0.0,0.004130976772814758,-0.018483752370712862,0.0,0.018483752370712862,-0.8175674583197927,0.0,0.8175674583197927,0.0004772297398600027,0,-0.0004772297398600027,0.00036555483353950286,-7.17621661030264e-05,0.002887379093192226,0.4,0.03345751762390137,1.9110453128814697,STABILIZE
0.035,0.005,0.05,-0.1846550227573813,-0.0006033667103770996,-0.0009232751137869065,0.002338054616695385,0.0008114127925313787,0.035,0.005,0.05,-0.1452886460436619,-0.00014317224052892108,-0.0007264432302183095,0.0011234086252779102,0.0002537931545306796,0.002,8e-05,0,-1.3299911315775403,-0.0016362802434907837,-0.00010639929052620324,-0.0,-0.001742679534016987,0.1,0.02,0,-0.14677610554049375,-6.272798329423591e-05,-0.002935522110809875,0.0,-0.002998250094104111,-0.004090635443683459,0.0,0.004090635443683459,-0.01723904886791713,0.0,0.01723904886791713,-0.8181401217453919,0.0,0.8181401217453919,-0.0006272798329423591,0,0.0006272798329423591,0.0008114155710351834,-0.000253784271088361,0.002998250094104111,0.4,0.03348135948181152,1.9445278644561768,STABILIZE
0.035,0.005,0.05,-0.1851770318649373,-0.0005462619923658002,-0.0009258851593246866,0.0020792469412822417,0.0006070997895917549,0.035,0.005,0.05,-0.14535527750943752,-6.972720728810857e-05,-0.0007267763875471876,0.0012944450754613678,0.0004979414806260716,0.002,8e-05,0,-1.3574633258633537,-0.0016427754522182188,-0.00010859706606906831,-0.0,-0.0017513725182872872,0.1,0.02,0,-0.14679143352645266,-4.582895491216983e-05,-0.0029358286705290534,0.0,-0.002981657625441223,-0.0019922059225173875,0.0,0.0019922059225173875,-0.015607485496165719,0.0,0.015607485496165719,-0.8213877261091094,0.0,0.8213877261091094,-0.00045828954912169827,0,0.00045828954912169827,0.0006071037724377142,-0.000497936624624393,0.002981657625441223,0.4,0.03344607353210449,1.977949619293213,STABILIZE
0.035,0.005,0.05,-0.18569444045993294,-0.000541702595882527,-0.0009284722022996647,0.0019854527925425866,0.000515277994360395,0.035,0.005,0.05,-0.14543911415053004,-8.777304155581135e-05,-0.0007271955707526503,0.0022784356960798635,0.001463467083771402,0.002,8e-05,0,-1.3846428970753366,-0.001626042266668161,-0.00011077143176602694,0.0,-0.001736813698434188,0.1,0.02,0,-0.14684611281859267,-0.00016356188888650488,-0.0029369222563718532,0.0,-0.003100484145258358,-0.0025078011873088954,0.0,0.0025078011873088954,-0.015477217025215057,0.0,0.015477217025215057,-0.8130211333340804,0.0,0.8130211333340804,-0.0016356188888650488,0,0.0016356188888650488,0.000515319771650028,-0.0014634523735677243,0.003100484145258358,0.4,0.03343033790588379,2.0113863945007324,STABILIZE
0.035,0.005,0.05,-0.18620750083780507,-0.0005367253280191324,-0.0009310375041890254,0.001153320643145332,-0.000314442189062826,0.035,0.005,0.05,-0.14553834067205954,-0.00010380335261318673,-0.0007276917033602977,0.0002590177383402279,-0.0005724773176332566,0.002,8e-05,0,-1.4117049626514406,-0.0016177317412649692,-0.00011293639701211526,0.0,-0.0017306681382770845,0.1,0.02,0,-0.1469378895580529,-0.0002743141393199947,-0.002938757791161058,0.0,-0.0032130719304810525,-0.0029658100746624777,0.0,0.0029658100746624777,-0.015335009371975211,0.0,0.015335009371975211,-0.8088658706324846,0.0,0.8088658706324846,-0.002743141393199947,0,0.002743141393199947,-0.0003144695971126178,0.0005724622624758932,0.0032130719304810525,0.4,0.03345680236816406,2.044844627380371,STABILIZE
0.035,0.005,0.05,-0.18670521206309246,-0.0005173501459156409,-0.0009335260603154623,0.0011054569376149092,-0.000345419268616194,0.035,0.005,0.05,-0.14558792165228016,-5.1537369559963325e-05,-0.0007279396082614008,0.0007918268619014412,1.234988408007709e-05,0.002,8e-05,0,-1.4389399768197764,-0.0016176952001912875,-0.00011511519814558212,0.0,-0.0017328103983368696,0.1,0.02,0,-0.14710984340716649,-0.0005106825255278988,-0.0029421968681433296,-0.0,-0.0034528793936712283,-0.001472496273141809,0.0,0.001472496273141809,-0.01478143274044688,0.0,0.01478143274044688,-0.8088476000956437,0.0,0.8088476000956437,-0.005106825255278988,0,0.005106825255278988,-0.00034541816648766627,-1.2380671566460887e-05,0.0034528793936712283,0.4,0.03367137908935547,2.0785419940948486,STABILIZE
0.035,0.005,0.05,-0.18720169745043172,-0.0005230347732100861,-0.0009360084872521587,0.0006848101747506816,-0.0007742330857115632,0.035,0.005,0.05,-0.14562873139793975,-4.299203281733918e-05,-0.0007281436569896988,0.0008532660978194702,8.213040801243225e-05,0.002,8e-05,0,-1.46571142036893,-0.0016116021322577052,-0.00011725691362951441,0.0,-0.0017288590458872195,0.1,0.02,0,-0.1470896185010951,6.0875502827370794e-05,-0.002941792370021902,0.0,-0.0028809168671945313,-0.0012283437947811194,0.0,0.0012283437947811194,-0.014943850663145316,0.0,0.014943850663145316,-0.8058010661288526,0.0,0.8058010661288526,0.0006087550282737079,0,-0.0006087550282737079,-0.0007742339582853453,-8.212218195191637e-05,0.0028809168671945313,0.4,0.03322339057922363,2.1117491722106934,STABILIZE
0.035,0.005,0.05,-0.18760632303875777,-0.0004235334468946976,-0.0009380316151937889,0.0010472029104317813,-0.0003143621516567053,0.035,0.005,0.05,-0.14557861862067376,5.245451079043811e-05,-0.0007278930931033688,0.0010414240847989515,0.00036598550248602077,0.002,8e-05,0,-1.492842266805566,-0.0016227800627830614,-0.0001194273813444453,0.0,-0.0017422074441275066,0.1,0.02,0,-0.1469413546607599,0.00044340600410224277,-0.002938827093215198,0.0,-0.002495421089112955,0.0014987003082982315,0.0,-0.0014987003082982315,-0.012100955625562787,0.0,0.012100955625562787,-0.8113900313915307,0.0,0.8113900313915307,0.004434060041022428,0,-0.004434060041022428,-0.00031439047394794714,-0.0003659611732342158,0.002495421089112955,0.4,0.033437490463256836,2.1451828479766846,STABILIZE
0.035,0.005,0.05,-0.18788832941727218,-0.0002953106696769348,-0.0009394416470863609,0.002104333547199724,0.0008695812304364281,0.035,0.005,0.05,-0.14539794839185408,0.00018919375705077316,-0.0007269897419592704,0.002364553676549056,0.0018267576916405587,0.002,8e-05,0,-1.520210780661912,-0.001637696321937519,-0.00012161686245295298,-0.0,-0.001759313184390472,0.1,0.02,0,-0.14676986237230366,0.0005130937900383749,-0.0029353972474460734,0.0,-0.0024223034574076983,0.005405535915736375,0.0,-0.005405535915736375,-0.008437447705055279,0.0,0.008437447705055279,-0.8188481609687596,0.0,0.8188481609687596,0.005130937900383749,0,-0.005130937900383749,0.0008694176375833151,-0.0018268355568453124,0.0024223034574076983,0.4,0.03342318534851074,2.1786067485809326,STABILIZE
0.035,0.005,0.05,-0.1881829158043844,-0.0003079679121744647,-0.000940914579021922,0.001953810773108257,0.0007049282819118702,0.035,0.005,0.05,-0.14521100646149823,0.0001954337284689929,-0.0007260550323074912,0.002554701686566489,0.0020240803827279905,0.002,8e-05,0,-1.548362211062898,-0.0016817258995966097,-0.00012386897688503187,-0.0,-0.0018055948764816416,0.1,0.02,0,-0.14650050874542045,0.0008045398831028967,-0.002930010174908409,0.0,-0.0021254702918055124,0.005583820813399797,0.0,-0.005583820813399797,-0.008799083204984704,0.0,0.008799083204984704,-0.8408629497983048,0.0,0.8408629497983048,0.008045398831028967,0,-0.008045398831028967,0.000704644056228629,-0.0020241793478852545,0.0021254702918055124,0.4,0.03347921371459961,2.2121121883392334,STABILIZE
0.035,0.005,0.05,-0.18847998965792562,-0.0003110712352588756,-0.0009423999482896282,0.0017628781935865913,0.0005094070100380875,0.035,0.005,0.05,-0.14508199289930507,0.00013509236063079998,-0.0007254099644965254,0.0015954133468371438,0.0010050957429714184,0.002,8e-05,0,-1.5764945273564352,-0.0016833052071649928,-0.00012611956218851482,-0.0,-0.0018094247693535076,0.1,0.02,0,-0.14621289413407712,0.0008604751345024687,-0.0029242578826815424,0.0,-0.0020637827481790735,0.0038597817323085706,0.0,-0.0038597817323085706,-0.008887749578825016,0.0,0.008887749578825016,-0.8416526035824964,0.0,0.8416526035824964,0.008604751345024687,0,-0.008604751345024687,0.0005092560577666729,-0.0010051722350140591,0.0020637827481790735,0.4,0.033425092697143555,2.245555877685547,STABILIZE
0.035,0.005,0.05,-0.18878311719010316,-0.0003169196060542123,-0.0009439155859505158,0.001761850793901766,0.0005010156018970379,0.035,0.005,0.05,-0.14501370168973207,7.139840805408904e-05,-0.0007250685084486604,0.0009783172241412193,0.000324647123746648,0.002,8e-05,0,-1.6045684415585553,-0.0016772146345555797,-0.00012836547532468442,-0.0,-0.0018055801098802642,0.1,0.02,0,-0.1459128322695307,0.0008963270081720348,-0.002918256645390614,0.0,-0.002021929637218579,0.0020399545158311153,0.0,-0.0020399545158311153,-0.009054845887263206,0.0,0.009054845887263206,-0.8386073172777898,0.0,0.8386073172777898,0.008963270081720348,0,-0.008963270081720348,0.0005009648084332507,-0.00032472549794042825,0.002021929637218579,0.4,0.033476829528808594,2.279038429260254,STABILIZE
0.035,0.005,0.05,-0.18910191242974494,-0.0003338184601935078,-0.0009455095621487248,0.0007671882381677387,-0.0005121397841744939,0.035,0.005,0.05,-0.1450431220965381,-3.0806843004583535e-05,-0.0007252156104826905,-0.0007108939010583174,-0.0014669163545455914,0.002,8e-05,0,-1.6323488104792425,-0.0016622581920127013,-0.00013058790483833942,-0.0,-0.0017928460968510407,0.1,0.02,0,-0.1456041496742318,0.0009235121647093139,-0.002912082993484636,0.0,-0.001988570828775322,-0.0008801955144166723,0.0,0.0008801955144166723,-0.00953767029124308,0.0,0.00953767029124308,-0.8311290960063507,0.0,0.8311290960063507,0.009235121647093138,0,-0.009235121647093138,-0.0005119033351339376,0.0014669988838599626,0.001988570828775322,0.4,0.03342485427856445,2.3124263286590576,STABILIZE
0.035,0.005,0.05,-0.18934879001389981,-0.0002579394851114725,-0.0009467439500694991,0.0003182651688303649,-0.0008864182663506066,0.035,0.005,0.05,-0.14511324271149958,-7.326252555808007e-05,-0.0007255662135574979,-0.0022418998992744677,-0.0030407286383900456,0.002,8e-05,0,-1.6599773828749127,-0.0016495161270196717,-0.00013279819062999302,-0.0,-0.0017823143176496647,0.1,0.02,0,-0.14543341911716293,0.0005096586302524705,-0.0029086683823432587,-0.0,-0.002399009752090788,-0.0020932150159451443,0.0,0.0020932150159451443,-0.007369699574613499,0.0,0.007369699574613499,-0.8247580635098358,0.0,0.8247580635098358,0.005096586302524705,0,-0.005096586302524705,-0.0008861477833068396,0.0030408074752252515,0.002399009752090788,0.4,0.03349900245666504,2.34596586227417,STABILIZE
0.035,0.005,0.05,-0.18952992474809083,-0.000184193282942787,-0.0009476496237404542,0.001038458132291909,-9.338477439133227e-05,0.035,0.005,0.05,-0.14522613551572852,-0.00011479905455139069,-0.0007261306775786426,-0.0026399514458538284,-0.003480881177983862,0.002,8e-05,0,-1.6881616709012264,-0.0016377253452189247,-0.0001350529336720981,0.0,-0.0017727782788910227,0.1,0.02,0,-0.1453978371491177,0.00010337939146460603,-0.0029079567429823538,-0.0,-0.0028045773515177476,-0.003279972987182591,0.0,0.003279972987182591,-0.00526266522693677,0.0,0.00526266522693677,-0.8188626726094623,0.0,0.8188626726094623,0.0010337939146460601,0,-0.0010337939146460601,-9.332196846250578e-05,0.003480882862368787,0.0028045773515177476,0.4,0.03441882133483887,2.3803560733795166,STABILIZE
0.035,0.005,0.05,-0.18964869555125777,-0.0001242314099112224,-0.0009482434777562888,0.0015769742483123196,0.0005044993606448083,0.035,0.005,0.05,-0.14527830469181882,-5.456770626106894e-05,-0.0007263915234590942,-0.0016098694209871235,-0.002390828650707287,0.002,8e-05,0,-1.7151651073152292,-0.001613996941388512,-0.00013721320858521834,0.0,-0.0017512101499737303,0.1,0.02,0,-0.1453528540708752,0.00013443205817309192,-0.002907057081417504,-0.0,-0.002772625023244412,-0.0015590773217448268,0.0,0.0015590773217448268,-0.003549468854606354,0.0,0.003549468854606354,-0.806998470694256,0.0,0.806998470694256,0.001344320581730919,0,-0.001344320581730919,0.0005045554560890664,0.0023908168130713403,0.002772625023244412,0.4,0.033461570739746094,2.413825035095215,STABILIZE
0.035,0.005,0.05,-0.1897342865862221,-8.956190453501672e-05,-0.0009486714329311106,0.0019230347633403333,0.0008848014258742061,0.035,0.005,0.05,-0.1454672670694795,-0.00019772900790144616,-0.0007273363353473975,-0.00228914353783902,-0.0032142088810878638,0.002,8e-05,0,-1.7420161358997774,-0.001605528135549925,-0.00013936129087198222,0.0,-0.0017448894264219072,0.1,0.02,0,-0.1451874845090775,0.0004944046806135241,-0.00290374969018155,-0.0,-0.002409345009568026,-0.005649400225755604,0.0,0.005649400225755604,-0.0025589115581433346,0.0,0.0025589115581433346,-0.8027640677749625,0.0,0.8027640677749625,0.004944046806135242,0,-0.004944046806135242,0.0008850787763270764,0.0032141325196992873,0.002409345009568026,0.4,0.033448219299316406,2.447279930114746,STABILIZE
0.035,0.005,0.05,-0.18981818166561856,-8.780354004712806e-05,-0.0009490909083280928,0.0020825081889268306,0.0010456137405516098,0.035,0.005,0.05,-0.14569880833950535,-0.0002423281951877765,-0.0007284940416975268,-0.001796533573154683,-0.0027673558100399865,0.002,8e-05,0,-1.7686742185017452,-0.0015942866053036962,-0.00014149393748013963,0.0,-0.0017357805427838358,0.1,0.02,0,-0.1449697977841888,0.0006509377190106907,-0.0028993959556837764,-0.0,-0.0022484582366730857,-0.006923662719650756,0.0,0.006923662719650756,-0.002508672572775087,0.0,0.002508672572775087,-0.7971433026518481,0.0,0.7971433026518481,0.006509377190106906,0,-0.006509377190106906,0.0010459281332742389,0.0027672369999365547,0.0022484582366730857,0.4,0.033442020416259766,2.480706214904785,STABILIZE
0.035,0.005,0.05,-0.18989880303213283,-8.434664511048762e-05,-0.0009494940151606641,0.0014648569737016393,0.0004310163134304875,0.035,0.005,0.05,-0.1459756162433484,-0.0002895983910803264,-0.000729878081216742,-0.001838136919061875,-0.0028576133913589432,0.002,8e-05,0,-1.795289452415421,-0.001591145507173986,-0.0001436231561932337,0.0,-0.0017347686633672197,0.1,0.02,0,-0.1446973986858215,0.0008142453358313672,-0.00289394797371643,0.0,-0.0020797026378850626,-0.008274239745152182,0.0,0.008274239745152182,-0.002409904146013932,0.0,0.002409904146013932,-0.795572753586993,0.0,0.795572753586993,0.008142453358313671,0,-0.008142453358313671,0.00043142241200354786,0.002857552109645283,0.0020797026378850626,0.4,0.033454179763793945,2.5142223834991455,STABILIZE
0.035,0.005,0.05,-0.18998815197575744,-8.783201711185136e-05,-0.0009499407598787872,0.000824712958667498,-0.00021305981832314062,0.035,0.005,0.05,-0.14623279021853108,-0.00025280779013876157,-0.0007311639510926554,-0.0011981052442151712,-0.0021820769854465883,0.002,8e-05,0,-1.8234784173755467,-0.0015834505877767642,-0.00014587827339004376,0.0,-0.001729328861166808,0.1,0.02,0,-0.14447375671921595,0.0006281287801343893,-0.002889475134384319,0.0,-0.0022613463542499298,-0.00722307971825033,0.0,0.00722307971825033,-0.0025094862031957528,0.0,0.0025094862031957528,-0.7917252938883821,0.0,0.7917252938883821,0.006281287801343892,0,-0.006281287801343892,-0.0002128205977907191,0.0021821003299013456,0.0022613463542499298,0.4,0.03560447692871094,2.5497941970825195,STABILIZE
0.035,0.005,0.05,-0.1901148395027884,-0.000132534777002945,-0.000950574197513942,-6.903962500824839e-05,-0.0011521485995251355,0.035,0.005,0.05,-0.146432126606184,-0.00020853673842489713,-0.0007321606330309199,-0.001334318854753575,-0.002275016226209392,0.002,8e-05,0,-1.8498231045761202,-0.0015748927753501069,-0.00014798584836608962,0.0,-0.0017228786237161965,0.1,0.02,0,-0.14420111243051897,0.0008149375948938432,-0.0028840222486103797,0.0,-0.0020690846537165363,-0.0059581925264256316,0.0,0.0059581925264256316,-0.0037867079143698566,0.0,0.0037867079143698566,-0.7874463876750534,0.0,0.7874463876750534,0.008149375948938432,0,-0.008149375948938432,-0.001151825004482917,0.0022751800772579916,0.0020690846537165363,0.4,0.033455848693847656,2.5832481384277344,STABILIZE
0.035,0.005,0.05,-0.19027009201960163,-0.00016228749424860493,-0.0009513504600980082,-0.0006190710684492438,-0.001732709022795857,0.035,0.005,0.05,-0.14665463114746655,-0.0002325869184273897,-0.0007332731557373327,-0.0003166609794850234,-0.001282521053649746,0.002,8e-05,0,-1.8763235515721381,-0.0015829294393526721,-0.00015010588412577106,0.0,-0.0017330353234784432,0.1,0.02,0,-0.1440648104595803,0.0004070806852296127,-0.002881296209191606,-0.0,-0.0024742155239619932,-0.006645340526496848,0.0,0.006645340526496848,-0.004636785549960141,0.0,0.004636785549960141,-0.791464719676336,0.0,0.791464719676336,0.004070806852296127,0,-0.004070806852296127,-0.00173261789660635,0.0012826441576261186,0.0024742155239619932,0.4,0.03348278999328613,2.6167027950286865,STABILIZE
0.035,0.005,0.05,-0.1904678853601352,-0.0001924175224852413,-0.000952339426800676,-0.0008733682729710386,-0.002018125222256956,0.035,0.005,0.05,-0.14691601811602337,-0.0002542827415925672,-0.0007345800905801168,-0.00010791977108846178,-0.0010967826032611458,0.002,8e-05,0,-1.9048125989722016,-0.001583699692068705,-0.00015238500791777613,0.0,-0.001736084699986481,0.1,0.02,0,-0.14406558642905426,-2.156798364825064e-06,-0.0028813117285810853,-0.0,-0.0028834685269459102,-0.007265221188359062,0.0,0.007265221188359062,-0.005497643499578322,0.0,0.005497643499578322,-0.7918498460343525,0.0,0.7918498460343525,-2.156798364825064e-05,0,2.156798364825064e-05,-0.002018125635121241,0.0010967818435734932,0.0028834685269459102,0.4,0.035977840423583984,2.6527178287506104,STABILIZE
