E-kp,E-ki,E-kd,E-I-Tot,E-P,E-I,E-D,E-PID,N-kp,N-ki,N-kd,N-I-Tot,N-P,N-I,N-D,N-PID,D-kp,D-ki,D-kd,D-I-Tot,D-P,D-I,D-D,D-PID,Y-kp,Y-ki,Y-kd,Y-I-Tot,Y-P,Y-I,Y-D,Y-PID,errorN,desiredN,actualN,errorE,desiredE,actualE,errorD,desiredD,actualD,errorY,desiredY,actualY,roll,pitch,yaw-rate,thrust,dt,Time,Mode
0.17,0.004,0.1,-0.00013496855784995355,-0.0006945901722885962,-5.398742313998142e-07,-0.012368778670445023,-0.01306390871696502,0.17,0.004,0.1,-0.00012195123198119686,-0.0006275989651367179,-4.878049279247875e-07,-0.011175845848782178,-0.01180393261884682,0.002,8e-05,0,-0.024064989164555378,-0.001457010801906162,-1.92519913316443e-06,-0.0,-0.0014589360010393265,0.2,0.02,0,-0.0005174498160251617,-0.00313289138107512,-1.0348996320503235e-05,-0.0,-0.0031432403773956233,-0.0036917586184512814,0.0,0.0036917586184512814,-0.004085824542874095,0.0,0.004085824542874095,-0.728505400953081,0.0,0.728505400953081,-0.015664456905375598,0,0.015664456905375598,-0.013067135380766565,0.0118003605528047,0.0031432403773956233,0.4,0.03303337097167969,0.03337287902832031,STABILIZE
0.17,0.004,0.1,-0.0003025212918371238,-0.0008521548624335946,-1.2100851673484951e-06,-0.007570819724289754,-0.008424184671890697,0.17,0.004,0.1,-0.0004074987374373965,-0.0014522633527956404,-1.6299949497495859e-06,-0.012844242641579656,-0.014298135989325046,0.002,8e-05,0,-0.04854025140715023,-0.0014644529925557364,-3.883220112572019e-06,-0.0,-0.0014683362126683083,0.2,0.02,0,-0.0011058533327910056,-0.0035206539665117147,-2.2117066655820114e-05,-0.0,-0.003542771033167535,-0.008542725604680237,0.0,0.008542725604680237,-0.005012675661374086,0.0,0.005012675661374086,-0.7322264962778682,0.0,0.7322264962778682,-0.017603269832558572,0,0.017603269832558572,-0.008428577162291746,0.014295547110014512,0.003542771033167535,0.4,0.03342580795288086,0.06670165061950684,STABILIZE
0.17,0.004,0.1,-0.0005017311969764226,-0.0010104426344237235,-2.0069247879056904e-06,-0.00597325156347661,-0.0069857011226882385,0.17,0.004,0.1,-0.000853784308933692,-0.002263672422577014,-3.4151372357347683e-06,-0.013309853157412309,-0.015576940717225058,0.002,8e-05,0,-0.07333620027608283,-0.001479662066864798,-5.866896022086627e-06,-0.0,-0.0014855289628868847,0.2,0.02,0,-0.0017602153840476894,-0.0039048100573133393,-3.5204307680953785e-05,-0.0,-0.003940014364994293,-0.013315720132805964,0.0,0.013315720132805964,-0.005943780202492491,0.0,0.005943780202492491,-0.739831033432399,0.0,0.739831033432399,-0.019524050286566695,0,0.019524050286566695,-0.006991008699138987,0.015574559372644693,0.003940014364994293,0.4,0.03351569175720215,0.1002206802368164,STABILIZE
0.17,0.004,0.1,-0.0008611916753124846,-0.0018277985606307342,-3.4447667012499385e-06,-0.0066440082307947824,-0.008475251558126767,0.17,0.004,0.1,-0.0013515108668853881,-0.002530859276722138,-5.406043467541553e-06,-0.011151586274688548,-0.013687851594878227,0.002,8e-05,0,-0.09773310499259395,-0.0014594626575492803,-7.818648399407517e-06,-0.0,-0.0014672813059486878,0.2,0.02,0,-0.0023623846665287015,-0.003602274925923309,-4.7247693330574034e-05,-0.0,-0.003649522619253883,-0.014887407510130223,0.0,0.014887407510130223,-0.010751756239004318,0.0,0.010751756239004318,-0.7297313287746402,0.0,0.7297313287746402,-0.018011374629616543,0,0.018011374629616543,-0.008479554022068788,0.013685186657249425,0.003649522619253883,0.4,0.033432722091674805,0.13365960121154785,STABILIZE
0.17,0.004,0.1,-0.0011606406486896778,-0.0015184698751994153,-4.642562594758711e-06,-0.003910530172561213,-0.005433642610355388,0.17,0.004,0.1,-0.0020031575595141123,-0.0033044223223421933,-8.012630238056449e-06,-0.01083842912170177,-0.01415086407428202,0.002,8e-05,0,-0.12300419606332892,-0.0015076079503651579,-9.840335685066314e-06,-0.0,-0.001517448286050224,0.2,0.02,0,-0.002754000122691683,-0.0023362765523048624,-5.5080002453833667e-05,0.0,-0.002391356554758696,-0.019437778366718783,0.0,0.019437778366718783,-0.008932175736467148,0.0,0.008932175736467148,-0.7538039751825789,0.0,0.7538039751825789,-0.011681382761524311,0,0.011681382761524311,-0.005436527555626747,0.014149755976792898,0.002391356554758696,0.4,0.03352475166320801,0.16719913482666016,STABILIZE
0.17,0.004,0.1,-0.0016468858226972023,-0.002470962870970456,-6.58754329078881e-06,-0.008567311544200353,-0.011044861958461598,0.17,0.004,0.1,-0.002635469593006568,-0.0032132340661616657,-1.0541878372026272e-05,-0.00555692529024332,-0.008780701234777012,0.002,8e-05,0,-0.14807570661953223,-0.0014988994179003477,-1.1846056529562579e-05,-0.0,-0.0015107454744299103,0.2,0.02,0,-0.003057281985113962,-0.001813169597521561,-6.114563970227924e-05,0.0,-0.0018743152372238403,-0.018901376859774503,0.0,0.018901376859774503,-0.014535075711590916,0.0,0.014535075711590916,-0.7494497089501738,0.0,0.7494497089501738,-0.009065847987607805,0,0.009065847987607805,-0.011046251180864214,0.008778953508542043,0.0018743152372238403,0.4,0.03345322608947754,0.20064377784729004,STABILIZE
0.17,0.004,0.1,-0.0019807723794550507,-0.0014700956045921346,-7.923089517820203e-06,0.0013091831987479773,-0.00016883549536197756,0.17,0.004,0.1,-0.00337584610642938,-0.0032598624775285767,-1.350338442571752e-05,-0.00422670829830677,-0.007500074160261064,0.002,8e-05,0,-0.17724359177526167,-0.0015108893546521502,-1.4179487342020935e-05,-0.0,-0.001525068841994171,0.2,0.02,0,-0.0033520053228124364,-0.0015266597187924913,-6.704010645624873e-05,0.0,-0.00159369982524874,-0.01917566163252104,0.0,0.01917566163252104,-0.008647621203483145,0.0,0.008647621203483145,-0.7554446773260751,0.0,0.7554446773260751,-0.007633298593962457,0,0.007633298593962457,-0.00016983470019015567,0.0075000516003905695,0.00159369982524874,0.4,0.038610219955444336,0.23926830291748047,STABILIZE
0.17,0.004,0.1,-0.0023216110571854564,-0.001732516663632792,-9.286444228741825e-06,-0.002038545606454857,-0.003780348714316391,0.17,0.004,0.1,-0.004000835887096963,-0.003176884785544383,-1.6003343548387854e-05,0.0007841675367340341,-0.0024087205923587368,0.002,8e-05,0,-0.2020492113255344,-0.0014834048733158038,-1.6163936906042756e-05,0.0,-0.0014995688102218466,0.2,0.02,0,-0.003615234207151554,-0.001574139315628725,-7.230468414303108e-05,0.0,-0.001646443999771756,-0.01868755756202578,0.0,0.01868755756202578,-0.0101912744919576,0.0,0.0101912744919576,-0.7417024366579019,0.0,0.7417024366579019,-0.007870696578143625,0,0.007870696578143625,-0.0037806795635583405,0.0024082012647573562,0.001646443999771756,0.4,0.03344416618347168,0.2727072238922119,STABILIZE
0.17,0.004,0.1,-0.002716808471295787,-0.002009070970031974,-1.0867233885183149e-05,0.0019226787473722033,-9.72594565449539e-05,0.17,0.004,0.1,-0.004621573373800645,-0.0031556523904754407,-1.848629349520258e-05,0.0003741860618445911,-0.002799952622126052,0.002,8e-05,0,-0.22668210685378057,-0.0014732543205479187,-1.8134568548302448e-05,0.0,-0.001491388889096221,0.2,0.02,0,-0.0038817638663659667,-0.0015940715192882381,-7.763527732731934e-05,0.0,-0.0016717067966155574,-0.018562661120443767,0.0,0.018562661120443767,-0.011818064529599846,0.0,0.011818064529599846,-0.7366271602739594,0.0,0.7366271602739594,-0.00797035759644119,0,0.00797035759644119,-9.764895416329481e-05,0.0027999390653706715,0.0016717067966155574,0.4,0.03344011306762695,0.3061540126800537,STABILIZE
0.17,0.004,0.1,-0.003064381559545827,-0.0017669120862223138,-1.2257526238183309e-05,-0.001740258121518908,-0.0035194277339794054,0.17,0.004,0.1,-0.005271842217174041,-0.0033056871129898972,-2.1087368868696164e-05,-0.0002687298169979044,-0.003595504298856498,0.002,8e-05,0,-0.25118966454072456,-0.0014657162629447727,-2.0095173163257967e-05,0.0,-0.0014858114361080306,0.2,0.02,0,-0.004071431442844284,-0.0011343392717818278,-8.142862885688568e-05,0.0,-0.0012157679006387135,-0.019445218311705276,0.0,0.019445218311705276,-0.010393600507190081,0.0,0.010393600507190081,-0.7328581314723863,0.0,0.7328581314723863,-0.005671696358909139,0,0.005671696358909139,-0.003519783634899274,0.0035951558938791825,0.0012157679006387135,0.4,0.03344106674194336,0.3395869731903076,STABILIZE
0.17,0.004,0.1,-0.0033370945800482764,-0.0013875428006360417,-1.3348378320193107e-05,0.0020245790275891028,0.0006236878486328679,0.17,0.004,0.1,-0.0058897236416857,-0.0031437330005304742,-2.35588945667428e-05,0.00019519892657143465,-0.002972092968525782,0.002,8e-05,0,-0.2756321535829184,-0.0014630764447436174,-2.2050572286633475e-05,0.0,-0.0014851270170302508,0.2,0.02,0,-0.004270202039219637,-0.001189799357022916,-8.540404078439275e-05,0.0,-0.0012752033978073087,-0.018492547061943965,0.0,0.018492547061943965,-0.008162016474329657,0.0,0.008162016474329657,-0.7315382223718087,0.0,0.7315382223718087,-0.00594899678511458,0,0.00594899678511458,0.0006233792541036784,0.002972157709753275,0.0012752033978073087,0.4,0.03341245651245117,0.37299108505249023,STABILIZE
0.17,0.004,0.1,-0.0036374173897655566,-0.0015259613168511058,-1.4549669559062227e-05,0.002834970058670451,0.0012944590722602828,0.17,0.004,0.1,-0.006435027501604484,-0.002770727261605601,-2.5740110006417937e-05,0.002256708671894599,-0.0005397586997174198,0.002,8e-05,0,-0.29998017755984774,-0.0014554590840018314,-2.3998414204787822e-05,0.0,-0.0014794574982066192,0.2,0.02,0,-0.00435562006028929,-0.0005106058496619153,-8.71124012057858e-05,0.0,-0.0005977182508677011,-0.016298395656503536,0.0,0.016298395656503536,-0.008976243040300622,0.0,0.008976243040300622,-0.7277295420009157,0.0,0.7277295420009157,-0.0025530292483095765,0,0.0025530292483095765,0.0012944350199934774,0.0005398163786808232,0.0005977182508677011,0.4,0.03345751762390137,0.40647459030151367,STABILIZE
0.17,0.004,0.1,-0.003946892059970233,-0.001573886936274905,-1.5787568239880934e-05,0.0011339716350428296,-0.00045570286947195634,0.17,0.004,0.1,-0.0069869617777432195,-0.002806957177860737,-2.794784711097288e-05,0.0029239041684360075,8.89991434642975e-05,0.002,8e-05,0,-0.32423127330994767,-0.0014509781163023483,-2.5938501864795816e-05,0.0,-0.0014769166181671442,0.2,0.02,0,-0.004407820630071557,-0.00031232355516253686,-8.815641260143114e-05,0.0,-0.000400479967763968,-0.01651151281094551,0.0,0.01651151281094551,-0.009258158448675911,0.0,0.009258158448675911,-0.7254890581511741,0.0,0.7254890581511741,-0.0015616177758126842,0,0.0015616177758126842,-0.0004557004435979469,-8.901156378239778e-05,0.000400479967763968,0.4,0.03342723846435547,0.4398789405822754,STABILIZE
0.17,0.004,0.1,-0.004415485023366187,-0.002379055046719276,-1.7661940093464747e-05,-0.005807268123584616,-0.008203985110397357,0.17,0.004,0.1,-0.007479260913202736,-0.002499411715922095,-2.9917043652810945e-05,0.00377442771072088,0.001245098951145974,0.002,8e-05,0,-0.34816481741476224,-0.0014295416613572807,-2.785318539318098e-05,0.0,-0.0014573948467504617,0.2,0.02,0,-0.004542133342055768,-0.0008022448183622112,-9.084266684111535e-05,0.0,-0.0008930874852033266,-0.014702421858365265,0.0,0.014702421858365265,-0.01399444145128986,0.0,0.01399444145128986,-0.7147708306786403,0.0,0.7147708306786403,-0.004011224091811056,0,0.004011224091811056,-0.00820389792207602,-0.0012456733014410716,0.0008930874852033266,0.4,0.03348422050476074,0.47338080406188965,STABILIZE
0.17,0.004,0.1,-0.004726053125336698,-0.0015793801833139207,-1.890421250134679e-05,-0.0003055092488997461,-0.0019037936447150136,0.17,0.004,0.1,-0.00793129140555268,-0.0022987808385386737,-3.172516562221072e-05,0.0027652361953141966,0.0004347301911533123,0.002,8e-05,0,-0.3721788061857659,-0.0014367301784205912,-2.977430449486127e-05,0.0,-0.0014665044829154524,0.2,0.02,0,-0.004784343731493246,-0.001449117759445364,-9.568687462986493e-05,-0.0,-0.0015448046340752288,-0.01352224022669808,0.0,0.01352224022669808,-0.009290471666552474,0.0,0.009290471666552474,-0.7183650892102956,0.0,0.7183650892102956,-0.00724558879722682,0,0.00724558879722682,-0.0019037386537816804,-0.00043497094024197365,0.0015448046340752288,0.4,0.03342866897583008,0.5068697929382324,STABILIZE
0.17,0.004,0.1,-0.004886439813473211,-0.0007773775563459859,-1.9545759253892843e-05,0.004459147202361061,0.0036622238867611823,0.17,0.004,0.1,-0.008364319624947195,-0.002098842634216883,-3.345727849978878e-05,0.004095493558971306,0.0019631936462546342,0.002,8e-05,0,-0.39750457583990084,-0.0014441337080628501,-3.180036606719207e-05,0.0,-0.001475934074130042,0.2,0.02,0,-0.005152722060963829,-0.0021005780680054945,-0.00010305444121927658,-0.0,-0.002203632509224771,-0.012346133142452254,0.0,0.012346133142452254,-0.004572809154976387,0.0,0.004572809154976387,-0.722066854031425,0.0,0.722066854031425,-0.010502890340027472,0,0.010502890340027472,0.0036625836982905864,-0.0019625222909497864,0.002203632509224771,0.4,0.03507399559020996,0.5418806076049805,STABILIZE
0.17,0.004,0.1,-0.005087462384830734,-0.0010215626952674434,-2.0349849539322937e-05,0.007742821555644337,0.006700909010837571,0.17,0.004,0.1,-0.008810475152819465,-0.002267286904568829,-3.524190061127786e-05,0.0013072360992006044,-0.0009952927059795026,0.002,8e-05,0,-0.42170773618381024,-0.0014470160678939587,-3.373661889470482e-05,-0.0,-0.0014807526867886634,0.2,0.02,0,-0.005539857167184486,-0.0023145354209418113,-0.00011079714334368973,-0.0,-0.0024253325642855012,-0.013336981791581345,0.0,0.013336981791581345,-0.006009192325102607,0.0,0.006009192325102607,-0.7235080339469793,0.0,0.7235080339469793,-0.011572677104709056,0,0.011572677104709056,0.006700707843618985,0.0009966461441069086,0.0024253325642855012,0.4,0.033452510833740234,0.5753414630889893,STABILIZE
0.17,0.004,0.1,-0.005229186231579209,-0.0007201858130443284,-2.0916744926316837e-05,0.004818680961202825,0.00407757840323218,0.17,0.004,0.1,-0.009055224910438173,-0.0012437236726706843,-3.622089964175269e-05,0.006129673689114377,0.00484972911680194,0.002,8e-05,0,-0.44562786821984385,-0.0014300337164580505,-3.565022945758751e-05,0.0,-0.001465683945915638,0.2,0.02,0,-0.006009310125118751,-0.002806562928355311,-0.00012018620250237502,-0.0,-0.002926749130857686,-0.007316021603945202,0.0,0.007316021603945202,-0.004236387135554872,0.0,0.004236387135554872,-0.7150168582290253,0.0,0.7150168582290253,-0.014032814641776553,0,0.014032814641776553,0.004078766070849961,-0.004848730295669703,0.002926749130857686,0.4,0.033453941345214844,0.6088497638702393,STABILIZE
0.17,0.004,0.1,-0.005410584562288523,-0.0009215925990214075,-2.164233824915409e-05,-0.0008450658643418144,-0.001788300801612376,0.17,0.004,0.1,-0.009266714511846283,-0.0010744710310484381,-3.706685804738513e-05,0.006003730093064636,0.004892192203968813,0.002,8e-05,0,-0.4692610520346263,-0.0014125668152091216,-3.754088416277011e-05,0.0,-0.0014501076993718917,0.2,0.02,0,-0.006521244468138921,-0.0030598563028306587,-0.0001304248893627784,-0.0,-0.003190281192193437,-0.006320417829696695,0.0,0.006320417829696695,-0.005421132935420044,0.0,0.005421132935420044,-0.7062834076045608,0.0,0.7062834076045608,-0.015299281514153293,0,0.015299281514153293,-0.0017869944108392481,-0.004892669546704538,0.003190281192193437,0.4,0.03346133232116699,0.6422693729400635,STABILIZE
0.17,0.004,0.1,-0.005536592223614693,-0.0006407469134754651,-2.214636889445877e-05,0.0022333693319402203,0.0015704760495702966,0.17,0.004,0.1,-0.009387460641884874,-0.0006139921122420307,-3.75498425675395e-05,0.009691772899234043,0.009040230944424472,0.002,8e-05,0,-0.4927572349789208,-0.0014056201066584828,-3.942057879831367e-05,0.0,-0.0014450406854567964,0.2,0.02,0,-0.0071667958247964144,-0.0038619037353842854,-0.0001433359164959283,-0.0,-0.004005239651880214,-0.003611718307306063,0.0,0.003611718307306063,-0.0037690994910321474,0.0,0.0037690994910321474,-0.7028100533292414,0.0,0.7028100533292414,-0.019309518676921426,0,0.019309518676921426,0.0015735226508459233,-0.009039701157564807,0.004005239651880214,0.4,0.0334317684173584,0.6757016181945801,STABILIZE
0.17,0.004,0.1,-0.005608315938628847,-0.00036045193515963486,-2.243326375451539e-05,0.0020916839755352637,0.0017087987766211134,0.17,0.004,0.1,-0.00941689251613339,-0.00014791169177669062,-3.7667570064533566e-05,0.006394152417075291,0.006208573155234067,0.002,8e-05,0,-0.5165428081755377,-0.0014063042239744945,-4.132342465404301e-05,0.0,-0.0014476276486285375,0.2,0.02,0,-0.007960475460171226,-0.004692571478028925,-0.00015920950920342452,-0.0,-0.00485178098723235,-0.0008700687751570036,0.0,0.0008700687751570036,-0.0021203055009390284,0.0,0.0021203055009390284,-0.7031521119872473,0.0,0.7031521119872473,-0.02346285739014462,0,0.02346285739014462,0.0017113410695180449,-0.00620787287455661,0.00485178098723235,0.4,0.03382706642150879,0.7095205783843994,STABILIZE
0.17,0.004,0.1,-0.005741656930339622,-0.0006777709358017612,-2.2966627721358488e-05,0.0014115410117176972,0.0007108034481945775,0.17,0.004,0.1,-0.009453990702889785,-0.00018856971462285756,-3.781596281155914e-05,0.005163989948580933,0.004937604271146517,0.002,8e-05,0,-0.5401792367605839,-0.0014134556660342127,-4.321433894084671e-05,-0.0,-0.0014566700049750594,0.2,0.02,0,-0.00878333232766366,-0.004920674447527038,-0.0001756666465532732,-0.0,-0.005096341094080311,-0.0011092336154285738,0.0,0.0011092336154285738,-0.003986887857657419,0.0,0.003986887857657419,-0.7067278330171063,0.0,0.7067278330171063,-0.024603372237635188,0,0.024603372237635188,0.0007129236385183618,-0.004937298589922567,0.005096341094080311,0.4,0.033444881439208984,0.7430224418640137,STABILIZE
0.17,0.004,0.1,-0.005914222629921242,-0.0008763376067108598,-2.365689051968497e-05,-0.0013986939066494039,-0.0022986884038799487,0.17,0.004,0.1,-0.009415827036160368,0.00019380593273201336,-3.766330814464147e-05,0.004702956784320156,0.004859099408907528,0.002,8e-05,0,-0.5638447976780736,-0.0014138874824578475,-4.510758381424589e-05,-0.0,-0.0014589950662720933,0.2,0.02,0,-0.00967826042203001,-0.005346704583660702,-0.00019356520844060018,-0.0,-0.0055402697921013025,0.001140034898423608,0.0,-0.001140034898423608,-0.0051549270982991745,0.0,0.0051549270982991745,-0.7069437412289238,0.0,0.7069437412289238,-0.02673352291830351,0,0.02673352291830351,-0.0022964209562914405,-0.004860171420359897,0.0055402697921013025,0.4,0.03347587585449219,0.7764713764190674,STABILIZE
0.17,0.004,0.1,-0.006138504209813875,-0.0009191166983953266,-2.45540168392555e-05,-0.0032256263221300215,-0.004169297037364603,0.17,0.004,0.1,-0.009438996696251015,-9.495038110420075e-05,-3.775598678500406e-05,0.000636459623468041,0.0005037532555788362,0.002,8e-05,0,-0.5930000905415482,-0.0014056446118917779,-4.744000724332386e-05,-0.0,-0.0014530846191351018,0.2,0.02,0,-0.010742977080977796,-0.0051332471323459455,-0.00021485954161955592,-0.0,-0.0053481066739655015,-0.000558531653554122,0.0,0.000558531653554122,-0.005406568814090156,0.0,0.005406568814090156,-0.7028223059458889,0.0,0.7028223059458889,-0.025666235661729726,0,0.025666235661729726,-0.004169070957579965,-0.000505620884603086,0.0053481066739655015,0.4,0.041483163833618164,0.8179285526275635,STABILIZE
0.17,0.004,0.1,-0.006345464187675773,-0.0010513459533750724,-2.5381856750703093e-05,-0.0021400305091822096,-0.003216758319307985,0.17,0.004,0.1,-0.00959564730936937,-0.0007957769898178307,-3.8382589237477475e-05,-0.0032314740526312442,-0.004065633631686553,0.002,8e-05,0,-0.6164282122614636,-0.0014001605084328814,-4.931425698091709e-05,0.0,-0.0014494747654137986,0.2,0.02,0,-0.011640654831269862,-0.005364889897210092,-0.00023281309662539725,-0.0,-0.005597702993835489,-0.0046810411165754745,0.0,0.0046810411165754745,-0.006184387961029838,0.0,0.006184387961029838,-0.7000802542164407,0.0,0.7000802542164407,-0.026824449486050457,0,0.026824449486050457,-0.0032186613945787623,0.004064127180463994,0.005597702993835489,0.4,0.033464908599853516,0.851402759552002,STABILIZE
0.17,0.004,0.1,-0.0065981823614588335,-0.0012696480138879957,-2.6392729445835336e-05,-0.0022419505126435174,-0.0035379912559773486,0.17,0.004,0.1,-0.00984238883460644,-0.001239621522945416,-3.936955533842576e-05,-0.008043092047829166,-0.009322083126113007,0.002,8e-05,0,-0.6401594616927462,-0.0014026474981980197,-5.1212756935419695e-05,0.0,-0.0014538602551334393,0.2,0.02,0,-0.012655434126364312,-0.0059979043396302684,-0.00025310868252728625,-0.0,-0.006251013022157555,-0.007291891311443623,0.0,0.007291891311443623,-0.007468517728752916,0.0,0.007468517728752916,-0.7013237490990099,0.0,0.7013237490990099,-0.02998952169815134,0,0.02998952169815134,-0.0035428700975933076,0.009320230008380278,0.006251013022157555,0.4,0.03383779525756836,0.8852465152740479,STABILIZE
0.17,0.004,0.1,-0.006861298403722661,-0.0013378740187572418,-2.7445193614890646e-05,-0.0024398744287347845,-0.003805193641106917,0.17,0.004,0.1,-0.010078655463454931,-0.0012013520023944645,-4.031462185381973e-05,-0.006453787047516851,-0.0076954536717651345,0.002,8e-05,0,-0.6633214487910429,-0.0013855582276878595,-5.306571590328344e-05,0.0,-0.001438623943591143,0.2,0.02,0,-0.013652873408891408,-0.005966716925708525,-0.00027305746817782816,-0.0,-0.006239774393886353,-0.007066776484673321,0.0,0.007066776484673321,-0.007869847169160246,0.0,0.007869847169160246,-0.6927791138439298,0.0,0.6927791138439298,-0.029833584628542624,0,0.029833584628542624,-0.0038092001037935835,0.007693471286088158,0.006239774393886353,0.4,0.03343343734741211,0.918675422668457,STABILIZE
0.17,0.004,0.1,-0.007163640869568379,-0.0015082363057145867,-2.8654563478273515e-05,-0.0026453358207398957,-0.004182226689932756,0.17,0.004,0.1,-0.01036608893723753,-0.001433862753695327,-4.146435574895012e-05,-0.003685295424838093,-0.00516062253428237,0.002,8e-05,0,-0.6869575175615078,-0.0013871600068315767,-5.495660140492063e-05,0.0,-0.0014421166082364972,0.2,0.02,0,-0.014590151062112117,-0.00550072048135759,-0.0002918030212422423,-0.0,-0.005792523502599832,-0.0084344867864431,0.0,0.0084344867864431,-0.008871978268909333,0.0,0.008871978268909333,-0.6935800034157883,0.0,0.6935800034157883,-0.027503602406787946,0,0.027503602406787946,-0.004184703453459904,0.005158614352123023,0.005792523502599832,0.4,0.034078359603881836,0.9527461528778076,STABILIZE
0.17,0.004,0.1,-0.007595931969146684,-0.00210389363708034,-3.0383727876586736e-05,-0.0047240314955002,-0.006858308860457127,0.17,0.004,0.1,-0.010593683581467353,-0.0011076677828800693,-4.237473432586941e-05,0.0007177045538437157,-0.000432337963362223,0.002,8e-05,0,-0.7106484613730202,-0.0013564722799082852,-5.685187690984162e-05,0.0,-0.0014133241568181267,0.2,0.02,0,-0.015667574173498733,-0.006169001099982695,-0.0003133514834699747,-0.0,-0.00648235258345267,-0.006515692840470995,0.0,0.006515692840470995,-0.012375844924002,0.0,0.012375844924002,-0.6782361399541426,0.0,0.6782361399541426,-0.030845005499913473,0,0.030845005499913473,-0.006858540614421284,0.00042864575155091586,0.00648235258345267,0.4,0.03493022918701172,0.9876959323883057,STABILIZE
0.17,0.004,0.1,-0.007896682129969483,-0.0014936261862031907,-3.1586728519877934e-05,-0.0008281794920103737,-0.0023533924067334422,0.17,0.004,0.1,-0.01080414418462908,-0.0010452179549512689,-4.321657673851632e-05,0.0008509878495810421,-0.00023744668210874307,0.002,8e-05,0,-0.7337014003170358,-0.001346925034994607,-5.8696112025362865e-05,0.0,-0.00140562114701997,0.2,0.02,0,-0.016687634100899476,-0.005959952684330135,-0.00033375268201798954,0.0,-0.006293705366348125,-0.006148340911478051,0.0,0.006148340911478051,-0.008786036389430533,0.0,0.008786036389430533,-0.6734625174973035,0.0,0.6734625174973035,-0.029799763421650676,0,0.029799763421650676,-0.002353515585388266,0.00023622264127216998,0.006293705366348125,0.4,0.03423047065734863,1.0219295024871826,STABILIZE
0.17,0.004,0.1,-0.008158021748272045,-0.0013289361509687234,-3.263208699308818e-05,0.0011179760539033058,-0.0002435921840585058,0.17,0.004,0.1,-0.011070727455022399,-0.0013556006072489117,-4.4282909820089595e-05,0.00036835355629119494,-0.0010315299607778065,0.002,8e-05,0,-0.7564453965705076,-0.0013606508980448094,-6.051563172564061e-05,0.0,-0.0014211665297704501,0.2,0.02,0,-0.01770574428188678,-0.006090805312445835,-0.0003541148856377356,-0.0,-0.006444920198083571,-0.007974121219111245,0.0,0.007974121219111245,-0.007817271476286608,0.0,0.007817271476286608,-0.6803254490224047,0.0,0.6803254490224047,-0.030454026562229175,0,0.030454026562229175,-0.00024414043155767103,0.001031400340214938,0.006444920198083571,0.4,0.033431053161621094,1.0553464889526367,STABILIZE
0.17,0.004,0.1,-0.008502018678745645,-0.0017236388945527515,-3.400807471498258e-05,0.0021805655697657972,0.00042291860049806316,0.17,0.004,0.1,-0.011434857417712448,-0.001824517926658581,-4.573942967084979e-05,-0.004172716931053275,-0.006042974287382706,0.002,8e-05,0,-0.7794452812901669,-0.0013558088104228421,-6.235562250321336e-05,0.0,-0.0014181644329260554,0.2,0.02,0,-0.01882892378197435,-0.006620975193860039,-0.000376578475639487,-0.0,-0.006997553669499526,-0.010732458392109298,0.0,0.010732458392109298,-0.010139052320898538,0.0,0.010139052320898538,-0.677904405211421,0.0,0.677904405211421,-0.033104875969300195,0,0.033104875969300195,0.0004194269655197956,0.006043217636426031,0.006997553669499526,0.4,0.03392791748046875,1.0892786979675293,STABILIZE
0.17,0.004,0.1,-0.009171498670321864,-0.003017105785182327,-3.6685994681287455e-05,-0.0080385617943242,-0.011092353574187815,0.17,0.004,0.1,-0.012057733796929431,-0.0028070800484483647,-4.823093518771773e-05,-0.009637770280007146,-0.012493081263643228,0.002,8e-05,0,-0.8046505383260515,-0.001336365146906662,-6.437204306608412e-05,0.0,-0.001400737189972746,0.2,0.02,0,-0.019859516927599675,-0.005464132972315263,-0.0003971903385519935,0.0,-0.005861323310867256,-0.016512235579108026,0.0,0.016512235579108026,-0.017747681089307805,0.0,0.017747681089307805,-0.668182573453331,0.0,0.668182573453331,-0.027320664861576312,0,0.027320664861576312,-0.011098309458262326,0.012487790614974119,0.005861323310867256,0.4,0.037722110748291016,1.1270813941955566,STABILIZE
0.17,0.004,0.1,-0.009935660617609473,-0.0038829542848447577,-3.9742642470437894e-05,-0.014079070049498522,-0.01800176697681372,0.17,0.004,0.1,-0.012737167260844081,-0.003452421426294021,-5.0948669043376324e-05,-0.011599551109870878,-0.015102921205208276,0.002,8e-05,0,-0.8250382671012771,-0.0012187841331895359,-6.600306136810218e-05,0.0,-0.0012847871945576381,0.2,0.02,0,-0.01962095804273874,0.0014261116915249708,-0.00039241916085477484,0.0,0.001033692530670196,-0.0203083613311413,0.0,0.0203083613311413,-0.022840907557910337,0.0,0.022840907557910337,-0.609392066594768,0.0,0.609392066594768,0.007130558457624853,0,-0.007130558457624853,-0.017999887252850656,0.015105161439153681,-0.001033692530670196,0.4,0.033455848693847656,1.1604599952697754,STABILIZE
0.17,0.004,0.1,-0.011203219384704309,-0.006442024228257933,-4.481287753881724e-05,-0.02679887799476098,-0.03328571510055773,0.17,0.004,0.1,-0.013950681209845982,-0.006167356073530526,-5.580272483938393e-05,-0.02480410980779345,-0.03102726860616336,0.002,8e-05,0,-0.8431719057668233,-0.0010842271604139008,-6.745375246134587e-05,0.0,-0.0011516809128752467,0.2,0.02,0,-0.022393075026756134,-0.01657474587065067,-0.0004478615005351227,-0.0,-0.017022607371185793,-0.036278565138414855,0.0,0.036278565138414855,-0.03789426016622313,0.0,0.03789426016622313,-0.5421135802069504,0.0,0.5421135802069504,-0.08287372935325335,0,0.08287372935325335,-0.03333055871040832,0.030979091061012935,0.017022607371185793,0.4,0.03344988822937012,1.1939482688903809,STABILIZE
0.17,0.004,0.1,-0.011865627185471165,-0.003370159525540299,-4.746250874188466e-05,-0.0020491162136793708,-0.005466738247961555,0.17,0.004,0.1,-0.01287427279165875,0.005476487565100824,-5.1497091166635003e-05,0.048631782501862536,0.054056772975796724,0.002,8e-05,0,-0.8616590216588145,-0.0011065607417103777,-6.893272173270516e-05,0.0,-0.0011754934634430828,0.2,0.02,0,-0.022115602716335437,0.001660832156930603,-0.00044231205432670876,0.0,0.0012185201026038942,0.0322146327358872,0.0,-0.0322146327358872,-0.019824467797295874,0.0,0.019824467797295874,-0.5532803708551889,0.0,0.5532803708551889,0.008304160784653014,0,-0.008304160784653014,-0.005474572906059437,-0.05405598008661755,-0.0012185201026038942,0.4,0.03341364860534668,1.227325677871704,STABILIZE
0.17,0.004,0.1,-0.013417385568760664,-0.007867997518193484,-5.366954227504266e-05,-0.023278724615321468,-0.031200391675789994,0.17,0.004,0.1,-0.011295561471923173,0.008004659023843752,-4.5182245887692696e-05,0.06719921830905944,0.07515869508701549,0.002,8e-05,0,-0.8802399188340811,-0.001108377926654338,-7.04191935067265e-05,0.0,-0.0011787971201610643,0.2,0.02,0,-0.023503626720635027,-0.00827976794403604,-0.00047007253441270054,-0.0,-0.00874984047844874,0.047086229552022074,0.0,-0.047086229552022074,-0.04628233834231461,0.0,0.04628233834231461,-0.5541889633271689,0.0,0.5541889633271689,-0.0413988397201802,0,0.0413988397201802,-0.03114607791709605,-0.07518121918596327,0.00874984047844874,0.4,0.03352808952331543,1.2608542442321777,STABILIZE
0.17,0.004,0.1,-0.015167568385654816,-0.008883686024112257,-6.067027354261927e-05,-0.014224185227694523,-0.0231685415253494,0.17,0.004,0.1,-0.009899445586649052,0.0070864912272766934,-3.959778234659621e-05,0.07773835030798021,0.0847852437529103,0.002,8e-05,0,-0.8987117076317312,-0.0011030617211765664,-7.189693661053851e-05,-0.0,-0.001174958657787105,0.2,0.02,0,-0.024057947368004404,-0.003310182322183965,-0.0004811589473600881,0.0,-0.003791341269544053,0.04168524251339231,0.0,-0.04168524251339231,-0.05225697661242504,0.0,0.05225697661242504,-0.5515308605882832,0.0,0.5515308605882832,-0.016550911610919823,0,0.016550911610919823,-0.023144048823576478,-0.08479193286335772,0.003791341269544053,0.4,0.03349184989929199,1.294360876083374,STABILIZE
0.17,0.004,0.1,-0.016071284521483018,-0.004595611303793365,-6.428513808593208e-05,-0.007099587735436862,-0.011759484177316159,0.17,0.004,0.1,-0.00908837873359082,0.004124467684347183,-3.635351493436328e-05,-0.00796344642192559,-0.0038753322525127715,0.002,8e-05,0,-0.9161034972721014,-0.0010404868610681104,-7.328827978176811e-05,0.0,-0.0011137751408498786,0.2,0.02,0,-0.02604053023351572,-0.011861064704663624,-0.0005208106046703144,-0.0,-0.012381875309333937,0.024261574613806958,0.0,-0.024261574613806958,-0.027033007669372732,0.0,0.027033007669372732,-0.5202434305340552,0.0,0.5202434305340552,-0.05930532352331812,0,0.05930532352331812,-0.011763489129581781,0.0038631582522757357,0.012381875309333937,0.4,0.03343009948730469,1.3277885913848877,STABILIZE
0.17,0.004,0.1,-0.015670199526412142,0.002038972678298723,-6.268079810564858e-05,0.058106386153620904,0.06008267803381398,0.17,0.004,0.1,-0.009165560173660138,-0.0003923628395654226,-3.666224069464055e-05,-0.049233030521408844,-0.049662055601668906,0.002,8e-05,0,-0.9332664587511204,-0.0010264748036973477,-7.466131670008964e-05,0.0,-0.0011011361203974374,0.2,0.02,0,-0.02877985555040912,-0.016383235610932936,-0.0005755971110081824,-0.0,-0.016958832721941118,-0.002308016703326015,0.0,0.002308016703326015,0.011993956931168958,0.0,-0.011993956931168958,-0.5132374018486738,0.0,0.5132374018486738,-0.08191617805466468,0,0.08191617805466468,0.060011614462241736,0.04974790544267633,0.016958832721941118,0.4,0.033440589904785156,1.3612275123596191,STABILIZE
0.17,0.004,0.1,-0.0154618299861621,0.0010485781266651789,-6.18473199446484e-05,0.05830423103882912,0.05929096184554965,0.17,0.004,0.1,-0.009910234251310124,-0.0037474236799741683,-3.9640937005240494e-05,-0.06333127885063533,-0.06711834346761474,0.002,8e-05,0,-0.9503091653644601,-0.0010089884681335761,-7.602473322915681e-05,0.0,-0.001085013201362733,0.2,0.02,0,-0.030136755307247732,-0.0080333261501538,-0.0006027351061449547,-0.0,-0.008636061256298753,-0.0220436687057304,0.0,0.0220436687057304,0.006168106627442228,0.0,-0.006168106627442228,-0.5044942340667881,0.0,0.5044942340667881,-0.040166630750769,0,0.040166630750769,0.059243894639371006,0.06715989230460569,0.008636061256298753,0.4,0.03378176689147949,1.3950722217559814,STABILIZE
0.17,0.004,0.1,-0.016661988362608376,-0.006052286488182302,-6.66479534504335e-05,-0.008148912360056578,-0.014267846801689313,0.17,0.004,0.1,-0.00929738645954796,0.003090534117986505,-3.718954583819184e-05,-0.006185055692946884,-0.003131711120798571,0.002,8e-05,0,-0.9663877013952227,-0.0009539124000194051,-7.731101611161782e-05,0.0,-0.0010312234161310228,0.2,0.02,0,-0.03154522109613301,-0.008356189757887112,-0.0006309044219226602,0.0,-0.008987094179809772,0.018179612458744145,0.0,-0.018179612458744145,-0.035601685224601776,0.0,0.035601685224601776,-0.4769562000097025,0.0,0.4769562000097025,-0.04178094878943556,0,0.04178094878943556,-0.014270126699093678,0.0031213059594379995,0.008987094179809772,0.4,0.03371071815490723,1.4287176132202148,STABILIZE
0.17,0.004,0.1,-0.01895005722046913,-0.011631143331475923,-7.580022888187652e-05,-0.07976061941901236,-0.09146756297937016,0.17,0.004,0.1,-0.007369036071534675,0.009802554533808839,-2.9476144286138698e-05,0.05965319075502035,0.06942626914454304,0.002,8e-05,0,-0.9828018190188655,-0.0009816392908569482,-7.862414552150926e-05,0.0,-0.0010602634363784575,0.2,0.02,0,-0.030556135130511024,0.005915186354526938,-0.0006111227026102205,0.0,0.005304063651916718,0.05766208549299317,0.0,-0.05766208549299317,-0.06841849018515249,0.0,0.06841849018515249,-0.4908196454284741,0.0,0.4908196454284741,0.029575931772634692,0,-0.029575931772634692,-0.09150338845041216,-0.06937904457981932,-0.005304063651916718,0.4,0.03344225883483887,1.4621591567993164,STABILIZE
0.17,0.004,0.1,-0.021683755568328144,-0.013893083624401382,-8.673502227331258e-05,-0.08727108342722767,-0.10125090207390236,0.17,0.004,0.1,-0.006180997318702228,0.006037799216236693,-2.4723989274808915e-05,0.05705872397193584,0.06307179919889773,0.002,8e-05,0,-0.9994616704248447,-0.0009960938466796983,-7.995693363398758e-05,0.0,-0.001076050780313686,0.2,0.02,0,-0.0265794110038791,0.023776865327016616,-0.000531588220077582,0.0,0.023245277106939036,0.0355164659778629,0.0,-0.0355164659778629,-0.08172402132000813,0.0,0.08172402132000813,-0.4980469233398491,0.0,0.4980469233398491,0.11888432663508308,0,-0.11888432663508308,-0.10138155314437809,-0.06286157575974914,-0.023245277106939036,0.4,0.03345036506652832,1.4956293106079102,STABILIZE
0.17,0.004,0.1,-0.02320083028567798,-0.007711825465519429,-9.280332114271192e-05,-0.009727242451183053,-0.017531871237845192,0.17,0.004,0.1,-0.006360802221464416,-0.0009140116911110104,-2.5443208885857664e-05,-0.023473786779976358,-0.024413241679973226,0.002,8e-05,0,-1.0162336395557434,-0.0010030332964554255,-8.129869116445948e-05,-0.0,-0.001084331987619885,0.2,0.02,0,-0.023917294503417938,0.01592056047901196,-0.0004783458900683588,0.0,0.0154422145889436,-0.0053765393594765315,0.0,0.0053765393594765315,-0.045363679208937815,0.0,0.045363679208937815,-0.5015166482277127,0.0,0.5015166482277127,0.07960280239505979,0,-0.07960280239505979,-0.01749793625502536,0.02443757568254745,-0.0154422145889436,0.4,0.03344249725341797,1.5290699005126953,STABILIZE
0.17,0.004,0.1,-0.02454964336026738,-0.006857861184971815,-9.819857344106953e-05,0.027990595898048365,0.02103453613963548,0.17,0.004,0.1,-0.007149358354586001,-0.004009309072832197,-2.8597433418344005e-05,-0.08097948183366978,-0.08501738833992031,0.002,8e-05,0,-1.0325210897265487,-0.0009742515316772488,-8.26016871781239e-05,0.0,-0.0010568532188553726,0.2,0.02,0,-0.022313395497419213,0.009593896201449629,-0.00044626790994838425,0.0,0.009147628291501245,-0.02358417101665998,0.0,0.02358417101665998,-0.04034035991159891,0.0,0.04034035991159891,-0.4871257658386244,0.0,0.4871257658386244,0.04796948100724814,0,-0.04796948100724814,0.021105707474883665,0.08499974789806784,-0.009147628291501245,0.4,0.033435821533203125,1.562497854232788,STABILIZE
0.17,0.004,0.1,-0.022755211145753487,0.009075277095321256,-9.102084458301395e-05,0.13419222832939842,0.14317648458013665,0.17,0.004,0.1,-0.01290903206541034,-0.029129344915671856,-5.163612826164136e-05,-0.20544385429879408,-0.23462483534272757,0.002,8e-05,0,-1.0483522218976118,-0.0009419457391459984,-8.386817775180895e-05,0.0,-0.0010258139168978074,0.2,0.02,0,-0.027136196701837215,-0.028695465341090944,-0.0005427239340367443,-0.0,-0.02923818927512769,-0.1713490877392462,0.0,0.1713490877392462,0.05338398291365444,0.0,-0.05338398291365444,-0.4709728695729992,0.0,0.4709728695729992,-0.1434773267054547,0,0.1434773267054547,0.14258850008787685,0.2349826349733479,0.02923818927512769,0.4,0.03361368179321289,1.5961146354675293,STABILIZE
0.17,0.004,0.1,-0.019884808713923122,0.01457879496996959,-7.95392348556925e-05,0.13019095248551132,0.14469020822062523,0.17,0.004,0.1,-0.019312764028160328,-0.03252460153053909,-7.725105611264132e-05,-0.1845742213960023,-0.21717607398265404,0.002,8e-05,0,-1.0648237544152857,-0.0009842239326012102,-8.518590035322286e-05,0.0,-0.0010694098329544332,0.2,0.02,0,-0.028665372029994023,-0.009137285516695756,-0.0005733074405998805,-0.0,-0.009710592957295636,-0.19132118547375937,0.0,0.19132118547375937,0.08575761747040934,0.0,-0.08575761747040934,-0.4921119663006051,0.0,0.4921119663006051,-0.04568642758347878,0,0.04568642758347878,0.1445169906905232,0.21729137780225502,0.009710592957295636,0.4,0.033471107482910156,1.6295924186706543,STABILIZE
0.17,0.004,0.1,-0.018169401163716667,0.008718342973080951,-7.267760465486667e-05,0.0908289250319371,0.09947459040036319,0.17,0.004,0.1,-0.02789509757389106,-0.043618630075432055,-0.00011158039029556424,-0.23145585320511075,-0.27518606367083837,0.002,8e-05,0,-1.080311400590411,-0.0009260472048599462,-8.642491204723289e-05,0.0,-0.0010124721169071792,0.2,0.02,0,-0.02838762232541029,0.0016607387247362564,-0.0005677524465082058,-0.0,0.0010929862782280506,-0.2565801769143062,0.0,0.2565801769143062,0.05128437042988795,0.0,-0.05128437042988795,-0.4630236024299731,0.0,0.4630236024299731,0.008303693623681281,0,-0.008303693623681281,0.09951447118946162,0.2751716442474634,-0.0010929862782280506,0.4,0.03344893455505371,1.6630704402923584,STABILIZE
0.17,0.004,0.1,-0.016047207140149147,0.010793169494149813,-6.418882856059659e-05,0.010057281645389705,0.020786262310978923,0.17,0.004,0.1,-0.03509421623651918,-0.03661366824679977,-0.0001403768649460767,-0.04383197475051611,-0.08058601986226197,0.002,8e-05,0,-1.095261770501253,-0.0008945341453009565,-8.762094164010025e-05,0.0,-0.0009821550869410567,0.2,0.02,0,-0.02810519917037892,0.0016898388274391243,-0.0005621039834075785,0.0,0.0011277348440315459,-0.21537451909882216,0.0,0.21537451909882216,0.06348923231852831,0.0,-0.06348923231852831,-0.4472670726504782,0.0,0.4472670726504782,0.008449194137195621,0,-0.008449194137195621,0.020798145803625996,0.08058295371375275,-0.0011277348440315459,0.4,0.03342604637145996,1.696507453918457,STABILIZE
0.17,0.004,0.1,-0.013836216122780045,0.011238124916807568,-5.534486449112018e-05,-0.01957451545235387,-0.008391735400037422,0.17,0.004,0.1,-0.0425995116146698,-0.03814825403386733,-0.0001703980464586792,-0.03293869756448437,-0.07125734964481038,0.002,8e-05,0,-1.1099336277360972,-0.0008773503298717713,-8.879469021888779e-05,0.0,-0.0009661450200906591,0.2,0.02,0,-0.028826044970242274,-0.004310526541894284,-0.0005765208994048455,0.0,-0.0048870474412991294,-0.22440149431686662,0.0,0.22440149431686662,0.06610661715769157,0.0,-0.06610661715769157,-0.43867516493588565,0.0,0.43867516493588565,-0.02155263270947142,0,0.02155263270947142,-0.008418539284097998,0.07125418793130055,0.0048870474412991294,0.4,0.03344583511352539,1.7299456596374512,STABILIZE
0.17,0.004,0.1,-0.012836268750630715,0.00508478868839348,-5.134507500252286e-05,-0.021310445671375643,-0.016277002057984685,0.17,0.004,0.1,-0.05023344535643671,-0.03881898289771679,-0.00020093378142574685,0.02816085232003472,-0.010859064359107815,0.002,8e-05,0,-1.1245934389035994,-0.0008770113552049859,-8.996747511228796e-05,0.0,-0.0009669788303172739,0.2,0.02,0,-0.02725664428772791,0.009388812745983442,-0.0005451328857545583,0.0,0.008843679860228883,-0.22834695822186346,0.0,0.22834695822186346,0.029910521696432234,0.0,-0.029910521696432234,-0.4385056776024929,0.0,0.4385056776024929,0.046944063729917204,0,-0.046944063729917204,-0.016268099454955623,0.010872396924071336,-0.008843679860228883,0.4,0.033431291580200195,1.763371467590332,STABILIZE
0.17,0.004,0.1,-0.010036779717888685,0.013760206584342363,-4.0147118871554744e-05,0.01570182500162853,0.02942188446709934,0.17,0.004,0.1,-0.05887737010180201,-0.04248710704154269,-0.00023550948040720803,-0.03372609787914714,-0.07644871440109705,0.002,8e-05,0,-1.1396094407741246,-0.000868323533720072,-9.116875526192997e-05,0.0,-0.000959492288982002,0.2,0.02,0,-0.02657174170303462,0.003960555131271372,-0.0005314348340606924,0.0,0.00342912029721068,-0.24992415906789817,0.0,0.24992415906789817,0.08094239167260213,0.0,-0.08094239167260213,-0.434161766860036,0.0,0.434161766860036,0.01980277565635686,0,-0.01980277565635686,0.0294483051919244,0.07643854093648782,-0.00342912029721068,0.4,0.034586191177368164,1.7979545593261719,STABILIZE
0.17,0.004,0.1,-0.007075111573493841,0.014983951556393642,-2.8300446293975365e-05,0.02023428957922413,0.035189940689323795,0.17,0.004,0.1,-0.06742263166915399,-0.043232995433415564,-0.000269690526676616,-0.02908204620792018,-0.07258473216801237,0.002,8e-05,0,-1.1544433621659915,-0.0008829315050142733,-9.235546897327932e-05,-0.0,-0.0009752869739875526,0.2,0.02,0,-0.025224282650551058,0.008020226194583344,-0.0005044856530110212,0.0,0.007515740541572323,-0.25431173784362093,0.0,0.25431173784362093,0.08814089150819789,0.0,-0.08814089150819789,-0.44146575250713666,0.0,0.44146575250713666,0.04010113097291672,0,-0.04010113097291672,0.035240733885725115,0.07256008506621063,-0.007515740541572323,0.4,0.03360152244567871,1.8315722942352295,STABILIZE
0.17,0.004,0.1,-0.0037310597807953603,0.016979625628470173,-1.4924239123181442e-05,0.06801193342986363,0.08497663481921061,0.17,0.004,0.1,-0.0768469077170881,-0.047852332748755395,-0.0003073876308683524,-0.05220115937421896,-0.1003608797538427,0.002,8e-05,0,-1.1686219236626874,-0.0008469706497256531,-9.348975389301499e-05,0.0,-0.0009404604036186681,0.2,0.02,0,-0.02754916979668026,-0.013887947498445175,-0.0005509833959336051,-0.0,-0.01443893089437878,-0.28148431028679644,0.0,0.28148431028679644,0.0998801507557069,0.0,-0.0998801507557069,-0.42348532486282653,0.0,0.42348532486282653,-0.06943973749222587,0,0.06943973749222587,0.08485493986691998,0.10046379362906889,0.01443893089437878,0.4,0.03348064422607422,1.8650639057159424,STABILIZE
0.17,0.004,0.1,0.00027616982242847097,0.020370015157536035,1.104679289713884e-06,0.03870687929176154,0.059077999128587286,0.17,0.004,0.1,-0.08713920881627167,-0.052319020908516554,-0.00034855683526508667,-0.05759425896566123,-0.11026183670944287,0.002,8e-05,0,-1.182544952795199,-0.0008326489357250744,-9.460359622361593e-05,0.0,-0.0009272525319486903,0.2,0.02,0,-0.03368304113646873,-0.03668283240909988,-0.0006736608227293746,-0.0,-0.037356493231829255,-0.3077589465206856,0.0,0.3077589465206856,0.11982361857374137,0.0,-0.11982361857374137,-0.4163244678625372,0.0,0.4163244678625372,-0.18341416204549937,0,0.18341416204549937,0.058724728929842436,0.1104503907991897,0.037356493231829255,0.4,0.03344273567199707,1.8984959125518799,STABILIZE
0.17,0.004,0.1,0.002977742005396726,0.013739900371354244,1.1910968021586903e-05,-0.007326943394810441,0.006424867944565389,0.17,0.004,0.1,-0.09559414624344845,-0.04300088616096333,-0.00038237658497379377,0.001419215457180446,-0.041964047288756676,0.002,8e-05,0,-1.1974764637789719,-0.0008934121206476967,-9.579811710231776e-05,-0.0,-0.0009892102377500145,0.2,0.02,0,-0.03414703077931594,-0.0027762359162792852,-0.0006829406155863188,-0.0,-0.003459176531865604,-0.2529463891821372,0.0,0.2529463891821372,0.08082294336090731,0.0,-0.08082294336090731,-0.44670606032384835,0.0,0.44670606032384835,-0.013881179581396424,0,0.013881179581396424,0.006414701030368121,0.04196560262463896,0.003459176531865604,0.4,0.03342580795288086,1.9319353103637695,STABILIZE
0.17,0.004,0.1,0.004162727614304346,0.0060288572044925595,1.6650910457217384e-05,-0.06426427776189984,-0.058218769646950067,0.17,0.004,0.1,-0.10508000949808645,-0.0482612738869253,-0.00042032003799234583,-0.002396627414786512,-0.051078221339704154,0.002,8e-05,0,-1.2139114434774336,-0.0009837215099634173,-9.71129154781947e-05,-0.0,-0.001080834425441612,0.2,0.02,0,-0.03313366955090604,0.006065509395445589,-0.0006626733910181208,0.0,0.005402836004427468,-0.2838898463936782,0.0,0.2838898463936782,0.03546386590877976,0.0,-0.03546386590877976,-0.4918607549817086,0.0,0.4918607549817086,0.03032754697722794,0,-0.03032754697722794,-0.05819172499573185,0.051109030282852755,-0.005402836004427468,0.4,0.03341388702392578,1.965346336364746,STABILIZE
0.17,0.004,0.1,0.006704565191125429,0.012924557638792453,2.6818260764501717e-05,-0.04370101078980343,-0.030749634890246475,0.17,0.004,0.1,-0.11675947489623943,-0.05938692743597586,-0.00046703789958495775,-0.041457014338278246,-0.10131097967383906,0.002,8e-05,0,-1.231755153154796,-0.0010674169988533057,-9.854041225238368e-05,-0.0,-0.0011659574111056894,0.2,0.02,0,-0.034317814992601295,-0.007083599747107156,-0.0006863562998520259,0.0,-0.007769956046959182,-0.3493348672704462,0.0,0.3493348672704462,0.0760268096399556,0.0,-0.0760268096399556,-0.5337084994266529,0.0,0.5337084994266529,-0.03541799873553578,0,0.03541799873553578,-0.03081225547653544,0.10129195210284579,0.007769956046959182,0.4,0.03343343734741211,1.9987766742706299,STABILIZE
0.17,0.004,0.1,0.011087632058061323,0.022256555559632792,4.435052823224529e-05,0.04984745805862476,0.0721483641464898,0.17,0.004,0.1,-0.12972526754048988,-0.06583834860889866,-0.0005189010701619596,-0.13390264462298127,-0.20025989430204189,0.002,8e-05,0,-1.2507574122101124,-0.0011351837511002774,-0.000100060592976809,-0.0,-0.0012352443440770864,0.2,0.02,0,-0.03833561931874251,-0.024002126130681423,-0.0007667123863748503,-0.0,-0.024768838517056274,-0.38728440358175675,0.0,0.38728440358175675,0.13092091505666348,0.0,-0.13092091505666348,-0.5675918755501387,0.0,0.5675918755501387,-0.1200106306534071,0,0.1200106306534071,0.07172874568812136,0.20041057546169638,0.024768838517056274,0.4,0.033478736877441406,2.0322933197021484,STABILIZE
0.17,0.004,0.1,0.017248309901302356,0.031333427054688,6.899323960520942e-05,0.1483443493467592,0.1797467696410524,0.17,0.004,0.1,-0.1437934628616434,-0.07155134274227305,-0.0005751738514465736,-0.13654761674518098,-0.2086741333389006,0.002,8e-05,0,-1.2707266587069244,-0.0011948741095705118,-0.00010165813269655396,-0.0,-0.0012965322422670658,0.2,0.02,0,-0.04511765502098474,-0.04058079443350983,-0.0009023531004196949,-0.0,-0.041483147533929524,-0.4208902514251356,0.0,0.4208902514251356,0.18431427679228235,0.0,-0.18431427679228235,-0.5974370547852559,0.0,0.5974370547852559,-0.20290397216754913,0,0.20290397216754913,0.17900665752327538,0.2093093683605195,0.041483147533929524,0.4,0.03342485427856445,2.0656847953796387,STABILIZE
0.17,0.004,0.1,0.021951711457889912,0.023890993443288926,8.780684583155965e-05,0.06429969048038515,0.08827849076950564,0.17,0.004,0.1,-0.1544934950953147,-0.05435096214134243,-0.0006179739803812589,0.0294737391682461,-0.025495196953477583,0.002,8e-05,0,-1.2902265489284657,-0.0011652936805358815,-0.00010321812391427726,-0.0,-0.0012685118044501588,0.2,0.02,0,-0.05372859339355841,-0.05145809517409097,-0.0010745718678711682,-0.0,-0.05253266704196214,-0.3197115420078966,0.0,0.3197115420078966,0.14053525554875837,0.0,-0.14053525554875837,-0.5826468402679408,0.0,0.5826468402679408,-0.25729047587045484,0,0.25729047587045484,0.08816311321682206,0.02589135894765128,0.05253266704196214,0.4,0.033467769622802734,2.0991508960723877,STABILIZE
0.17,0.004,0.1,0.02568052056339297,0.018971757568313385,0.00010272208225357188,-0.019223952414026635,-0.0001494727634596786,0.17,0.004,0.1,-0.16732327598989777,-0.06527646921570446,-0.0006692931039595911,0.0031434140225621745,-0.06280234829710188,0.002,8e-05,0,-1.3101443193550508,-0.0011922277127121305,-0.00010481154554840407,-0.0,-0.0012970392582605345,0.2,0.02,0,-0.05773704682560666,-0.02399359549011179,-0.0011547409365121333,0.0,-0.025148336426623924,-0.38397923068061446,0.0,0.38397923068061446,0.11159857393125519,0.0,-0.11159857393125519,-0.5961138563560653,0.0,0.5961138563560653,-0.11996797745055895,0,0.11996797745055895,-0.00028097017024737795,0.06280189765843817,0.025148336426623924,0.4,0.03341269493103027,2.132561445236206,STABILIZE
0.17,0.004,0.1,0.028131862068916234,0.012456858867098897,0.00011252744827566494,-0.11065616121411302,-0.09808677489873846,0.17,0.004,0.1,-0.181871605567467,-0.0739295148764415,-0.000727486422269868,-0.014059879262388497,-0.08871688056109987,0.002,8e-05,0,-1.3297082086736693,-0.0011696097954550643,-0.00010637665669389356,0.0,-0.0012759864521489578,0.2,0.02,0,-0.056312577367779434,0.008516064490386025,-0.0011262515473555888,0.0,0.007389812943030437,-0.4348794992731853,0.0,0.4348794992731853,0.07327564039469939,0.0,-0.07327564039469939,-0.5848048977275321,0.0,0.5848048977275321,0.04258032245193012,0,-0.04258032245193012,-0.09802081637599261,0.08878975089227466,-0.007389812943030437,0.4,0.03345370292663574,2.1660327911376953,STABILIZE
0.17,0.004,0.1,0.03154468602942563,0.016397921847077276,0.00012617874411770253,-0.04521216217601963,-0.02868806158482465,0.17,0.004,0.1,-0.1963429627895878,-0.06953191477067999,-0.0007853718511583511,-0.09046126543364663,-0.16077855205548497,0.002,8e-05,0,-1.3506335993535958,-0.0011828497281722158,-0.00010805068794828768,-0.0,-0.0012909004161205035,0.2,0.02,0,-0.05768929958371795,-0.007782198783288097,-0.001153785991674359,0.0,-0.008935984774962456,-0.4090112633569411,0.0,0.4090112633569411,0.0964583638063369,0.0,-0.0964583638063369,-0.5914248640861078,0.0,0.5914248640861078,-0.038910993916440484,0,0.038910993916440484,-0.028797243688394383,0.16075903220193946,0.008935984774962456,0.4,0.035381317138671875,2.2014400959014893,STABILIZE
0.17,0.004,0.1,0.03592400805255177,0.022247996775372474,0.0001436960322102071,0.01793464864982698,0.04032634145740966,0.17,0.004,0.1,-0.21152789393567453,-0.07714305944809949,-0.0008461115757426982,-0.0709441764957317,-0.14893334751957388,0.002,8e-05,0,-1.3690250018465315,-0.0010992081884624607,-0.00010952200014772253,0.0,-0.0012087301886101831,0.2,0.02,0,-0.058104518159303245,-0.002481657711859583,-0.001162090363186065,0.0,-0.003643748075045648,-0.45378270263587933,0.0,0.45378270263587933,0.13087056926689689,0.0,-0.13087056926689689,-0.5496040942312304,0.0,0.5496040942312304,-0.012408288559297913,0,0.012408288559297913,0.040294086688629126,0.1489420773208666,0.003643748075045648,0.4,0.0334630012512207,2.2349634170532227,STABILIZE
0.17,0.004,0.1,0.04035230284538562,0.021221281508633474,0.0001614092113815425,0.05044469082773032,0.07182738154774534,0.17,0.004,0.1,-0.2264336861971687,-0.07143156191910861,-0.0009057347447886748,0.011342322672050991,-0.0609949739918463,0.002,8e-05,0,-1.389267744792693,-0.0011412624196526237,-0.00011114141958341546,0.0,-0.0012524038392360392,0.2,0.02,0,-0.057986455193398775,0.000665625337919204,-0.0011597291038679756,-0.0,-0.0004941037659487716,-0.4201856583476977,0.0,0.4201856583476977,0.12483106769784395,0.0,-0.12483106769784395,-0.5706312098263119,0.0,0.5706312098263119,0.00332812668959602,0,-0.00332812668959602,0.07183092442751145,0.06099080166845271,0.0004941037659487716,0.4,0.035474300384521484,2.270338535308838,STABILIZE
0.17,0.004,0.1,0.04353601885958427,0.016177722511416356,0.00017414407543833707,-0.0009559135779765083,0.015395953008878185,0.17,0.004,0.1,-0.23969831501402952,-0.0674028346935098,-0.0009587932600561181,0.010583371416924947,-0.05777825653664097,0.002,8e-05,0,-1.407076419834694,-0.0010646227528593327,-0.00011256611358677552,0.0,-0.0011771888664461082,0.2,0.02,0,-0.05752339346877858,0.002768235406880464,-0.0011504678693755716,0.0,0.0016177675375048926,-0.3964872629029988,0.0,0.3964872629029988,0.09516307359656678,0.0,-0.09516307359656678,-0.5323113764296663,0.0,0.5323113764296663,0.013841177034402321,0,-0.013841177034402321,0.015409910290496258,0.05777453558709354,-0.0016177675375048926,0.4,0.03345537185668945,2.3038113117218018,STABILIZE
0.17,0.004,0.1,0.0468613981171039,0.01689624506442801,0.00018744559246841561,-0.031023917635018945,-0.01394022697812252,0.17,0.004,0.1,-0.25062184218467987,-0.05550241874694091,-0.0010024873687387195,0.12492294764733305,0.06841804153165343,0.002,8e-05,0,-1.4246490076520852,-0.0010504268471825714,-0.00011397192061216683,0.0,-0.0011643987677947382,0.2,0.02,0,-0.057917645339194766,-0.002356697565211445,-0.0011583529067838954,-0.0,-0.0035150504719953404,-0.3264848161584759,0.0,0.3264848161584759,0.09938967684957652,0.0,-0.09938967684957652,-0.5252134235912856,0.0,0.5252134235912856,-0.011783487826057225,0,0.011783487826057225,-0.013926155783838903,-0.06842090704099792,0.0035150504719953404,0.4,0.03345799446105957,2.337287425994873,STABILIZE
0.17,0.004,0.1,0.050217626911882536,0.017066003850964774,0.00020087050764753015,-0.024353296206248785,-0.007086421847636481,0.17,0.004,0.1,-0.2614031536955685,-0.05482162123438056,-0.001045612614782274,0.09734638766494493,0.04147915381578209,0.002,8e-05,0,-1.442113321944929,-0.001044751234374957,-0.00011536906575559433,0.0,-0.0011601203001305512,0.2,0.02,0,-0.05685345280691855,0.006366218810914182,-0.001137069056138371,0.0,0.005229149754775811,-0.3224801249081209,0.0,0.3224801249081209,0.1003882579468516,0.0,-0.1003882579468516,-0.5223756171874785,0.0,0.5223756171874785,0.03183109405457091,0,-0.03183109405457091,-0.007109464803532645,-0.04147521050077142,-0.005229149754775811,0.4,0.0334324836730957,2.370704412460327,STABILIZE
0.17,0.004,0.1,0.054075091157877626,0.01961738152775407,0.0002163003646315105,0.020172097362023952,0.04000577925440953,0.17,0.004,0.1,-0.27227991859978057,-0.0553144846734855,-0.0010891196743991222,0.07084344893782434,0.014439844589939715,0.002,8e-05,0,-1.459209831508969,-0.0010228869949501995,-0.00011673678652071753,0.0,-0.001139623781470917,0.2,0.02,0,-0.05618793718789746,0.003981790956118632,-0.0011237587437579492,0.0,0.002858032212360683,-0.3253793216087382,0.0,0.3253793216087382,0.1153963619279651,0.0,-0.1153963619279651,-0.5114434974750998,0.0,0.5114434974750998,0.01990895478059316,0,-0.01990895478059316,0.04000075932820152,-0.014453744798544573,-0.002858032212360683,0.4,0.03342795372009277,2.404120445251465,STABILIZE
0.17,0.004,0.1,0.05840948779130333,0.02203703626050222,0.00023363795116521332,0.030150472324823447,0.05242114653649088,0.17,0.004,0.1,-0.28321632536413144,-0.05560312375822468,-0.0011328653014565258,-0.0005908000414108402,-0.05732678910109205,0.002,8e-05,0,-1.475881658929508,-0.0009972150314776689,-0.00011807053271436066,0.0,-0.0011152855641920296,0.2,0.02,0,-0.055959122653933484,0.0013686399632971804,-0.0011191824530786697,0.0,0.0002494575102185107,-0.3270771985777922,0.0,0.3270771985777922,0.12962962506177775,0.0,-0.12962962506177775,-0.49860751573883444,0.0,0.49860751573883444,0.006843199816485901,0,-0.006843199816485901,0.05242799306606863,0.05732052770086469,-0.0002494575102185107,0.4,0.03343677520751953,2.4375836849212646,STABILIZE
0.17,0.004,0.1,0.06199429872067154,0.018229485436500374,0.0002479771948826862,0.0068224851730038245,0.025299947804386887,0.17,0.004,0.1,-0.29417732888662057,-0.05573891009026245,-0.0011767093155464823,-0.0053800400464953345,-0.06229565945230427,0.002,8e-05,0,-1.4933017203093315,-0.001042170822733895,-0.00011946413762474653,0.0,-0.0011616349603586415,0.2,0.02,0,-0.056298318346249196,-0.0020292687035987768,-0.001125966366924984,-0.0,-0.0031552350705237606,-0.3278759417074262,0.0,0.3278759417074262,0.1072322672735316,0.0,-0.1072322672735316,-0.5210854113669474,0.0,0.5210854113669474,-0.010146343517993883,0,0.010146343517993883,0.025288915649979454,0.06230013876991279,0.0031552350705237606,0.4,0.03343033790588379,2.471019744873047,STABILIZE
0.17,0.004,0.1,0.0648183374053996,0.01434852567574228,0.0002592733496215984,-0.03088660479670143,-0.01627880577133755,0.17,0.004,0.1,-0.3052338673198326,-0.05617664745589359,-0.0012209354692793305,-0.005054308390963996,-0.06245189131613692,0.002,8e-05,0,-1.5114298541482893,-0.0010836045272918189,-0.00012091438833186315,-0.0,-0.001204518915623682,0.2,0.02,0,-0.05754134089323369,-0.007430135232913995,-0.001150826817864674,-0.0,-0.008580962050778669,-0.3304508673876093,0.0,0.3304508673876093,0.0844030922102487,0.0,-0.0844030922102487,-0.5418022636459094,0.0,0.5418022636459094,-0.037150676164569976,0,0.037150676164569976,-0.016319296253896942,0.06244132298471146,0.008580962050778669,0.4,0.03345894813537598,2.5044610500335693,STABILIZE
0.17,0.004,0.1,0.0676656420752967,0.014473646768721508,0.0002706625683011868,-0.04434224163623823,-0.029597932299215538,0.17,0.004,0.1,-0.31591777990420555,-0.054309318735357506,-0.0012636711196168222,0.007586591206761905,-0.04798639864821243,0.002,8e-05,0,-1.5297811166395143,-0.0010974659395736113,-0.00012238248933116116,-0.0,-0.0012198484289047725,0.2,0.02,0,-0.0590100584388345,-0.00878341466654829,-0.00118020116877669,-0.0,-0.00996361583532498,-0.3194665807962206,0.0,0.3194665807962206,0.08513909863953828,0.0,-0.08513909863953828,-0.5487329697868056,0.0,0.5487329697868056,-0.043917073332741446,0,0.043917073332741446,-0.029634705056865836,0.047963697812060745,0.00996361583532498,0.4,0.03344297409057617,2.5379247665405273,STABILIZE
0.17,0.004,0.1,0.07039200006505168,0.01386299182557278,0.00028156800026020673,-0.025591257907128618,-0.011446698081295632,0.17,0.004,0.1,-0.3264166583584393,-0.053384723039179724,-0.0013056666334337573,0.013805607718720856,-0.04088478195389263,0.002,8e-05,0,-1.5481219210227675,-0.001097169027411016,-0.00012384975368182142,-0.0,-0.0012210187810928375,0.2,0.02,0,-0.06058245971790881,-0.009406293998953798,-0.0012116491943581762,-0.0,-0.010617943193311974,-0.31402778258341013,0.0,0.31402778258341013,0.08154701073866341,0.0,-0.08154701073866341,-0.548584513705508,0.0,0.548584513705508,-0.04703146999476899,0,0.04703146999476899,-0.011480254658074517,0.04087537211289262,0.010617943193311974,0.4,0.033432960510253906,2.5713376998901367,STABILIZE
0.17,0.004,0.1,0.07285386152705033,0.012503634262954274,0.0002914154461082013,-0.010810983705497062,0.001984066003565413,0.17,0.004,0.1,-0.337180999239538,-0.05467138729640623,-0.001348723996958152,0.008833514477464525,-0.04718659681589985,0.002,8e-05,0,-1.5667848858875406,-0.0011151527627918957,-0.00012534279087100326,-0.0,-0.001240495553662899,0.2,0.02,0,-0.06144501676223581,-0.005153966039246253,-0.001228900335244716,0.0,-0.0063828663744909695,-0.3215963958612131,0.0,0.3215963958612131,0.07355078978208396,0.0,-0.07355078978208396,-0.5575763813959479,0.0,0.5575763813959479,-0.025769830196231264,0,0.025769830196231264,0.0019628427641761623,0.047187484413305135,0.0063828663744909695,0.4,0.03347158432006836,2.6048243045806885,STABILIZE
0.17,0.004,0.1,0.07504664427266879,0.011146846455900519,0.00030018657709067513,-0.019499743216120163,-0.00805271018312897,0.17,0.004,0.1,-0.34819350057896115,-0.055981223753804446,-0.0013927740023158446,-0.009794640025695071,-0.06716863778181537,0.002,8e-05,0,-1.5857299626898222,-0.0011330103006019572,-0.0001268583970151858,-0.0,-0.001259868697617143,0.2,0.02,0,-0.061586239386876525,-0.0008445818935751616,-0.0012317247877375306,0.0,-0.002076306681312692,-0.32930131619884967,0.0,0.32930131619884967,0.06556968503470893,0.0,-0.06556968503470893,-0.5665051503009786,0.0,0.5665051503009786,-0.004222909467875808,0,0.004222909467875808,-0.00805766073664981,0.06716804408505012,0.002076306681312692,0.4,0.033442020416259766,2.6382908821105957,STABILIZE
0.17,0.004,0.1,0.07673149480910595,0.008564444853888777,0.00030692597923642377,-0.031058939740365617,-0.022187568907240416,0.17,0.004,0.1,-0.3587834235914206,-0.053830775897147264,-0.0014351336943656825,-0.0026091888592960563,-0.057875098450809,0.002,8e-05,0,-1.6053473678579542,-0.0011731687145876033,-0.00012842778942863633,-0.0,-0.0013015965040162397,0.2,0.02,0,-0.06140731878594951,0.0010699888675581644,-0.0012281463757189903,0.0,-0.00015815750816082583,-0.31665162292439564,0.0,0.31665162292439564,0.050379087375816325,0.0,-0.050379087375816325,-0.5865843572938017,0.0,0.5865843572938017,0.005349944337790822,0,-0.005349944337790822,-0.022182164772777138,0.057877169943750195,0.00015815750816082583,0.4,0.033443450927734375,2.671715021133423,STABILIZE
