Mode,Time,Freq,North-Vision,East-Vision,Down-Vision,Yaw-Vision,North-Desired,East-Desired,Down-Desired,Roll-UAV,Pitch-UAV,Yaw-UAV,Roll-Control,Pitch-Control,Yaw-Control,Thrust-Control
GUIDED_NOGPS,0.0014922618865966797,681.5573610659734,0.0,0.0,0.0,0.0,300,0,30,0.32808317422224365,0.0779450515911277,76.74632777858108,-0.0,10.0,0.0,0.5030002071380615
GUIDED_NOGPS,0.002918720245361328,702.3281982585398,0.0,0.0,0.0,0.0,300,0,30,0.32808317422224365,0.0779450515911277,76.74632777858108,-0.0,10.0,0.0,0.5030012538433075
GUIDED_NOGPS,0.0037293434143066406,1233.6188235294117,0.0,0.0,0.0,0.0,300,0,30,0.32808317422224365,0.0779450515911277,76.74632777858108,-0.0,10.0,0.0,0.5030018251895905
GUIDED_NOGPS,0.004400491714477539,1510.372344256392,0.0,0.0,0.0,0.0,300,0,30,0.32808317422224365,0.0779450515911277,76.74632777858108,-0.0,10.0,0.0,0.5030022858142853
GUIDED_NOGPS,0.004922151565551758,1909.9744990892532,0.0,0.0,0.0,0.0,300,0,30,0.32808317422224365,0.0779450515911277,76.74632777858108,-0.0,10.0,0.0,0.5030026916503906
GUIDED_NOGPS,0.005419015884399414,2015.5233061028352,0.0,0.0,0.0,0.0,300,0,30,0.32808317422224365,0.0779450515911277,76.74632777858108,-0.0,10.0,0.0,0.5030030010700226
GUIDED_NOGPS,0.007188081741333008,569.8782608695652,0.0,0.0,0.0,0.0,300,0,30,0.32808317422224365,0.0779450515911277,76.74632777858108,-0.0,10.0,0.0,0.5030032824516296
GUIDED_NOGPS,0.016136884689331055,111.85705523108516,0.0,0.0,0.0,0.0,300,0,30,0.29653634471495305,0.0958373190913579,76.66846362204294,-0.0,10.0,0.0,0.503009139251709
GUIDED_NOGPS,0.020343780517578125,238.5024451268054,0.0,0.0,0.0,0.0,300,0,30,0.29653634471495305,0.0958373190913579,76.66846362204294,-0.0,10.0,0.0,0.5030113747119903
GUIDED_NOGPS,0.021398305892944336,959.355901189387,0.0,0.0,0.0,0.0,300,0,30,0.29653634471495305,0.0958373190913579,76.66846362204294,-0.0,10.0,0.0,0.5030123122692108
GUIDED_NOGPS,0.02276611328125,734.940248817242,0.0,0.0,0.0,0.0,300,0,30,0.29653634471495305,0.0958373190913579,76.66846362204294,-0.0,10.0,0.0,0.5030130175113678
GUIDED_NOGPS,0.023946285247802734,852.5008130081301,0.0,0.0,0.0,0.0,300,0,30,0.29653634471495305,0.0958373190913579,76.66846362204294,-0.0,10.0,0.0,0.5030137665271759
GUIDED_NOGPS,0.02485966682434082,1101.7346992382454,0.0,0.0,0.0,0.0,300,0,30,0.29653634471495305,0.0958373190913579,76.66846362204294,-0.0,10.0,0.0,0.503014444732666
GUIDED_NOGPS,0.02596592903137207,912.0034790171776,0.0,0.0,0.0,0.0,300,0,30,0.29653634471495305,0.0958373190913579,76.66846362204294,-0.0,10.0,0.0,0.5030149824619293
GUIDED_NOGPS,0.03350067138671875,132.8025836684292,0.0,0.0,0.0,0.0,300,0,30,0.3345695060562286,0.19328853717839575,76.59551037151802,-0.0,10.0,0.0,0.503015780544281
GUIDED_NOGPS,0.034897565841674805,719.4346483704974,0.0,0.0,0.0,0.0,300,0,30,0.3345695060562286,0.19328853717839575,76.59551037151802,-0.0,10.0,0.0,0.5030202003955841
GUIDED_NOGPS,0.03881216049194336,256.09378434485285,0.0,0.0,0.0,0.0,300,0,30,0.310186744575488,0.21201328734457417,76.49472410012531,-0.0,10.0,0.0,0.503022801065445
GUIDED_NOGPS,0.04013204574584961,760.2508609751677,0.0,0.0,0.0,0.0,300,0,30,0.310186744575488,0.21201328734457417,76.49472410012531,-0.0,10.0,0.0,0.503023364686966
GUIDED_NOGPS,0.04240226745605469,441.9243493836266,0.0,0.0,0.0,0.0,300,0,30,0.34214455937174293,0.26096797452955295,76.42183915149211,-0.0,10.0,0.0,0.5030241576194763
GUIDED_NOGPS,0.045493364334106445,324.2851399412401,0.0,0.0,0.0,0.0,300,0,30,0.34214455937174293,0.26096797452955295,76.42183915149211,-0.0,10.0,0.0,0.5030256140232087
GUIDED_NOGPS,0.04734945297241211,541.0608875128999,0.0,0.0,0.0,0.0,300,0,30,0.34214455937174293,0.26096797452955295,76.42183915149211,-0.0,10.0,0.0,0.5030275032997131
GUIDED_NOGPS,0.04931354522705078,513.7560019598236,0.0,0.0,0.0,0.0,300,0,30,0.36729737132054957,0.2868376361760936,76.36559937386622,-0.0,10.0,0.0,0.5030284816265106
GUIDED_NOGPS,0.05096125602722168,606.9904486251809,0.0,0.0,0.0,0.0,300,0,30,0.36729737132054957,0.2868376361760936,76.36559937386622,-0.0,10.0,0.0,0.5030300265789032
GUIDED_NOGPS,0.052469491958618164,667.1391760776205,0.0,0.0,0.0,0.0,300,0,30,0.36729737132054957,0.2868376361760936,76.36559937386622,-0.0,10.0,0.0,0.5030307096481323
GUIDED_NOGPS,0.05344510078430176,1030.0353634577602,0.0,0.0,0.0,0.0,300,0,30,0.36729737132054957,0.2868376361760936,76.36559937386622,-0.0,10.0,0.0,0.5030315503597259
GUIDED_NOGPS,0.05464529991149902,839.868642370845,0.0,0.0,0.0,0.0,300,0,30,0.36729737132054957,0.2868376361760936,76.36559937386622,-0.0,10.0,0.0,0.5030321327209473
GUIDED_NOGPS,0.05665111541748047,501.47106647537066,0.0,0.0,0.0,0.0,300,0,30,0.36729737132054957,0.2868376361760936,76.36559937386622,-0.0,10.0,0.0,0.5030328807353973
GUIDED_NOGPS,0.060553789138793945,256.8937343051387,0.0,0.0,0.0,0.0,300,0,30,0.3727455677615455,0.293920435623691,76.31289080404123,-0.0,10.0,0.0,0.5030340787887573
GUIDED_NOGPS,0.06226849555969238,585.2245011859914,0.0,0.0,0.0,0.0,300,0,30,0.3727455677615455,0.293920435623691,76.31289080404123,-0.0,10.0,0.0,0.5030366043567658
GUIDED_NOGPS,0.06379246711730957,659.8967904342354,0.0,0.0,0.0,0.0,300,0,30,0.3727455677615455,0.293920435623691,76.31289080404123,-0.0,10.0,0.0,0.5030375678062439
GUIDED_NOGPS,0.06626367568969727,405.91348108003484,0.0,0.0,0.0,0.0,300,0,30,0.3727455677615455,0.293920435623691,76.31289080404123,-0.0,10.0,0.0,0.503038515663147
GUIDED_NOGPS,0.06914138793945312,348.2773395333389,0.0,0.0,0.0,0.0,300,0,30,0.3727455677615455,0.293920435623691,76.31289080404123,-0.0,10.0,0.0,0.5030403750419616
GUIDED_NOGPS,0.07035112380981445,830.3908137002574,0.0,0.0,0.0,0.0,300,0,30,0.3727455677615455,0.293920435623691,76.31289080404123,-0.0,10.0,0.0,0.5030417051315308
GUIDED_NOGPS,0.07881283760070801,118.33274086613062,0.0,0.0,0.0,0.0,300,0,30,0.3505849656385862,0.39839362178603094,76.1704267183331,-0.0,10.0,0.0,0.5030466449737548
GUIDED_NOGPS,0.08038592338562012,637.5291077671378,0.0,0.0,0.0,0.0,300,0,30,0.3505849656385862,0.39839362178603094,76.1704267183331,-0.0,10.0,0.0,0.5030474743843079
GUIDED_NOGPS,0.08144140243530273,969.1090573012939,0.0,0.0,0.0,0.0,300,0,30,0.3505849656385862,0.39839362178603094,76.1704267183331,-0.0,10.0,0.0,0.5030483385562897
GUIDED_NOGPS,0.08254504203796387,911.8052173913044,0.0,0.0,0.0,0.0,300,0,30,0.3505849656385862,0.39839362178603094,76.1704267183331,-0.0,10.0,0.0,0.5030490280628205
GUIDED_NOGPS,0.0835261344909668,1025.2515277438279,0.0,0.0,0.0,0.0,300,0,30,0.3505849656385862,0.39839362178603094,76.1704267183331,-0.0,10.0,0.0,0.5030495662212372
GUIDED_NOGPS,0.08437752723693848,1181.4940845070423,0.0,0.0,0.0,0.0,300,0,30,0.3505849656385862,0.39839362178603094,76.1704267183331,-0.0,10.0,0.0,0.5030501502990723
GUIDED_NOGPS,0.08643174171447754,488.9036018183937,0.0,0.0,0.0,0.0,300,0,30,0.4038986475353554,0.5451473864580423,76.070507880965,-0.0,10.0,0.0,0.5030506539821624
GUIDED_NOGPS,0.08826112747192383,549.0645372430946,0.0,0.0,0.0,0.0,300,0,30,0.4038986475353554,0.5451473864580423,76.070507880965,-0.0,10.0,0.0,0.5030524585723877
GUIDED_NOGPS,0.09016275405883789,527.2538026398491,0.0,0.0,0.0,0.0,300,0,30,0.4038986475353554,0.5451473864580423,76.070507880965,-0.0,10.0,0.0,0.5030529954433441
GUIDED_NOGPS,0.09502506256103516,206.11843333824757,0.0,0.0,0.0,0.0,300,0,30,0.4038986475353554,0.5451473864580423,76.070507880965,-0.0,10.0,0.0,0.5030542102336883
GUIDED_NOGPS,0.10582566261291504,92.66722637090716,0.0,0.0,0.0,0.0,300,0,30,0.4038986475353554,0.5451473864580423,76.070507880965,-0.0,10.0,0.0,0.5030571941375732
GUIDED_NOGPS,0.11449313163757324,115.51374277058662,0.0,0.0,0.0,0.0,300,0,30,0.6181461004296114,0.9847571444602804,75.88575126391615,-0.0,10.0,0.0,0.5030680940628052
GUIDED_NOGPS,0.11727476119995117,361.8274672187716,0.0,0.0,0.0,0.0,300,0,30,0.6181461004296114,0.9847571444602804,75.88575126391615,-0.0,10.0,0.0,0.5030696457386017
GUIDED_NOGPS,0.11906886100769043,563.7505376344086,0.0,0.0,0.0,0.0,300,0,30,0.6181461004296114,0.9847571444602804,75.88575126391615,-0.0,10.0,0.0,0.5030705765724182
GUIDED_NOGPS,0.12131810188293457,446.10763667304826,0.0,0.0,0.0,0.0,300,0,30,0.7148589643952002,1.2640888296253532,75.80464959771142,-0.0,10.0,0.0,0.5030719474315644
GUIDED_NOGPS,0.1225273609161377,830.0621413021967,0.0,0.0,0.0,0.0,300,0,30,0.7148589643952002,1.2640888296253532,75.80464959771142,-0.0,10.0,0.0,0.5030728130340576
GUIDED_NOGPS,0.12354421615600586,989.9230587679962,0.0,0.0,0.0,0.0,300,0,30,0.7148589643952002,1.2640888296253532,75.80464959771142,-0.0,10.0,0.0,0.503073533153534
GUIDED_NOGPS,0.12503695487976074,672.8110362528072,0.0,0.0,0.0,0.0,300,0,30,0.7148589643952002,1.2640888296253532,75.80464959771142,-0.0,10.0,0.0,0.5030745266437531
GUIDED_NOGPS,0.12684154510498047,555.7577845501523,0.0,0.0,0.0,0.0,300,0,30,0.7148589643952002,1.2640888296253532,75.80464959771142,-0.0,10.0,0.0,0.5030751240253448
GUIDED_NOGPS,0.1287684440612793,520.5788755119771,0.0,0.0,0.0,0.0,300,0,30,0.8147807899710786,1.5837476591974737,75.72345913904748,-0.0,10.0,0.0,0.5030762381076813
GUIDED_NOGPS,0.12987756729125977,907.8580086580087,0.0,0.0,0.0,0.0,300,0,30,0.8147807899710786,1.5837476591974737,75.72345913904748,-0.0,10.0,0.0,0.5030773935317994
GUIDED_NOGPS,0.14270567893981934,78.02485303966068,0.0,0.0,0.0,0.0,300,0,30,0.9613641734398098,1.9518174822244694,75.64586819007613,-0.0,10.0,0.0,0.5030850005626678
GUIDED_NOGPS,0.1447751522064209,484.77854831252887,0.0,0.0,0.0,0.0,300,0,30,0.9613641734398098,1.9518174822244694,75.64586819007613,-0.0,10.0,0.0,0.5030859263896942
GUIDED_NOGPS,0.1476457118988037,352.61067675493905,0.0,0.0,0.0,0.0,300,0,30,1.1591986817585251,2.3929507992984433,75.57864546826487,-0.0,10.0,0.0,0.5030872031211853
GUIDED_NOGPS,0.15095973014831543,301.0122003731879,0.0,0.0,0.0,0.0,300,0,30,1.1591986817585251,2.3929507992984433,75.57864546826487,-0.0,10.0,0.0,0.5030895531654358
GUIDED_NOGPS,0.15314412117004395,471.3230700078661,0.0,0.0,0.0,0.0,300,0,30,1.1591986817585251,2.3929507992984433,75.57864546826487,-0.0,10.0,0.0,0.50309084649086
GUIDED_NOGPS,0.15549659729003906,422.2595389107017,0.0,0.0,0.0,0.0,300,0,30,1.1591986817585251,2.3929507992984433,75.57864546826487,-0.0,10.0,0.0,0.5030925785541535
GUIDED_NOGPS,0.1573326587677002,545.9911481385057,0.0,0.0,0.0,0.0,300,0,30,1.3018910451953176,2.839389038923402,75.52700240795039,-0.0,10.0,0.0,0.5030936203956604
GUIDED_NOGPS,0.16254019737243652,192.34632669907364,0.0,0.0,0.0,0.0,300,0,30,1.3018910451953176,2.839389038923402,75.52700240795039,-0.0,10.0,0.0,0.5030951330184936
GUIDED_NOGPS,0.1635439395904541,1002.2231780167264,0.0,0.0,0.0,0.0,300,0,30,1.3018910451953176,2.839389038923402,75.52700240795039,-0.0,10.0,0.0,0.503097583770752
GUIDED_NOGPS,0.16504383087158203,669.9095991055742,0.0,0.0,0.0,0.0,300,0,30,1.3018910451953176,2.839389038923402,75.52700240795039,-0.0,10.0,0.0,0.50309811835289
GUIDED_NOGPS,0.16710853576660156,486.1270282800185,0.0,0.0,0.0,0.0,300,0,30,1.3724470060432552,3.2365064825516985,75.47231991345528,-0.0,10.0,0.0,0.5030994062423706
GUIDED_NOGPS,0.16833233833312988,821.6070519098922,0.0,0.0,0.0,0.0,300,0,30,1.3724470060432552,3.2365064825516985,75.47231991345528,-0.0,10.0,0.0,0.5031004337787628
GUIDED_NOGPS,0.18024802207946777,84.00873274981473,0.0,0.0,0.0,0.0,300,0,30,1.4157505121028418,3.6482187597758426,75.39481092675398,-0.0,10.0,0.0,0.5031018534183502
GUIDED_NOGPS,0.18180012702941895,647.0694230175872,0.0,0.0,0.0,0.0,300,0,30,1.4157505121028418,3.6482187597758426,75.39481092675398,-0.0,10.0,0.0,0.5031083679676056
GUIDED_NOGPS,0.18341970443725586,620.2756580893226,0.0,0.0,0.0,0.0,300,0,30,1.4157505121028418,3.6482187597758426,75.39481092675398,-0.0,10.0,0.0,0.5031093080997467
GUIDED_NOGPS,0.1848142147064209,721.4145166838665,0.0,0.0,0.0,0.0,300,0,30,1.4157505121028418,3.6482187597758426,75.39481092675398,-0.0,10.0,0.0,0.5031101405143737
GUIDED_NOGPS,0.18983101844787598,199.90963252466517,0.0,0.0,0.0,0.0,300,0,30,1.5123944872073487,4.142377396697564,75.30231650501366,-0.0,10.0,0.0,0.5031112654685974
GUIDED_NOGPS,0.1914048194885254,637.4322188449848,0.0,0.0,0.0,0.0,300,0,30,1.5123944872073487,4.142377396697564,75.30231650501366,-0.0,10.0,0.0,0.5031140380859375
GUIDED_NOGPS,0.1926586627960205,806.5969230769231,0.0,0.0,0.0,0.0,300,0,30,1.5123944872073487,4.142377396697564,75.30231650501366,-0.0,10.0,0.0,0.5031149311542511
GUIDED_NOGPS,0.193953275680542,776.8668271902204,0.0,0.0,0.0,0.0,300,0,30,1.5123944872073487,4.142377396697564,75.30231650501366,-0.0,10.0,0.0,0.5031156798839569
GUIDED_NOGPS,0.19636940956115723,415.3187444301416,0.0,0.0,0.0,0.0,300,0,30,1.5123944872073487,4.142377396697564,75.30231650501366,-0.0,10.0,0.0,0.5031167255878448
GUIDED_NOGPS,0.1997239589691162,299.0164682398232,0.0,0.0,0.0,0.0,300,0,30,1.6798232344969886,4.657925197892005,75.20553272447458,-0.0,10.0,0.0,0.5031192158222199
GUIDED_NOGPS,0.20075154304504395,976.1005352571561,0.0,0.0,0.0,0.0,300,0,30,1.6798232344969886,4.657925197892005,75.20553272447458,-0.0,10.0,0.0,0.5031198945999146
GUIDED_NOGPS,0.20180416107177734,956.2936616507068,0.0,0.0,0.0,0.0,300,0,30,1.6798232344969886,4.657925197892005,75.20553272447458,-0.0,10.0,0.0,0.5031204248905182
GUIDED_NOGPS,0.20308637619018555,785.0091708777841,0.0,0.0,0.0,0.0,300,0,30,1.6798232344969886,4.657925197892005,75.20553272447458,-0.0,10.0,0.0,0.5031210647583008
GUIDED_NOGPS,0.20549535751342773,415.8540551259171,0.0,0.0,0.0,0.0,300,0,30,1.7853849820582992,5.084175959651344,75.12469060545831,-0.0,10.0,0.0,0.5031221828460694
GUIDED_NOGPS,0.20949649810791016,250.66061076913883,0.0,0.0,0.0,0.0,300,0,30,1.7853849820582992,5.084175959651344,75.12469060545831,-0.0,10.0,0.0,0.5031233969211578
GUIDED_NOGPS,0.21100831031799316,665.1290834126229,0.0,0.0,0.0,0.0,300,0,30,1.7853849820582992,5.084175959651344,75.12469060545831,-0.0,10.0,0.0,0.5031257921695709
GUIDED_NOGPS,0.2130880355834961,483.1034323888505,0.0,0.0,0.0,0.0,300,0,30,1.7853849820582992,5.084175959651344,75.12469060545831,-0.0,10.0,0.0,0.5031266337394714
GUIDED_NOGPS,0.21841812133789062,187.93368581414106,0.0,0.0,0.0,0.0,300,0,30,1.7846809389652591,5.428986960842036,75.06786343156381,-0.0,10.0,0.0,0.503129973268509
GUIDED_NOGPS,0.22175335884094238,300.58076537193637,0.0,0.0,0.0,0.0,300,0,30,1.7846809389652591,5.428986960842036,75.06786343156381,-0.0,10.0,0.0,0.5031314328193665
GUIDED_NOGPS,0.2251877784729004,291.5748348974626,0.0,0.0,0.0,0.0,300,0,30,1.7498605278548283,5.779336818562786,75.02902697594311,-0.0,10.0,0.0,0.5031332371234893
GUIDED_NOGPS,0.22826385498046875,326.25264467952707,0.0,0.0,0.0,0.0,300,0,30,1.7498605278548283,5.779336818562786,75.02902697594311,-0.0,10.0,0.0,0.5031361274719238
GUIDED_NOGPS,0.2309584617614746,424.5246963562753,0.0,0.0,0.0,0.0,300,0,30,1.7498605278548283,5.779336818562786,75.02902697594311,-0.0,10.0,0.0,0.5031373355388641
GUIDED_NOGPS,0.23287653923034668,521.2905791697738,0.0,0.0,0.0,0.0,300,0,30,1.7498605278548283,5.779336818562786,75.02902697594311,-0.0,10.0,0.0,0.5031389844894409
GUIDED_NOGPS,0.23694181442260742,246.4193643146701,0.0,0.0,0.0,0.0,300,0,30,1.7266914589730873,6.158387558062753,74.95993278229926,-0.0,10.0,0.0,0.5031414399623871
GUIDED_NOGPS,0.2379930019378662,958.2599954306603,0.0,0.0,0.0,0.0,300,0,30,1.7266914589730873,6.158387558062753,74.95993278229926,-0.0,10.0,0.0,0.5031421783924103
GUIDED_NOGPS,0.23960328102111816,622.762286562732,0.0,0.0,0.0,0.0,300,0,30,1.7266914589730873,6.158387558062753,74.95993278229926,-0.0,10.0,0.0,0.5031429829120636
GUIDED_NOGPS,0.24071645736694336,904.3346269943942,0.0,0.0,0.0,0.0,300,0,30,1.7266914589730873,6.158387558062753,74.95993278229926,-0.0,10.0,0.0,0.5031438323497772
GUIDED_NOGPS,0.24178743362426758,938.5330051465652,0.0,0.0,0.0,0.0,300,0,30,1.7266914589730873,6.158387558062753,74.95993278229926,-0.0,10.0,0.0,0.5031443788051605
GUIDED_NOGPS,0.2431497573852539,741.4360968711331,0.0,0.0,0.0,0.0,300,0,30,1.7266914589730873,6.158387558062753,74.95993278229926,-0.0,10.0,0.0,0.5031451112270355
GUIDED_NOGPS,0.24657845497131348,292.30636281273956,0.0,0.0,0.0,0.0,300,0,30,1.7192548770708243,6.550205628668765,74.86570349250977,-0.0,10.0,0.0,0.5031469563007355
GUIDED_NOGPS,0.2492842674255371,370.521554770318,0.0,0.0,0.0,0.0,300,0,30,1.7192548770708243,6.550205628668765,74.86570349250977,-0.0,10.0,0.0,0.5031486145496369
GUIDED_NOGPS,0.25176119804382324,409.56000390586854,0.0,0.0,0.0,0.0,300,0,30,1.7192548770708243,6.550205628668765,74.86570349250977,-0.0,10.0,0.0,0.5031501390457154
GUIDED_NOGPS,0.2541821002960205,411.7310297437911,0.0,0.0,0.0,0.0,300,0,30,1.7192548770708243,6.550205628668765,74.86570349250977,-0.0,10.0,0.0,0.503151301908493
GUIDED_NOGPS,0.2717585563659668,56.91899740802562,0.0,0.0,0.0,0.0,300,0,30,1.671319542258617,6.863046648788743,74.7852233735195,-0.0,10.0,0.0,0.5031624394416809
GUIDED_NOGPS,0.2729518413543701,840.2051282051282,0.0,0.0,0.0,0.0,300,0,30,1.671319542258617,6.863046648788743,74.7852233735195,-0.0,10.0,0.0,0.5031631346702575
GUIDED_NOGPS,0.2754683494567871,398.66020340271837,0.0,0.0,0.0,0.0,300,0,30,1.671319542258617,6.863046648788743,74.7852233735195,-0.0,10.0,0.0,0.5031638670921326
GUIDED_NOGPS,0.2772181034088135,573.4624008750342,0.0,0.0,0.0,0.0,300,0,30,1.671319542258617,6.863046648788743,74.7852233735195,-0.0,10.0,0.0,0.5031657140254975
GUIDED_NOGPS,0.282489538192749,189.95942028985507,0.0,0.0,0.0,0.0,300,0,30,1.564068390094786,7.175278501412121,74.70543993382458,-0.0,10.0,0.0,0.5031664546012878
GUIDED_NOGPS,0.2843499183654785,674.2170069120721,0.0,0.0,0.0,0.0,300,0,30,1.564068390094786,7.175278501412121,74.70543993382458,-0.0,10.0,0.0,0.5031695950031281
GUIDED_NOGPS,0.2881896495819092,238.05573528577105,0.0,0.0,0.0,0.0,300,0,30,1.4108010795538155,7.3226927667212145,74.69380129147888,-0.0,10.0,0.0,0.5031713659763336
GUIDED_NOGPS,0.2902674674987793,484.77854831252887,0.0,0.0,0.0,0.0,300,0,30,1.4108010795538155,7.3226927667212145,74.69380129147888,-0.0,10.0,0.0,0.503173011636734
GUIDED_NOGPS,0.3003506660461426,99.268768342327,0.0,0.0,0.0,0.0,300,0,30,1.4108010795538155,7.3226927667212145,74.69380129147888,-0.0,10.0,0.0,0.5031789422512054
GUIDED_NOGPS,0.30741095542907715,141.80006085398423,0.0,0.0,0.0,0.0,300,0,30,1.1014650136951114,7.967701680991368,74.4534332742078,-0.0,10.0,0.0,0.5031804698944092
GUIDED_NOGPS,0.30970001220703125,468.8992733370598,0.0,0.0,0.0,0.0,300,0,30,1.1014650136951114,7.967701680991368,74.4534332742078,-0.0,10.0,0.0,0.5031847299575806
GUIDED_NOGPS,0.3120560646057129,401.8687362268851,0.0,0.0,0.0,0.0,300,0,30,1.1014650136951114,7.967701680991368,74.4534332742078,-0.0,10.0,0.0,0.5031860780715942
GUIDED_NOGPS,0.31427645683288574,451.19449225473323,0.0,0.0,0.0,0.0,300,0,30,1.1014650136951114,7.967701680991368,74.4534332742078,-0.0,10.0,0.0,0.5031873261928559
GUIDED_NOGPS,0.31583142280578613,645.9732019097489,0.0,0.0,0.0,0.0,300,0,30,1.1014650136951114,7.967701680991368,74.4534332742078,-0.0,10.0,0.0,0.5031888544082641
GUIDED_NOGPS,0.31745076179504395,635.2118733908829,0.0,0.0,0.0,0.0,300,0,30,1.1014650136951114,7.967701680991368,74.4534332742078,-0.0,10.0,0.0,0.5031894163131714
GUIDED_NOGPS,0.3192925453186035,538.3524579643178,0.0,0.0,0.0,0.0,300,0,30,0.8877652565949259,8.075820160458084,74.43086632919007,-0.0,10.0,0.0,0.5031905311107635
GUIDED_NOGPS,0.32054829597473145,800.5924794808169,0.0,0.0,0.0,0.0,300,0,30,0.8877652565949259,8.075820160458084,74.43086632919007,-0.0,10.0,0.0,0.5031914769649506
GUIDED_NOGPS,0.3215463161468506,1006.7940470475276,0.0,0.0,0.0,0.0,300,0,30,0.8877652565949259,8.075820160458084,74.43086632919007,-0.0,10.0,0.0,0.5031923098087311
GUIDED_NOGPS,0.32318544387817383,613.2023391812866,0.0,0.0,0.0,0.0,300,0,30,0.8877652565949259,8.075820160458084,74.43086632919007,-0.0,10.0,0.0,0.5031932399272919
GUIDED_NOGPS,0.32668280601501465,286.496174863388,0.0,0.0,0.0,0.0,300,0,30,0.8877652565949259,8.075820160458084,74.43086632919007,-0.0,10.0,0.0,0.503195290851593
GUIDED_NOGPS,0.32871294021606445,495.1368197379294,0.0,0.0,0.0,0.0,300,0,30,0.6973987063599734,8.206655849104264,74.37302828729841,-0.0,10.0,0.0,0.5031960760593415
GUIDED_NOGPS,0.3435952663421631,67.229338975444,0.0,0.0,0.0,0.0,300,0,30,0.5504509749877042,8.36030351580464,74.28054752593643,-0.0,10.0,0.0,0.5032051319122315
GUIDED_NOGPS,0.3456754684448242,481.82699597932225,0.0,0.0,0.0,0.0,300,0,30,0.4691929081231501,8.493805539548063,74.19458959523182,-0.0,10.0,0.0,0.5032062521457672
GUIDED_NOGPS,0.35221314430236816,153.09913856037377,0.0,0.0,0.0,0.0,300,0,30,0.4691929081231501,8.493805539548063,74.19458959523182,-0.0,10.0,0.0,0.5032102703094482
GUIDED_NOGPS,0.35343170166015625,825.1630926618138,0.0,0.0,0.0,0.0,300,0,30,0.4691929081231501,8.493805539548063,74.19458959523182,-0.0,10.0,0.0,0.5032113190174102
GUIDED_NOGPS,0.3552815914154053,542.8816981620503,0.0,0.0,0.0,0.0,300,0,30,0.4691929081231501,8.493805539548063,74.19458959523182,-0.0,10.0,0.0,0.5032121716022492
GUIDED_NOGPS,0.35622501373291016,1062.9254941713127,0.0,0.0,0.0,0.0,300,0,30,0.4691929081231501,8.493805539548063,74.19458959523182,-0.0,10.0,0.0,0.5032131268978118
GUIDED_NOGPS,0.3578016757965088,639.9609398840403,0.0,0.0,0.0,0.0,300,0,30,0.4691929081231501,8.493805539548063,74.19458959523182,-0.0,10.0,0.0,0.5032136086940765
GUIDED_NOGPS,0.3588552474975586,953.6844020009095,0.0,0.0,0.0,0.0,300,0,30,0.4691929081231501,8.493805539548063,74.19458959523182,-0.0,10.0,0.0,0.5032146564006805
GUIDED_NOGPS,0.3606557846069336,557.6048923158735,0.0,0.0,0.0,0.0,300,0,30,0.3941618927083849,8.58700944718841,74.15219461105355,-0.0,10.0,0.0,0.5032151931285859
GUIDED_NOGPS,0.36625027656555176,179.12128459173215,0.0,0.0,0.0,0.0,300,0,30,0.24187983695518875,8.630911341852315,74.1395860818457,-0.0,10.0,0.0,0.503216883277893
GUIDED_NOGPS,0.36759114265441895,749.3843130248347,0.0,0.0,0.0,0.0,300,0,30,0.24187983695518875,8.630911341852315,74.1395860818457,-0.0,10.0,0.0,0.5032197929382324
GUIDED_NOGPS,0.3692646026611328,600.9031518624641,0.0,0.0,0.0,0.0,300,0,30,0.24187983695518875,8.630911341852315,74.1395860818457,-0.0,10.0,0.0,0.503220583152771
GUIDED_NOGPS,0.3711678981781006,527.8509942109238,0.0,0.0,0.0,0.0,300,0,30,0.24187983695518875,8.630911341852315,74.1395860818457,-0.0,10.0,0.0,0.5032217232704163
GUIDED_NOGPS,0.3726334571838379,686.4654664484452,0.0,0.0,0.0,0.0,300,0,30,0.24187983695518875,8.630911341852315,74.1395860818457,-0.0,10.0,0.0,0.503222724199295
GUIDED_NOGPS,0.3743612766265869,587.9315951780208,0.0,0.0,0.0,0.0,300,0,30,0.24187983695518875,8.630911341852315,74.1395860818457,-0.0,10.0,0.0,0.5032235855102539
GUIDED_NOGPS,0.37665700912475586,433.83367811336365,0.0,0.0,0.0,0.0,300,0,30,0.050114592044264494,8.65748163149731,74.11586483485826,-0.0,10.0,0.0,0.5032248410701752
GUIDED_NOGPS,0.379716157913208,328.2184834494092,0.0,0.0,0.0,0.0,300,0,30,0.050114592044264494,8.65748163149731,74.11586483485826,-0.0,10.0,0.0,0.5032260404109955
GUIDED_NOGPS,0.3817758560180664,486.8605919907139,0.0,0.0,0.0,0.0,300,0,30,0.050114592044264494,8.65748163149731,74.11586483485826,-0.0,10.0,0.0,0.5032279022216797
GUIDED_NOGPS,0.3834097385406494,614.5500366300366,0.0,0.0,0.0,0.0,300,0,30,0.050114592044264494,8.65748163149731,74.11586483485826,-0.0,10.0,0.0,0.5032290730953216
GUIDED_NOGPS,0.38534021377563477,519.7402726146221,0.0,0.0,0.0,0.0,300,0,30,-0.08943960629381124,8.717852819797406,74.04405222592474,-0.0,10.0,0.0,0.5032302392482757
GUIDED_NOGPS,0.38828158378601074,344.13390219888413,0.0,0.0,0.0,0.0,300,0,30,-0.08943960629381124,8.717852819797406,74.04405222592474,-0.0,10.0,0.0,0.5032319624423981
GUIDED_NOGPS,0.38988256454467773,621.2863279514146,0.0,0.0,0.0,0.0,300,0,30,-0.08943960629381124,8.717852819797406,74.04405222592474,-0.0,10.0,0.0,0.5032330019950867
GUIDED_NOGPS,0.3924999237060547,383.60197548929943,0.0,0.0,0.0,0.0,300,0,30,-0.08943960629381124,8.717852819797406,74.04405222592474,-0.0,10.0,0.0,0.5032341093540191
GUIDED_NOGPS,0.39371776580810547,826.3010244286841,0.0,0.0,0.0,0.0,300,0,30,-0.08943960629381124,8.717852819797406,74.04405222592474,-0.0,10.0,0.0,0.5032353765010834
GUIDED_NOGPS,0.39471888542175293,1005.346116970278,0.0,0.0,0.0,0.0,300,0,30,-0.08943960629381124,8.717852819797406,74.04405222592474,-0.0,10.0,0.0,0.503236112499237
GUIDED_NOGPS,0.4003758430480957,177.0420834916213,0.0,0.0,0.0,0.0,300,0,30,-0.14395043892518386,8.813752944612617,73.96276614461242,-0.0,10.0,0.0,0.5032395182609558
GUIDED_NOGPS,0.40183019638061523,690.0796314577163,0.0,0.0,0.0,0.0,300,0,30,-0.14395043892518386,8.813752944612617,73.96276614461242,-0.0,10.0,0.0,0.5032403596878052
GUIDED_NOGPS,0.402846097946167,989.9230587679962,0.0,0.0,0.0,0.0,300,0,30,-0.14395043892518386,8.813752944612617,73.96276614461242,-0.0,10.0,0.0,0.5032410297393799
GUIDED_NOGPS,0.4038529396057129,1005.1052000958543,0.0,0.0,0.0,0.0,300,0,30,-0.14395043892518386,8.813752944612617,73.96276614461242,-0.0,10.0,0.0,0.5032415626049042
GUIDED_NOGPS,0.41220927238464355,119.78934140629462,0.0,0.0,0.0,0.0,300,0,30,-0.14956197293687826,8.903948153923574,73.92636123633625,-0.0,10.0,0.0,0.5032421559810638
GUIDED_NOGPS,0.413985013961792,566.1857451403888,0.0,0.0,0.0,0.0,300,0,30,-0.14956197293687826,8.903948153923574,73.92636123633625,-0.0,10.0,0.0,0.5032472949504853
GUIDED_NOGPS,0.4168415069580078,355.11844890356446,0.0,0.0,0.0,0.0,300,0,30,-0.15772701052237892,8.953157105572577,73.9361420672277,-0.0,10.0,0.0,0.5032486060142517
GUIDED_NOGPS,0.4204394817352295,277.3827127835461,0.0,0.0,0.0,0.0,300,0,30,-0.15772701052237892,8.953157105572577,73.9361420672277,-0.0,10.0,0.0,0.5032514704704285
GUIDED_NOGPS,0.4217960834503174,739.9971771347919,0.0,0.0,0.0,0.0,300,0,30,-0.15772701052237892,8.953157105572577,73.9361420672277,-0.0,10.0,0.0,0.5032522470951081
GUIDED_NOGPS,0.42334461212158203,649.5747251045377,0.0,0.0,0.0,0.0,300,0,30,-0.15772701052237892,8.953157105572577,73.9361420672277,-0.0,10.0,0.0,0.5032530426025391
GUIDED_NOGPS,0.42734432220458984,250.57076288906148,0.0,0.0,0.0,0.0,300,0,30,-0.15772701052237892,8.953157105572577,73.9361420672277,-0.0,10.0,0.0,0.5032556158065796
GUIDED_NOGPS,0.43027281761169434,342.78391631252043,0.0,0.0,0.0,0.0,300,0,30,-0.24035761190477503,8.945428746526707,73.93116285932277,-0.0,10.0,0.0,0.5032572268486023
GUIDED_NOGPS,0.4327576160430908,403.5700952564226,0.0,0.0,0.0,0.0,300,0,30,-0.24035761190477503,8.945428746526707,73.93116285932277,-0.0,10.0,0.0,0.503258713722229
GUIDED_NOGPS,0.43579626083374023,329.84460522176784,0.0,0.0,0.0,0.0,300,0,30,-0.34553313361286264,8.935641085446079,73.88684176179855,-0.0,10.0,0.0,0.5032596002101898
GUIDED_NOGPS,0.43680858612060547,992.0302743614002,0.0,0.0,0.0,0.0,300,0,30,-0.34553313361286264,8.935641085446079,73.88684176179855,-0.0,10.0,0.0,0.5032613867759704
GUIDED_NOGPS,0.43787121772766113,947.4370905805285,0.0,0.0,0.0,0.0,300,0,30,-0.34553313361286264,8.935641085446079,73.88684176179855,-0.0,10.0,0.0,0.5032619212150574
GUIDED_NOGPS,0.43880367279052734,1079.3371075656203,0.0,0.0,0.0,0.0,300,0,30,-0.34553313361286264,8.935641085446079,73.88684176179855,-0.0,10.0,0.0,0.5032625617980957
GUIDED_NOGPS,0.4398970603942871,922.0276983952517,0.0,0.0,0.0,0.0,300,0,30,-0.34553313361286264,8.935641085446079,73.88684176179855,-0.0,10.0,0.0,0.503263116979599
GUIDED_NOGPS,0.4412047863006592,770.3037649219467,0.0,0.0,0.0,0.0,300,0,30,-0.34553313361286264,8.935641085446079,73.88684176179855,-0.0,10.0,0.0,0.5032638267993927
GUIDED_NOGPS,0.44242405891418457,823.7046347211312,0.0,0.0,0.0,0.0,300,0,30,-0.34553313361286264,8.935641085446079,73.88684176179855,-0.0,10.0,0.0,0.5032646170139313
GUIDED_NOGPS,0.4434521198272705,978.834072345391,0.0,0.0,0.0,0.0,300,0,30,-0.34553313361286264,8.935641085446079,73.88684176179855,-0.0,10.0,0.0,0.5032652904987335
GUIDED_NOGPS,0.444352388381958,1119.0779082177162,0.0,0.0,0.0,0.0,300,0,30,-0.34553313361286264,8.935641085446079,73.88684176179855,-0.0,10.0,0.0,0.5032658987522125
GUIDED_NOGPS,0.44538307189941406,977.237651444548,0.0,0.0,0.0,0.0,300,0,30,-0.34553313361286264,8.935641085446079,73.88684176179855,-0.0,10.0,0.0,0.5032664383411407
GUIDED_NOGPS,0.44637084007263184,1018.0349514563106,0.0,0.0,0.0,0.0,300,0,30,-0.34553313361286264,8.935641085446079,73.88684176179855,-0.0,10.0,0.0,0.5032670843601227
GUIDED_NOGPS,0.44812893867492676,570.4983677910773,0.0,0.0,0.0,0.0,300,0,30,-0.3669799809675556,8.97704483842105,73.86437726961839,-0.0,10.0,0.0,0.5032676439762116
GUIDED_NOGPS,0.449859619140625,589.6673696049487,0.0,0.0,0.0,0.0,300,0,30,-0.3669799809675556,8.97704483842105,73.86437726961839,-0.0,10.0,0.0,0.5032687893867492
GUIDED_NOGPS,0.45241284370422363,390.38570364854803,0.0,0.0,0.0,0.0,300,0,30,-0.3669799809675556,8.97704483842105,73.86437726961839,-0.0,10.0,0.0,0.5032698358058929
GUIDED_NOGPS,0.4535510540008545,882.8255104188592,0.0,0.0,0.0,0.0,300,0,30,-0.3669799809675556,8.97704483842105,73.86437726961839,-0.0,10.0,0.0,0.5032713614463806
GUIDED_NOGPS,0.45474696159362793,841.2162053750501,0.0,0.0,0.0,0.0,300,0,30,-0.3669799809675556,8.97704483842105,73.86437726961839,-0.0,10.0,0.0,0.5032720900058746
GUIDED_NOGPS,0.4567127227783203,512.062507630326,0.0,0.0,0.0,0.0,300,0,30,-0.3244084790879239,9.004199963013729,73.78661556591778,-0.0,10.0,0.0,0.5032728493213654
GUIDED_NOGPS,0.45806384086608887,742.4861037351743,0.0,0.0,0.0,0.0,300,0,30,-0.3244084790879239,9.004199963013729,73.78661556591778,-0.0,10.0,0.0,0.50327389960289
GUIDED_NOGPS,0.460752010345459,373.09233232520904,0.0,0.0,0.0,0.0,300,0,30,-0.3244084790879239,9.004199963013729,73.78661556591778,-0.0,10.0,0.0,0.5032747504711151
GUIDED_NOGPS,0.46194982528686523,842.229718875502,0.0,0.0,0.0,0.0,300,0,30,-0.3244084790879239,9.004199963013729,73.78661556591778,-0.0,10.0,0.0,0.5032763377666474
GUIDED_NOGPS,0.47458505630493164,79.18263167830848,0.0,0.0,0.0,0.0,300,0,30,-0.3244084790879239,9.004199963013729,73.78661556591778,-0.0,10.0,0.0,0.5032771585941315
GUIDED_NOGPS,0.4803767204284668,173.82833934269965,0.0,0.0,0.0,0.0,300,0,30,-0.2851570361143002,9.039208097604629,73.81548677553943,-0.0,10.0,0.0,0.5032848873615265
GUIDED_NOGPS,0.4820411205291748,596.374804493104,0.0,0.0,0.0,0.0,300,0,30,-0.2851570361143002,9.039208097604629,73.81548677553943,-0.0,10.0,0.0,0.5032882317543029
GUIDED_NOGPS,0.48383569717407227,566.0329284750337,0.0,0.0,0.0,0.0,300,0,30,-0.2851570361143002,9.039208097604629,73.81548677553943,-0.0,10.0,0.0,0.5032891265392303
GUIDED_NOGPS,0.48569703102111816,535.807869187532,0.0,0.0,0.0,0.0,300,0,30,-0.2851570361143002,9.039208097604629,73.81548677553943,-0.0,10.0,0.0,0.503290370798111
GUIDED_NOGPS,0.48690176010131836,834.6873631840796,0.0,0.0,0.0,0.0,300,0,30,-0.2851570361143002,9.039208097604629,73.81548677553943,-0.0,10.0,0.0,0.5032913967609406
GUIDED_NOGPS,0.48813438415527344,815.3779160186625,0.0,0.0,0.0,0.0,300,0,30,-0.2851570361143002,9.039208097604629,73.81548677553943,-0.0,10.0,0.0,0.5032919459342956
GUIDED_NOGPS,0.4903690814971924,448.92475650219416,0.0,0.0,0.0,0.0,300,0,30,-0.3002292359001085,9.040789286397487,73.82568424797026,-0.0,10.0,0.0,0.5032930627346038
GUIDED_NOGPS,0.49304819107055664,374.4579948218909,0.0,0.0,0.0,0.0,300,0,30,-0.3002292359001085,9.040789286397487,73.82568424797026,-0.0,10.0,0.0,0.5032947734832763
GUIDED_NOGPS,0.49497103691101074,521.9392732702837,0.0,0.0,0.0,0.0,300,0,30,-0.3115270624783972,9.042598432753893,73.81709870018355,-0.0,10.0,0.0,0.5032962135791779
GUIDED_NOGPS,0.49832653999328613,298.90992018244015,0.0,0.0,0.0,0.0,300,0,30,-0.3115270624783972,9.042598432753893,73.81709870018355,-0.0,10.0,0.0,0.5032974861621856
GUIDED_NOGPS,0.5002286434173584,527.9838872104733,0.0,0.0,0.0,0.0,300,0,30,-0.3115270624783972,9.042598432753893,73.81709870018355,-0.0,10.0,0.0,0.5032989534378052
GUIDED_NOGPS,0.5018069744110107,635.8859915100061,0.0,0.0,0.0,0.0,300,0,30,-0.3115270624783972,9.042598432753893,73.81709870018355,-0.0,10.0,0.0,0.503300119304657
GUIDED_NOGPS,0.5031223297119141,765.5236356999452,0.0,0.0,0.0,0.0,300,0,30,-0.3115270624783972,9.042598432753893,73.81709870018355,-0.0,10.0,0.0,0.5033010384082794
GUIDED_NOGPS,0.5055069923400879,420.6502858289038,0.0,0.0,0.0,0.0,300,0,30,-0.2975463055776158,9.051499876789713,73.8009862839315,-0.0,10.0,0.0,0.5033024526119232
GUIDED_NOGPS,0.5068488121032715,749.920257464688,0.0,0.0,0.0,0.0,300,0,30,-0.2975463055776158,9.051499876789713,73.8009862839315,-0.0,10.0,0.0,0.5033032180786133
GUIDED_NOGPS,0.5114383697509766,218.41920533250013,0.0,0.0,0.0,0.0,300,0,30,-0.2975463055776158,9.051499876789713,73.8009862839315,-0.0,10.0,0.0,0.5033057782649993
GUIDED_NOGPS,0.5125350952148438,919.4002630425252,0.0,0.0,0.0,0.0,300,0,30,-0.2975463055776158,9.051499876789713,73.8009862839315,-0.0,10.0,0.0,0.5033066704750061
GUIDED_NOGPS,0.5137126445770264,857.2049867157164,0.0,0.0,0.0,0.0,300,0,30,-0.2975463055776158,9.051499876789713,73.8009862839315,-0.0,10.0,0.0,0.5033073380947113
GUIDED_NOGPS,0.5148575305938721,896.7936711567244,0.0,0.0,0.0,0.0,300,0,30,-0.2975463055776158,9.051499876789713,73.8009862839315,-0.0,10.0,0.0,0.5033080357551575
GUIDED_NOGPS,0.5160932540893555,812.6921139314086,0.0,0.0,0.0,0.0,300,0,30,-0.2975463055776158,9.051499876789713,73.8009862839315,-0.0,10.0,0.0,0.5033087485790253
GUIDED_NOGPS,0.5175001621246338,713.317006802721,0.0,0.0,0.0,0.0,300,0,30,-0.2975463055776158,9.051499876789713,73.8009862839315,-0.0,10.0,0.0,0.5033095711231231
GUIDED_NOGPS,0.5190634727478027,642.8052107279693,0.0,0.0,0.0,0.0,300,0,30,-0.2975463055776158,9.051499876789713,73.8009862839315,-0.0,10.0,0.0,0.5033102978229522
GUIDED_NOGPS,0.520357608795166,779.6104089219331,0.0,0.0,0.0,0.0,300,0,30,-0.2975463055776158,9.051499876789713,73.8009862839315,-0.0,10.0,0.0,0.5033113787174225
GUIDED_NOGPS,0.5213000774383545,1067.2529262086514,0.0,0.0,0.0,0.0,300,0,30,-0.2975463055776158,9.051499876789713,73.8009862839315,-0.0,10.0,0.0,0.5033119992733002
GUIDED_NOGPS,0.5316078662872314,97.09486550303255,0.0,0.0,0.0,0.0,300,0,30,-0.2975463055776158,9.051499876789713,73.8009862839315,-0.0,10.0,0.0,0.5033177393436432
GUIDED_NOGPS,0.532766580581665,866.0549246334916,0.0,0.0,0.0,0.0,300,0,30,-0.2975463055776158,9.051499876789713,73.8009862839315,-0.0,10.0,0.0,0.5033188843250275
GUIDED_NOGPS,0.5360283851623535,307.162504577078,0.0,0.0,0.0,0.0,300,0,30,-0.2554284243084082,9.030271648849313,73.80442869927319,-0.0,10.0,0.0,0.5033205721855164
GUIDED_NOGPS,0.5370709896087646,966.8750576302443,0.0,0.0,0.0,0.0,300,0,30,-0.2554284243084082,9.030271648849313,73.80442869927319,-0.0,10.0,0.0,0.5033213847160339
GUIDED_NOGPS,0.5387489795684814,598.1608670849971,0.0,0.0,0.0,0.0,300,0,30,-0.2554284243084082,9.030271648849313,73.80442869927319,-0.0,10.0,0.0,0.5033220088481903
GUIDED_NOGPS,0.5481505393981934,106.48955239038261,0.0,0.0,0.0,0.0,300,0,30,-0.1826542928264429,9.054757023250163,73.7688229231299,-0.0,10.0,0.0,0.5033278995513916
GUIDED_NOGPS,0.5498518943786621,590.0821609454136,0.0,0.0,0.0,0.0,300,0,30,-0.1826542928264429,9.054757023250163,73.7688229231299,-0.0,10.0,0.0,0.5033288432598114
GUIDED_NOGPS,0.5514469146728516,631.0070708590341,0.0,0.0,0.0,0.0,300,0,30,-0.1826542928264429,9.054757023250163,73.7688229231299,-0.0,10.0,0.0,0.503329770374298
GUIDED_NOGPS,0.553034782409668,634.4432007260626,0.0,0.0,0.0,0.0,300,0,30,-0.1826542928264429,9.054757023250163,73.7688229231299,-0.0,10.0,0.0,0.5033307796001434
GUIDED_NOGPS,0.5569174289703369,258.1269001169303,0.0,0.0,0.0,0.0,300,0,30,-0.1826542928264429,9.054757023250163,73.7688229231299,-0.0,10.0,0.0,0.5033330204963684
GUIDED_NOGPS,0.5586080551147461,593.8417103213932,0.0,0.0,0.0,0.0,300,0,30,-0.1826542928264429,9.054757023250163,73.7688229231299,-0.0,10.0,0.0,0.5033341284275055
GUIDED_NOGPS,0.5613803863525391,365.7397976979421,0.0,0.0,0.0,0.0,300,0,30,-0.1826542928264429,9.054757023250163,73.7688229231299,-0.0,10.0,0.0,0.5033357649326324
GUIDED_NOGPS,0.563946008682251,388.39744420779704,0.0,0.0,0.0,0.0,300,0,30,-0.1826542928264429,9.054757023250163,73.7688229231299,-0.0,10.0,0.0,0.5033371006011963
GUIDED_NOGPS,0.565436601638794,673.5673679139232,0.0,0.0,0.0,0.0,300,0,30,-0.1826542928264429,9.054757023250163,73.7688229231299,-0.0,10.0,0.0,0.5033382975101471
GUIDED_NOGPS,0.5672905445098877,542.9519741100323,0.0,0.0,0.0,0.0,300,0,30,-0.1826542928264429,9.054757023250163,73.7688229231299,-0.0,10.0,0.0,0.5033392565250396
GUIDED_NOGPS,0.569307804107666,497.1910858226648,0.0,0.0,0.0,0.0,300,0,30,-0.1316855536099566,9.049741103078434,73.7812606976085,-0.0,10.0,0.0,0.5033407549858093
GUIDED_NOGPS,0.5710992813110352,560.5859395883454,0.0,0.0,0.0,0.0,300,0,30,-0.1316855536099566,9.049741103078434,73.7812606976085,-0.0,10.0,0.0,0.503341328048706
GUIDED_NOGPS,0.5723538398742676,800.1342998855399,0.0,0.0,0.0,0.0,300,0,30,-0.1316855536099566,9.049741103078434,73.7812606976085,-0.0,10.0,0.0,0.5033424555778503
GUIDED_NOGPS,0.5751588344573975,357.8147073878178,0.0,0.0,0.0,0.0,300,0,30,-0.13610828786052498,9.004472316806883,73.80621820883573,-0.0,10.0,0.0,0.5033431749820709
GUIDED_NOGPS,0.5767560005187988,628.3601498127341,0.0,0.0,0.0,0.0,300,0,30,-0.13610828786052498,9.004472316806883,73.80621820883573,-0.0,10.0,0.0,0.5033452031612397
GUIDED_NOGPS,0.5777232646942139,1040.770223325062,0.0,0.0,0.0,0.0,300,0,30,-0.13610828786052498,9.004472316806883,73.80621820883573,-0.0,10.0,0.0,0.5033457916736602
GUIDED_NOGPS,0.579491376876831,569.0278116944784,0.0,0.0,0.0,0.0,300,0,30,-0.13610828786052498,9.004472316806883,73.80621820883573,-0.0,10.0,0.0,0.5033463703155517
GUIDED_NOGPS,0.5832059383392334,269.83427689140507,0.0,0.0,0.0,0.0,300,0,30,-0.19797237942237167,8.941795939661906,73.82947500295963,-0.0,10.0,0.0,0.5033489984512329
GUIDED_NOGPS,0.594822883605957,86.1855093905396,0.0,0.0,0.0,0.0,300,0,30,-0.19797237942237167,8.941795939661906,73.82947500295963,-0.0,10.0,0.0,0.5033500671863556
GUIDED_NOGPS,0.601665735244751,146.5310229178312,0.0,0.0,0.0,0.0,300,0,30,-0.30751870193095177,8.87055109020315,73.81796613420815,-0.0,10.0,0.0,0.5033598564624786
GUIDED_NOGPS,0.6031570434570312,667.7764687151728,0.0,0.0,0.0,0.0,300,0,30,-0.30751870193095177,8.87055109020315,73.81796613420815,-0.0,10.0,0.0,0.5033609927177429
GUIDED_NOGPS,0.6046359539031982,680.0103761348897,0.0,0.0,0.0,0.0,300,0,30,-0.30751870193095177,8.87055109020315,73.81796613420815,-0.0,10.0,0.0,0.5033619081020355
GUIDED_NOGPS,0.6067302227020264,479.184736661716,0.0,0.0,0.0,0.0,300,0,30,-0.31040723161963246,8.880541949411587,73.80997481287923,-0.0,10.0,0.0,0.5033629334926605
GUIDED_NOGPS,0.6091251373291016,418.59321357285427,0.0,0.0,0.0,0.0,300,0,30,-0.31040723161963246,8.880541949411587,73.80997481287923,-0.0,10.0,0.0,0.5033641690254211
GUIDED_NOGPS,0.6100385189056396,1097.410779696494,0.0,0.0,0.0,0.0,300,0,30,-0.31040723161963246,8.880541949411587,73.80997481287923,-0.0,10.0,0.0,0.5033652031421662
GUIDED_NOGPS,0.6109435558319092,1113.1380042462845,0.0,0.0,0.0,0.0,300,0,30,-0.31040723161963246,8.880541949411587,73.80997481287923,-0.0,10.0,0.0,0.5033656972408295
GUIDED_NOGPS,0.611703634262085,1323.5418112969392,0.0,0.0,0.0,0.0,300,0,30,-0.31040723161963246,8.880541949411587,73.80997481287923,-0.0,10.0,0.0,0.5033662435531616
GUIDED_NOGPS,0.612628698348999,1086.0445365095804,0.0,0.0,0.0,0.0,300,0,30,-0.31040723161963246,8.880541949411587,73.80997481287923,-0.0,10.0,0.0,0.5033667654037476
GUIDED_NOGPS,0.6134772300720215,1184.1626199887069,0.0,0.0,0.0,0.0,300,0,30,-0.31040723161963246,8.880541949411587,73.80997481287923,-0.0,10.0,0.0,0.5033672441959381
GUIDED_NOGPS,0.6158757209777832,418.5514419718591,0.0,0.0,0.0,0.0,300,0,30,-0.2970836136222003,8.917593164337967,73.81418220940796,-0.0,10.0,0.0,0.5033680239677429
GUIDED_NOGPS,0.6176719665527344,558.8679546968688,0.0,0.0,0.0,0.0,300,0,30,-0.2970836136222003,8.917593164337967,73.81418220940796,-0.0,10.0,0.0,0.5033696968078614
GUIDED_NOGPS,0.6193485260009766,598.9296015993145,0.0,0.0,0.0,0.0,300,0,30,-0.2970836136222003,8.917593164337967,73.81418220940796,-0.0,10.0,0.0,0.5033702768802643
GUIDED_NOGPS,0.6214418411254883,478.74717498002514,0.0,0.0,0.0,0.0,300,0,30,-0.2970836136222003,8.917593164337967,73.81418220940796,-0.0,10.0,0.0,0.5033712956905365
GUIDED_NOGPS,0.6227741241455078,756.0028839221341,0.0,0.0,0.0,0.0,300,0,30,-0.2970836136222003,8.917593164337967,73.81418220940796,-0.0,10.0,0.0,0.5033726978778839
GUIDED_NOGPS,0.6240825653076172,767.6251830161054,0.0,0.0,0.0,0.0,300,0,30,-0.2970836136222003,8.917593164337967,73.81418220940796,-0.0,10.0,0.0,0.5033734875202179
GUIDED_NOGPS,0.6264340877532959,432.26878285066476,0.0,0.0,0.0,0.0,300,0,30,-0.2970836136222003,8.917593164337967,73.81418220940796,-0.0,10.0,0.0,0.5033744174957275
GUIDED_NOGPS,0.6286628246307373,444.3589363280008,0.0,0.0,0.0,0.0,300,0,30,-0.29389679676586045,8.936165302464877,73.84006179617315,-0.0,10.0,0.0,0.5033761345386505
GUIDED_NOGPS,0.6405987739562988,83.83075170387544,0.0,0.0,0.0,0.0,300,0,30,-0.29389679676586045,8.936165302464877,73.84006179617315,-0.0,10.0,0.0,0.5033829406261444
GUIDED_NOGPS,0.6420745849609375,680.8935064935065,0.0,0.0,0.0,0.0,300,0,30,-0.29389679676586045,8.936165302464877,73.84006179617315,-0.0,10.0,0.0,0.5033842873096466
GUIDED_NOGPS,0.6442234516143799,467.64455346192443,0.0,0.0,0.0,0.0,300,0,30,-0.29389679676586045,8.936165302464877,73.84006179617315,-0.0,10.0,0.0,0.5033854443073272
GUIDED_NOGPS,0.6462199687957764,502.191570881226,0.0,0.0,0.0,0.0,300,0,30,-0.3387858138473892,8.906006602184686,73.8836657238345,-0.0,10.0,0.0,0.5033867263317108
GUIDED_NOGPS,0.6500856876373291,259.43613533741575,0.0,0.0,0.0,0.0,300,0,30,-0.4282271410287062,8.86663824558238,73.90961361249138,-0.0,10.0,0.0,0.5033890975475311
GUIDED_NOGPS,0.6514925956726074,714.6539444539104,0.0,0.0,0.0,0.0,300,0,30,-0.4282271410287062,8.86663824558238,73.90961361249138,-0.0,10.0,0.0,0.5033898441314697
GUIDED_NOGPS,0.6534545421600342,523.0457663050256,0.0,0.0,0.0,0.0,300,0,30,-0.4282271410287062,8.86663824558238,73.90961361249138,-0.0,10.0,0.0,0.503390765953064
GUIDED_NOGPS,0.6552102565765381,564.5852739265042,0.0,0.0,0.0,0.0,300,0,30,-0.4282271410287062,8.86663824558238,73.90961361249138,-0.0,10.0,0.0,0.5033920152187348
GUIDED_NOGPS,0.6562464237213135,972.254056560037,0.0,0.0,0.0,0.0,300,0,30,-0.4282271410287062,8.86663824558238,73.90961361249138,-0.0,10.0,0.0,0.5033928649425506
GUIDED_NOGPS,0.657707929611206,685.6799084518555,0.0,0.0,0.0,0.0,300,0,30,-0.49705431696468994,8.83407617248799,73.91002342384158,-0.0,10.0,0.0,0.5033933986663819
GUIDED_NOGPS,0.6593227386474609,622.6698337292162,0.0,0.0,0.0,0.0,300,0,30,-0.49705431696468994,8.83407617248799,73.91002342384158,-0.0,10.0,0.0,0.5033943017482757
GUIDED_NOGPS,0.6607644557952881,696.9597873047524,0.0,0.0,0.0,0.0,300,0,30,-0.49705431696468994,8.83407617248799,73.91002342384158,-0.0,10.0,0.0,0.5033952599048614
GUIDED_NOGPS,0.6624345779418945,601.5063817582103,0.0,0.0,0.0,0.0,300,0,30,-0.49705431696468994,8.83407617248799,73.91002342384158,-0.0,10.0,0.0,0.5033965703964234
GUIDED_NOGPS,0.6634349822998047,1008.7311207311208,0.0,0.0,0.0,0.0,300,0,30,-0.49705431696468994,8.83407617248799,73.91002342384158,-0.0,10.0,0.0,0.503397105550766
GUIDED_NOGPS,0.6654963493347168,486.6346443903005,0.0,0.0,0.0,0.0,300,0,30,-0.49705431696468994,8.83407617248799,73.91002342384158,-0.0,10.0,0.0,0.5033983409404754
GUIDED_NOGPS,0.6833455562591553,56.07058446072403,0.0,0.0,0.0,0.0,300,0,30,-0.528478363149479,8.821886846140455,73.91628670731048,-0.0,10.0,0.0,0.5034089157104492
GUIDED_NOGPS,0.6878910064697266,220.13877079724978,0.0,0.0,0.0,0.0,300,0,30,-0.5515170714676081,8.830625219409841,73.9252342551232,-0.0,10.0,0.0,0.5034097030639648
GUIDED_NOGPS,0.6901106834411621,452.11857281448744,0.0,0.0,0.0,0.0,300,0,30,-0.5515170714676081,8.830625219409841,73.9252342551232,-0.0,10.0,0.0,0.5034128357410431
GUIDED_NOGPS,0.6910016536712646,1125.3834182988999,0.0,0.0,0.0,0.0,300,0,30,-0.5515170714676081,8.830625219409841,73.9252342551232,-0.0,10.0,0.0,0.5034137167930604
GUIDED_NOGPS,0.6922421455383301,813.1647925552539,0.0,0.0,0.0,0.0,300,0,30,-0.5515170714676081,8.830625219409841,73.9252342551232,-0.0,10.0,0.0,0.503414226770401
GUIDED_NOGPS,0.6936497688293457,713.924085106383,0.0,0.0,0.0,0.0,300,0,30,-0.5515170714676081,8.830625219409841,73.9252342551232,-0.0,10.0,0.0,0.5034152402877807
GUIDED_NOGPS,0.6955327987670898,532.4748000507808,0.0,0.0,0.0,0.0,300,0,30,-0.5807524689102311,8.848872923551175,73.93312312361456,-0.0,10.0,0.0,0.5034158280849457
GUIDED_NOGPS,0.6977717876434326,448.78065482559384,0.0,0.0,0.0,0.0,300,0,30,-0.5807524689102311,8.848872923551175,73.93312312361456,-0.0,10.0,0.0,0.5034169473171234
GUIDED_NOGPS,0.7002534866333008,404.85559845559845,0.0,0.0,0.0,0.0,300,0,30,-0.5807524689102311,8.848872923551175,73.93312312361456,-0.0,10.0,0.0,0.5034189215660095
GUIDED_NOGPS,0.7013065814971924,957.3850719013924,0.0,0.0,0.0,0.0,300,0,30,-0.5807524689102311,8.848872923551175,73.93312312361456,-0.0,10.0,0.0,0.5034198569774627
GUIDED_NOGPS,0.7026658058166504,739.7361552028219,0.0,0.0,0.0,0.0,300,0,30,-0.5807524689102311,8.848872923551175,73.93312312361456,-0.0,10.0,0.0,0.5034205882549286
GUIDED_NOGPS,0.7240555286407471,46.76236983521752,0.0,0.0,0.0,0.0,300,0,30,-0.5879147760286357,8.856114631618683,73.94093686002506,-0.0,10.0,0.0,0.5034328088283538
GUIDED_NOGPS,0.7261922359466553,469.31901085375404,0.0,0.0,0.0,0.0,300,0,30,-0.5879147760286357,8.856114631618683,73.94093686002506,-0.0,10.0,0.0,0.5034346044063568
GUIDED_NOGPS,0.7288327217102051,380.0909832351609,0.0,0.0,0.0,0.0,300,0,30,-0.5708713729761912,8.844910560058922,73.95993161610686,-0.0,10.0,0.0,0.5034363783836365
GUIDED_NOGPS,0.7309713363647461,468.4802859376745,0.0,0.0,0.0,0.0,300,0,30,-0.5708713729761912,8.844910560058922,73.95993161610686,-0.0,10.0,0.0,0.5034369218349457
GUIDED_NOGPS,0.7332124710083008,447.4878907500267,0.0,0.0,0.0,0.0,300,0,30,-0.5708713729761912,8.844910560058922,73.95993161610686,-0.0,10.0,0.0,0.5034384376049041
GUIDED_NOGPS,0.7356059551239014,419.2626949220312,0.0,0.0,0.0,0.0,300,0,30,-0.5708713729761912,8.844910560058922,73.95993161610686,-0.0,10.0,0.0,0.5034395468235016
GUIDED_NOGPS,0.7366516590118408,963.100803673938,0.0,0.0,0.0,0.0,300,0,30,-0.5708713729761912,8.844910560058922,73.95993161610686,-0.0,10.0,0.0,0.5034410007953644
GUIDED_NOGPS,0.7376582622528076,1002.4627151051625,0.0,0.0,0.0,0.0,300,0,30,-0.5708713729761912,8.844910560058922,73.95993161610686,-0.0,10.0,0.0,0.5034415987491607
GUIDED_NOGPS,0.7385919094085693,1079.3371075656203,0.0,0.0,0.0,0.0,300,0,30,-0.5708713729761912,8.844910560058922,73.95993161610686,-0.0,10.0,0.0,0.503442204284668
GUIDED_NOGPS,0.7397162914276123,895.0712761416987,0.0,0.0,0.0,0.0,300,0,30,-0.5708713729761912,8.844910560058922,73.95993161610686,-0.0,10.0,0.0,0.5034428544521332
GUIDED_NOGPS,0.740861177444458,881.1563025210085,0.0,0.0,0.0,0.0,300,0,30,-0.5708713729761912,8.844910560058922,73.95993161610686,-0.0,10.0,0.0,0.5034434360980987
GUIDED_NOGPS,0.7500221729278564,109.28073786508949,0.0,0.0,0.0,0.0,300,0,30,-0.5633437040980438,8.76430322879537,74.08334630421982,-0.0,10.0,0.0,0.5034489398479461
GUIDED_NOGPS,0.75179123878479,566.6446906241556,0.0,0.0,0.0,0.0,300,0,30,-0.5633437040980438,8.76430322879537,74.08334630421982,-0.0,10.0,0.0,0.5034497755527496
GUIDED_NOGPS,0.7528481483459473,951.5208711433756,0.0,0.0,0.0,0.0,300,0,30,-0.5633437040980438,8.76430322879537,74.08334630421982,-0.0,10.0,0.0,0.5034506879329681
GUIDED_NOGPS,0.7540595531463623,830.2264449722882,0.0,0.0,0.0,0.0,300,0,30,-0.5633437040980438,8.76430322879537,74.08334630421982,-0.0,10.0,0.0,0.5034513109207154
GUIDED_NOGPS,0.7559175491333008,540.2246264811953,0.0,0.0,0.0,0.0,300,0,30,-0.5633437040980438,8.76430322879537,74.08334630421982,-0.0,10.0,0.0,0.5034522546291351
GUIDED_NOGPS,0.7574009895324707,676.6097757702855,0.0,0.0,0.0,0.0,300,0,30,-0.5933128666287673,8.748551958795675,74.0975394373151,-0.0,10.0,0.0,0.5034531548500061
GUIDED_NOGPS,0.7596135139465332,454.47004009101744,0.0,0.0,0.0,0.0,300,0,30,-0.5933128666287673,8.748551958795675,74.0975394373151,-0.0,10.0,0.0,0.5034543162822723
GUIDED_NOGPS,0.7627091407775879,323.7594751061366,0.0,0.0,0.0,0.0,300,0,30,-0.5933128666287673,8.748551958795675,74.0975394373151,-0.0,10.0,0.0,0.5034559221744538
GUIDED_NOGPS,0.772026777267456,107.40855313700384,0.0,0.0,0.0,0.0,300,0,30,-0.5933128666287673,8.748551958795675,74.0975394373151,-0.0,10.0,0.0,0.5034621770858765
GUIDED_NOGPS,0.7833573818206787,88.31973046957255,0.0,0.0,0.0,0.0,300,0,30,-0.5933128666287673,8.748551958795675,74.0975394373151,-0.0,10.0,0.0,0.503468834400177
GUIDED_NOGPS,0.7846472263336182,778.8865366759517,0.0,0.0,0.0,0.0,300,0,30,-0.5933128666287673,8.748551958795675,74.0975394373151,-0.0,10.0,0.0,0.5034698018550873
GUIDED_NOGPS,0.7921075820922852,134.22202310473935,0.0,0.0,0.0,0.0,300,0,30,-0.5933128666287673,8.748551958795675,74.0975394373151,-0.0,10.0,0.0,0.5034741280078888
GUIDED_NOGPS,0.7954938411712646,296.52202191587133,0.0,0.0,0.0,0.0,300,0,30,-0.5933128666287673,8.748551958795675,74.0975394373151,-0.0,10.0,0.0,0.5034760099887848
GUIDED_NOGPS,0.7990262508392334,283.57136096274763,0.0,0.0,0.0,0.0,300,0,30,-0.4741665664993888,8.838454323745967,74.10008709787553,-0.0,10.0,0.0,0.5034778716564179
GUIDED_NOGPS,0.801809549331665,360.58321870701513,0.0,0.0,0.0,0.0,300,0,30,-0.54711197297892,8.746118703903857,74.10087939981925,-0.0,10.0,0.0,0.5034796446323395
GUIDED_NOGPS,0.8052554130554199,290.66555786555784,0.0,0.0,0.0,0.0,300,0,30,-0.54711197297892,8.746118703903857,74.10087939981925,-0.0,10.0,0.0,0.5034815987110138
GUIDED_NOGPS,0.8065834045410156,755.0502250225022,0.0,0.0,0.0,0.0,300,0,30,-0.54711197297892,8.746118703903857,74.10087939981925,-0.0,10.0,0.0,0.503482729959488
GUIDED_NOGPS,0.8079559803009033,731.4795953958842,0.0,0.0,0.0,0.0,300,0,30,-0.54711197297892,8.746118703903857,74.10087939981925,-0.0,10.0,0.0,0.5034835175991058
GUIDED_NOGPS,0.8095052242279053,647.4689719049089,0.0,0.0,0.0,0.0,300,0,30,-0.48239699781010703,8.767894200751504,74.12563883556054,-0.0,10.0,0.0,0.5034846252441406
GUIDED_NOGPS,0.8119990825653076,402.60165098867344,0.0,0.0,0.0,0.0,300,0,30,-0.48239699781010703,8.767894200751504,74.12563883556054,-0.0,10.0,0.0,0.5034855756759643
GUIDED_NOGPS,0.8140561580657959,487.19990707399234,0.0,0.0,0.0,0.0,300,0,30,-0.4211786526095175,8.781409437571668,74.16974136703132,-0.0,10.0,0.0,0.5034869760036469
GUIDED_NOGPS,0.8179457187652588,257.5879137751029,0.0,0.0,0.0,0.0,300,0,30,-0.40665548263910184,8.777745894855602,74.22503174836257,-0.0,10.0,0.0,0.5034893031597137
GUIDED_NOGPS,0.819413423538208,686.1285784393915,0.0,0.0,0.0,0.0,300,0,30,-0.40665548263910184,8.777745894855602,74.22503174836257,-0.0,10.0,0.0,0.5034904695987702
GUIDED_NOGPS,0.8334228992462158,71.43496551136847,0.0,0.0,0.0,0.0,300,0,30,-0.3900357647586096,8.716499588568098,74.312669905603,-0.0,10.0,0.0,0.5034983404159545
GUIDED_NOGPS,0.8361361026763916,369.9985885673959,0.0,0.0,0.0,0.0,300,0,30,-0.3900357647586096,8.716499588568098,74.312669905603,-0.0,10.0,0.0,0.5035000959396362
GUIDED_NOGPS,0.8392133712768555,325.54361999379074,0.0,0.0,0.0,0.0,300,0,30,-0.3900357647586096,8.716499588568098,74.312669905603,-0.0,10.0,0.0,0.5035015549182892
GUIDED_NOGPS,0.8414206504821777,459.7001315212626,0.0,0.0,0.0,0.0,300,0,30,-0.3900357647586096,8.716499588568098,74.312669905603,-0.0,10.0,0.0,0.503503288269043
GUIDED_NOGPS,0.8453123569488525,256.6736429839055,0.0,0.0,0.0,0.0,300,0,30,-0.3474208805055778,8.693283775579225,74.34876745536651,-0.0,10.0,0.0,0.503505696964264
GUIDED_NOGPS,0.8483502864837646,330.1301849665486,0.0,0.0,0.0,0.0,300,0,30,-0.3223990694506179,8.651850140526633,74.38541142026364,-0.0,10.0,0.0,0.5035072892665863
GUIDED_NOGPS,0.8520505428314209,271.10749143558917,0.0,0.0,0.0,0.0,300,0,30,-0.3223990694506179,8.651850140526633,74.38541142026364,-0.0,10.0,0.0,0.5035090565204621
GUIDED_NOGPS,0.8531279563903809,929.5886524822695,0.0,0.0,0.0,0.0,300,0,30,-0.3223990694506179,8.651850140526633,74.38541142026364,-0.0,10.0,0.0,0.5035108818531037
GUIDED_NOGPS,0.8553895950317383,443.93564775613885,0.0,0.0,0.0,0.0,300,0,30,-0.3223990694506179,8.651850140526633,74.38541142026364,-0.0,10.0,0.0,0.5035117221355438
GUIDED_NOGPS,0.856635570526123,805.357910906298,0.0,0.0,0.0,0.0,300,0,30,-0.3223990694506179,8.651850140526633,74.38541142026364,-0.0,10.0,0.0,0.5035129370689392
GUIDED_NOGPS,0.8576381206512451,1002.9421329507413,0.0,0.0,0.0,0.0,300,0,30,-0.3223990694506179,8.651850140526633,74.38541142026364,-0.0,10.0,0.0,0.5035136001110077
GUIDED_NOGPS,0.8593175411224365,601.5926563396442,0.0,0.0,0.0,0.0,300,0,30,-0.31816968825049907,8.616608925730308,74.42809327238704,-0.0,10.0,0.0,0.5035144632816315
GUIDED_NOGPS,0.8611412048339844,547.8453500522467,0.0,0.0,0.0,0.0,300,0,30,-0.31816968825049907,8.616608925730308,74.42809327238704,-0.0,10.0,0.0,0.5035152484893799
GUIDED_NOGPS,0.8631191253662109,507.04835589941973,0.0,0.0,0.0,0.0,300,0,30,-0.31816968825049907,8.616608925730308,74.42809327238704,-0.0,10.0,0.0,0.5035162415504456
GUIDED_NOGPS,0.8647871017456055,604.8023071377073,0.0,0.0,0.0,0.0,300,0,30,-0.31816968825049907,8.616608925730308,74.42809327238704,-0.0,10.0,0.0,0.5035174353122711
GUIDED_NOGPS,0.8659155368804932,889.566065747614,0.0,0.0,0.0,0.0,300,0,30,-0.31816968825049907,8.616608925730308,74.42809327238704,-0.0,10.0,0.0,0.5035184805870057
GUIDED_NOGPS,0.8823361396789551,60.9318379917485,0.0,0.0,0.0,0.0,300,0,30,-0.32799982457002835,8.551237185184116,74.50737810827255,-0.0,10.0,0.0,0.5035192430496216
GUIDED_NOGPS,0.8870053291320801,214.55337868944704,0.0,0.0,0.0,0.0,300,0,30,-0.27563927422759327,8.520417664101725,74.56265482922547,-0.0,10.0,0.0,0.5035309256076813
GUIDED_NOGPS,0.88883376121521,549.2083278774388,0.0,0.0,0.0,0.0,300,0,30,-0.27563927422759327,8.520417664101725,74.56265482922547,-0.0,10.0,0.0,0.503532071018219
GUIDED_NOGPS,0.8930175304412842,239.75671658854463,0.0,0.0,0.0,0.0,300,0,30,-0.27563927422759327,8.520417664101725,74.56265482922547,-0.0,10.0,0.0,0.5035334381580353
GUIDED_NOGPS,0.8952724933624268,443.3256526794208,0.0,0.0,0.0,0.0,300,0,30,-0.27563927422759327,8.520417664101725,74.56265482922547,-0.0,10.0,0.0,0.5035359311103821
GUIDED_NOGPS,0.897247314453125,508.21567914697687,0.0,0.0,0.0,0.0,300,0,30,-0.27563927422759327,8.520417664101725,74.56265482922547,-0.0,10.0,0.0,0.50353712515831
GUIDED_NOGPS,0.8997766971588135,396.2872260015117,0.0,0.0,0.0,0.0,300,0,30,-0.22875786962083064,8.50303739398498,74.624625135565,-0.0,10.0,0.0,0.503538344669342
GUIDED_NOGPS,0.9187068939208984,52.847617367638534,0.0,0.0,0.0,0.0,300,0,30,-0.22875786962083064,8.50303739398498,74.624625135565,-0.0,10.0,0.0,0.5035501877307892
GUIDED_NOGPS,0.9213461875915527,380.4012334482133,0.0,0.0,0.0,0.0,300,0,30,-0.1984885656328101,8.4765891939714,74.70635517917337,-0.0,10.0,0.0,0.5035512689113617
GUIDED_NOGPS,0.9244463443756104,322.98660095487446,0.0,0.0,0.0,0.0,300,0,30,-0.1984885656328101,8.4765891939714,74.70635517917337,-0.0,10.0,0.0,0.5035532168388367
GUIDED_NOGPS,0.9262340068817139,562.6917091494499,0.0,0.0,0.0,0.0,300,0,30,-0.1984885656328101,8.4765891939714,74.70635517917337,-0.0,10.0,0.0,0.5035546709537506
GUIDED_NOGPS,0.9301145076751709,258.19045860264697,0.0,0.0,0.0,0.0,300,0,30,-0.26812169055064217,8.32372358393099,74.85651005788692,-0.0,10.0,0.0,0.5035569783687591
GUIDED_NOGPS,0.9315762519836426,686.3531336933398,0.0,0.0,0.0,0.0,300,0,30,-0.26812169055064217,8.32372358393099,74.85651005788692,-0.0,10.0,0.0,0.5035577010631561
GUIDED_NOGPS,0.9326193332672119,965.3173762945914,0.0,0.0,0.0,0.0,300,0,30,-0.26812169055064217,8.32372358393099,74.85651005788692,-0.0,10.0,0.0,0.5035585327625275
GUIDED_NOGPS,0.9336531162261963,972.4794806399258,0.0,0.0,0.0,0.0,300,0,30,-0.26812169055064217,8.32372358393099,74.85651005788692,-0.0,10.0,0.0,0.5035590878009796
GUIDED_NOGPS,0.9347882270812988,885.0609833298164,0.0,0.0,0.0,0.0,300,0,30,-0.26812169055064217,8.32372358393099,74.85651005788692,-0.0,10.0,0.0,0.5035596992015838
GUIDED_NOGPS,0.9384973049163818,270.5304437564499,0.0,0.0,0.0,0.0,300,0,30,-0.2843884797501151,8.260840593563621,74.90792772195879,-0.0,10.0,0.0,0.5035603865623474
GUIDED_NOGPS,0.939694881439209,837.5207667731629,0.0,0.0,0.0,0.0,300,0,30,-0.2843884797501151,8.260840593563621,74.90792772195879,-0.0,10.0,0.0,0.5035627194404602
GUIDED_NOGPS,0.9410474300384521,746.5831256674974,0.0,0.0,0.0,0.0,300,0,30,-0.2843884797501151,8.260840593563621,74.90792772195879,-0.0,10.0,0.0,0.5035634226799012
GUIDED_NOGPS,0.942981481552124,518.3912989741689,0.0,0.0,0.0,0.0,300,0,30,-0.2843884797501151,8.260840593563621,74.90792772195879,-0.0,10.0,0.0,0.5035642774105072
GUIDED_NOGPS,0.9452495574951172,442.4371308016878,0.0,0.0,0.0,0.0,300,0,30,-0.2843884797501151,8.260840593563621,74.90792772195879,-0.0,10.0,0.0,0.5035656804561615
GUIDED_NOGPS,0.9476456642150879,419.0951239008793,0.0,0.0,0.0,0.0,300,0,30,-0.2843884797501151,8.260840593563621,74.90792772195879,-0.0,10.0,0.0,0.5035670537471771
GUIDED_NOGPS,0.9498858451843262,447.9179837676207,0.0,0.0,0.0,0.0,300,0,30,-0.2843884797501151,8.260840593563621,74.90792772195879,-0.0,10.0,0.0,0.503568316602707
GUIDED_NOGPS,0.9577505588531494,127.34323101678963,0.0,0.0,0.0,0.0,300,0,30,-0.21916274783764533,8.216607434724972,75.0269574286246,-0.0,10.0,0.0,0.5035733279705048
GUIDED_NOGPS,0.9597437381744385,504.12307692307695,0.0,0.0,0.0,0.0,300,0,30,-0.21916274783764533,8.216607434724972,75.0269574286246,-0.0,10.0,0.0,0.5035742658138275
GUIDED_NOGPS,0.9608759880065918,884.6876186458553,0.0,0.0,0.0,0.0,300,0,30,-0.21916274783764533,8.216607434724972,75.0269574286246,-0.0,10.0,0.0,0.5035753869056702
GUIDED_NOGPS,0.9619317054748535,952.6014081308199,0.0,0.0,0.0,0.0,300,0,30,-0.21916274783764533,8.216607434724972,75.0269574286246,-0.0,10.0,0.0,0.503576047372818
GUIDED_NOGPS,0.9628124237060547,1142.5508035957505,0.0,0.0,0.0,0.0,300,0,30,-0.21916274783764533,8.216607434724972,75.0269574286246,-0.0,10.0,0.0,0.5035766529083252
GUIDED_NOGPS,0.9644861221313477,599.7860717860718,0.0,0.0,0.0,0.0,300,0,30,-0.17369703333850012,8.236012855930625,75.10079860374161,-0.0,10.0,0.0,0.5035771747589112
GUIDED_NOGPS,0.9671845436096191,371.8684280521323,0.0,0.0,0.0,0.0,300,0,30,-0.17369703333850012,8.236012855930625,75.10079860374161,-0.0,10.0,0.0,0.5035792100906372
GUIDED_NOGPS,0.9684784412384033,783.3963391856556,0.0,0.0,0.0,0.0,300,0,30,-0.17369703333850012,8.236012855930625,75.10079860374161,-0.0,10.0,0.0,0.5035798681259155
GUIDED_NOGPS,0.9698522090911865,728.304219482549,0.0,0.0,0.0,0.0,300,0,30,-0.17369703333850012,8.236012855930625,75.10079860374161,-0.0,10.0,0.0,0.503580719280243
GUIDED_NOGPS,0.9708874225616455,971.1285019680481,0.0,0.0,0.0,0.0,300,0,30,-0.17369703333850012,8.236012855930625,75.10079860374161,-0.0,10.0,0.0,0.5035814289569854
GUIDED_NOGPS,0.9717938899993896,1145.3588203167667,0.0,0.0,0.0,0.0,300,0,30,-0.17369703333850012,8.236012855930625,75.10079860374161,-0.0,10.0,0.0,0.5035820160388946
GUIDED_NOGPS,0.9728455543518066,956.075678139959,0.0,0.0,0.0,0.0,300,0,30,-0.17369703333850012,8.236012855930625,75.10079860374161,-0.0,10.0,0.0,0.5035825855255127
GUIDED_NOGPS,0.9737229347229004,1145.3588203167667,0.0,0.0,0.0,0.0,300,0,30,-0.17369703333850012,8.236012855930625,75.10079860374161,-0.0,10.0,0.0,0.5035831887722015
GUIDED_NOGPS,0.9750688076019287,746.31743772242,0.0,0.0,0.0,0.0,300,0,30,-0.17369703333850012,8.236012855930625,75.10079860374161,-0.0,10.0,0.0,0.5035837047576904
GUIDED_NOGPS,0.9768862724304199,552.3181459046616,0.0,0.0,0.0,0.0,300,0,30,-0.17369703333850012,8.236012855930625,75.10079860374161,-0.0,10.0,0.0,0.5035845195770263
GUIDED_NOGPS,0.9786210060119629,579.1637669152168,0.0,0.0,0.0,0.0,300,0,30,-0.18040217134976344,8.244302144262083,75.17652491106954,-0.0,10.0,0.0,0.5035860901355743
GUIDED_NOGPS,0.9835164546966553,204.60019512195123,0.0,0.0,0.0,0.0,300,0,30,-0.18040217134976344,8.244302144262083,75.17652491106954,-0.0,10.0,0.0,0.503586910533905
GUIDED_NOGPS,0.9866352081298828,321.8465316144874,0.0,0.0,0.0,0.0,300,0,30,-0.1602863304291503,8.240778620424003,75.26382155885146,-0.0,10.0,0.0,0.5035900499343872
GUIDED_NOGPS,0.9875836372375488,1061.0432582848468,0.0,0.0,0.0,0.0,300,0,30,-0.1602863304291503,8.240778620424003,75.26382155885146,-0.0,10.0,0.0,0.5035914614200592
GUIDED_NOGPS,0.9885046482086182,1093.9760041731872,0.0,0.0,0.0,0.0,300,0,30,-0.1602863304291503,8.240778620424003,75.26382155885146,-0.0,10.0,0.0,0.5035920194625855
