Mode,Time,Freq,North-Vision,East-Vision,Down-Vision,Yaw-Vision,North-Desired,East-Desired,Down-Desired,Roll-UAV,Pitch-UAV,Yaw-UAV,Roll-Control,Pitch-Control,Yaw-Control,Thrust-Control,northVraw,eastVraw,downVraw,N-Velocity,E-Velocity,D-Velocity,N-Acceleration,E-Acceleration,D-Acceleration,yawVraw,yawRate,Landing-State,Q-Size
GUIDED_NOGPS,0.010764598846435547,93.02690354204094,4.097038240771499,40.96081352973452,65.99863157106647,-3.4923904125140646,3.9698795873829953,40.411436818943585,66.28766250721007,-0.34552550301089924,0.04012501349629772,-23.843316128300753,-3.9446169273456237,1.0294283362990364,-10.0,0.5005782889015538,3.7779324168699486,43.91229410765929,63.532517276699515,6.210648268461227,19.139589369297028,-8.704578876495361,60.6589138507843,5.778462067246437,1.9814470782876015,-3.641372864391853,-6.173568080379929,False,2
GUIDED_NOGPS,0.03841352462768555,36.171825277047134,4.26267019529457,42.170925535749426,65.43695544540343,-3.7189507097187633,3.9667204713880277,40.89969120184041,66.03007745063552,-0.5100265537458367,-0.01828409624300679,-23.666200785385858,-2.617181462808604,0.5571705468368369,-5.475556866515273,0.5011877965161815,3.7779324168699486,43.91229410765929,63.532517276699515,-4.7181155532598495,19.012047350406647,-9.834899753332138,-41.386765241622925,-11.35874092578888,-38.4553462266922,-3.641372864391853,-3.329598118957564,False,2
GUIDED_NOGPS,0.04323315620422363,207.62853324092868,4.129908075077071,42.462257599191744,65.22130809541542,-3.7485511497963118,3.955320409286479,41.388650178678425,65.76557649903019,-0.5100265537458367,-0.01828409624300679,-23.666200785385858,3.8936979614834977,-1.7533801651485839,-4.702873349476025,0.501090299415948,3.730247888170881,44.16039187202435,63.364161360962854,-4.7181155532598495,19.012047350406647,-9.834899753332138,-41.386765241622925,-11.35874092578888,-38.4553462266922,-3.7126936384490854,-3.329598118957564,False,1
GUIDED_NOGPS,0.06301259994506836,50.56424352019289,4.142151836111263,42.75138776682882,64.95844067149551,-3.801654697471055,3.9359323112183775,41.87746641878336,65.49423655470758,-0.5881016990963119,-0.07227855590095587,-23.542482153854834,0.9745048878875586,0.04830488678382783,-3.3586086800452013,0.5010741992821487,3.981888544156129,45.08185071595658,62.82919130361898,2.863498404622078,20.6039160490036,-14.299866557121277,-31.077152490615845,-6.908607482910156,-106.42642974853516,-3.9227022912833975,-4.93160746283983,False,1
GUIDED_NOGPS,0.068695068359375,176.23126050420169,4.146129974895668,42.99970740273567,64.73424081479476,-3.8464642517738348,3.908805605983659,42.36532297849818,65.21613586914044,-0.5881016990963119,-0.07227855590095587,-23.542482153854834,4.014891664812983,0.08717105436986278,-5.547190733938576,0.5009666109388617,3.8919136287362743,45.40617943244994,62.63828738687535,2.863498404622078,20.6039160490036,-14.299866557121277,-31.077152490615845,-6.908607482910156,-106.42642974853516,-4.000945525946262,-4.93160746283983,False,0
GUIDED_NOGPS,0.09735941886901855,34.88857095325237,4.20660447340649,43.27150921850155,64.5723681238173,-3.926003080750464,3.874186257438538,42.85143291234026,64.93135401717029,-0.8794835455045796,-0.17631354273935712,-23.207225733539342,0.7332743803822034,0.1740934974028261,-3.4554816055740307,0.5007216233496511,3.90497451387286,46.25938574577502,62.08779343105398,7.745419442653656,22.49809354543686,-9.823096543550491,35.192033648490906,-4.554755985736847,32.51493573188782,-4.218711873985974,-7.744699419685037,False,0
GUIDED_NOGPS,0.1294546127319336,31.160785129492876,4.256676146450189,43.859007768382085,64.25408613030223,-4.067194367871702,3.832316780891878,43.33503888415847,64.63997187121706,-1.1231642045231245,-0.0750386993775815,-22.999642624284313,-0.33493902472683534,0.2303728100932951,-4.2013204726276765,0.5007764130928887,4.138846053256701,46.9537743864055,61.71817487702621,2.071964740753174,23.456193506717682,-10.44679582118988,16.985826194286346,-3.901756927371025,233.12244415283203,-4.383318108390684,-7.29369178350534,False,0
GUIDED_NOGPS,0.16290640830993652,29.901007321437483,4.337811745911144,44.49917435782031,64.02352471075338,-4.241719742084156,3.7834362595015647,43.81541277829036,64.34207157548869,-1.1889798006436616,-0.12157491262699399,-22.806220204726017,-0.4978096236850123,0.31918208634953693,-4.666130843137522,0.5006425740681639,4.1460409761033175,47.3193733699156,61.53874278340645,4.277053475379944,24.636322259902954,-2.042742073535919,13.592180609703064,-2.922855131328106,142.08643436431885,-4.498885189512912,-9.012251902271528,False,0
GUIDED_NOGPS,0.1962590217590332,29.983515265893185,4.423878043372999,45.167281041841065,63.7568438767414,-4.390007018580058,3.7277803606708773,44.29185531071923,64.03773652019072,-1.0994433844224933,0.03903463782832865,-22.42888640402866,-0.5855139369380623,0.3530835773836572,-4.38750379024253,0.5005680257568054,4.747847844964767,48.13786000883256,61.193657774296796,2.538801357150078,23.380756378173828,-4.1260115802288055,-32.150453329086304,-46.6743528842926,165.47633409500122,-4.712571977025062,-5.832460322379853,False,0
GUIDED_NOGPS,0.23002982139587402,29.61828093664379,4.534792122838156,45.84419732373172,63.514113899274996,-4.603237996258871,3.66558135244486,44.76369564023132,63.72705131573586,-1.0126039324281282,0.13792905354264906,-22.248415730684,-0.628756166965409,0.42881703435460383,-5.284682980121935,0.5004326912461309,4.5208180572363865,48.37522277193869,60.989197740252685,5.212912335991859,23.43539148569107,-2.2323109209537506,122.39961624145508,-9.562581777572632,27.317556738853455,-4.8089873431487264,-10.450532647125302,False,0
GUIDED_NOGPS,0.2634308338165283,29.943059481995487,4.665259662460983,46.536300231410564,63.30115240405444,-4.79631105351421,3.5970681199066954,45.2302909795729,63.41010176695363,-0.8667296613334619,0.16476476006992338,-22.028393139403086,-0.7014572273474786,0.5035861714405014,-5.189869705165766,0.5002250062729977,4.6695667412595565,49.14177938959945,60.6764495860717,6.3353486359119415,23.69363009929657,-0.21632960997521877,28.074750304222107,-8.04164782166481,20.497334003448486,-5.072395565082334,-8.246110436844843,False,0
GUIDED_NOGPS,0.29703474044799805,29.76013396056394,4.7902939964861755,47.2568610371861,63.152085718987145,-4.998584859763018,3.5224661815740745,45.69102620660742,63.086974847299956,-0.8657475014751551,0.2927354511635467,-21.676786953761876,-0.8112941840887395,0.5319941714680331,-5.413830963231088,0.49987671126841865,4.140317206783339,50.13490899476167,61.527320167886515,7.624432444572449,24.37809109687805,0.7718968670815229,-24.943462014198303,-6.739155203104019,32.82553851604462,-5.065055622563137,-9.225510898726835,False,0
GUIDED_NOGPS,0.33649706840515137,25.34537060536843,4.938558931816195,47.99300897444638,63.03572585514806,-5.191616024503428,3.4419977057955697,46.145313475472655,62.757758673066725,-0.9085930646952336,0.36206363214732157,-21.461700881703592,-0.7618479413054448,0.5390464436724742,-5.071038027077675,0.49945012086517937,5.189579949906507,50.8025166552139,60.11636363245316,6.212906166911125,24.678698182106018,6.378915905952454,18.071341514587402,-10.75824648141861,218.6046600341797,-5.5999413052569285,-7.164559373283432,False,0
GUIDED_NOGPS,0.36504197120666504,35.03545056634034,5.141169757247079,48.89066878452945,62.97215336796461,-5.4032875532024605,3.3558815271470053,46.592591827737806,62.4225424775914,-1.0209017584960474,0.3236213531469328,-21.13496512237769,-1.6117840548849298,0.9045009666845365,-6.200294931423205,0.4989055750383304,5.695081329457279,52.09840796441517,60.04139754125875,7.575484365224838,27.606025338172913,10.717402398586273,16.853739321231842,4.5254189521074295,206.28960132598877,-5.997298951454624,-6.0296611172096375,False,0
GUIDED_NOGPS,0.41768908500671387,18.99749073746954,5.28496411589108,49.62794883430257,63.017370591952435,-5.56329556893182,3.264333162827832,47.03232680356066,62.08141658546665,-1.1218541955846573,0.26836752399990976,-20.990528819546725,-0.6527696574719978,0.4968875338077514,-4.556366511118618,0.49812895547781616,5.254369377820677,53.428346006571985,61.19980902794035,7.575484365224838,27.606025338172913,10.717402398586273,16.853739321231842,4.5254189521074295,206.28960132598877,-6.1680741387275715,-6.0296611172096375,False,0
GUIDED_NOGPS,0.43244004249572754,67.80645682784487,5.375781091971856,50.484759961782586,63.12463064084406,-5.776536119250035,3.1675648290574943,47.46401005284469,61.73447238674989,-1.153954270414719,0.2775201909311384,-20.84539242232583,-2.9396250803696615,1.2467959797783248,-9.279064957784946,0.49721891515983346,4.931751733843521,55.28734484139444,61.767398282811826,3.7588514387607574,25.654229521751404,14.136743545532227,9.381906688213348,-33.69854390621185,150.83516836166382,-6.629176577015155,-7.053501351152671,False,0
GUIDED_NOGPS,0.4652101993560791,30.523564171979157,5.355213389503008,50.94792711646735,63.25574394311783,-5.883383049121256,3.0657854574718084,47.88715894639625,61.38180231117293,-1.0514875590427761,0.2704635916623103,-20.567159543843484,-0.24239610682029733,0.3606274348564613,-4.843093132568509,0.4962464688243668,5.729885177829475,55.430880006312634,60.8954035450823,-1.5653500333428383,24.446217715740204,15.352021157741547,-27.756744623184204,-16.855502128601074,113.65569829940796,-6.86615082326651,-5.960841838679881,False,0
GUIDED_NOGPS,0.5090665817260742,22.803309882892776,5.421126333783241,51.83941424897541,63.34338054586737,-6.040338585865117,2.9592007115193284,48.30131618708162,61.02349980235155,-1.2414402425027082,0.19016329874629181,-20.389398748052024,-1.2066970283289524,0.5624071333849817,-5.044318314007645,0.4953463857877135,5.252942123942776,57.49168194465875,62.12473499209955,1.517442986369133,25.44691562652588,11.21632307767868,-48.63680303096771,-43.57936978340149,0.4539884626865387,-7.290149460801379,-1.9860764304407839,False,0
GUIDED_NOGPS,0.5442609786987305,28.41592368770494,5.549831367121946,52.94665430680057,63.43018794782322,-6.245100676781334,2.84801300285772,48.70604942098421,60.659659291995084,-1.2675801235082875,0.20813982303323647,-20.30110489265127,-2.1292385865055303,0.8631671437814086,-6.073547808320575,0.4944372869654544,5.147648846411271,57.55572413827747,62.106585864800884,4.040758311748505,26.467761397361755,11.130326986312866,-25.719088315963745,-18.72374415397644,14.027920365333557,-7.31985629020536,-2.0305904808090496,False,0
GUIDED_NOGPS,0.5653886795043945,47.34191159871777,5.64717761177116,53.61435714046629,63.56856801798435,-6.3410243269080615,2.7324215077501353,49.10095084856165,60.290376174116034,-1.3038223879048445,0.24471820744215217,-20.225084887189027,-1.4210494762002477,1.0039784631390325,-5.625002123783838,0.49341643286743214,5.1733365620087355,58.038632936843634,62.20817922701082,6.841772794723511,26.010775566101074,13.359476625919342,-20.30259668827057,-33.092427253723145,-58.1915557384491,-7.419363838252487,-1.8402749435494605,False,0
GUIDED_NOGPS,0.5990283489227295,29.734816421730223,5.724911619804667,54.27019162514895,63.81023936277546,-6.4103950813780575,2.6126221834615793,49.48563683580296,59.91574677923966,-1.328932404449633,0.2540904009221733,-20.190286780915105,-0.975611932906761,0.7166855622162157,-4.6715968660227185,0.4921733568723025,5.628045757632748,59.248792788461415,62.63897944490883,4.805305227637291,26.20713710784912,20.13946622610092,19.145961105823517,-15.628382563591003,207.70080089569092,-7.66133191612075,-0.04956369459902065,False,0
GUIDED_NOGPS,0.6332430839538574,29.229210366767248,5.862282918755873,55.23080409458026,64.09283658835832,-6.537891600641335,2.488807784655286,49.859747525385615,59.53586834861359,-1.372329398723484,0.2734729303219356,-20.22417134938754,-1.8923273423878992,0.9519040882565155,-5.414444324677955,0.49083594205774955,6.109976893377716,60.922972651571904,63.3570667164602,4.805305227637291,26.20713710784912,20.13946622610092,19.145961105823517,-15.628382563591003,207.70080089569092,-7.822820068853714,-0.04956369459902065,False,0
GUIDED_NOGPS,0.670973539352417,26.50713820757996,5.994684849853867,56.16173755901027,64.38038679843498,-6.648447874903431,2.361167879789089,50.22294644783278,59.1508390084174,-1.4429861048616792,0.34124260087533104,-20.24925351156712,-1.7096056527980965,0.9096366762785478,-5.158612650595247,0.4894749638863457,6.2982531349642255,60.999388103364765,63.41079663765587,4.222129285335541,25.996723771095276,19.90012228488922,-48.95108342170715,-37.88917362689972,17.7258238196373,-7.980744594309057,0.9899616418861243,False,0
GUIDED_NOGPS,0.7053594589233398,29.089537125657138,6.160014768642057,57.17544494670257,64.69435960690707,-6.770605489240521,2.229888867511792,50.574920132670336,58.76075774397221,-1.3540549074339976,0.5773269689589111,-20.356012783389,-2.4761135496146958,1.2273193621764522,-5.737022498631751,0.4880530053352074,6.872532814607537,61.59616529578801,63.60250980285026,4.222129285335541,25.996723771095276,19.90012228488922,-48.95108342170715,-37.88917362689972,17.7258238196373,-8.088740465244953,0.9899616418861243,False,0
GUIDED_NOGPS,0.7347471714019775,34.033901605822834,6.302914169865547,57.98766249684364,64.99245910708582,-6.798679879625545,2.0951539930595438,50.91537771958408,58.365724373950314,-1.213258668543824,0.7668456686022829,-20.435717675908464,-1.6296377604032772,1.0267588941741645,-4.407655409772378,0.48664861392924813,6.962995003948451,62.44533533254513,64.06993965344681,5.047770217061043,25.656846165657043,19.698132574558258,-23.467540740966797,-28.562504053115845,-34.10739302635193,-8.101479267896181,4.582274876418589,False,0
GUIDED_NOGPS,0.768566370010376,29.571296629229327,6.471433451995639,58.963842297206405,65.41450848157466,-6.830023790486097,1.9571433646522034,51.24405056957683,57.96583952458471,-1.1680783545663649,0.8548277365395972,-20.520970389581272,-2.159509158946279,1.1661013845654826,-4.463926587577323,0.48498432787591383,6.761623403636261,64.1405503840757,65.08815102501721,6.321920454502106,26.009827852249146,23.88669103384018,37.22822070121765,-5.428954586386681,77.1283209323883,-8.087983464283674,5.166891258047491,False,0
GUIDED_NOGPS,0.801403284072876,30.456848663524866,6.641834192545893,59.902021424185236,65.81863381255721,-6.797949175143723,1.8160339698897228,51.560691876125574,57.561204603878764,-1.2899179370236968,0.9878290220394936,-20.782249030996354,-2.1897355191696906,1.2270303277124244,-3.687686241001055,0.4833451359678078,6.761623403636261,64.1405503840757,65.08815102501721,6.881356239318848,26.433229446411133,22.852599620819092,-25.892174243927002,-28.43947410583496,-4.099736362695694,-8.087983464283674,8.839450677591143,False,0
GUIDED_NOGPS,0.8350155353546143,29.75527809307605,6.823017411887976,60.82873047001144,66.23959077494078,-6.7517178321013995,1.6719996921485083,51.86507627633857,57.151921775815794,-1.3189312999574416,1.0913447010575623,-20.95248125077517,-2.177870161050101,1.261999647060715,-3.5000726528255384,0.48166025466583723,7.210072807340275,65.08328845311533,65.68595503767929,6.881356239318848,26.433229446411133,22.852599620819092,-25.892174243927002,-28.43947410583496,-4.099736362695694,-7.9764789120653825,8.839450677591143,False,0
GUIDED_NOGPS,0.8708126544952393,27.939674926725285,6.98950239065453,61.82387335528625,66.72277976858739,-6.712676126864817,1.5252113269777987,52.15699946211254,56.738093934568624,-1.347131336771426,1.1860866819216325,-21.16266666210397,-2.3283270987608917,1.2472117273740717,-3.591242867081024,0.47983763420336156,8.352404477054558,67.20771561314639,66.90314806214403,2.88353618234396,26.364657282829285,23.688070476055145,35.29786765575409,-10.521355271339417,36.91567778587341,-7.870945831481672,7.714341790145269,False,0
GUIDED_NOGPS,0.9079999923706055,26.893114989548735,7.146173303619742,62.86268378226635,67.23971015978518,-6.667544722095817,1.3758365984960328,52.436277791289704,56.319824678709224,-1.4804458504777909,1.2458753831515736,-21.46735627833636,-2.440905784984107,1.2506064154599534,-3.5163132374366355,0.4779346654960176,8.070456726428336,67.89406694308026,67.43598795789282,2.88353618234396,26.364657282829285,23.688070476055145,35.29786765575409,-10.521355271339417,36.91567778587341,-7.7969756155017995,7.714341790145269,False,0
GUIDED_NOGPS,0.9388115406036377,32.462648215225535,7.280242405523019,63.905506751696684,67.72320906099047,-6.588644582159708,1.2240401757872252,52.70274789881502,55.8972182854183,-1.53634475897541,1.3074960691829594,-21.7335646087849,-2.9632076677909573,1.3980390004888341,-2.9239478834525716,0.4760934448147547,7.751285626087311,68.79499040542026,68.11018852259815,2.5674013420939445,25.613343715667725,19.64757591485977,-13.342860341072083,-28.191590309143066,-1.5653803944587708,-7.487314366354635,8.708474970066979,False,0
GUIDED_NOGPS,0.9695494174957275,32.53517018833969,7.389794859265202,64.78643068555023,68.1643225664329,-6.490275072829124,1.0699836892973367,52.956266307893245,55.470379684694876,-1.7397921886879948,1.2762203128083536,-22.02894979982044,-2.5069544171923095,1.3157277374748872,-2.6179472951777623,0.4743262306618629,7.877544422346496,69.18756940544179,68.65244562665777,2.5674013420939445,25.613343715667725,19.64757591485977,-13.342860341072083,-28.191590309143066,-1.5653803944587708,-7.203865948836919,8.708474970066979,False,0
GUIDED_NOGPS,1.0041813850402832,28.879429889489447,7.563847558219884,65.64717669695592,68.59064427308397,-6.431823097224694,0.9138257472306446,53.196709041146086,55.0394144335659,-1.7283804366887845,1.3979712095281813,-22.267738335845966,-2.286178947775977,1.3738701165297564,-3.1848819683481873,0.47257406162618093,7.877544422346496,69.18756940544179,68.65244562665777,7.130167633295059,26.01626217365265,19.296276569366455,3.137776255607605,-24.53135848045349,-11.654860526323318,-7.203865948836919,6.011470615902601,False,0
GUIDED_NOGPS,1.0470929145812988,23.30712721857322,7.709609394439661,66.62829021524828,69.07753728487826,-6.32496284088433,0.7557219519461169,53.42397123176934,54.60442869029585,-1.7409411545724378,1.3502530533872392,-22.45343410390569,-2.318361919133072,1.2528261623867416,-2.793688908356522,0.4706808766150038,9.026926547313355,71.29799423500704,69.53869285866051,1.6248209401965141,25.681540369987488,19.677598774433136,-73.78255128860474,-33.66168737411499,-51.125216484069824,-6.946585859502095,8.426193496954106,False,0
GUIDED_NOGPS,1.071251630783081,41.400282299059334,7.909402211837834,67.87634287463521,69.69018210714637,-6.196620415301532,0.5958249163537821,53.637966734690025,54.16552918859631,-1.833300039746408,1.4271060217631053,-22.567774885706285,-3.8169372634630685,1.9025613304360123,-1.6065705214409154,0.46854759044911487,9.61616213359407,73.16334365525844,70.44483338333927,1.6248209401965141,25.681540369987488,19.677598774433136,-73.78255128860474,-33.66168737411499,-51.125216484069824,-6.643519730269002,8.426193496954106,False,0
GUIDED_NOGPS,1.1044886112213135,30.090206684793134,8.037480656921586,68.6506832138001,70.11128566052454,-6.042388509599851,0.43428428031110133,53.8386277377235,53.722823211835575,-1.9901100840324997,1.4670858937395403,-23.10567960360147,-2.347995953450143,1.3920796855548443,-1.7733767649145165,0.4667762988721562,9.131137982103386,74.31103930304863,71.30736082168579,3.8508497178554535,25.633379817008972,19.88457441329956,82.66993761062622,-11.194434762001038,85.74077486991882,-6.2997664177113535,10.244651108747254,False,0
GUIDED_NOGPS,1.1391749382019043,28.833965792223506,8.250022610971138,69.6337444596468,70.60806578447155,-5.935291987794105,0.27124672701934216,54.02590437273059,53.276418567248264,-2.01258119295843,1.4352485677491125,-23.36834135832348,-2.9810106795037377,1.6234995973558433,-2.305676754949828,0.46484261976423724,10.268144298790354,74.83396488874052,71.41395168133286,4.3206289410591125,25.453847646713257,18.798892199993134,60.757046937942505,-26.62213444709778,-16.53032898902893,-6.14808235127128,6.179252078429849,False,0
GUIDED_NOGPS,1.1731181144714355,29.466176770195936,8.326065446679948,70.60202317107132,71.01613330697356,-5.752855698118189,0.10685599941995028,54.199764326774755,52.8264235601449,-2.1916134711525697,1.4231590261964842,-23.99349149758182,-3.0226346256403596,1.394502179673458,-1.3342494183372526,0.4630763447043743,9.213761502074034,74.92748259590076,71.79106741300639,-1.680128462612629,24.436253309249878,11.804841458797455,-18.41365694999695,-21.625028550624847,-125.26383399963379,-5.902709795294772,10.41068020086557,False,0
GUIDED_NOGPS,1.2067203521728516,29.76309048203629,8.395778289266056,71.5917331740287,71.42696265884193,-5.557442626059448,-0.058747083409081746,54.3601924532792,52.37294696812152,-2.294745058751531,1.3963664352383456,-24.343304758565903,-3.2308662097363072,1.4251482818670453,-1.0078121662587116,0.4612965223873805,9.2118559144448,76.18250711319511,72.18007592305977,-1.680128462612629,24.436253309249878,11.804841458797455,-18.41365694999695,-21.625028550624847,-125.26383399963379,-5.594540601567216,10.41068020086557,False,0
GUIDED_NOGPS,1.2404108047485352,29.685570913929407,8.469606729841828,72.54527225916985,71.7908584455663,-5.366143046190267,-0.22542460985684087,54.50719038318398,51.91609801526923,-2.2852711594859,1.4623617507114186,-24.611162579699002,-3.2017507136876433,1.4393487381301142,-0.9475398398947852,0.4596014865837822,9.715720651282442,76.892893042212,72.3367668598762,-2.126014046370983,24.333928525447845,10.19042655825615,-33.06998014450073,-35.488927364349365,-64.68396782875061,-5.538225709984534,10.249636293067717,False,0
GUIDED_NOGPS,1.2938566207885742,18.7124584532334,8.588094620037117,73.4737957348329,72.1216770804246,-5.158447699399202,-0.39304155938312224,54.6407761361032,51.45598634638387,-2.435067666711446,1.4413417368189987,-24.899850770253344,-2.354354280312454,1.2672351699198796,-1.5393757913465418,0.45793133774405526,9.942919146301119,77.43141251932772,72.6541484875896,0.5894276313483715,23.578301072120667,8.156582713127136,-7.90618434548378,-35.361915826797485,-106.82917833328247,-5.10865971488502,10.280769149078282,False,0
GUIDED_NOGPS,1.3068506717681885,76.98230673225167,8.763111273562075,74.8769357153625,72.67782068946242,-4.898179982587365,-0.5614657861220538,54.760983731482064,50.992722001175565,-2.435067666711446,1.4413417368189987,-24.899850770253344,-3.7857364431812583,2.6712923893321516,5.0515904875442645,0.45586991926621145,10.545536143492974,78.65634987557685,73.25360766678844,-0.7473310921341181,23.619472980499268,8.69113802909851,18.31001192331314,-26.064789295196533,9.355533123016357,-4.590075682965233,8.454838456559495,False,0
GUIDED_NOGPS,1.3401191234588623,30.061308009317326,8.789675187159082,75.2882254260322,72.71589602924706,-4.768689069775164,-0.7305680024857297,54.86786279975407,50.52641538847832,-2.4933191484913118,1.4492378623863564,-25.127717833796016,-1.8655002543664434,1.2848030853448515,-1.3069096676830516,0.454801999128841,10.653503586515452,80.05543970369773,73.52665437282451,-2.332073822617531,22.821786999702454,4.651062935590744,-86.89249157905579,-47.285646200180054,-95.48507928848267,-4.36923075381326,8.515222451464284,False,0
GUIDED_NOGPS,1.381662368774414,24.07544700513733,8.94810688168753,76.26166130119539,72.98467365781326,-4.5282820267588555,-0.9002217627678348,54.961478193498124,50.05717726045965,-2.837852459803561,1.3901331405687685,-25.80076808970366,-3.11653509689855,1.5270595384039793,-0.39071022525691657,0.45325014552866266,11.071519536659999,81.61322377149529,73.73094579217192,1.3986686244606972,22.630977630615234,4.310830309987068,-20.592579245567322,-41.2526398897171,-45.64890265464783,-3.892012379078432,9.925369647126777,False,0
GUIDED_NOGPS,1.4150235652923584,29.977729176494133,8.975660504815734,77.38750445817222,73.30384421900753,-4.281483725522024,-1.0703034467472774,55.04190959859566,49.58511868683015,-2.8956202788128245,1.5264917842108434,-26.178772956486966,-3.9013775341396886,1.4668521409755777,0.3862876627286398,0.45160430030774995,10.470284926300788,82.00771947467548,73.91757554444766,-6.49477019906044,21.05981409549713,2.7948610484600067,-71.10480070114136,-44.87013220787048,-54.37000393867493,-3.693544651639276,7.891141236811049,False,0
GUIDED_NOGPS,1.448906421661377,29.517396689561988,8.991914299015976,78.30055820503667,73.51994170109806,-4.056546103678732,-1.2406922432918082,55.10925114538777,49.110351029053085,-2.840807156949826,1.6275025980725157,-26.429958285856063,-3.5918609022933574,1.4188560024032195,0.2099192399864207,0.45015611371063713,10.922870328538426,83.03274250559252,74.02607936410287,-6.49477019906044,21.05981409549713,2.7948610484600067,-71.10480070114136,-44.87013220787048,-54.37000393867493,-3.24921586688925,7.891141236811049,False,0
GUIDED_NOGPS,1.4853136539459229,27.47066798530288,9.005682202811753,79.20622933835106,73.74277517196555,-3.8210189270441353,-1.4112701339616613,55.16361101983238,48.63298591455401,-2.6888700257497153,1.7398871710061403,-26.682608690802127,-3.4973059022798156,1.3876499042210195,0.2954580933244042,0.4486825928419821,10.286713812619553,84.04142688057873,74.04615996070326,-4.512627422809601,20.14191448688507,4.040259122848511,-16.976484656333923,-42.6121324300766,22.666630148887634,-2.9981311488092803,8.267645169524247,False,0
GUIDED_NOGPS,1.5211598873138428,27.901573257941127,9.022962062145618,80.1353649957526,73.90664287382373,-3.6148858187588804,-1.58192187661317,55.20511107466132,48.15313521093037,-2.7557945671150277,1.7885946373596764,-26.87705734628322,-3.690768931123882,1.4142820164985064,0.13678201128024803,0.4473214795666638,10.286713812619553,84.04142688057873,74.04615996070326,-4.283240437507629,19.458553194999695,-0.6278890185058117,13.935811817646027,-27.39582359790802,9.926465153694153,-2.9981311488092803,5.890023022270604,False,0
GUIDED_NOGPS,1.5541770458221436,30.29012573029732,9.049395018234216,81.08711515873983,74.05044407893965,-3.425834534181434,-1.7525349890024025,55.23388644053748,47.67091100016107,-2.764870607861505,1.8449907622845312,-27.067981624152587,-3.9188824210201747,1.474663362984672,0.23384723857510625,0.4459997203679106,10.694373627353475,86.18979175293309,74.17508983156709,-4.362191259860992,19.709880650043488,-0.44947066344320774,63.075435161590576,-15.15754759311676,-44.390273094177246,-2.074911424863652,3.108643206854944,False,0
GUIDED_NOGPS,1.6024014949798584,20.738522697493657,9.083271499606504,81.98473920701788,74.13237842210309,-3.1905772355540125,-1.9229997323887895,55.25008513721199,47.18642555281607,-3.0525750377319554,1.8114918860567921,-27.313921368239114,-3.143591387745508,1.3282919794982122,0.03467470189940847,0.4447628001114718,10.888089253967465,87.4588429769299,74.05539884794001,-3.9271123707294464,19.45835053920746,-1.8305439502000809,25.905364751815796,-30.496859550476074,-8.188945055007935,-1.986049455981277,7.160056997959925,False,0
GUIDED_NOGPS,1.6307249069213867,35.310344827586206,9.073685304334907,83.00618911865917,74.30336082772084,-2.992860432855167,-2.093209095138749,55.25386768468126,46.69979130226603,-3.1233904390466476,1.7858664036730794,-27.365081192669802,-3.9291454435549724,1.4597108754949424,1.0088336576063381,0.4433852943955572,10.425887194563092,87.0871708828924,74.15244805412121,-5.603616684675217,19.052907824516296,0.5985971074551344,113.12321424484253,-30.034610629081726,117.12327003479004,-1.801843899260395,2.3772134031204994,False,0
GUIDED_NOGPS,1.6548612117767334,41.43709309333043,8.96273591332026,83.7601228705464,74.34251739930995,-2.881893921211925,-2.2630587763293164,55.24540671434418,46.21112081889186,-3.4174311500327543,1.7826181151142095,-27.426107225356574,-3.9415481052894483,1.2617373962095269,0.10334470894437597,0.44227512808555,10.431989764272743,88.5622609897092,73.8911435490003,-11.288374662399292,19.028039276599884,-0.6291717290878296,-14.060524106025696,-35.38271486759186,34.80486571788788,-1.6363027473751997,0.6060939114740065,False,0
GUIDED_NOGPS,1.6879231929779053,30.250802374306712,8.841288402733017,84.3773338863157,74.23981748872944,-2.778318831731206,-2.4324471693517706,55.22488658015925,45.720526784294336,-3.533685025131191,1.7068736650962952,-27.52071217555042,-3.3873305155060893,1.1730447624187945,-0.4164683723721454,0.44142375192404654,9.934940578756603,89.18699698964161,73.71630386404178,-10.782772302627563,17.62053817510605,-7.300597429275513,-94.53783631324768,-46.404850482940674,-74.21429753303528,-1.473792179035454,1.3770468182841413,False,0
GUIDED_NOGPS,1.7219948768615723,29.35193880907227,8.727796831816434,85.18224290049741,74.18040395017921,-2.630096459069831,-2.601275345515271,55.192502969801666,45.228121965503675,-3.6582202911548567,1.7087125868086155,-27.55892025376747,-3.9488281679010484,1.2058021050411472,0.16260189102834643,0.44047887742132824,9.716193149018991,89.32353016389075,73.77505530611884,-9.596424549818039,16.325759887695312,-8.58876034617424,-29.015886783599854,-50.502192974090576,-60.771334171295166,-1.2469655058440945,1.1812470660078551,False,0
GUIDED_NOGPS,1.7557473182678223,29.631881989727795,8.637848520701606,85.97033743310179,74.10040630678706,-2.4968763042022317,-2.769447037650467,55.148462515820505,44.73401918918917,-3.7456825710241626,1.548839309401479,-27.595581294137514,-3.9494971372162624,1.245325873826024,0.08238485558179431,0.43957145843302853,9.745601077923203,89.74316195123876,73.62591527528639,-8.01638811826706,15.946698188781738,-9.061192721128464,-18.277287483215332,-36.80758476257324,-30.862027406692505,-1.16997482926296,0.3967236938948157,False,0
GUIDED_NOGPS,1.7902321815490723,29.002240354031255,8.491532072530394,86.71332274101925,73.9795641327618,-2.3980262390853944,-2.9368686237131527,55.09298240679581,44.23833131586877,-3.8546590930053624,1.4451925761287105,-27.592517954294763,-3.920640840313388,1.1371358603468584,-0.29160631491590516,0.4387397614936196,9.327591467669052,90.33394609827819,73.4751499254327,-10.502760857343674,14.1791433095932,-10.709400475025177,-32.13866353034973,-47.04543650150299,-42.7731990814209,-1.0775489772616242,-1.5286887572460603,False,0
GUIDED_NOGPS,1.8233017921447754,30.242731887401938,8.346128805576853,87.4210730466772,73.84985679846055,-2.3010052155270633,-3.10344911038787,55.02628999849578,43.74117121411866,-3.8048439620675207,1.4124448072662614,-27.535654921907113,-3.9575812371178776,1.1360041380973398,-0.20817350510101185,0.43792512612773005,9.364013093755593,90.2449690895657,73.40964181886946,-10.502760857343674,14.1791433095932,-10.709400475025177,-32.13866353034973,-47.04543650150299,-42.7731990814209,-0.9600777543826731,-1.5286887572460603,False,0
GUIDED_NOGPS,1.8590803146362305,27.954385801214336,8.19674107576463,88.05857069240763,73.73451950413546,-2.227547395738165,-3.2691001166915505,54.94862242503383,43.24265173478286,-3.8171767223876247,1.3894881145790254,-27.481737408599034,-3.693710216467183,1.1116880567557375,-0.512857453658489,0.4370717419190896,8.563094450001124,91.00257875480474,73.1765101483092,-8.649712055921555,11.100274324417114,-8.565238118171692,-60.236579179763794,-57.3150098323822,7.821092754602432,-0.9658770173114322,-2.350286449534782,False,0
GUIDED_NOGPS,1.8908805847167969,31.45735864339661,8.055214431282055,88.69034606006998,73.60670603834112,-2.155293921004478,-3.4337358575771413,54.8602262100258,42.742885685182856,-3.8274911618079903,1.3019149508574126,-27.442308434067844,-3.9600834176288,1.1358744264446743,-0.3836534291651056,0.43624937739370795,8.73372049727395,91.36184660459871,72.93945338700254,-8.649712055921555,11.100274324417114,-8.565238118171692,-60.236579179763794,-57.3150098323822,7.821092754602432,-0.8837132093385824,-2.350286449534782,False,0
GUIDED_NOGPS,1.923142910003662,30.994760683697525,7.8378126292319,89.29257942751534,73.5186300515685,-2.0856221065894864,-3.5972731275372256,54.761356877747,42.24198580332718,-3.8933922420148583,1.214794500611725,-27.384424288399277,-3.9338084025844005,0.9831847831036605,-0.3927914201921868,0.4353425128643091,7.821415414163174,92.69666863896241,72.25561289980634,-11.473830789327621,9.809023141860962,-3.668375685811043,23.706357181072235,-58.18666219711304,83.59113335609436,-0.7739927978735057,-2.075261412084814,False,0
GUIDED_NOGPS,1.958150863647461,28.569606975001705,7.489448676480034,89.87292145882977,73.34930880897662,-2.0566388546413528,-3.7596312842076687,54.652278564289425,41.74006473212097,-3.8375093417731065,1.1368571329834134,-27.282447856543694,-3.792113816696668,0.7423263364195098,-0.9025189103879068,0.4345888679993687,7.376606903337976,92.80157769675552,72.16753487614545,-18.88197660446167,8.773364126682281,-8.83738175034523,-46.373966336250305,-50.902944803237915,77.33172178268433,-0.9178848431386444,-4.170870811480742,False,0
GUIDED_NOGPS,1.9932067394256592,28.529186902284074,7.194238406394655,90.4628197390179,73.11232671296564,-2.018055717266475,-3.92073223197122,54.53326362871885,41.23723499357563,-3.7844456021112776,1.1966039993046884,-27.151748771680914,-3.8827541473535065,0.8222964173312997,-0.7700074883977783,0.4339678973118827,7.010808395709722,93.69644926104854,71.57122753680969,-14.24551010131836,7.292887568473816,-11.595138162374496,-8.886749297380447,-36.82892322540283,-131.368088722229,-1.0427359260139624,-3.029270005397049,False,0
GUIDED_NOGPS,2.0254931449890137,30.975533022665,6.936947855354613,90.96976451431604,72.88658723612429,-2.0371401498439803,-4.080500405561177,54.40459226423195,40.73360896301837,-3.7369634076618183,1.1780713482089167,-27.089203021903817,-3.8613329808427417,0.8642662482059175,-1.4588683303082342,0.4333291267780827,6.91607728803981,93.71435553960258,71.36879210939574,-12.197481095790863,5.873257666826248,-10.231712460517883,87.59585618972778,-42.80809760093689,-92.45699644088745,-1.0070605805156867,-6.334264502303758,False,0
GUIDED_NOGPS,2.05899977684021,29.85078535894498,6.682041552925357,91.38851808113945,72.64383196566695,-2.0365714267874044,-4.238862753664969,54.266552109313466,40.229298843301834,-3.7626325392231954,1.0966951937769154,-26.953196880055938,-3.5963282900535423,0.8550817579464401,-1.2151067802402113,0.43271972246115575,7.1126135667504276,93.63970927053091,71.29103480946233,-13.511283695697784,4.312897101044655,-11.3273486495018,18.26217919588089,-52.78638005256653,7.266291975975037,-0.9155153951251853,-4.794616066204177,False,0
GUIDED_NOGPS,2.0926153659820557,29.75000177323829,6.28122515741441,91.84773987874993,72.35999708519934,-2.0357464876583897,-4.3957487225278244,54.11943785889328,39.724416639013704,-3.8634017351429786,0.9716048681614804,-26.866279307772942,-3.7574484987285652,0.583693303646968,-1.2117043733199226,0.4321892084519333,6.066627936873061,95.01728435318981,70.34748507845185,-20.05048096179962,2.8442811220884323,-11.48577630519867,-108.1289529800415,-65.91951847076416,-66.93605184555054,-1.3316586478506665,-3.5496800475068917,False,0
GUIDED_NOGPS,2.1263673305511475,29.633975568225978,5.8866974254170215,92.279271790868,72.07965899188312,-2.0381276692919648,-4.551090239556376,53.96355087550363,39.219074130686266,-3.7740432240053483,0.9525834316532296,-26.740735308186228,-3.7474451934121555,0.5704842945857157,-1.251198602639814,0.43165079115561755,6.066627936873061,95.01728435318981,70.34748507845185,-20.05048096179962,2.8442811220884323,-11.48577630519867,-108.1289529800415,-65.91951847076416,-66.93605184555054,-1.3316586478506665,-3.5496800475068917,False,0
GUIDED_NOGPS,2.161747694015503,28.26617066300055,5.498420252719999,92.62822365238101,71.7479964844953,-2.045881787539766,-4.704821696922305,53.79919880043617,38.71338284900604,-3.7721948040612134,0.918833759416904,-26.626500394317766,-3.4776394841144787,0.5732313606320785,-1.3149903424544789,0.43120901283646423,5.067552562987194,94.50360571931526,70.2764092436036,-17.24734753370285,0.5635911598801613,-14.928899705410004,-73.7461507320404,-54.840147495269775,-125.94655752182007,-1.4455738255111887,-3.3892875690011284,False,0
GUIDED_NOGPS,2.2101240158081055,20.673001853239224,5.164215531659325,93.0012906413995,71.41450202973292,-2.036809952337355,-4.856879935165947,53.62669516489911,38.207454049023355,-3.83239395697159,0.8532477216855029,-26.55081336057756,-3.1866315986995843,0.7195430642239248,-1.1470099391289972,0.43073574146614096,4.735257717508331,95.44803559940848,69.5867396157002,-12.849628925323486,0.188749423250556,-13.167190551757812,7.3695652186870575,-39.33910429477692,-80.69562911987305,-1.585186435783061,-1.7704631531559372,False,0
GUIDED_NOGPS,2.2501633167266846,24.98022095827998,4.761696162429013,93.4501597344956,71.03489435703767,-2.029445413912723,-5.007204226799943,53.446359001174436,37.701398684361955,-3.7248867794355895,0.7402681752421468,-26.36754743231507,-3.6713974899720956,0.5650131807825596,-1.1440976559868317,0.43037606900680836,4.097229587440131,95.506124260545,69.00643676829296,-12.849628925323486,0.188749423250556,-13.167190551757812,7.3695652186870575,-39.33910429477692,-80.69562911987305,-1.7025155536023897,-1.7704631531559372,False,0
GUIDED_NOGPS,2.261146306991577,91.08943230682361,4.337630026176233,93.7678052854729,70.65229229604918,-2.0892145604958547,-5.155736259912861,53.25851445377488,37.19532738142858,-3.7248867794355895,0.7402681752421468,-26.36754743231507,-4.023597744714969,-0.5739353738730388,-3.438571624733102,0.4300998449578501,3.9316161363396365,94.98500333706778,68.94512211682712,-16.137665510177612,-0.9767096489667892,-14.186954498291016,-12.991812825202942,-55.17595410346985,-52.11479663848877,-1.7235712263283491,-5.606029732996999,False,0
GUIDED_NOGPS,2.2941737174987793,30.27875515257394,4.122887671599556,93.70497938664228,70.39848400526245,-2.16645213374283,-5.302420121772811,53.06349039060122,36.689350413622584,-3.636450343835911,0.5641320039777985,-26.254492433625728,-2.52746239810763,0.7586140638714037,-2.2332186225826316,0.4295062422576571,3.2057240602042953,95.42263578324437,68.61622135513394,-16.137665510177612,-0.9767096489667892,-14.186954498291016,-12.991812825202942,-55.17595410346985,-52.11479663848877,-1.8885061788129702,-5.606029732996999,False,0
GUIDED_NOGPS,2.3273284435272217,30.166818904320433,3.72251776956103,93.92675967805576,70.10365817343938,-2.2011621988163155,-5.447202282431095,52.86162001409929,36.183577675545536,-3.4451649197141796,0.5137721654536482,-26.101812092466556,-3.4451723653815076,0.4356727007457256,-1.7399020553599893,0.4289944740253195,2.8124352736582785,95.48676809726331,68.38334780954615,-15.315547585487366,-3.165074810385704,-9.450270235538483,53.485989570617676,-35.069337487220764,-0.817156583070755,-2.052041587980993,-2.908198499056226,False,0
GUIDED_NOGPS,2.3628947734832764,28.125152551465163,3.403224429138789,94.11810348835373,69.84344877386239,-2.2571172220637705,-5.590031578325813,52.65324047241718,35.67811865721079,-3.375751841613456,0.2983290025678169,-25.985755225636993,-3.3093438892505658,0.5853196702735274,-1.9843127566499001,0.42840687799457755,2.5504900096251424,95.57895446005682,68.20864503992259,-9.693320095539093,-4.2077090591192245,-7.07802027463913,17.017701268196106,-48.38893413543701,50.52163004875183,-2.1249882875677972,-4.097514152907982,False,0
GUIDED_NOGPS,2.3966054916381836,29.66520496788978,3.060017443555389,94.26785555309917,69.55461317751235,-2.321679663637213,-5.73085919588551,52.43869247056236,35.1730824182531,-3.3230035713139165,0.21397792722630485,-25.90446402168279,-3.2863624992646465,0.5114449016921601,-2.1566966110740826,0.42788146476906913,2.237617855698866,95.3109046703185,67.78152733218332,-11.060373485088348,-5.169485509395599,-8.266491442918777,16.427792608737946,-56.89587593078613,127.7647852897644,-2.17390141966518,-4.487744631418789,False,0
GUIDED_NOGPS,2.4284780025482178,31.378754666447215,2.6765707285356264,94.39436844507804,69.26191992329242,-2.394227832119799,-5.869638655132786,52.21831988155874,34.668577562138225,-3.2738776491520114,0.08958166622441958,-25.88184926534088,-3.3236467966826395,0.3963468305821134,-2.3474250141852884,0.42736967501967216,1.5917380929257199,95.84695815936229,67.02531787559512,-14.063574373722076,-5.544469133019447,-7.789240777492523,-9.933095425367355,-41.8691486120224,-0.738959014415741,-2.4909663191918665,-4.158132935565491,False,0
GUIDED_NOGPS,2.4612417221069336,30.525341329218946,2.3028447674933084,94.4748824265069,68.99153076221934,-2.457651401365886,-6.006325793287954,51.99246935760395,34.1647122103725,-3.207855333087376,0.020296120562104454,-25.820304138277187,-3.1877882515887643,0.4029251386215722,-2.2481624246690717,0.4268113504655066,1.326016800596641,95.692825593061,66.88816808506336,-13.631245493888855,-7.108709216117859,-6.6416919231414795,47.02146649360657,-47.931310534477234,131.69474601745605,-2.540415139439725,-3.4494886429022094,False,0
GUIDED_NOGPS,2.494710922241211,29.882899442853276,1.9419507036259431,94.51355349411791,68.71155502698487,-2.493289823824587,-6.140878748372628,51.7614899412263,33.66159397671245,-3.2276297979516206,-0.08250516335746325,-25.814993666197502,-3.077790634684684,0.4098221769611616,-1.922591788787073,0.4262713703594575,0.8220297753099075,94.96716613323403,66.38005090429266,-11.133977770805359,-7.9521410167217255,-5.868461728096008,38.7865275144577,-47.07067906856537,115.28899669647217,-2.6196712435697185,-1.3010953281570112,False,0
GUIDED_NOGPS,2.5341968536376953,25.32853450566439,1.536574331418411,94.52863961612081,68.4291983617984,-2.5316445397655163,-6.273257942813376,51.52573267644205,33.159329941374395,-3.2027119871989447,-0.08502336872708233,-25.80438296732189,-2.925398869559057,0.3751812923594326,-1.9078231212003047,0.42572022729340786,-0.3530179797537847,94.57189375485126,66.20619374702744,-11.133977770805359,-7.9521410167217255,-5.868461728096008,38.7865275144577,-47.07067906856537,115.28899669647217,-2.6918371983956133,-1.3010953281570112,False,0
GUIDED_NOGPS,2.564680814743042,32.809524554514304,1.060094850008581,94.5563418332649,68.06270439786228,-2.5393174353522343,-6.403426067045348,51.28555021991246,32.65802662524403,-3.011705320172715,-0.042051020120535534,-25.79443821189035,-3.2005794416982303,0.0921670566790057,-1.624505958462728,0.42536446716472526,-0.3530179797537847,94.57189375485126,66.20619374702744,-12.987929582595825,-8.91610011458397,-9.744913876056671,-18.255868554115295,-40.97883403301239,7.6957181096076965,-2.6918371983956133,0.9786508486205833,False,0
GUIDED_NOGPS,2.5973002910614014,30.66168590498052,0.6840549158045268,94.47766937689823,67.7737284679033,-2.5713172416998207,-6.531348063115911,51.04129645210094,32.157789964086014,-2.996522876864834,-0.0478761042654986,-25.84242712099886,-2.8306689749626037,0.2852133667075754,-1.9350109654595709,0.4248489610441534,0.0695009064860646,94.67828182648202,66.02296081963613,-14.853446185588837,-10.847525298595428,-8.790114521980286,5.767098069190979,-41.35315716266632,44.1419392824173,-2.677309311822899,-1.24602372632261,False,0
GUIDED_NOGPS,2.6312930583953857,29.421530734643202,0.38396198741555027,94.3853941679774,67.43136119729063,-2.5814424805752836,-6.656991108288238,50.793326088430234,31.658725282753608,-2.9785035571738714,-0.011850378209972123,-25.876197283802696,-2.7864850501601017,0.41928515745347694,-1.6677627822301584,0.42443808202350175,-0.17233529666855088,94.31090450772459,65.77870693275982,-8.497998118400574,-11.126505583524704,-11.439237743616104,-45.05447745323181,-40.485092997550964,-21.60401940345764,-2.666296612676738,0.22420608214754606,False,0
GUIDED_NOGPS,2.664808988571167,29.840803665442955,0.0010113121543522952,94.28884554668623,67.0988653880798,-2.5707906362755226,-6.780324598644985,50.54199429043949,31.160937269398232,-2.990860863486305,0.05186781622684214,-25.934964231421485,-2.811862122625244,0.2414790763184654,-1.4152282444601731,0.42401122933444385,-1.732633846918225,94.20260234164888,64.46744899115916,-9.20824334025383,-11.18287667632103,-6.830354779958725,19.30067241191864,-37.36877143383026,86.6218626499176,-2.792388895198439,1.9831375281069745,False,0
GUIDED_NOGPS,2.6979289054870605,30.198312357803186,-0.3551061928435233,94.17504585613204,66.78072327041451,-2.5606022070282366,-6.901320132691901,50.28765627694138,30.66452994967907,-3.0389054813252327,0.012209390028220917,-26.039628342715467,-2.7842966921094816,0.26080729894089083,-1.4133583967719836,0.4235589698837586,-1.7398050437127175,94.11997697573398,64.33201086983951,-9.20824334025383,-11.18287667632103,-6.830354779958725,19.30067241191864,-37.36877143383026,86.6218626499176,-2.85319777255311,1.9831375281069745,False,0
GUIDED_NOGPS,2.735116720199585,26.896909067590098,-0.7312307417084332,94.00723604247324,66.4406083201617,-2.519372665745067,-7.019951494961428,50.03066693517928,30.169606660972683,-2.9796582860304266,0.08857346626990223,-26.136671670443008,-2.6107391785419582,0.24027894643049919,-1.067001156308304,0.42314172486494533,-3.150725251789808,93.33679813839228,63.869879680578336,-7.511662691831589,-12.144765257835388,-7.757571339607239,31.3192218542099,-42.412760853767395,34.59247648715973,-2.750592378095878,3.6798117997817363,False,0
GUIDED_NOGPS,2.772172689437866,26.985163739303868,-1.092431929259605,93.84658759836532,66.09316846237375,-2.4772589740512596,-7.136194639616394,49.77138043198444,29.676270026582586,-3.0458778238073467,0.08431164167122583,-26.219265732981388,-2.645423546452343,0.24204915749533454,-1.033418071792106,0.4227415790084708,-2.996136275899549,93.5863330888235,63.54544856939565,-7.511662691831589,-12.144765257835388,-7.757571339607239,31.3192218542099,-42.412760853767395,34.59247648715973,-2.755701474989349,3.6798117997817363,False,0
GUIDED_NOGPS,2.7990951538085938,37.1512692873213,-1.4326603944388348,93.6495250402242,65.74918899492793,-2.4245036364741277,-7.250027674053563,49.51014982493295,29.184621929948847,-2.9231275850345813,0.12438473505766089,-26.382146961665974,-2.6321352605333352,0.10941029960418537,-0.6672436028310602,0.4223678538371736,-2.996136275899549,93.5863330888235,63.54544856939565,-9.687428176403046,-13.894589245319366,-10.222478210926056,-17.34349876642227,-37.60919272899628,-31.514078378677368,-2.755701474989349,4.3368320285941815,False,0
GUIDED_NOGPS,2.8337252140045166,28.884401900695543,-1.7247190466745723,93.42660515116513,65.38895515061965,-2.345593067471924,-7.361430842507329,49.2473266735031,28.694763488857724,-2.85104219542109,0.17517695657278468,-26.47000539250714,-2.5074152984452702,0.28056682175548403,-0.4956357261425317,0.4220069748737675,-3.2613951316566836,93.20686280989716,63.054727598350816,-9.315633773803711,-14.50304090976715,-12.856985628604889,-11.84779405593872,-37.30631470680237,-81.29394054412842,-2.6999248528884285,6.0589609212017,False,0
GUIDED_NOGPS,2.865943193435669,31.03856969481692,-2.0861856355606623,93.18093974190498,64.98538835564482,-2.261167528206032,-7.470386509653308,48.98326065023232,28.20679502965119,-2.862205499289241,0.1686760038651077,-26.675636775206836,-2.46158445697518,0.09995375206821988,-0.3131163308881584,0.4217429595981232,-3.4593249038964013,92.54796375655783,63.10090989195275,-9.315633773803711,-14.50304090976715,-12.856985628604889,-11.84779405593872,-37.30631470680237,-81.29394054412842,-2.624393546882237,6.0589609212017,False,0
GUIDED_NOGPS,2.903242826461792,26.81505728314239,-2.466380873865039,92.8849152054862,64.58213348633569,-2.2105758634865746,-7.576879144211968,48.718299151874426,27.72081606143658,-2.882529794381672,0.16460830604924778,-26.792123943954113,-2.3241862639697515,0.09523879668410343,-0.7793231310859071,0.42146841894886883,-3.597624020617647,91.69745922867381,62.778649516402865,-12.177237868309021,-15.475411713123322,-13.532225787639618,-60.863304138183594,-45.40869891643524,-109.89893674850464,-2.4538709496931252,3.324049230587163,False,0
GUIDED_NOGPS,2.9338111877441406,32.722239992510474,-2.772526560895923,92.57350748787319,64.20667845977157,-2.1370573611992594,-7.680895302552281,48.452786910556696,27.236925250296196,-2.849654386359108,0.17641161998697028,-27.032428781975376,-2.258842720959915,0.12136310534449973,-0.3207684904208796,0.4211610868173921,-3.597624020617647,91.69745922867381,62.778649516402865,-5.08769229054451,-16.054825484752655,-9.884394705295563,9.577541798353195,-29.814720153808594,70.0268805027008,-2.4538709496931252,4.624991306374672,False,0
GUIDED_NOGPS,2.9693973064422607,28.10442240686143,-3.030923720954062,92.24466211966181,63.884645439704535,-2.080200643979628,-7.782423612295303,48.187065604937,26.755220393496863,-2.7616271217793953,0.28867084827715445,-27.251433675069958,-2.22971705016226,0.23928911687860727,-0.6122565946291132,0.4207355036757777,-4.331454353761511,91.13456056072144,62.38500788530511,-5.256163701415062,-16.55016839504242,-9.859780967235565,25.687730312347412,-26.12472176551819,79.23660278320312,-2.3406040311031573,3.6310045486332947,False,0
GUIDED_NOGPS,2.9997384548187256,32.96139065925862,-3.381662531580054,91.88466557949364,63.52339701390115,-1.99742605418047,-7.881454755917885,47.92147347136099,26.275798393699546,-2.6894290340445988,0.2825815745495294,-27.399355081924927,-2.104173644933474,-0.02204679249667732,-0.10916387214317758,0.4204085830433597,-4.805408094101492,90.72265808415798,61.76365527009689,-9.030968695878983,-17.21765398979187,-9.786807000637054,58.28975439071655,-18.344172835350037,78.22669744491577,-2.2247598134393196,4.8835135395728315,False,0
GUIDED_NOGPS,3.0342612266540527,28.971189777240546,-3.7082548783647593,91.49695114496801,63.156220616875814,-1.8794882327841484,-7.977981454356205,47.65634491501923,25.79875523316897,-2.5724477437995557,0.37613136723831486,-27.59838167169722,-2.054966375555795,0.050370183595753425,0.24078481737569613,0.4200858244888383,-5.439009294858611,89.94625891369235,61.04206010939406,-8.336400985717773,-17.872045934200287,-10.646794736385345,-47.78208136558533,-36.442938446998596,20.64743936061859,-1.9293158657862346,6.731328585079163,False,0
GUIDED_NOGPS,3.0686819553375244,29.057494197928573,-4.034847308783116,91.09879505963805,62.765184784954414,-1.805036706548301,-8.071998450609456,47.39201012110418,25.324185947983167,-2.46078140794584,0.36700415343391507,-27.86108953019613,-2.0171900253497017,0.019734692149102284,-0.21046655028296635,0.4198165276761032,-6.136367667032738,90.19245739178521,60.39157836411613,-4.924624785780907,-18.615339696407318,-9.107908606529236,-2.9430076479911804,-27.367109060287476,46.53832018375397,-1.798158539859871,3.1515986934319775,False,0
GUIDED_NOGPS,3.103107452392578,29.05105383821523,-4.423520392350512,90.68886730325626,62.312428120395936,-1.6590090555092005,-8.163502493343469,47.12879466596752,24.852184602243113,-2.35399951112233,0.4239729470319931,-28.027548070458508,-1.9874584311171541,-0.11480794775133443,0.6878913315598225,0.41967404749795545,-5.5672512426897915,89.72566269144191,60.10222642441889,-12.512849271297455,-18.782666325569153,-14.113472402095795,-58.27493071556091,-24.576570093631744,-56.00399374961853,-1.5128238026827217,7.3983874844242346,False,0
GUIDED_NOGPS,3.1361420154571533,30.275258230534362,-4.821626246359863,90.25727202768061,61.84205049135334,-1.506171868374122,-8.252492320494312,46.867019128277164,24.382844262282333,-2.0889979897227673,0.391400415210437,-28.274577229717654,-1.8944183863734294,-0.19378594904209612,0.9439701590810414,0.4195769675812372,-5.698157709163021,89.32430482024515,59.75952690342109,-12.512849271297455,-18.782666325569153,-14.113472402095795,-58.27493071556091,-24.576570093631744,-56.00399374961853,-1.3993601344412285,7.3983874844242346,False,0
GUIDED_NOGPS,3.168069839477539,31.323684485668622,-5.079083148480333,89.8238942541107,61.449035672178894,-1.3982986905856707,-8.338968642871947,46.6069987001745,23.916256970876454,-2.0601105584018446,0.36446129535026045,-28.447970119534887,-1.8550728641928236,0.027983367818219758,0.5105488523142091,0.4193338179913639,-6.300883703338251,88.40440482412019,59.230435433108724,-4.78750467300415,-18.412591516971588,-10.83926111459732,28.88554036617279,-16.262781620025635,12.110970914363861,-1.0991110386582865,4.234879502400694,False,0
GUIDED_NOGPS,3.2093749046325684,24.21290106565989,-5.365611612495225,89.40323280450815,61.04731842208224,-1.3001452181658435,-8.42293412776387,46.349042798431334,23.452513721452817,-1.9840482911441133,0.25841604510090693,-28.650587681263318,-2.0005331275996814,0.038928127006864134,0.16990883541995694,0.41908546868595453,-6.300883703338251,88.40440482412019,59.230435433108724,-7.36907571554184,-18.076471984386444,-12.155890464782715,-44.3243533372879,-14.386355876922607,-26.669123768806458,-1.0991110386582865,3.735795445313746,False,0
GUIDED_NOGPS,3.2445082664489746,28.471089751422095,-5.679457858287534,88.91500573556735,60.566264587154365,-1.157281263453381,-8.504393382538673,46.09345467560731,22.99170443230011,-1.795355564142637,0.25355994068358656,-28.880321093996695,-1.7257282819476398,-0.09390929733879172,0.9366471493997849,0.4190206383826769,-6.300883703338251,88.40440482412019,59.230435433108724,-4.186073318123817,-18.22146326303482,-12.078621238470078,4.889577627182007,-9.896454960107803,25.72895884513855,-1.0991110386582865,5.37722095712251,False,0
GUIDED_NOGPS,3.2766032218933105,31.15939617259004,-5.938140519790235,88.48457447004385,60.09527769991917,-1.0166262461379232,-8.583352938249764,45.84053103120667,22.533917920777924,-1.8056813160638152,0.18363747988116774,-29.001867725371657,-1.8317908348574334,-0.04786357824959113,1.139773710653489,0.41895041833052526,-7.291985021388096,87.8575580566812,58.18584080373682,-3.7829257547855377,-17.615339159965515,-14.760512113571167,52.06676721572876,-5.0463855266571045,-29.48853075504303,-0.7947536546114429,5.841269558861876,False,0
GUIDED_NOGPS,3.3209755420684814,22.53802545956722,-6.088985056852847,88.05957601149215,59.68708711166282,-0.9446427115760525,-8.659821233238905,45.59056162283576,22.079241877526357,-1.6821282098984565,0.15822373336172546,-29.201695154824137,-1.9820264646349024,0.18131345533172635,0.08277188461176288,0.4187240817700276,-7.02609218038215,87.24321200159568,58.15165725720028,0.6969223730266094,-17.194828391075134,-12.663650512695312,110.03537178039551,11.752575635910034,62.54317760467529,-0.6393990228164157,1.4116175006030436,False,0
GUIDED_NOGPS,3.343292713165283,44.81860147033681,-6.308319118260163,87.47813024239478,59.12300009520568,-0.7970336010713515,-8.73380859673992,45.34382887735987,21.627762840675636,-1.7155341315204597,0.06429876051626535,-29.369267015921228,-0.8697648988199829,-0.14043644493179397,2.164193337548865,0.41888227247526755,-6.652683116769488,85.89036224434429,57.46301276396697,0.5792695097625256,-17.22872108221054,-13.764844834804535,68.16953420639038,-5.977296829223633,17.834627628326416,-0.26301005778673264,3.5095441483966043,False,0
GUIDED_NOGPS,3.3777530193328857,29.02451750410009,-6.385853319804111,87.0864247096637,58.77250568687187,-0.7057326200139429,-8.805327232482266,45.100607502060555,21.17956617005568,-1.8289485689148752,0.008232405662275212,-29.484635741191912,-1.9287737611418114,0.25075266391841144,0.6363491866483373,0.4185832315312845,-7.6914300509800855,85.1747767221923,56.64992999050794,0.5792695097625256,-17.22872108221054,-13.764844834804535,68.16953420639038,-5.977296829223633,17.834627628326416,-0.11766684477302705,3.5095441483966043,False,0
GUIDED_NOGPS,3.410780191421509,30.280503916543335,-6.592620052588174,86.5988055232564,58.349249366878375,-0.604511394714087,-8.874391202294671,44.86116409579271,20.734736021405716,-1.8673671023357277,0.01732605549020672,-29.640917299590974,-1.6023970159143732,-0.006892263565179198,0.8642883082832115,0.4184407873212168,-7.780989141386132,84.86272079847865,56.481135607792766,-2.3620393127202988,-16.240929067134857,-10.898266732692719,73.42686653137207,8.822505176067352,137.3314380645752,-0.0060284740424227864,2.049745319449527,False,0
GUIDED_NOGPS,3.446277618408203,28.1740836025821,-6.81882138598393,86.11426878954389,57.91648883506607,-0.5049355124012047,-8.941016409708837,44.625756760141634,20.293355320583878,-1.8948648036039644,-0.04987126655508279,-29.76461544055449,-1.6451755167133135,-0.04115040290876055,0.8186497931210915,0.4183166619721431,-7.99562122894686,84.33400957075332,55.91532798855178,-4.263845831155777,-16.15709364414215,-11.697514355182648,-8.702705055475235,-21.092887222766876,116.79390668869019,0.23257145866254605,1.7259978746072135,False,0
GUIDED_NOGPS,3.481733560562134,28.20856956466181,-7.033935574738451,85.65303847315185,57.4728236228784,-0.36297360851195126,-9.005220583562892,44.394634710580235,19.855505737776774,-1.9293299381558486,0.040182002887185014,-29.867737636643344,-1.6828447747330828,-0.045672680980802946,1.402536483994642,0.41822282815878264,-7.814359370756305,84.88926879816387,55.66855809274931,-4.122043028473854,-16.207346320152283,-11.802686005830765,-20.17025649547577,1.582391932606697,22.563786804676056,0.2780357941608209,4.432453823200714,False,0
GUIDED_NOGPS,3.5112881660461426,33.84741522619797,-7.141192969037142,85.24206357683674,57.05592231328715,-0.27732901944147637,-9.067023261605264,44.16803788762622,19.42126766170915,-1.9246832750861242,0.019172661165343136,-29.956062227895362,-1.7168700634424863,0.11568135650609913,0.9784795016585646,0.418098064115804,-7.814359370756305,84.88926879816387,55.66855809274931,0.9327195584774017,-15.979355573654175,-13.296373188495636,-81.49477243423462,-6.6093482077121735,-36.20307445526123,0.2780357941608209,1.544416121583661,False,0
GUIDED_NOGPS,3.555680274963379,22.527978000021484,-7.26918474799904,84.78702236539668,56.61282975268025,-0.18814940363833343,-9.126445774098038,43.94619656799904,18.990720173853404,-1.8391225625704324,0.0650100606852987,-29.992634475806195,-1.8024228460802398,0.10655967983384357,0.6895956494468419,0.4179893648822186,-8.754622658957834,83.07339047009432,54.23847705035874,0.9327195584774017,-15.979355573654175,-13.296373188495636,-81.49477243423462,-6.6093482077121735,-36.20307445526123,0.5633846880357001,1.544416121583661,False,0
GUIDED_NOGPS,3.5809547901153564,39.571892218280624,-7.47605668873356,84.29019117633082,56.1299191075983,-0.15547552986997717,-9.183511227420826,43.729330975777216,18.56394102263924,-1.8334771977780053,0.04413027911427551,-30.04090000757609,-1.2083959673190168,-0.17132196060549637,0.42420419191323216,0.418025727523989,-8.83376137744159,82.67274543330008,53.97102022163824,-2.9964039102196693,-15.602955222129822,-13.224658370018005,-33.37702751159668,-5.630432441830635,3.9221584796905518,0.5698132770651428,-2.6795197102193793,False,0
GUIDED_NOGPS,3.613157033920288,31.05534618203896,-7.652595226329446,83.93942982465438,55.77551681448912,-0.07898445267540086,-9.238244487674244,43.517650893555256,18.141006597663264,-1.8299568755910984,0.008834849691411493,-30.07338097217409,-1.8818389945672762,-0.05256724831037148,0.902173376554231,0.4177916518628503,-8.896350971051113,82.19879230616903,53.5619095553399,-6.222608685493469,-14.635944366455078,-13.563700020313263,46.047842502593994,9.018339216709137,90.48823714256287,0.6968030968090502,2.0852983750701477,False,0
GUIDED_NOGPS,3.646028757095337,30.427683267438063,-7.947945899109112,83.5074839169616,55.26773062186466,-0.02677255816361301,-9.290672164283606,43.311355273601194,17.72199190389852,-1.856365161686718,-0.1369340870796486,-30.098324823022974,-1.6181395587771334,-0.29138275545248515,0.620774147394438,0.417870691435722,-8.91642004894638,82.2236061611625,53.298694328946254,-11.174700409173965,-14.315155148506165,-17.48550534248352,-21.96662127971649,4.56022247672081,-45.04390358924866,0.7610214682936303,-0.9892479938395639,False,0
GUIDED_NOGPS,3.6879093647003174,23.881070186126752,-8.08591904998458,83.04954415184127,54.76087324293185,0.045840319174001894,-9.340822593602521,43.110631849013174,17.306970535904185,-1.8089753882344655,-0.3310163669447939,-30.06828565105326,-1.5360923733729144,-0.01179556301609927,0.8870190130562088,0.4179531105898224,-8.873172725161403,81.58296400633901,52.892872315155536,-0.6152209360152483,-14.462243020534515,-16.504286229610443,26.546645164489746,-14.282916486263275,-23.270538449287415,0.8269889567656364,0.3172884070845823,False,0
