Mode,Time,Freq,time2delay,actualDelay,North-Desired,East-Desired,Down-Desired,Roll-UAV,Pitch-UAV,Yaw-UAV,Roll-Control,Pitch-Control,Yaw-Control,Thrust-Control,North-Pos,East-Pos,Down-Pos,Yaw-Ang,North-Vel,East-Vel,Down-Vel,Yaw-Vel,North-Acc,East-Acc,Down-Acc,North-Avg,East-Avg,Down-Avg,Yaw-Avg,North-Dif,East-Dif,Down-Dif,Yaw-Dif,North-One,East-One,Down-One,Yaw-One,North-Two,East-Two,Down-Two,Yaw-Two,Landing-State,Q-Size,Kalman-Time,Kalman-Dt
STABILIZE,0.03446173667907715,29.028735950390345,0.033310683568318684,0.033451080322265625,0.0,0.0,0.0,1.7446768411616118,-1.1446233782348352,12.060707909047142,-0.000645056845803514,0.0006333150137615643,0.03205878758066962,0.4,0.06340364761770315,0.06443477227792471,0.08231241552777058,0.06411757516133924,-0.07722041918896139,-0.04797866567969322,1.528316643089056,-0.06172176482697392,0.6396944634616375,-0.7812333758920431,21.118415892124176,0.0,0.0,0.0,0.0,0.0,0.0,0.0,0.0,0.0,0.0,0.0,0.0,0.0,0.0,0.0,0.0,False,0,0.11712217330932617,0.01995703125
STABILIZE,0.07555413246154785,24.33356733017341,0.032198460896809895,0.0402064323425293,0.0,0.0,0.0,1.744365640667553,-1.1449359661110692,12.062072239333851,-0.000977273080521823,0.0009367016744869314,0.048071482404759926,0.4,0.09383402302330834,0.09756999094113716,0.14433564673147142,0.09614296480951985,-0.10608605807647109,-0.0019246193915023468,2.083917520940304,-0.17773115383767857,4.460446164011955,-0.4435491282492876,26.13239884376526,0.0,0.0,0.0,0.0,0.0,0.0,0.0,0.0,0.0,0.0,0.0,0.0,0.0,0.0,0.0,0.0,False,0,0.17458891868591309,0.064863037109375
STABILIZE,0.11403083801269531,25.989267966242426,0.03248742421468099,0.03770112991333008,0.0,0.0,0.0,1.7443545416101518,-1.1448669171674286,12.062147371414722,-0.0013285876913793422,0.0012562347169183384,0.06506577024762117,0.4,0.12592489942498825,0.13257310768614605,0.20961698714404195,0.13013154049524234,-0.15283685643225908,0.05148057243786752,1.6679991036653519,-0.002695229999084055,-3.51741686463356,-0.47339173033833504,22.624307870864868,0.0,0.0,0.0,0.0,0.0,0.0,0.0,0.0,0.0,0.0,0.0,0.0,0.0,0.0,0.0,0.0,False,0,0.20323896408081055,0.02993603515625
STABILIZE,0.14760255813598633,29.787609990980563,0.03254726727803548,0.032688140869140625,0.0,0.0,0.0,1.7434617078195842,-1.1444419513350068,12.061998814800274,-0.0013861343230152224,0.0012943766882577551,0.0681696894326309,0.4,0.12976714256564667,0.1383050340219291,0.23550997924884384,0.1363393788652618,-0.26398906484246254,-0.07793158874846995,1.886487565934658,0.0072876517618449335,4.644817486405373,-0.4971072543412447,25.648576021194458,0.0,0.0,0.0,0.0,0.0,0.0,0.0,0.0,0.0,0.0,0.0,0.0,0.0,0.0,0.0,0.0,False,0,0.23179841041564941,0.0349267578125
STABILIZE,0.1817176342010498,29.312758582131277,0.032422812779744466,0.033258676528930664,0.0,0.0,0.0,1.7441828263855494,-1.1443542260928545,12.060996484539574,-0.001457330681375709,0.0013414721199007257,0.07202226691881941,0.4,0.13451316809046843,0.1453953549593822,0.2676333297413974,0.14404453383763882,-0.26398906484246254,-0.07793158874846995,1.886487565934658,0.0072876517618449335,4.644817486405373,-0.4971072543412447,25.648576021194458,0.0,0.0,0.0,0.0,0.0,0.0,0.0,0.0,0.0,0.0,0.0,0.0,0.0,0.0,0.0,0.0,False,0,0.2605297565460205,0.0349267578125
STABILIZE,0.2156667709350586,29.45645059344055,0.03246501286824544,0.03310418128967285,0.0,0.0,0.0,1.7418057071109734,-1.1387509096525052,12.060991361897697,-0.0015572127109498065,0.0013514756332699807,0.0796247701291679,0.4,0.13557985693461236,0.1553450370570346,0.32428974971368896,0.1592495402583358,-0.3582424484193325,0.03069649392273277,2.0007148385047913,0.3658176748698898,-3.8076627999544144,-2.2565802559256554,25.42024254798889,0.0,0.0,0.0,0.0,0.0,0.0,0.0,0.0,0.0,0.0,0.0,0.0,0.0,0.0,0.0,0.0,False,0,0.3179783821105957,0.039916015625
STABILIZE,0.24915480613708496,29.862261934427398,0.03245428403218587,0.03260540962219238,0.0,0.0,0.0,1.7457946443079666,-1.145045462581201,12.059866942005584,-0.0016166512938094537,0.0014353213196913503,0.08784365331790336,0.4,0.14402717376012808,0.1612242543292816,0.36062553116396595,0.17568730663580673,0.36160312592983246,-0.006371541530825198,1.7131127417087555,0.8976925096667163,6.33167028427124,3.0425311997532845,9.901251643896103,0.0,0.0,0.0,0.0,0.0,0.0,0.0,0.0,0.0,0.0,0.0,0.0,0.0,0.0,0.0,0.0,False,0,0.3493378162384033,0.029935791015625
STABILIZE,0.28257226943969727,29.922552292897297,0.03244975407918294,0.03258705139160156,0.0,0.0,0.0,1.7453566584274396,-1.1435597897150174,12.053965658562692,-0.001614683792579889,0.0014728976324561722,0.09324272059755123,0.4,0.1478145270037958,0.1609881283318613,0.3834598135265546,0.18648544119510246,0.36160312592983246,-0.006371541530825198,1.7131127417087555,0.8976925096667163,6.33167028427124,3.0425311997532845,9.901251643896103,0.0,0.0,0.0,0.0,0.0,0.0,0.0,0.0,0.0,0.0,0.0,0.0,0.0,0.0,0.0,0.0,False,0,0.3781588077545166,0.029935791015625
STABILIZE,0.316007137298584,29.910176139199887,0.0324740727742513,0.03259420394897461,0.0,0.0,0.0,1.7439249867443813,-1.1443550798665008,12.061139918512145,-0.0015889934912313318,0.0013967824538271344,0.09748864701709797,0.4,0.14021816938561102,0.15842310550894073,0.4086704375494551,0.19497729403419595,-0.5797656252980232,-0.15423690201714635,1.9432974979281425,0.7025284985917702,-1.8954252824187279,-10.007788985967636,25.536268949508667,0.0,0.0,0.0,0.0,0.0,0.0,0.0,0.0,0.0,0.0,0.0,0.0,0.0,0.0,0.0,0.0,False,0,0.40735340118408203,0.03492626953125
STABILIZE,0.34951090812683105,29.847598986649967,0.03248408635457357,0.03261399269104004,0.0,0.0,0.0,1.7430700391593663,-1.146194962074173,12.06252559314001,-0.0016000387973855515,0.0014109654755220938,0.08950020976565351,0.4,0.1415957337580231,0.1595622933028663,0.4308423031070879,0.17900041953130702,0.09355559013783932,0.04528006538748741,1.2011072598397732,-1.4668917669567239,1.8812237307429314,10.65778136253357,3.6059141159057617,0.0,0.0,0.0,0.0,0.0,0.0,0.0,0.0,0.0,0.0,0.0,0.0,0.0,0.0,0.0,0.0,False,0,0.43560791015625,0.029936767578125
STABILIZE,0.38310956954956055,29.764568963070197,0.03243592580159505,0.032581329345703125,0.0,0.0,0.0,1.7413074234666799,-1.1432705738923497,12.076671768684754,-0.0016677479432685822,0.0012895877202803384,0.09053380057745003,0.4,0.12948517320321606,0.1663664233740613,0.4566029093715349,0.18106760115490006,-0.8025909774005413,0.6813375744968653,2.0777780562639236,0.2999686748554431,-16.494126617908478,13.757587969303131,36.57044768333435,0.0,0.0,0.0,0.0,0.0,0.0,0.0,0.0,0.0,0.0,0.0,0.0,0.0,0.0,0.0,0.0,False,0,0.46417737007141113,0.034926025390625
STABILIZE,0.41684484481811523,29.64004861915934,0.03227094014485677,0.0328829288482666,0.0,0.0,0.0,1.7405205643299533,-1.1446055557099697,12.08489958531368,-0.0016775990058531575,0.0012560577020284578,0.08926708893666424,0.4,0.12612790097080376,0.16736769804638,0.48480004027756557,0.17853417787332848,-0.16068210825324059,0.09441618458367884,1.7906175926327705,-0.18107263712612218,3.5477545112371445,13.656710088253021,34.51935648918152,0.0,0.0,0.0,0.0,0.0,0.0,0.0,0.0,0.0,0.0,0.0,0.0,0.0,0.0,0.0,0.0,False,1,0.49318408966064453,0.03492578125
STABILIZE,0.4502830505371094,29.904631530914898,0.032494338353474934,0.03262448310852051,0.0,0.0,0.0,1.7443941353629966,-1.1447645710515841,12.06376271115343,-0.0017589729563445501,0.001199554289554451,0.07935355364269281,0.4,0.12044219689134603,0.17556434932920165,0.5331357444747913,0.15870710728538562,0.02733905566856265,0.6573006510734558,1.405954360961914,-1.0277834942499526,7.185275107622147,14.698117971420288,2.242899313569069,0.0,0.0,0.0,0.0,0.0,0.0,0.0,0.0,0.0,0.0,0.0,0.0,0.0,0.0,0.0,0.0,False,0,0.5504670143127441,0.029937255859375
STABILIZE,0.48378443717956543,29.851847634231053,0.0325045903523763,0.03262472152709961,0.0,0.0,0.0,1.743811861736253,-1.1446525132605136,12.066298418882797,-0.0016340316162034873,0.0011979010751227276,0.08693399331162095,0.4,0.12028541334263891,0.16303889849455613,0.5540638483512788,0.1738679866232419,0.2124426420778036,-0.6433586589992046,1.926916465163231,1.3356925841806528,3.1379126012325287,-21.93138599395752,27.478960156440735,0.0,0.0,0.0,0.0,0.0,0.0,0.0,0.0,0.0,0.0,0.0,0.0,0.0,0.0,0.0,0.0,False,0,0.5789589881896973,0.034926025390625
STABILIZE,0.5173139572143555,29.826161777777777,0.03243687947591146,0.03256988525390625,0.0,0.0,0.0,1.7434864672553254,-1.1447762037175142,12.07380479678064,-0.0016146353400807935,0.0011024202383000375,0.08255238186907514,0.4,0.11070684230511951,0.16114518825997476,0.5816664230570755,0.16510476373815028,-0.48981402069330215,0.031275651417672634,1.974714733660221,-0.4356976070725547,-4.578932002186775,9.864941984415054,31.354370713233948,0.0,0.0,0.0,0.0,0.0,0.0,0.0,0.0,0.0,0.0,0.0,0.0,0.0,0.0,0.0,0.0,False,0,0.6077795028686523,0.03492578125
STABILIZE,0.5506327152252197,30.009043557895943,0.03235462506612142,0.03253579139709473,0.0,0.0,0.0,1.7456673253129693,-1.1460164166604005,12.062662196923412,-0.0016172611447394605,0.001024488082358699,0.08053375327776277,0.4,0.10290304054101394,0.16143747600605127,0.6077741438308016,0.16106750655552554,-0.3324180608615279,0.20379931665956974,1.9307805225253105,-0.06793490243437156,1.1569924652576447,15.352188050746918,31.852778792381287,0.0,0.0,0.0,0.0,0.0,0.0,0.0,0.0,0.0,0.0,0.0,0.0,0.0,0.0,0.0,0.0,False,0,0.6363694667816162,0.029827392578125
STABILIZE,0.5841672420501709,29.821496370345617,0.03250888188680013,0.03268313407897949,0.0,0.0,0.0,1.744494560488137,-1.1470954798275568,12.074141183597265,-0.0016056430544550194,0.0009395436900470871,0.0778017620994687,0.4,0.09439008153621367,0.1603085529404353,0.6263427006224435,0.1556035241989374,-0.3324180608615279,0.20379931665956974,1.9307805225253105,-0.06793490243437156,1.1569924652576447,15.352188050746918,31.852778792381287,0.0,0.0,0.0,0.0,0.0,0.0,0.0,0.0,0.0,0.0,0.0,0.0,0.0,0.0,0.0,0.0,False,0,0.6652095317840576,0.029827392578125
STABILIZE,0.6176273822784424,29.886306308874037,0.032460721333821614,0.03267312049865723,0.0,0.0,0.0,1.742691283825548,-1.1470398778188446,12.083230457835258,-0.0015586688421316323,0.0009028582895850232,0.07855805867839134,0.4,0.09071290613069094,0.1556187172751659,0.6438102359442834,0.1571161173567827,-0.01308708160649985,-0.031732002389617264,1.8906889483332634,0.3966145976310806,11.59917637705803,-14.086365699768066,23.08759093284607,0.0,0.0,0.0,0.0,0.0,0.0,0.0,0.0,0.0,0.0,0.0,0.0,0.0,0.0,0.0,0.0,False,1,0.6938636302947998,0.03492578125
STABILIZE,0.6511256694793701,29.852485035693697,0.032529385884602864,0.03266286849975586,0.0,0.0,0.0,1.7446112073125561,-1.1466619762586725,12.057191215398232,-0.0014578094679969507,0.0008347731193913395,0.06235500836604298,0.4,0.08379442081549293,0.1455989048674305,0.681505595002938,0.12471001673208595,-0.020742295600939542,-0.10356077691540122,1.6203735023736954,-0.8076682685284211,-6.084243953227997,9.462335705757141,27.48970091342926,0.0,0.0,0.0,0.0,0.0,0.0,0.0,0.0,0.0,0.0,0.0,0.0,0.0,0.0,0.0,0.0,False,0,0.7519071102142334,0.03492626953125
STABILIZE,0.6845760345458984,29.893548479060353,0.03247192700703939,0.0326077938079834,0.0,0.0,0.0,1.742153619871821,-1.1465300682303265,12.072515598574801,-0.0013164104633889308,0.0008070560098447499,0.06511595519526102,0.4,0.08100460913737906,0.13145726457660806,0.6995821434165455,0.13023191039052204,0.02256230218335986,-0.6538734771311283,1.6808293759822845,0.6245770436982957,11.61058098077774,-25.882545113563538,21.728357672691345,0.0,0.0,0.0,0.0,0.0,0.0,0.0,0.0,0.0,0.0,0.0,0.0,0.0,0.0,0.0,0.0,False,0,0.7803387641906738,0.06486279296875
STABILIZE,0.7180461883544922,29.877790599934464,0.03249409993489583,0.03264045715332031,0.0,0.0,0.0,1.744063298075074,-1.14388176910136,12.071435574912293,-0.0013500042928214387,0.0008447120530215656,0.06534086177234248,0.4,0.08477889785465027,0.13480741415112518,0.7508476504752135,0.13068172354468496,0.3439705353230238,0.26482350658625364,1.5301162376999855,0.10638686642955994,5.977470055222511,28.802350163459778,17.39356219768524,0.0,0.0,0.0,0.0,0.0,0.0,0.0,0.0,0.0,0.0,0.0,0.0,0.0,0.0,0.0,0.0,False,0,0.8085124492645264,0.03492626953125
STABILIZE,0.7516310214996338,29.77661349292555,0.03248551686604818,0.03273725509643555,0.0,0.0,0.0,1.7447740646355787,-1.1426857389446672,12.06635476794345,-0.0013482332371435746,0.0008717889148771938,0.06384640914198428,0.4,0.08747915009701038,0.13462869692869608,0.7607464577169204,0.12769281828396856,0.3439705353230238,0.26482350658625364,1.5301162376999855,0.10638686642955994,5.977470055222511,28.802350163459778,17.39356219768524,0.0,0.0,0.0,0.0,0.0,0.0,0.0,0.0,0.0,0.0,0.0,0.0,0.0,0.0,0.0,0.0,False,0,0.8374133110046387,0.03492626953125
STABILIZE,0.7858026027679443,29.265308400781468,0.03246167500813802,0.033348798751831055,0.0,0.0,0.0,1.742695125806956,-1.1432768704729908,12.079181863204735,-0.0014421106187360248,0.0007163207008746947,0.054515755662108624,0.4,0.0719063679410275,0.14407448796111583,0.7778361356346446,0.10903151132421725,-0.700867734849453,0.8067040704190731,1.985188014805317,-0.7858179597650213,-18.28063726425171,3.8613498210906982,30.50312101840973,0.0,0.0,0.0,0.0,0.0,0.0,0.0,0.0,0.0,0.0,0.0,0.0,0.0,0.0,0.0,0.0,False,0,0.8657937049865723,0.029936767578125
STABILIZE,0.8192956447601318,29.854822407288776,0.032501967748006184,0.03265810012817383,0.0,0.0,0.0,1.7433658717277924,-1.1421020779357485,12.069097942668856,-0.0013326757456899186,0.0006045186190077659,0.0587969037267729,0.4,0.060725252639605695,0.1331432226237161,0.7857097589397635,0.1175938074535458,-0.44777807779610157,-0.32204717863351107,1.8396494910120964,0.7792805082339671,7.2596728801727295,-16.06142967939377,27.048271894454956,0.0,0.0,0.0,0.0,0.0,0.0,0.0,0.0,0.0,0.0,0.0,0.0,0.0,0.0,0.0,0.0,False,1,0.8947587013244629,0.034926025390625
STABILIZE,0.8527989387512207,29.848236206687968,0.03249481519063314,0.03264331817626953,0.0,0.0,0.0,1.7448835611057103,-1.1416226840333783,12.059409319331193,-0.0012140594476266926,0.0005560468548640096,0.04894552292540906,0.4,0.05581202884247155,0.12131076583817692,0.808067738178353,0.09789104585081812,-0.48787822015583515,0.11939076939597726,1.6517259180545807,0.06391258802389517,-18.555261194705963,-0.38862177170813084,25.311553478240967,0.0,0.0,0.0,0.0,0.0,0.0,0.0,0.0,0.0,0.0,0.0,0.0,0.0,0.0,0.0,0.0,False,0,0.9519655704498291,0.02993701171875
STABILIZE,0.8862941265106201,29.85737268469084,0.03245356877644857,0.03258919715881348,0.0,0.0,0.0,1.7458201507956483,-1.144129897067302,12.080401905745227,-0.001163725288448702,0.000383453777439398,0.05101503138670352,0.4,0.038552548442069436,0.11630406043082704,0.8082248484315087,0.10203006277340704,-0.8246950805187225,-0.0022542153601534665,1.4828218147158623,0.5013637394441449,-8.233169466257095,-6.407861411571503,18.91626864671707,0.0,0.0,0.0,0.0,0.0,0.0,0.0,0.0,0.0,0.0,0.0,0.0,0.0,0.0,0.0,0.0,False,0,0.9805800914764404,0.034926025390625
STABILIZE,0.9196648597717285,29.963594799257038,0.03240779240926107,0.0325312614440918,0.0,0.0,0.0,1.7465953772664449,-1.1438609583687327,12.073236183532238,-0.0011191543877568917,0.00045386094052943027,0.04474504788881102,0.4,0.04556083898955078,0.11184441389853071,0.8272399102735697,0.08949009577762204,0.5753422155976295,0.0016439249520772137,2.244517207145691,-0.47477824195607515,38.71358036994934,7.383522391319275,25.978931784629822,0.0,0.0,0.0,0.0,0.0,0.0,0.0,0.0,0.0,0.0,0.0,0.0,0.0,0.0,0.0,0.0,False,0,1.0094921588897705,0.034926025390625
STABILIZE,0.9530119895935059,29.9867307252345,0.03247955640157064,0.03258681297302246,0.0,0.0,0.0,1.7434547709087083,-1.143728943618681,12.073331806180619,-0.001089416027173405,0.0004669443251534454,0.04056622963489285,0.4,0.046848650068566526,0.10887537286873426,0.8397924021598207,0.0811324592697857,0.23116283118724823,0.08441085228696465,1.9086496904492378,-0.23514292255602898,-25.889548659324646,-8.665619045495987,16.367554664611816,0.0,0.0,0.0,0.0,0.0,0.0,0.0,0.0,0.0,0.0,0.0,0.0,0.0,0.0,0.0,0.0,False,0,1.0382699966430664,0.034926025390625
STABILIZE,0.9866271018981934,29.749368740602037,0.032566102345784505,0.03271174430847168,0.0,0.0,0.0,1.7438027903912616,-1.1446524065388077,12.083736745607487,-0.00100765395347046,0.00027131384317109,0.04288977232227469,0.4,0.027282213303441907,0.10072466307550819,0.8473030373063373,0.08577954464454939,-0.9704578667879105,-0.21587524097412825,1.6588710248470306,0.5029654188045128,-21.737854182720184,0.9850149974226952,14.082294702529907,0.0,0.0,0.0,0.0,0.0,0.0,0.0,0.0,0.0,0.0,0.0,0.0,0.0,0.0,0.0,0.0,False,0,1.0676279067993164,0.02993701171875
STABILIZE,1.0201938152313232,29.793746181931837,0.0323214848836263,0.03247499465942383,0.0,0.0,0.0,1.7449221943632034,-1.1441910486047147,12.074860914781054,-0.0010543895633990908,0.00019441950605535488,0.04023400477020457,0.4,0.019590013196578812,0.10541154747158965,0.8496040844233174,0.08046800954040914,-0.3168083727359772,0.5301686003804207,1.7223283648490906,-0.07654462268743707,17.349210381507874,15.164397656917572,23.64000827074051,0.0,0.0,0.0,0.0,0.0,0.0,0.0,0.0,0.0,0.0,0.0,0.0,0.0,0.0,0.0,0.0,False,0,1.0953807830810547,0.03492578125
STABILIZE,1.0534920692443848,30.02966951142677,0.03228596051534017,0.032419443130493164,0.0,0.0,0.0,1.7415698521411964,-1.1383239161076737,12.06750053217672,-0.0011048436981853013,0.00011495146460004624,0.037668852692420436,0.4,0.011640411385549044,0.110469159447829,0.8574674098582957,0.07533770538484087,-0.3168083727359772,0.5301686003804207,1.7223283648490906,-0.07654462268743707,17.349210381507874,15.164397656917572,23.64000827074051,0.0,0.0,0.0,0.0,0.0,0.0,0.0,0.0,0.0,0.0,0.0,0.0,0.0,0.0,0.0,0.0,False,0,1.1309621334075928,0.03492578125
STABILIZE,1.0868935585021973,29.93857113285795,0.032459529240926106,0.0325772762298584,0.0,0.0,0.0,1.7420242731644138,-1.1387163318198321,12.06631122548749,-0.0009645542648991188,3.8441932894838995e-05,0.04033140188021056,0.4,0.003979982423728004,0.09644991892844972,0.8781329184267107,0.08066280376042112,-0.9793280623853207,-0.2608524402603507,1.850428618490696,0.9455275260754891,-46.346890926361084,8.852306753396988,20.677052438259125,0.0,0.0,0.0,0.0,0.0,0.0,0.0,0.0,0.0,0.0,0.0,0.0,0.0,0.0,0.0,0.0,False,0,1.1905841827392578,0.02993603515625
STABILIZE,1.1203408241271973,29.8978102189781,0.0325045903523763,0.03263449668884277,0.0,0.0,0.0,1.7431943699466017,-1.1395276302271826,12.057359408806542,-0.0008779522841607196,-0.00014417109404391988,0.0466876885842947,0.4,-0.01427400975610573,0.08781860749118636,0.8809401490440055,0.0933753771685894,-0.9793280623853207,-0.2608524402603507,1.850428618490696,0.9455275260754891,-46.346890926361084,8.852306753396988,20.677052438259125,0.0,0.0,0.0,0.0,0.0,0.0,0.0,0.0,0.0,0.0,0.0,0.0,0.0,0.0,0.0,0.0,False,0,1.2193145751953125,0.02993603515625
STABILIZE,1.1539487838745117,29.76034512118976,0.03245285352071126,0.03260183334350586,0.0,0.0,0.0,1.736251802820401,-1.1435256387691672,12.079424334920269,-0.0007481225782189575,-6.662716405134878e-05,0.05084277198593492,0.4,-0.0065299331111325545,0.07482396463613239,0.8870491792345365,0.10168554397186984,0.5279673729091883,-0.5332003347575665,2.0441843196749687,0.6967099244708599,32.488662004470825,-26.067134737968445,20.483577251434326,0.0,0.0,0.0,0.0,0.0,0.0,0.0,0.0,0.0,0.0,0.0,0.0,0.0,0.0,0.0,0.0,False,0,1.2480177879333496,0.06985302734375
STABILIZE,1.1873064041137695,29.972802046635273,0.032340319951375325,0.03246927261352539,0.0,0.0,0.0,1.7370998134945403,-1.1425197866921772,12.070080636135692,-0.0006778693719411733,6.155226517003884e-05,0.05012927582290611,0.4,0.00627383345118249,0.06777606274682574,0.9238702039619501,0.10025855164581222,0.9896655566990376,-0.13925062958151102,1.326946448534727,-0.09966406597598977,4.8226431012153625,24.28133636713028,10.041888803243637,0.0,0.0,0.0,0.0,0.0,0.0,0.0,0.0,0.0,0.0,0.0,0.0,0.0,0.0,0.0,0.0,False,0,1.2772748470306396,0.02993603515625
STABILIZE,1.2208971977233887,29.770273051835133,0.03244951566060384,0.03276705741882324,0.0,0.0,0.0,1.7346197077738854,-1.1448972261318704,12.075794943150054,-0.0007930638069028604,-0.00017635383745758852,0.04379206798099763,0.4,-0.017514132953301675,0.07933324602552716,0.9175179803490155,0.08758413596199525,-1.2648416683077812,0.8391153998672962,1.5876483172178268,-0.46897775716429474,-39.108192920684814,5.102342739701271,24.821554124355316,0.0,0.0,0.0,0.0,0.0,0.0,0.0,0.0,0.0,0.0,0.0,0.0,0.0,0.0,0.0,0.0,False,0,1.3054070472717285,0.034926025390625
STABILIZE,1.2543909549713135,29.855884969925615,0.03249338467915853,0.032625675201416016,0.0,0.0,0.0,1.7326346840463505,-1.1448332998301074,12.093817251048778,-0.0009097253265226896,-0.0004167268287207737,0.037682310022019466,0.4,-0.04155298515647042,0.09102726854910578,0.9168362261477297,0.07536462004403893,-1.2648416683077812,0.8391153998672962,1.5876483172178268,-0.46897775716429474,-39.108192920684814,5.102342739701271,24.821554124355316,0.0,0.0,0.0,0.0,0.0,0.0,0.0,0.0,0.0,0.0,0.0,0.0,0.0,0.0,0.0,0.0,False,0,1.335097312927246,0.034926025390625
STABILIZE,1.2877724170684814,29.95674656458018,0.032454522450764973,0.03256487846374512,0.0,0.0,0.0,1.7338455485201467,-1.1434243598703806,12.08028066988746,-0.0007897406555553303,-0.0002965166548630237,0.028794185314024976,0.4,-0.02957227316132395,0.07900382874616421,0.9154774627543989,0.05758837062804995,1.5733599662780762,0.5460070446133614,1.5037181787192822,-1.4626282348107549,43.925902247428894,34.77407097816467,27.436989545822144,0.0,0.0,0.0,0.0,0.0,0.0,0.0,0.0,0.0,0.0,0.0,0.0,0.0,0.0,0.0,0.0,False,0,1.391477108001709,0.02993701171875
STABILIZE,1.3212478160858154,29.87289626437805,0.03242042859395345,0.03254866600036621,0.0,0.0,0.0,1.7344134147166097,-1.1409204552093364,12.068635197352588,-0.0008417231628381662,-0.00029183690820315587,0.027896360293344215,0.4,-0.029101712800591473,0.0842006944778398,0.9123961744543985,0.05579272058668843,0.012893414532300085,0.485013285651803,1.7569834366440773,0.08414134050922509,-13.55094462633133,-6.532244384288788,28.40748131275177,0.0,0.0,0.0,0.0,0.0,0.0,0.0,0.0,0.0,0.0,0.0,0.0,0.0,0.0,0.0,0.0,False,0,1.420175552368164,0.034926025390625
STABILIZE,1.3547680377960205,29.83337482484654,0.03246000607808431,0.03258872032165527,0.0,0.0,0.0,1.7383092905861617,-1.143602905284153,12.084071424876816,-0.0007146063715722867,-0.00044911025770251765,0.03748326553062368,0.4,-0.04481748734229972,0.07151933813295613,0.9145780915150454,0.07496653106124736,-0.8675398305058479,-0.5325002130120993,1.7538750544190407,1.2570074175599308,-4.4724613428115845,-2.9601112008094788,15.993757545948029,0.0,0.0,0.0,0.0,0.0,0.0,0.0,0.0,0.0,0.0,0.0,0.0,0.0,0.0,0.0,0.0,False,0,1.4485981464385986,0.03492578125
STABILIZE,1.3881628513336182,29.944128334915863,0.032399686177571614,0.0325314998626709,0.0,0.0,0.0,1.7382778076829561,-1.1485400648370145,12.056009592671819,-0.000587385012789935,-0.0006053756007212329,0.04718190417613512,0.4,-0.06044073810041743,0.05883812445910393,0.9165805685570922,0.09436380835227023,-0.8675398305058479,-0.5325002130120993,1.7538750544190407,1.2570074175599308,-4.4724613428115845,-2.9601112008094788,15.993757545948029,0.0,0.0,0.0,0.0,0.0,0.0,0.0,0.0,0.0,0.0,0.0,0.0,0.0,0.0,0.0,0.0,False,0,1.4779636859893799,0.03492578125
STABILIZE,1.4216279983520508,29.883112349223765,0.032459290822347005,0.03256821632385254,0.0,0.0,0.0,1.7330654128508842,-1.1519281588304582,12.077197693250845,-0.0003677882513654535,-0.0003817906350055293,0.04825745026520928,0.4,-0.03811705532876086,0.03684308566431449,0.9197412937761689,0.09651490053041856,1.2498047202825546,-1.0573644191026688,1.828472688794136,0.2846709454248922,8.222560584545135,-36.61724328994751,16.758108139038086,0.0,0.0,0.0,0.0,0.0,0.0,0.0,0.0,0.0,0.0,0.0,0.0,0.0,0.0,0.0,0.0,False,0,1.5068275928497314,0.06486328125
STABILIZE,1.4550788402557373,29.893335423957122,0.03240540822347005,0.03252911567687988,0.0,0.0,0.0,1.7338235638487558,-1.1585973049464466,12.093515868951652,-0.0003346769984766137,-0.0005977456161871213,0.05452793558818732,0.4,-0.05971075149435568,0.033581413099833465,0.9409798894018786,0.10905587117637464,-1.0017797350883484,0.10567002464085817,1.2730376794934273,0.6476383236571975,-66.84377789497375,56.84211254119873,6.995819509029388,0.0,0.0,0.0,0.0,0.0,0.0,0.0,0.0,0.0,0.0,0.0,0.0,0.0,0.0,0.0,0.0,False,0,1.5348656177520752,0.03492578125
STABILIZE,1.4884638786315918,29.954821062554903,0.0324127991994222,0.032533884048461914,0.0,0.0,0.0,1.7385481337637005,-1.1891547175194375,12.148352042703099,-0.0007500149849529947,-0.0005075594239935196,0.036589826619443426,0.4,-0.05066010717016265,0.07506626410641719,0.9300749593201362,0.07317965323888685,0.175251008477062,1.2374126352369785,1.6787698492407799,-0.7485561829131342,49.4820237159729,-15.124215185642242,13.083629310131073,0.0,0.0,0.0,0.0,0.0,0.0,0.0,0.0,0.0,0.0,0.0,0.0,0.0,0.0,0.0,0.0,False,0,1.5920343399047852,0.029937255859375
STABILIZE,1.5219066143035889,29.901007321437483,0.032464059193929036,0.032592058181762695,0.0,0.0,0.0,1.721543310607896,-1.163964659695313,12.183171493318177,-0.000571155520621549,0.00022886731937387327,0.02927251761501829,0.4,0.022945080857580187,0.057092136503879926,0.924500047689897,0.05854503523003658,3.924490138888359,-0.8230183273553848,1.7518848180770874,-0.6037218081196022,83.03743004798889,-24.902285635471344,13.604389131069183,0.0,0.0,0.0,0.0,0.0,0.0,0.0,0.0,0.0,0.0,0.0,0.0,0.0,0.0,0.0,0.0,False,0,1.6211776733398438,0.03492578125
STABILIZE,1.5571331977844238,28.387075815206355,0.0324740727742513,0.034392595291137695,0.0,0.0,0.0,1.7542458294670937,-1.1973578814343286,12.106675935934973,-0.0008027978028619763,0.0005171509153104558,-0.0021169576587909723,0.4,0.05170915905427269,0.08028360159313055,0.9298306427584758,-0.004233915317581945,1.5096046961843967,1.3959367759525776,2.0621491596102715,-3.2455626730609004,-68.34436058998108,67.31646656990051,45.24618089199066,0.0,0.0,0.0,0.0,0.0,0.0,0.0,0.0,0.0,0.0,0.0,0.0,0.0,0.0,0.0,0.0,True,0,1.6505231857299805,0.034925048828125
STABILIZE,1.5905978679656982,29.882260741943988,0.03248313268025716,0.032610177993774414,0.0,0.0,0.0,1.7611591548459102,-1.2309299687522337,12.093977760494274,-0.0008398741710615184,0.0005534458835721376,-0.0055828798127391865,0.4,0.0553282198999342,0.08399820102416891,0.9194879008669545,-0.011165759625478373,0.1470439019612968,0.3290507011115551,1.2011365965008736,-0.2011975227113003,-47.57543206214905,-59.844231605529785,-29.322698712348938,0.0,0.0,0.0,0.0,0.0,0.0,0.0,0.0,0.0,0.0,0.0,0.0,0.0,0.0,0.0,0.0,True,0,1.6793067455291748,0.029936767578125
STABILIZE,1.6242566108703613,29.71017326136541,0.03246739705403646,0.03285098075866699,0.0,0.0,0.0,1.749849962405956,-1.1907255543068347,12.11669411590009,-0.00013202531426286397,-0.0002520840949351401,0.012818816414019527,0.4,-0.025202499350774836,0.01321380988696906,0.9558419833441525,0.025637632828039054,-4.468386992812157,-3.7853244692087173,4.045740514993668,2.154995973238485,-235.74655055999756,-90.9668505191803,139.48702812194824,0.0,0.0,0.0,0.0,0.0,0.0,0.0,0.0,0.0,0.0,0.0,0.0,0.0,0.0,0.0,0.0,True,0,1.7123651504516602,0.034926025390625
STABILIZE,1.6578192710876465,29.798402910000284,0.032518895467122395,0.032655954360961914,0.0,0.0,0.0,1.7460518436188999,-1.161295122946896,12.125331743879217,-0.000649492838619964,-0.0009895311539753137,0.029137033998679486,0.4,-0.09888700597738509,0.0650498929275979,0.8741961177983099,0.05827406799735897,-4.132772982120514,3.034231998026371,-2.830922231078148,1.9648294194801668,103.56814861297607,98.53995442390442,-192.2302007675171,0.0,0.0,0.0,0.0,0.0,0.0,0.0,0.0,0.0,0.0,0.0,0.0,0.0,0.0,0.0,0.0,True,0,1.7406337261199951,0.03492626953125
STABILIZE,1.6912143230438232,29.940280821477774,0.03239253362019857,0.03250885009765625,0.0,0.0,0.0,1.753706671409486,-1.1733497665017338,12.098160397587261,-0.0008918779687121193,-0.0007195847073134108,-0.19330414857690373,0.4,-0.07255863051971068,0.08870022411379772,0.9701979439266688,-0.38660829715380746,1.4660721644759178,1.4418719336390495,7.128012180328369,-24.787699064081735,-309.6757411956787,150.56874752044678,122.74801731109619,0.0,0.0,0.0,0.0,0.0,0.0,0.0,0.0,0.0,0.0,0.0,0.0,0.0,0.0,0.0,0.0,True,0,1.7694053649902344,0.029935791015625
STABILIZE,1.724646806716919,29.912949214431915,0.03245428403218587,0.03257298469543457,0.0,0.0,0.0,1.7430636358570193,-1.1418497878232812,12.155622779074578,-0.0007495669112666287,-0.003939730752937184,-0.08680441911116615,0.4,-0.39419838858908307,0.07376259238135631,1.0926593412828018,-0.1736088382223323,-3.8998760282993317,0.4129673819988966,4.937479272484779,2.6285590284916798,-133.06174278259277,42.34584867954254,120.66562175750732,0.0,0.0,0.0,0.0,0.0,0.0,0.0,0.0,0.0,0.0,0.0,0.0,0.0,0.0,0.0,0.0,True,0,1.8281505107879639,0.03492626953125
STABILIZE,1.758091926574707,29.898449584773854,0.032453330357869466,0.032576560974121094,0.0,0.0,0.0,1.75068495303199,-1.1638841915291538,12.12824225823929,-0.0009131737226306394,-0.002758175660974093,-0.07561842722413015,0.4,-0.27605764456035886,0.09058901216326584,1.0780447365063004,-0.1512368544482603,6.697000563144684,1.079203374683857,0.8738962933421135,1.3092520681298874,130.7944416999817,22.044411301612854,-78.55528593063354,0.0,0.0,0.0,0.0,0.0,0.0,0.0,0.0,0.0,0.0,0.0,0.0,0.0,0.0,0.0,0.0,True,0,1.8565845489501953,0.03492578125
STABILIZE,1.7919445037841797,29.53839219690834,0.032422812779744466,0.03304576873779297,0.0,0.0,0.0,1.7454285888571364,-1.138616760468338,12.116843526288184,-0.0010777848031567475,-0.0015587514320982477,-0.06403224476358876,0.4,-0.15611565438911618,0.10742980752332054,1.062659640850207,-0.12806448952717753,6.697000563144684,1.079203374683857,0.8738962933421135,1.3092520681298874,130.7944416999817,22.044411301612854,-78.55528593063354,0.0,0.0,0.0,0.0,0.0,0.0,0.0,0.0,0.0,0.0,0.0,0.0,0.0,0.0,0.0,0.0,True,0,1.8863766193389893,0.03492578125
STABILIZE,1.8255209922790527,29.785071616756262,0.03254512151082357,0.03269505500793457,0.0,0.0,0.0,1.7440827214255263,-1.149051048364296,12.159722600123878,-0.0007016867036192194,-0.0014868580672457695,-0.015416339598143529,0.4,-0.1487235451848291,0.07008864764963303,1.0837997357422169,-0.030832679196287058,0.20339125767350197,-2.0121142268180847,2.9956843703985214,5.502723548687379,-60.965508222579956,-84.79902148246765,125.34822225570679,0.0,0.0,0.0,0.0,0.0,0.0,0.0,0.0,0.0,0.0,0.0,0.0,0.0,0.0,0.0,0.0,True,0,1.9150547981262207,0.02993603515625
STABILIZE,1.8589708805084229,29.89418766259221,0.03241160710652669,0.03253459930419922,0.0,0.0,0.0,1.748099299544317,-1.158778838567981,12.140119957205942,-0.0008609072024656337,-0.0021485615122919855,-0.025116807294451385,0.4,-0.2149315479897453,0.08590231377750006,1.0760916324917789,-0.05023361458890277,-4.121451452374458,1.0729867033660412,1.7323331907391548,-1.2178946594429703,-99.79698657989502,64.13253545761108,-17.794062197208405,0.0,0.0,0.0,0.0,0.0,0.0,0.0,0.0,0.0,0.0,0.0,0.0,0.0,0.0,0.0,0.0,True,0,1.9438207149505615,0.034927001953125
STABILIZE,1.892293930053711,30.009902406914513,0.03242686589558919,0.032520294189453125,0.0,0.0,0.0,1.7495135755893327,-1.147526955684031,12.106596534985872,-0.0009361820002989553,-0.00173236170702567,-0.040343063879148766,0.4,-0.17336783564559813,0.09337414942095774,1.0656166581911937,-0.08068612775829753,2.199072204530239,0.5640943069010973,1.1879335157573223,-1.8495366800639979,123.8199234008789,-7.519746571779251,-15.127719938755035,0.0,0.0,0.0,0.0,0.0,0.0,0.0,0.0,0.0,0.0,0.0,0.0,0.0,0.0,0.0,0.0,True,0,1.9729797840118408,0.034926025390625
STABILIZE,1.9258160591125488,29.83019216818628,0.03251531918843587,0.03270435333251953,0.0,0.0,0.0,1.7436012998107464,-1.1513331853207265,12.151703104264637,-0.0006414976447726818,-0.0011693931011285917,-0.00966695936677641,0.4,-0.11696095018585144,0.06411030076191503,1.0410688086529478,-0.01933391873355282,3.0212145298719406,-1.561442669481039,0.40462142787873745,3.474252347511737,-4.594864323735237,-33.84987115859985,-8.886050432920456,0.0,0.0,0.0,0.0,0.0,0.0,0.0,0.0,0.0,0.0,0.0,0.0,0.0,0.0,0.0,0.0,True,0,2.0263397693634033,0.02993603515625
STABILIZE,1.9593088626861572,29.85758522747496,0.032503636678059895,0.032636404037475586,0.0,0.0,0.0,1.7448239036721787,-1.1496893508865749,12.146252613306967,-0.0007915021206320118,-0.0016057292495500913,-0.019170079164882683,0.4,-0.16062585331465687,0.07904274505098521,1.0320183272902768,-0.03834015832976537,-2.852013148367405,1.0337863117456436,1.645374670624733,-1.207014594981963,-107.63207674026489,47.47171998023987,24.29092228412628,0.0,0.0,0.0,0.0,0.0,0.0,0.0,0.0,0.0,0.0,0.0,0.0,0.0,0.0,0.0,0.0,True,0,2.054861068725586,0.034927001953125
STABILIZE,1.9927101135253906,29.938998536707235,0.032465251286824544,0.03258180618286133,0.0,0.0,0.0,1.7502803710453725,-1.1519993422082144,12.108565337014129,-0.000844951509459834,-0.0016226335102401304,-0.010900969630671227,0.4,-0.16229549100104745,0.08443340109018184,1.0300654792128223,-0.021801939261342454,-0.3455237718299031,0.4531220067292452,1.7198333516716957,0.876271702408234,86.70225143432617,-20.313505828380585,23.548299074172974,0.0,0.0,0.0,0.0,0.0,0.0,0.0,0.0,0.0,0.0,0.0,0.0,0.0,0.0,0.0,0.0,True,0,2.083775043487549,0.034926025390625
STABILIZE,2.026231288909912,29.834011437676047,0.03249219258626302,0.03263044357299805,0.0,0.0,0.0,1.7471582275427362,-1.1523964536754272,12.137140287180523,-0.0005866732594063679,-0.001059397358263633,-0.002430898359325726,0.4,-0.10594471362337377,0.05865833628092328,1.0218552455014778,-0.004861796718651452,3.042134828865528,-1.3707841746509075,1.3680556789040565,0.894500997055322,111.10575199127197,-35.84467172622681,29.360753297805786,0.0,0.0,0.0,0.0,0.0,0.0,0.0,0.0,0.0,0.0,0.0,0.0,0.0,0.0,0.0,0.0,True,0,2.112001895904541,0.029935791015625
STABILIZE,2.0595791339874268,29.984372654289658,0.03242042859395345,0.03253817558288574,0.0,0.0,0.0,1.7474285536234806,-1.146623129557768,12.127398729876793,-0.000711043420476284,-0.0010651739382086048,-0.00923363908663466,0.4,-0.10654030626994165,0.07107000622148174,1.0216976458040339,-0.01846727817326932,-0.3238642821088433,0.8899199776351452,2.1551018580794334,-0.8795634267013571,-85.35999059677124,40.46641290187836,46.831732988357544,0.0,0.0,0.0,0.0,0.0,0.0,0.0,0.0,0.0,0.0,0.0,0.0,0.0,0.0,0.0,0.0,True,0,2.1407783031463623,0.034923583984375
STABILIZE,2.093111515045166,29.825101329730497,0.03252366383870443,0.03264737129211426,0.0,0.0,0.0,1.7501382177332716,-1.1524743605206476,12.121062021874314,-0.000838450615199812,-0.001073864174238273,-0.015974139928466212,0.4,-0.10743315295756557,0.08378516953500918,1.0271060310268294,-0.031948279856932424,-0.3238642821088433,0.8899199776351452,2.1551018580794334,-0.8795634267013571,-85.35999059677124,40.46641290187836,46.831732988357544,0.0,0.0,0.0,0.0,0.0,0.0,0.0,0.0,0.0,0.0,0.0,0.0,0.0,0.0,0.0,0.0,True,1,2.169398069381714,0.034923583984375
STABILIZE,2.1269888877868652,29.51677351705501,0.03241756757100423,0.03300309181213379,0.0,0.0,0.0,1.7497300072086577,-1.1512574129096218,12.132021060397598,-0.0009329940217829773,-0.00108262777856535,-0.020141349337882173,0.4,-0.10832834670560296,0.09322326327731652,1.026438619026229,-0.040282698675764346,2.6102790609002113,0.40289927273988724,1.7015110701322556,-0.46777708461340056,33.2566499710083,24.975569546222687,40.069580078125,0.0,0.0,0.0,0.0,0.0,0.0,0.0,0.0,0.0,0.0,0.0,0.0,0.0,0.0,0.0,0.0,True,0,2.2269439697265625,0.064862060546875
STABILIZE,2.16046142578125,29.874385675009616,0.03242686589558919,0.03257298469543457,0.0,0.0,0.0,1.7467583413111731,-1.1475662292717588,12.135436154982605,-0.0010182544539954791,-0.0005692716299545717,-0.024520486698753338,0.4,-0.05701429722453456,0.10177668264155641,1.0535950471794495,-0.049040973397506675,2.6102790609002113,0.40289927273988724,1.7015110701322556,-0.46777708461340056,33.2566499710083,24.975569546222687,40.069580078125,0.0,0.0,0.0,0.0,0.0,0.0,0.0,0.0,0.0,0.0,0.0,0.0,0.0,0.0,0.0,0.0,True,0,2.259225368499756,0.064862060546875
STABILIZE,2.1938834190368652,29.919564007818185,0.032453091939290364,0.032601356506347656,0.0,0.0,0.0,1.7474909858213628,-1.1492128384702607,12.135769980478289,-0.0010755615676984584,-0.0008737297424370189,-0.0236449530898978,0.4,-0.08746171751385559,0.10748400558602555,1.0761228232531765,-0.0472899061797956,-1.976042427122593,0.25092423893511295,1.6994701698422432,0.11723112575827745,-83.8258445262909,-10.797196626663208,39.05235528945923,0.0,0.0,0.0,0.0,0.0,0.0,0.0,0.0,0.0,0.0,0.0,0.0,0.0,0.0,0.0,0.0,True,0,2.291698932647705,0.03492578125
STABILIZE,2.227362871170044,29.869917888604817,0.03250292142232259,0.03262615203857422,0.0,0.0,0.0,1.7496279812579305,-1.148808363205349,12.127996371429168,-0.0009010008619475837,-0.0011244737188856838,-0.020569090951660665,0.4,-0.11251203446520103,0.09001932613306045,1.0623388109980108,-0.04113818190332133,-1.4926731586456299,-0.6908776238560677,1.5255015343427658,0.22175233668821898,9.754568338394165,-13.009980320930481,23.89124482870102,0.0,0.0,0.0,0.0,0.0,0.0,0.0,0.0,0.0,0.0,0.0,0.0,0.0,0.0,0.0,0.0,True,0,2.320624828338623,0.029937255859375
STABILIZE,2.2607815265655518,29.92233882416728,0.032442363103230794,0.03256845474243164,0.0,0.0,0.0,1.748155008274735,-1.1481319610341063,12.132473560430112,-0.0009359375020825661,-0.0006501370023985399,-0.025947857822120137,0.4,-0.0650984462028654,0.09353482559397736,1.0365344612888145,-0.051895715644240274,2.2036444395780563,0.39300285279750824,1.1111925356090069,-0.6542102462992191,36.219170689582825,2.676352672278881,18.356487154960632,0.0,0.0,0.0,0.0,0.0,0.0,0.0,0.0,0.0,0.0,0.0,0.0,0.0,0.0,0.0,0.0,True,0,2.349238634109497,0.039916015625
STABILIZE,2.294271469116211,29.860135976933755,0.03249505360921224,0.03265881538391113,0.0,0.0,0.0,1.745655265760216,-1.1479287629062984,12.144035363147651,-0.0008546149813061421,-0.0007201572701707829,-0.018504079131831587,0.4,-0.07207091278677796,0.08541496432480644,1.0311985540568978,-0.037008158263663174,-0.5803936161100864,-0.2528807148337364,1.6380894929170609,0.695146771646279,-66.35014414787292,-15.395213663578033,18.248780071735382,0.0,0.0,0.0,0.0,0.0,0.0,0.0,0.0,0.0,0.0,0.0,0.0,0.0,0.0,0.0,0.0,True,0,2.3800129890441895,0.03492578125
STABILIZE,2.327697277069092,29.91657631954351,0.03248742421468099,0.03259682655334473,0.0,0.0,0.0,1.748442089663287,-1.1501549776888993,12.125605805219664,-0.0007746405645107266,-0.0010439876976812911,-0.01442567508712689,0.4,-0.10443776363790112,0.07741147652168699,1.0213023981618576,-0.02885135017425378,-1.8779408186674118,-0.22704803850501776,1.636180467903614,0.3339560163305439,3.2050836831331253,14.44900929927826,24.69879537820816,0.0,0.0,0.0,0.0,0.0,0.0,0.0,0.0,0.0,0.0,0.0,0.0,0.0,0.0,0.0,0.0,True,0,2.406479597091675,0.024947265625
STABILIZE,2.3611538410186768,29.890778999579535,0.0324888547261556,0.03261709213256836,0.0,0.0,0.0,1.7481607712468472,-1.1512292383792955,12.127668522349008,-0.0007053249714617542,-0.0011482991354531398,-0.012860440831642353,0.4,-0.1148615650042377,0.07048094127689272,0.9815224449231531,-0.025720881663284706,0.7854652591049671,0.2530258148908615,1.3402590528130531,-0.3267849847126917,69.72073316574097,-3.022940270602703,15.963718295097351,0.0,0.0,0.0,0.0,0.0,0.0,0.0,0.0,0.0,0.0,0.0,0.0,0.0,0.0,0.0,0.0,True,0,2.4639570713043213,0.03492578125
STABILIZE,2.3953471183776855,29.245514827391453,0.03247717221577962,0.03327631950378418,0.0,0.0,0.0,1.7448112037891905,-1.1486859534088176,12.148028462491169,-0.0005786335056013237,-0.001043903486778958,-0.009582282202897559,0.4,-0.10440969724620118,0.05782843034437337,0.9725349493926619,-0.019164564405795118,0.39373203180730343,-0.5324221216142178,1.4897491782903671,0.28503542673056226,-22.985629737377167,-15.238817036151886,17.62843281030655,0.0,0.0,0.0,0.0,0.0,0.0,0.0,0.0,0.0,0.0,0.0,0.0,0.0,0.0,0.0,0.0,True,0,2.492546558380127,0.034926025390625
STABILIZE,2.4287426471710205,29.942845720567973,0.03240993817647298,0.03254389762878418,0.0,0.0,0.0,1.7481207506071792,-1.1503901923284416,12.130638800864318,-0.0005678321600928296,-0.0012641687872620704,-0.012394975964581589,0.4,-0.12644143507579717,0.05672851437510416,0.9645623883208483,-0.024789951929163178,-1.4230882748961449,0.10828992817550898,1.5304305590689182,-0.3915465705865047,-49.21482801437378,16.43712818622589,29.615572094917297,0.0,0.0,0.0,0.0,0.0,0.0,0.0,0.0,0.0,0.0,0.0,0.0,0.0,0.0,0.0,0.0,True,0,2.52138352394104,0.034927001953125
STABILIZE,2.4622280597686768,29.86438819466695,0.03246501286824544,0.03263711929321289,0.0,0.0,0.0,1.749325531943746,-1.1511975420326783,12.126268333569156,-0.0006088485934453722,-0.001307603443619486,-0.015300055880723164,0.4,-0.13079284265310173,0.060815015134261345,0.9572924735000649,-0.03060011176144633,-0.43374872766435146,0.39159469306468964,1.5538173727691174,-0.39703457422375704,29.75423038005829,-5.022237449884415,17.713239789009094,0.0,0.0,0.0,0.0,0.0,0.0,0.0,0.0,0.0,0.0,0.0,0.0,0.0,0.0,0.0,0.0,True,0,2.549910545349121,0.02993603515625
STABILIZE,2.5053281784057617,23.201150569753292,0.03247073491414388,0.04231429100036621,0.0,0.0,0.0,1.7439092986536315,-1.1500620230831637,12.149513174862001,-0.0005474998184849116,-0.0010776496078614428,-0.012418612943064265,0.4,-0.10778868430465928,0.05470326152543217,0.9347441568086065,-0.02483722588612853,1.268682163208723,-0.42502330616116524,1.4772395603358746,0.5839716758042757,39.321550726890564,-12.712748348712921,22.780437767505646,0.0,0.0,0.0,0.0,0.0,0.0,0.0,0.0,0.0,0.0,0.0,0.0,0.0,0.0,0.0,0.0,True,0,2.607150077819824,0.034926025390625
STABILIZE,2.539128303527832,29.586732786411122,0.032526524861653645,0.033034563064575195,0.0,0.0,0.0,1.746517683864636,-1.1507163338613098,12.13133548015966,-0.0005794076056061525,-0.001282309378402337,-0.011596932111271469,0.4,-0.12825438229150193,0.05788884673884684,0.9279722767503531,-0.023193864222542937,-1.3823652639985085,0.33296875189989805,1.4818068593740463,0.027198880492048588,-22.158809006214142,-3.0457602813839912,23.500436544418335,0.0,0.0,0.0,0.0,0.0,0.0,0.0,0.0,0.0,0.0,0.0,0.0,0.0,0.0,0.0,0.0,True,0,2.6359097957611084,0.03489501953125
STABILIZE,2.5726139545440674,29.863537654237483,0.032569201787312825,0.03268599510192871,0.0,0.0,0.0,1.7457430977240742,-1.1514332902807496,12.140587825164086,-0.0004862120213686871,-0.0011651115835424235,-0.0075773592936913894,0.4,-0.11652401457368225,0.048590383265764356,0.9225863898048579,-0.015154718587382779,0.4808929283171892,-0.3936376888304949,1.5523617155849934,0.3981844205622728,41.330936551094055,-10.720474272966385,23.168039321899414,0.0,0.0,0.0,0.0,0.0,0.0,0.0,0.0,0.0,0.0,0.0,0.0,0.0,0.0,0.0,0.0,True,0,2.667085886001587,0.034926025390625
STABILIZE,2.606167793273926,29.803061093978712,0.032521756490071614,0.03266310691833496,0.0,0.0,0.0,1.7450408689000323,-1.1516158911193417,12.149537934297742,-0.00048322166398878067,-0.0009687557972414552,-0.010095277603954275,0.4,-0.09689260203752481,0.04828802525231257,0.9172056391392958,-0.02019055520790855,0.9280494414269924,0.12419907143339515,1.5396433882415295,-0.355991940820724,0.911297369748354,10.966695100069046,33.009931445121765,0.0,0.0,0.0,0.0,0.0,0.0,0.0,0.0,0.0,0.0,0.0,0.0,0.0,0.0,0.0,0.0,True,0,2.693856954574585,0.03492578125
STABILIZE,2.6395950317382812,29.918496907790086,0.03242686589558919,0.03253817558288574,0.0,0.0,0.0,1.7454957168100729,-1.1500109033860944,12.13759193343939,-0.0005088019209601386,-0.0010956258021740319,-0.00929339861275619,0.4,-0.10957908002763352,0.050844647229769155,0.9129845895450708,-0.01858679722551238,-0.9437544271349907,0.28332830406725407,1.5952743589878082,0.03282793020370435,-36.51084303855896,-2.9865259304642677,28.391993045806885,0.0,0.0,0.0,0.0,0.0,0.0,0.0,0.0,0.0,0.0,0.0,0.0,0.0,0.0,0.0,0.0,True,0,2.7220234870910645,0.029937255859375
STABILIZE,2.672973394393921,29.956960524530217,0.03241089185078939,0.03253507614135742,0.0,0.0,0.0,1.7459002987966903,-1.1508598745555858,12.140888353487568,-0.0005341980541844676,-0.0012166594923907475,-0.008527849695819897,0.4,-0.12168184575503907,0.05338358576226128,0.9051128960564452,-0.017055699391639794,-0.9437544271349907,0.28332830406725407,1.5952743589878082,0.03282793020370435,-36.51084303855896,-2.9865259304642677,28.391993045806885,0.0,0.0,0.0,0.0,0.0,0.0,0.0,0.0,0.0,0.0,0.0,0.0,0.0,0.0,0.0,0.0,True,0,2.751244068145752,0.029937255859375
STABILIZE,2.70745849609375,28.99782912293801,0.0324893315633138,0.03338360786437988,0.0,0.0,0.0,1.745005437293713,-1.1507339429427637,12.146444712377374,-0.0004628769635920304,-0.001062758903509795,-0.0062064254903761665,0.4,-0.1062859158603599,0.046264671120193786,0.8987296866562071,-0.012412850980752333,0.5678436253219843,0.06425018073059618,1.257177721709013,-0.3207596372868297,8.14209133386612,2.3904720321297646,10.149651765823364,0.0,0.0,0.0,0.0,0.0,0.0,0.0,0.0,0.0,0.0,0.0,0.0,0.0,0.0,0.0,0.0,True,0,2.808420181274414,0.029935791015625
STABILIZE,2.7406976222991943,30.085889922602952,0.03222397168477376,0.032358407974243164,0.0,0.0,0.0,1.7445964797171583,-1.1488539333737178,12.143679339537163,-0.0004285992286709012,-0.0011088895813816688,-0.008134091153874475,0.4,-0.11090112302942068,0.042828436067107754,0.8862015894720076,-0.01626818230774895,-0.5091883707791567,-0.07866714149713516,1.2682524509727955,-0.2731860356963686,-34.87041890621185,-5.328866466879845,18.228532373905182,0.0,0.0,0.0,0.0,0.0,0.0,0.0,0.0,0.0,0.0,0.0,0.0,0.0,0.0,0.0,0.0,True,0,2.836965560913086,0.02993701171875
STABILIZE,2.7741076946258545,29.930239196209396,0.03243830998738607,0.03257608413696289,0.0,0.0,0.0,1.7443848505745938,-1.1490539298503522,12.14377154709096,-0.000395471231333638,-0.0011546545000225331,-0.010038746475018038,0.4,-0.115479300950727,0.039506659492795866,0.8743583938558332,-0.020077492950036076,-0.5091883707791567,-0.07866714149713516,1.2682524509727955,-0.2731860356963686,-34.87041890621185,-5.328866466879845,18.228532373905182,0.0,0.0,0.0,0.0,0.0,0.0,0.0,0.0,0.0,0.0,0.0,0.0,0.0,0.0,0.0,0.0,True,0,2.8663699626922607,0.02993701171875
STABILIZE,2.8096039295196533,28.172191213116516,0.032482417424519856,0.034689903259277344,0.0,0.0,0.0,1.7444865563602034,-1.1492457087556414,12.146437882188204,-0.0003870935071287434,-0.0012037496048254172,-0.007787421081533748,0.4,-0.12038547848590697,0.0386766274835981,0.8639620970634803,-0.015574842163067495,-0.5313941743224859,0.0650683359708637,1.3170278631150723,0.2254309538452262,7.372362911701202,4.781705886125565,18.74983310699463,0.0,0.0,0.0,0.0,0.0,0.0,0.0,0.0,0.0,0.0,0.0,0.0,0.0,0.0,0.0,0.0,True,0,2.8943464756011963,0.034926025390625
STABILIZE,2.843249797821045,29.722173799046182,0.03251508076985677,0.032655954360961914,0.0,0.0,0.0,1.7434353475582562,-1.1489365359739925,12.147897835123294,-0.0003889296779920893,-0.0010815157516254805,-0.007536742109076396,0.4,-0.10816180345673806,0.03886451372854868,0.8618311726794043,-0.015073484218152793,0.5410050041973591,0.12203359510749578,1.5641150996088982,-0.012966767293725418,24.656082689762115,-0.9994752705097198,20.18829882144928,0.0,0.0,0.0,0.0,0.0,0.0,0.0,0.0,0.0,0.0,0.0,0.0,0.0,0.0,0.0,0.0,True,0,2.9235379695892334,0.034926025390625
STABILIZE,2.8769216537475586,29.699023557818265,0.032322200139363606,0.03282475471496582,0.0,0.0,0.0,1.7426012107058684,-1.1494703579463115,12.144717528291006,-0.0003352070753893938,-0.001107047269270977,-0.006708500262063093,0.4,-0.11071257346379529,0.03349478280177534,0.84473297645666,-0.013417000524126185,-0.9932012297213078,-0.14621327864006162,1.3947860337793827,0.21999153526453086,-22.485530376434326,6.556161493062973,17.978695034980774,0.0,0.0,0.0,0.0,0.0,0.0,0.0,0.0,0.0,0.0,0.0,0.0,0.0,0.0,0.0,0.0,True,0,2.9807610511779785,0.034926025390625
STABILIZE,2.91062331199646,29.672130451699623,0.03243735631306966,0.0328373908996582,0.0,0.0,0.0,1.7432090975419994,-1.1488461426891956,12.145091481148064,-0.0003776911317416798,-0.0010948359724540922,-0.004482804007596732,0.4,-0.1094895059923751,0.03775198078649308,0.8426666636290877,-0.008965608015193464,-0.12313158949837089,0.3572228131815791,1.5277989208698273,0.22778382061216337,16.04721248149872,-0.809352844953537,21.456043422222137,0.0,0.0,0.0,0.0,0.0,0.0,0.0,0.0,0.0,0.0,0.0,0.0,0.0,0.0,0.0,0.0,True,0,3.00960111618042,0.034926025390625
STABILIZE,2.9442505836486816,29.73650291742586,0.03244593938191732,0.032656192779541016,0.0,0.0,0.0,1.742346892880991,-1.1488388856132026,12.149681368270313,-0.0003328439108298532,-0.0009691210614175261,-0.0029015980817121067,0.4,-0.09691547685021733,0.03327457518121641,0.835120538375994,-0.0058031961634242134,0.5545620806515217,-0.1743406057357788,1.1925891041755676,0.14876569560961642,9.451794624328613,-4.851090908050537,21.368876099586487,0.0,0.0,0.0,0.0,0.0,0.0,0.0,0.0,0.0,0.0,0.0,0.0,0.0,0.0,0.0,0.0,True,0,3.038137435913086,0.02993701171875
STABILIZE,2.9776477813720703,29.9439145582272,0.03240397771199544,0.0325465202331543,0.0,0.0,0.0,1.7411707129615739,-1.1476278076959947,12.148078835136298,-0.00032171518745494,-0.0009927128508153322,-0.0037950969610867024,0.4,-0.09927554609619525,0.03215836761144641,0.8272657165948403,-0.007590193922173405,-0.3693668404594064,0.02692091220524162,1.375883724540472,-0.14162282518187724,-20.351670682430267,8.715520054101944,21.196039021015167,0.0,0.0,0.0,0.0,0.0,0.0,0.0,0.0,0.0,0.0,0.0,0.0,0.0,0.0,0.0,0.0,True,0,3.067835569381714,0.034926025390625
STABILIZE,3.012253761291504,28.89455011401291,0.032464059193929036,0.03379416465759277,0.0,0.0,0.0,1.7420013279976707,-1.1477861827073743,12.145075259448786,-0.0003367158651151371,-0.0010646555098532341,-0.004221356392751063,0.4,-0.10647051144332849,0.03365589811321202,0.8240034783024122,-0.008442712785502127,-0.6331016309559345,0.18065683543682098,1.4169245958328247,-0.08715852988433194,-6.661533564329147,-0.9764528833329678,20.82742303609848,0.0,0.0,0.0,0.0,0.0,0.0,0.0,0.0,0.0,0.0,0.0,0.0,0.0,0.0,0.0,0.0,True,0,3.095654249191284,0.03492578125
STABILIZE,3.0459065437316895,29.716277586878743,0.032517226537068684,0.03282928466796875,0.0,0.0,0.0,1.7410354965603487,-1.1472932351483698,12.153142566632217,-0.0003525657261948894,-0.0011379116943204637,-0.004676288170955894,0.4,-0.11379692296099019,0.035237997647375535,0.8208266771082219,-0.009352576341911788,-0.6331016309559345,0.18065683543682098,1.4169245958328247,-0.08715852988433194,-6.661533564329147,-0.9764528833329678,20.82742303609848,0.0,0.0,0.0,0.0,0.0,0.0,0.0,0.0,0.0,0.0,0.0,0.0,0.0,0.0,0.0,0.0,True,0,3.1241555213928223,0.03492578125
STABILIZE,3.079470157623291,29.796921065905103,0.032495768864949544,0.03262519836425781,0.0,0.0,0.0,1.7410139387757808,-1.145069368243296,12.150599174940034,-0.0003209554074877762,-0.0009669945007213218,-0.005169945645736467,0.4,-0.09670524062395289,0.03207808934572943,0.8148346899312634,-0.010339891291472935,0.03535082214511931,0.04931646981276572,1.3022572733461857,-0.03467516620391554,-6.796678155660629,4.752086848020554,16.949287056922913,0.0,0.0,0.0,0.0,0.0,0.0,0.0,0.0,0.0,0.0,0.0,0.0,0.0,0.0,0.0,0.0,True,0,3.1816492080688477,0.02993603515625
STABILIZE,3.1130597591400146,29.768160171470345,0.03235772450764974,0.03268837928771973,0.0,0.0,0.0,1.741859601572393,-1.1453386271069825,12.147353981310632,-0.00030642103278617446,-0.001032468767600947,-0.0047327266732214894,0.4,-0.10325193752853762,0.030625046133101658,0.8129059248875867,-0.009465453346442979,-0.6151798646897078,-0.0042545747419353575,1.6796087846159935,0.024794093615248747,-5.6819673627614975,-2.7826592326164246,25.330808758735657,0.0,0.0,0.0,0.0,0.0,0.0,0.0,0.0,0.0,0.0,0.0,0.0,0.0,0.0,0.0,0.0,True,0,3.210157632827759,0.034926025390625
STABILIZE,3.146531820297241,29.876513662136365,0.03243378003438314,0.0325617790222168,0.0,0.0,0.0,1.7428930945711807,-1.1464227061943104,12.154701557310272,-0.0002726597752940603,-0.001112714331033321,-0.002698795834453378,0.4,-0.11127400122133853,0.0272554950000351,0.8069601566111025,-0.005397591668906756,-0.6722555961459875,-0.12375802034512162,1.2058821506798267,0.21662510577736083,-4.081479087471962,-3.033410757780075,18.344897031784058,0.0,0.0,0.0,0.0,0.0,0.0,0.0,0.0,0.0,0.0,0.0,0.0,0.0,0.0,0.0,0.0,True,0,3.238781452178955,0.029937255859375
STABILIZE,3.179983139038086,29.895892285651154,0.03239038785298665,0.032520294189453125,0.0,0.0,0.0,1.7423577784949809,-1.1462874897930855,12.153516519489274,-0.0002712115793532953,-0.0010234692144119129,-0.0037236696088933804,0.4,-0.10235044580071431,0.02710785459304202,0.800206620360689,-0.007447339217786761,0.3141373861581087,0.06857473053969443,1.3592245057225227,-0.14806398705389015,1.5977131202816963,2.9627496376633644,18.831942975521088,0.0,0.0,0.0,0.0,0.0,0.0,0.0,0.0,0.0,0.0,0.0,0.0,0.0,0.0,0.0,0.0,True,0,3.2676796913146973,0.03492578125
STABILIZE,3.2138142585754395,29.55816772374912,0.03238800366719564,0.032889604568481445,0.0,0.0,0.0,1.7412783951627073,-1.1453781141381216,12.15010142490427,-0.00027032800054861396,-0.000939105406409021,-0.004750846603064954,0.4,-0.09391502235640042,0.027017225950667988,0.7972648199716335,-0.009501693206129909,0.3141373861581087,0.06857473053969443,1.3592245057225227,-0.14806398705389015,1.5977131202816963,2.9627496376633644,18.831942975521088,0.0,0.0,0.0,0.0,0.0,0.0,0.0,0.0,0.0,0.0,0.0,0.0,0.0,0.0,0.0,0.0,True,0,3.2962419986724854,0.03492578125
STABILIZE,3.247239589691162,29.915082699151966,0.03238943417867025,0.032521963119506836,0.0,0.0,0.0,1.7413109452829707,-1.1454934803020715,12.152801910947362,-0.0002805527271088281,-0.0009716669638497841,-0.005767401184431208,0.4,-0.09717234251121913,0.02803571051596336,0.7945500931170445,-0.011534802368862417,-0.39169504307210445,0.13203079579398036,1.371046807616949,-0.14371282304726146,-9.963715076446533,-1.01295979693532,18.342027068138123,0.0,0.0,0.0,0.0,0.0,0.0,0.0,0.0,0.0,0.0,0.0,0.0,0.0,0.0,0.0,0.0,True,0,3.3248445987701416,0.034927001953125
STABILIZE,3.295539379119873,20.70422841121126,0.03241542180379232,0.0474543571472168,0.0,0.0,0.0,1.7419052784624676,-1.1450770522061122,12.15247235431991,-0.00025765729458031804,-0.0008775527893917296,-0.006468118760044481,0.4,-0.08776109408717939,0.025745915420077578,0.7857639923077863,-0.012936237520088961,0.299069588072598,-0.07424147916026413,1.3880507089197636,-0.28754733551954026,6.166117265820503,-1.2746923603117466,11.789020895957947,0.0,0.0,0.0,0.0,0.0,0.0,0.0,0.0,0.0,0.0,0.0,0.0,0.0,0.0,0.0,0.0,True,0,3.3821892738342285,0.03492626953125
STABILIZE,3.3289403915405273,29.939639665362762,0.03248456319173177,0.03259992599487305,0.0,0.0,0.0,1.741064738307733,-1.1445848516990482,12.152225613736142,-0.00023273319264550187,-0.0008992295557498842,-0.008668385282771857,0.4,-0.08992999358605365,0.02324610897641527,0.7822833320630207,-0.017336770565543714,-0.32269428484141827,-0.08399893413297832,1.2952313758432865,-0.2821982568627889,-11.679112166166306,-5.281283333897591,11.127210408449173,0.0,0.0,0.0,0.0,0.0,0.0,0.0,0.0,0.0,0.0,0.0,0.0,0.0,0.0,0.0,0.0,True,0,3.4111387729644775,0.034927001953125
STABILIZE,3.3633084297180176,29.09559088764949,0.03251150449117025,0.03353548049926758,0.0,0.0,0.0,1.7402399929654537,-1.1441541228945142,12.15236307129319,-0.00020783148405697835,-0.000921796090698512,-0.01089317746753057,0.4,-0.09218750506545824,0.02074809619531309,0.7788121743742689,-0.02178635493506114,-0.32269428484141827,-0.08399893413297832,1.2952313758432865,-0.2821982568627889,-11.679112166166306,-5.281283333897591,11.127210408449173,0.0,0.0,0.0,0.0,0.0,0.0,0.0,0.0,0.0,0.0,0.0,0.0,0.0,0.0,0.0,0.0,True,1,3.4399120807647705,0.034927001953125
STABILIZE,3.3967645168304443,29.8905659839512,0.032497437795003255,0.03263545036315918,0.0,0.0,0.0,1.7391190948896311,-1.1434740921852748,12.152690066599703,-0.0001879279182783548,-0.000935567137055412,-0.009832156910461654,0.4,-0.09356315801344794,0.018760681400619008,0.7741109764637674,-0.019664313820923308,-0.14439886435866356,-0.02928740286733955,1.1911732144653797,-0.15826390074373894,4.973188042640686,-3.1363029032945633,14.647987484931946,0.0,0.0,0.0,0.0,0.0,0.0,0.0,0.0,0.0,0.0,0.0,0.0,0.0,0.0,0.0,0.0,True,0,3.497112274169922,0.01496826171875
STABILIZE,3.4302475452423096,29.868641623642514,0.032492669423421223,0.03260636329650879,0.0,0.0,0.0,1.7373770764861607,-1.1431456027748796,12.152689212826058,-0.00016810055688716642,-0.0008626243394834617,-0.008544038229916975,0.4,-0.08626744359654437,0.016784327757392546,0.7584544602011489,-0.01708807645983395,0.1590408617630601,-0.06597471656277776,1.3790269382297993,0.09391494100511666,-0.5765607114881277,-0.9097754955291748,22.776834666728973,0.0,0.0,0.0,0.0,0.0,0.0,0.0,0.0,0.0,0.0,0.0,0.0,0.0,0.0,0.0,0.0,True,0,3.5260744094848633,0.0349267578125
STABILIZE,3.4636588096618652,29.92703583991552,0.03243211110432943,0.03255462646484375,0.0,0.0,0.0,1.7368821012147462,-1.1433654494887893,12.153218552486733,-0.00014423866182427836,-0.0008511412981868307,-0.008160878981225257,0.4,-0.08511823526903536,0.01439961927015315,0.7577357837949565,-0.016321757962450514,-0.1137695973739028,-0.08481026743538678,1.4262878336012363,0.022344456941594253,5.219836160540581,-0.9648515842854977,18.537142872810364,0.0,0.0,0.0,0.0,0.0,0.0,0.0,0.0,0.0,0.0,0.0,0.0,0.0,0.0,0.0,0.0,True,0,3.55837082862854,0.034926025390625
STABILIZE,3.4972035884857178,29.810898597695758,0.03247884114583333,0.03262162208557129,0.0,0.0,0.0,1.736525330552319,-1.1428842413174207,12.155049896957943,-0.00013536077673043223,-0.0007649394876268154,-0.008901816774450344,0.4,-0.07649815116251626,0.0135123079004002,0.7560246839115458,-0.017803633548900688,0.3325128694996238,0.0031520063203061,1.3599706813693047,-0.11325672939369694,6.932307779788971,-2.7335509657859802,22.63212949037552,0.0,0.0,0.0,0.0,0.0,0.0,0.0,0.0,0.0,0.0,0.0,0.0,0.0,0.0,0.0,0.0,True,0,3.5912277698516846,0.02993603515625
STABILIZE,3.530547857284546,29.98994687430733,0.032389195760091145,0.03252553939819336,0.0,0.0,0.0,1.7371127268209399,-1.1429210603059154,12.154961104498733,-0.00013536077673043223,-0.0007649394876268154,-0.008901816774450344,0.4,-0.07649815116251626,0.0135123079004002,0.7560246839115458,-0.017803633548900688,0.3325128694996238,0.0031520063203061,1.3599706813693047,-0.11325672939369694,6.932307779788971,-2.7335509657859802,22.63212949037552,0.0,0.0,0.0,0.0,0.0,0.0,0.0,0.0,0.0,0.0,0.0,0.0,0.0,0.0,0.0,0.0,True,0,3.5912277698516846,0.02993603515625
STABILIZE,3.5640485286712646,29.850997807953995,0.03250935872395833,0.032636165618896484,0.0,0.0,0.0,1.738022422641021,-1.1430889335491097,12.154535071449253,-0.0001144147199453254,-0.000669188294284757,-0.0095850270985625,0.4,-0.06692265377696593,0.011419081614886677,0.7448724721688822,-0.019170054197125,-0.1363371848128736,-0.033500403515063226,1.2452221475541592,-0.03314255579750798,-5.20416721701622,0.8952195756137371,15.926140546798706,0.0,0.0,0.0,0.0,0.0,0.0,0.0,0.0,0.0,0.0,0.0,0.0,0.0,0.0,0.0,0.0,True,0,3.6525511741638184,0.034927001953125
STABILIZE,3.5974783897399902,29.91145595618439,0.03242305119832357,0.032562971115112305,0.0,0.0,0.0,1.737980907897472,-1.1427701558139405,12.157775142436778,-0.00012083578534588574,-0.0006933684270749441,-0.0070157780246590425,0.4,-0.0693397998585916,0.01206659779788197,0.7456044309878567,-0.014031556049318085,-0.3215915523469448,0.08758260519243777,1.4550121501088142,0.284618038139251,-4.504396393895149,1.0604625567793846,19.994497299194336,0.0,0.0,0.0,0.0,0.0,0.0,0.0,0.0,0.0,0.0,0.0,0.0,0.0,0.0,0.0,0.0,True,0,3.6780107021331787,0.02993701171875
STABILIZE,3.631239652633667,29.622673757512835,0.03247645696004232,0.03279232978820801,0.0,0.0,0.0,1.736864705576704,-1.1417876757905163,12.156690849906038,-0.00012826274604551034,-0.0007172641823927757,-0.004405039686073309,0.4,-0.07172838962206746,0.012815245447981339,0.7431350086630566,-0.008810079372146618,-0.3215915523469448,0.08758260519243777,1.4550121501088142,0.284618038139251,-4.504396393895149,1.0604625567793846,19.994497299194336,0.0,0.0,0.0,0.0,0.0,0.0,0.0,0.0,0.0,0.0,0.0,0.0,0.0,0.0,0.0,0.0,True,1,3.7069332599639893,0.02993701171875
STABILIZE,3.6652278900146484,29.420498863668247,0.03231695493062337,0.033051490783691406,0.0,0.0,0.0,1.7366104944735326,-1.1419882058756798,12.157454977319434,-0.00013319972856467454,-0.0006968910243928116,-0.003571612782378927,0.4,-0.06969076253606003,0.013311284417070563,0.7420477025441605,-0.007143225564757854,-0.29182140715420246,0.10990162845700979,1.2538013979792595,0.016197063240011297,-12.518127262592316,0.9388619102537632,15.317302942276001,0.0,0.0,0.0,0.0,0.0,0.0,0.0,0.0,0.0,0.0,0.0,0.0,0.0,0.0,0.0,0.0,True,0,3.764070749282837,0.034926025390625
