Mode,Time,Freq,North-Vision,East-Vision,Down-Vision,Yaw-Vision,North-Desired,East-Desired,Down-Desired,Roll-UAV,Pitch-UAV,Yaw-UAV,Roll-Control,Pitch-Control,Yaw-Control,Thrust-Control,northVraw,eastVraw,downVraw,yawVraw,zGyro
GUIDED_NOGPS,0.00507664680480957,198.2372625011816,331.35190965120563,96.86283156581402,38.99935597798274,-0.0015310397666635413,330.9883021777183,75.56246923838512,12.072712441842283,-2.6037541293037205,3.258319118552957,92.4727085689412,10.0,-1.853861489063384,0.0,0.5,331.35190965120563,96.86283156581402,38.99935597798274,-3.829130456425517,-6.41712730546522
GUIDED_NOGPS,0.020727872848510742,63.90833460307786,334.4633177937279,99.37995681312,40.73399254799021,-0.008022635795401942,330.98791017298043,75.5622431048644,12.072726559314138,-2.632886380217706,3.1888731701668527,92.45492958653166,3.480014879654926,-4.0773520709719335,0.0,0.5,337.5747259362502,101.89708206042597,42.468629117997686,-10.158017736265151,-6.302535746439056
GUIDED_NOGPS,0.048395395278930664,36.155922969501574,334.7697936190547,102.07411576793726,42.346157027735195,-0.09306740730300699,330.9851977740151,75.56067841885826,12.072824814462095,-2.379828511798968,2.8193326153124825,92.25486651555282,2.6217998919725725,-0.41314022254023397,0.0,0.5,335.3827452697083,107.46243367757177,45.570485987225176,-8.152735056647117,-5.271211715203574
GUIDED_NOGPS,0.08634138107299805,26.36136460768786,336.20774342808636,104.54974007248025,43.647843039126265,-0.21200832657755248,330.9779310027523,75.5564864782737,12.073089790428055,-2.1201773763970526,2.440453911202236,92.11449246773071,2.213624690318687,-1.0263076689121315,0.0,0.5,340.5215928551814,111.9766129861092,47.552901073299466,-14.610454587663952,-4.010704565915763
GUIDED_NOGPS,0.12282037734985352,27.421637595125397,336.04763416301853,106.27606084400679,44.47667803657088,-0.3856708023908089,330.96396898583714,75.54843228979946,12.0736023848865,-2.1583397777240294,1.9263267893551588,107.90108820581368,1.9980651115481445,-0.1756861104581235,0.0,0.5,335.40719710274726,113.181343930113,47.79201802634936,-2.793310409540979,-3.552338329811104
GUIDED_NOGPS,0.1597306728363037,27.09971377436633,334.1613548416018,109.31533200319109,45.897385159202926,-0.5151058542351841,330.9412626704263,75.53533382809542,12.074441821471405,-1.564312035749085,1.1611819979387676,107.82627031364535,2.6821656770428124,0.8442051084589245,0.0,0.5,324.72995823451816,112.05918736173543,46.10289159114294,2.6616732295973833,-3.151267873219528
GUIDED_NOGPS,0.20313000679016113,23.04955239628728,334.40858453836665,112.71784813567572,46.64276641021108,-0.5846936571921236,330.90785353998524,75.51606129498168,12.07568566120313,0.40148214795134607,-0.6181338807942993,107.80659253864656,2.780230586327697,-0.30840959014846514,0.0,0.5,335.89196271895577,118.90966272284918,46.19553537303849,-5.3547700431964245,0.11459155902616465
GUIDED_NOGPS,0.244903564453125,23.941321186590635,334.0771307030726,115.20074203611914,46.03818439892343,-0.5738672088605807,330.86187233008553,75.48953637862788,12.077409813915315,2.0357344670277153,-1.6377565262857032,107.95380360582783,2.5579595142798035,-0.02845713543438433,0.0,0.5,331.7569538560144,119.87690317978883,42.54757593078688,-1.5971826548809958,3.380450991271857
GUIDED_NOGPS,0.2963905334472656,19.42841790768233,335.25628833633823,118.35889387941654,43.30163488581374,-0.4744192416034829,330.8015377442015,75.45473151274231,12.079688549681782,3.189631321164724,-2.102293593272432,108.17803188609018,2.7333203527059204,-0.7080276867442539,0.0,0.5,340.78517071733023,127.76737220259619,33.87015350775106,-4.338274986937222,5.328507494716656
GUIDED_NOGPS,0.33588576316833496,25.323793825885875,336.4414126700932,122.09583356552382,39.756689331901384,-0.2987859618136819,330.72515516950745,75.41066913576121,12.082594510243432,3.807424492913316,-2.3393577199759386,108.41456133704773,3.4229319038577466,-0.9267616471387736,0.0,0.5,347.05572060629004,131.8660423606495,30.067290256787587,-5.956701509663375,6.245239966925974
GUIDED_NOGPS,0.37088561058044434,28.58362523681664,337.9041687786027,126.3016959552704,36.06107828371843,-0.09034404097622109,330.6311153926747,75.35642095003799,12.08619872043514,4.214827347658005,-2.5615787783959494,108.65374090140322,4.022108529989809,-1.2599458393797418,0.0,0.5,347.0847941377841,133.0884993104683,27.624836350228172,-4.9029122685968645,6.990085100596044
STABILIZE,0.41855812072753906,20.997872329773866,339.1343544343863,129.738419932251,31.69030708269495,0.1344356897903638,330.51789331566863,75.29110718103234,12.090570599612658,4.494262766321097,-2.726617066197791,108.97633073590293,3.398419454598166,-1.0034571140062176,0.0,0.5,350.3630781014506,136.093282607752,24.341679367921067,-8.27391319904227,7.62033867523995
STABILIZE,0.4696495532989502,19.56362381234462,342.03555397652497,133.67994926296757,28.145473530843702,0.465210969720647,330.38404667154566,75.21389583649959,12.095777973079505,4.480534939863018,-2.7845430467750227,109.4179844280143,3.6141178030734693,-1.7817180810559954,-0.0,0.5,358.6167934398567,139.58454983337177,24.82340817153065,-9.029213063352557,8.88084582452776
STABILIZE,0.5158922672271729,21.62881983477893,347.24880655563135,136.61094679389637,26.466130905244633,0.8398698485240074,330.2282147402503,75.12400196567981,12.101887083513871,3.877299462556662,-2.6264715519265946,109.844345326574,3.496001932805335,-3.140827213620696,-0.0,0.5,366.4359788673691,142.42235985724028,25.4734403797557,-10.801216392077365,8.59436692696235
STABILIZE,0.5613610744476318,21.996675040250892,349.51027936057363,137.67644464687245,25.620331272904355,1.207550895938073,330.04911706441214,75.0206869184871,12.108962602395515,2.9166999501387765,-2.15825653479352,110.29102603791449,2.924148755383366,-2.0486657122796568,-0.0,0.5,353.98374515849383,137.19353162552997,25.83829209508623,0.48455407250521887,8.59436692696235
STABILIZE,0.5975403785705566,27.64758150633462,352.82366666273964,138.70857275036346,25.6395477295414,1.5568003650180848,329.84555216514315,74.90325760469877,12.117067641432653,2.497957060381162,-1.8153135903408257,110.58415726652393,3.0673842408018372,-3.1004018308879466,-0.0,0.5,358.26405227334226,138.24913982792327,27.720918633413394,-3.7137690840574464,8.078704911344607
STABILIZE,0.6431865692138672,21.913127070206787,356.2328409319679,139.71340350410586,27.125392562018458,1.8327790074964534,329.61639625783437,74.77106575314455,12.126263763988874,2.4700877541333943,-1.3809591292963834,110.94520106605081,3.0028511655799033,-2.926545240262693,-0.0,0.5,368.0585648711567,141.11743637646396,31.770903530306377,-7.877736904659471,8.13600069085769
STABILIZE,0.6807231903076172,26.648436407995224,358.8581964650763,140.0199808127243,28.51489163377361,2.162488954396197,329.3606019679531,74.62350717089585,12.136610996510017,3.0346728984739406,-1.4169819738658538,111.2478399179849,2.8159611984841355,-3.018499367039901,-0.0,0.5,368.0585648711567,141.11743637646396,31.770903530306377,-7.877736904659471,7.276563998161455
STABILIZE,0.724048376083374,23.10058545881135,361.26521644487434,139.08611129082084,32.62559577639981,2.441798262976814,329.0771970468399,74.46002100245491,12.148167839951086,4.723962881882272,-2.0521085649023516,111.51833589968491,2.307118031116987,-2.8561592350815683,-0.0,0.5,366.34095397616863,137.75301224772303,46.026961092886744,-4.313559814351777,7.849521793292278
STABILIZE,0.764707088470459,24.591802154118565,363.6527319016068,139.33429426496943,37.21872085428348,2.783914239665499,328.76528308750585,74.28008898894407,12.160991281203131,6.881024987344687,-2.8484364782527303,111.73120557535754,2.7769289761236466,-3.0759948053422326,-0.0,0.5,369.4632017553101,138.43444649627295,48.80391748450454,-4.088921288865791,8.479775367936185
STABILIZE,0.8021707534790039,26.694398655830145,365.2519265894852,139.48044807518636,41.61543131452657,3.1260201599878057,328.4240342404292,74.08323472729498,12.175136804520166,8.771572257619557,-3.692800685148985,111.94959404387953,2.767874269366281,-2.87860537893863,-0.0,0.5,371.41035094288395,138.97990887900784,49.70447093462882,-2.209889423739895,9.11002894258009
STABILIZE,0.8389010429382324,27.232557233570102,363.20028932389175,137.35670437914865,43.67558710429582,3.4348401318204553,328.0526959293527,73.86902292943778,12.190658402946045,10.20269667177045,-4.6549391245642395,112.13919326504991,1.7088764191327626,-0.8414631905943262,-0.0,0.5,350.0228807426215,130.4987178962755,42.07168247915266,-47.906715704972356,9.339212060632418
STABILIZE,0.8835289478302002,22.41325246479814,365.4257347661672,137.0532417716476,44.756623773530464,3.7353764529919284,327.65058356708056,73.63705868149034,12.207608589741382,11.075924404325534,-5.6788075330376,112.44378555108662,2.517886608605249,-3.0684436624987197,-0.0,0.5,371.7873086966975,139.60012333895867,37.17608687647958,-4.1433867645486515,8.88084582452776
STABILIZE,0.9268028736114502,23.116245232688875,367.7407423027627,137.53625753116518,39.71746992527372,4.1187292107031235,327.21708127127533,73.3869867029475,12.226038409810423,10.770246118210784,-6.1838735551770085,112.75142410149317,2.843942899492008,-3.3029702179260436,-0.0,0.5,376.7841125661064,140.16809104531086,20.83119185160301,-0.796242082396077,8.938141604040842
STABILIZE,0.9713437557220459,22.45717437047904,368.730643331269,137.5608438958901,32.96413641090599,4.467762072899956,326.7516405802553,73.11849060587025,12.24599745112797,9.483395789898069,-6.2558411240273175,113.0798400873549,2.690730169644205,-2.7637447151854326,-0.0,0.5,375.97777309920673,138.55737831989754,15.037249912665864,0.6991409078354422,8.422479588423101
STABILIZE,1.0114779472351074,24.92351756225971,370.40474036562756,137.22150399521715,25.03752187625467,4.794061118198986,326.2537791687912,72.83129215407493,12.267533856166258,7.31950477592611,-5.978216986154748,113.45043932153061,2.5612925517775555,-3.284513531455363,-0.0,0.5,381.45134114602524,137.28320937564317,10.071398261372243,-1.6715241220838095,7.62033867523995
STABILIZE,1.0635650157928467,19.203721424287238,372.8414150240671,138.53973471110436,19.085097598275393,5.0488541748679685,325.7230795639033,72.52515052232253,12.290694333321865,4.409577385236225,-5.1271472410408325,113.89597939127972,3.149323606736627,-3.50616763328314,-0.0,0.5,385.8343512436849,137.08987147571153,12.309561089256274,-5.254451694801446,6.302535746439056
STABILIZE,1.1085333824157715,22.243043586629685,376.1545421284781,138.33456376981297,15.232645587738949,5.375092740597528,325.1591878606586,72.1998615555078,12.315524168342606,2.549730961506916,-4.352784789174392,114.20235435668981,2.695158026661053,-4.275849515752153,-0.0,0.5,395.968218590598,138.5742686325017,17.913826823797372,-6.959626534777712,5.614986392282068
STABILIZE,1.1522839069366455,22.85786533693016,378.8500600503288,136.9336416011548,17.89070837119375,5.630534845116623,324.56181243796783,71.85525702784854,12.34206723575443,1.5204757749342375,-3.6203716516428774,114.45496207295356,2.2248632986230272,-4.222268145326953,-0.0,0.5,392.97449431768996,133.1634802020199,34.121505768877014,-1.1748515934588397,5.271211715203574
STABILIZE,1.1930489540100098,24.538569096748905,384.2793613003605,135.4429335479085,23.571234667813577,5.868606967966771,323.93072267438225,71.49120390207477,12.370366010288315,1.2825412259983773,-3.232683711050607,114.67934061737765,2.120278229141791,-6.010332095637617,-0.0,0.5,393.4572907428753,131.10383805366612,43.43988139576499,-2.747118832770809,5.328507494716656
STABILIZE,1.2336158752441406,24.656567259815766,386.6945530258656,133.54649695557947,32.068767890073396,6.066360769016388,323.2657476638909,71.107603588618,12.400461578307175,1.5053942903600261,-3.201950847993311,114.89415006677456,1.906581307482241,-4.698662174953643,-0.0,0.5,391.1088425007381,127.801026413998,52.55906437267134,-1.9755794027009301,4.698253920072751
STABILIZE,1.2699825763702393,27.503272088234908,388.6545036359721,131.0415466862515,42.52592888178547,6.268015263472382,322.5667749317178,70.70439120480039,12.432393649232743,2.0317855504703903,-3.438542197540206,115.02289913262929,1.4974916767333457,-4.768520901645399,-0.0,0.5,392.46371744695864,124.56512012907189,64.59536604781664,1.9464787980514444,5.099324376664327
STABILIZE,1.3187267780303955,20.519074409275476,390.71524667944107,128.23971698556554,51.86223672658932,6.403138058234825,321.83374915011865,70.28153483402399,12.466200566972487,2.570952359258146,-4.004130525915098,115.23102865701792,1.5413700017498293,-4.604561952626527,-0.0,0.5,392.46371744695864,124.56512012907189,64.59536604781664,1.9464787980514444,3.380450991271857
STABILIZE,1.3626153469085693,22.788194897205198,390.56738615774697,125.39840445725754,58.04061956299161,6.589738992947412,321.0666708541779,69.83903478495995,12.501919321346492,2.9799782377043593,-4.452672890691244,115.37642972406915,1.3570187197521881,-3.765340013430705,-0.0,0.5,380.2684569724722,118.95691756047985,65.01341995088843,2.756965001145943,3.552338329811104
STABILIZE,1.4078152179718018,22.128625845459055,390.1615150842408,122.74433045887153,61.64557081353113,6.719304132752211,320.2655951576061,69.37692285073778,12.539585559514363,3.2194773268469756,-4.783925966379461,115.46768105138052,1.3640601006980897,-3.6792510363584556,-0.0,0.5,382.58738265563596,117.83346806173611,61.46463764846263,1.7819186236435627,2.3491269600363753
STABILIZE,1.444251298904419,27.452328435383055,388.48891059237053,120.75081878841915,63.42668546868939,6.8283980056301985,319.43063046853666,68.89526156813447,12.579233597402126,3.1172223513393034,-4.810492414043049,115.53779977339987,1.4151844699539589,-3.0008998796915693,-0.0,0.5,382.58738265563596,117.83346806173611,61.46463764846263,1.7819186236435627,1.8907607239317168
STABILIZE,1.4887216091156006,22.490892224206252,385.39502598654894,118.25698853030403,61.40869076247151,6.848345608991098,318.5619372053229,68.39414347676382,12.620896431129124,3.007510730248681,-4.566267474325018,115.53409781086972,1.2829655301094425,-2.349941504876729,-0.0,0.5,368.2234174711171,112.0959688384963,54.505392516727234,11.246014331969278,0.0
STABILIZE,1.538823127746582,19.962799729660265,384.09969506144444,116.59182185669893,59.54313861347583,6.861298676199536,317.6597265123352,67.87369037826554,12.664605748434907,2.8403952111655095,-4.18827754858052,115.49472860049377,1.5891532446258174,-3.1751163301638488,-0.0,0.5,383.0946433420391,116.23928676104639,55.26760530283825,0.008346092060079968,-0.6875493541569879
STABILIZE,1.5869696140289307,20.779105483225333,383.1868866918327,116.00789247190494,57.806031866532955,6.836735067350157,316.7242589757581,67.33405259549458,12.710391940106145,2.477089765249715,-3.5188660759532024,115.46216225853115,1.9377347306247061,-3.342143017660094,0.0,0.5,383.80637554384435,116.0372706365099,56.32788621617405,-0.5412165138794194,-1.6615776058793874
STABILIZE,1.6229567527770996,27.789177979633347,382.0853446723902,115.61606930350365,57.12719336048915,6.760547959462183,315.75584333938707,66.77540823171026,12.758284111403514,2.2181869624487387,-3.0162217827613858,115.40232980140183,2.031692122470419,-3.2500242330851674,0.0,0.5,383.65138129141866,115.87435221972969,58.070445118243555,-1.820777342479019,-2.6929016371148693
STABILIZE,1.6646828651428223,23.971423835949956,382.6501566469921,116.07058772878614,57.484548310696844,6.683118027873327,314.75483522042566,66.19796242976551,12.808310093488592,1.7070762228938685,-2.34441504816951,115.30092881298383,2.3952544531709687,-4.153114454567858,0.0,0.5,396.9822132437738,120.10606018814852,63.25141239950107,-2.3569738168738326,-2.46371851906254
STABILIZE,1.7047452926635742,24.97040560572956,383.4109877305292,117.12717541836678,59.411390500150105,6.5723237548715625,313.7216358252828,65.60194663129614,12.86049645485077,1.1735959734769716,-1.7099903657919366,115.20676782508603,2.726974131383559,-4.389814624712281,0.0,0.5,386.35510564076935,117.37890728639961,64.13960346399352,-5.824065193844817,-3.20856365273261
STABILIZE,1.7448408603668213,24.94738469957056,383.7407182268284,117.28582145333871,61.75422025125571,6.470817672250907,312.65669066536947,64.98761783590994,12.914868512734134,0.5228379609163708,-0.918621383222399,115.09461611891443,2.4055888576585516,-4.258824122708504,0.0,0.5,385.2252266260292,117.03251693590603,66.98175405836626,-5.153173254960436,-2.7501974166279517
STABILIZE,1.7944872379302979,20.147294194502887,382.6244791887322,117.01014215631722,64.81886696024576,6.347667792300325,311.56048827289584,64.35525786037603,12.971450344564374,-0.2627343788427946,0.1781948329688725,114.92194893669651,2.227556991635588,-3.5556885237707703,0.0,0.5,373.65747035086616,114.65887415140242,71.65111976112426,2.669909208793328,-3.552338329811104
STABILIZE,1.840043067932129,21.95602830939319,383.1249295606586,116.73956465162601,68.27159250937953,6.21180284748271,310.4335589166685,63.70517259781397,13.030264799375676,-0.8930287177632141,1.2027536241569328,114.76818771810117,2.2603398916639588,-4.358273036083034,0.0,0.5,372.227020446528,114.52146469627358,75.33407286391244,4.429615410968907,-2.9220847551671985
STABILIZE,1.8755736351013184,28.153281290902868,381.2322835411031,115.4498241383474,72.54650480599301,6.101927583091487,309.2764733178873,63.03769127688303,13.09133350923762,-1.2431134254059497,1.9041299552130866,114.65315367209982,1.8207640246671768,-3.191450632369012,0.0,0.5,367.95347518559515,113.65735762175545,84.62597388256847,2.48869139421663,-2.291831180523293
STABILIZE,1.9146487712860107,25.599843750953667,379.74840791255656,115.06116531768835,77.71699831871996,6.019927652893513,308.08984136594233,62.35316572097139,13.154676900682084,-1.4818858464539,2.5624167572297454,114.51728071894075,2.2345868993417186,-3.4389457099046887,0.0,0.5,371.9353705154723,115.43561318310434,89.99207102762833,-2.8308979876823486,-2.2345354010102105
STABILIZE,1.9521102905273438,26.701196182909673,378.65797448886707,115.04289234960181,83.49652292306364,5.95947669303487,306.87431083421126,61.65196960738537,13.22031420613013,-1.5216071317372266,2.920086443306633,114.44465531749601,2.431770535331532,-3.663966641473287,0.0,0.5,374.9279139019025,116.94115209547341,95.8793770800847,-4.357207056284992,-1.088619810748564
STABILIZE,1.996046543121338,22.766054224224497,373.8867135597272,114.57945916066917,88.39133484226379,5.932620028889111,305.63056609585607,60.934497726538616,13.288263475318912,-1.4550880261321781,3.109098695095219,114.40780644692379,2.243883087534844,-1.8176194710494007,0.0,0.5,358.812125810655,112.34170820673923,96.12517935712509,3.1059487330801687,-0.2291831180523293
STABILIZE,2.0458579063415527,20.079969360398316,370.17979456698083,114.19987610201436,92.96051588852148,5.9301324807880516,304.35932683962017,60.201165241141354,13.358541586728572,-1.328084607218905,3.0251035900033414,114.42182882528982,2.281478276903486,-2.309583186795684,0.0,0.5,356.69975369879865,112.62354940299953,98.17997809520097,1.747546291645321,0.8594366926962349
STABILIZE,2.085533618927002,25.211305194571008,367.15570233762594,114.58584352597491,96.43874689794991,5.965501621241716,303.0613467856255,59.45240694538957,13.431164259009133,-1.0289603144996047,2.702643102211046,114.51314162430373,2.6599403710043648,-2.3582452551250452,-0.0,0.5,361.0324887911902,115.58719474155811,102.01712892971057,-4.974380325102686,2.0053522829578814
STABILIZE,2.130584716796875,22.20242229186076,366.1725314085526,115.0169910566959,99.01954225033569,6.052227936489187,301.7374124011696,58.68867652415425,13.506146062407398,-0.18459689467592974,2.2452261872689383,114.62590121731147,2.6853606085862767,-3.3823480210447325,-0.0,0.5,365.7921029182792,117.59135083670938,102.8960477895572,-6.671589197008345,3.2658594322456924
STABILIZE,2.165865421295166,28.350810785234852,364.89891728676616,115.01237574569416,99.2978417380651,6.178922327024695,300.3883416165226,57.91044581217061,13.583500430193851,0.7223262821487283,1.8018278087114588,114.75124884895955,2.6389790127673454,-3.2750515573884327,-0.0,0.5,362.0381074722369,116.91807554046461,97.27087451873169,-2.3350381876304738,4.010704565915763
STABILIZE,2.2046048641204834,25.822224958443638,364.1594963225964,115.92764921243925,99.52698077038642,6.325087288514327,299.0149825407241,57.118204053227245,13.663239670089554,2.576101468118689,1.0790745863787519,114.91959935162201,3.062921270721719,-3.5920088867123066,-0.0,0.5,362.0381074722369,116.91807554046461,97.27087451873169,-2.3350381876304738,4.984732817638163
STABILIZE,2.2435483932495117,25.68449672690308,361.8205540404319,116.49551571706745,97.07418444636718,6.5223156210241,297.6182121773805,56.31245715935542,13.745374975693043,4.692702813598417,0.30429298501285457,115.07355181551411,2.9776678584228513,-2.733427080355494,-0.0,0.5,353.22383225815634,115.46288192614058,85.91599647510482,2.4717668447517696,6.245239966925974
STABILIZE,2.2906739711761475,21.22698678596914,356.7932604501966,115.41772111258828,91.72748970491611,6.7868786355907105,296.19893514046174,55.49372697001826,13.829916437907226,6.891241242795733,-0.783604604947967,115.34807077863526,2.314138430880526,-1.4803341222336457,-0.0,0.5,334.70956518002043,110.19822171916225,75.2836552224553,9.37445332218276,8.307888029396937
STABILIZE,2.330225706100464,25.304696172595204,356.07569450040137,115.34850903228057,85.49103665138057,7.126707997939772,294.75808237009875,54.662550511299955,13.91687305636628,7.828699647418793,-1.6687961075254145,115.54870075531521,2.7387665339619853,-3.435731334403979,-0.0,0.5,353.0715982122927,117.24529043517077,71.7137825218795,1.6298430609888612,9.396507840145501
STABILIZE,2.3665144443511963,27.556034426121805,355.1508353517955,115.27071981081022,76.54176245615069,7.485374622930842,293.2966098483799,53.819479255094976,14.00625275086255,7.7581916046167505,-2.51118350826548,115.8954148179634,2.7977838767034897,-3.3925487341283267,-0.0,0.5,349.3008805099515,116.52912943311286,52.52450354258236,6.332273609330471,10.59971920992023
STABILIZE,2.404794692993164,26.128339780846837,356.0879375073025,116.17024666788669,66.36551685905724,7.831436846566617,291.81549731514855,52.96507837829732,14.098062372773446,6.842836119034676,-2.9392809824216615,116.20090185878139,3.264287437612326,-4.479567435435845,-0.0,0.5,368.52930603524635,121.41570982584705,46.389646533264454,-1.2739914404251778,10.59971920992023
STABILIZE,2.446820020675659,23.79908986711152,356.51474886572197,116.91224966742386,57.34677671658468,8.200423099897463,290.3157469837999,52.099926021989674,14.192307716488346,5.217873070672935,-3.061298043075708,116.64748694747351,3.210015640796279,-4.233810392069296,-0.0,0.5,369.206593785635,119.17289692382644,40.82229576274197,-0.2598144956029671,10.657014989433312
STABILIZE,2.485905170440674,25.5909407070251,354.0027622389715,116.4295759534014,49.1760377601032,8.601159852145463,288.79838225707795,51.22461255063269,14.288993530835478,3.8744504198991203,-2.8917548186294204,117.03165776753004,2.7750159751490924,-2.7590172323817983,-0.0,0.5,341.94221445823297,107.78485314904988,34.429960440047914,10.077107167500458,10.141352973815572
STABILIZE,2.5270931720733643,24.284819324544188,355.9017999313815,116.05532233146224,42.292592536446804,8.964632258693428,287.2644464428727,50.33973981125416,14.38812353050884,2.757990686376598,-2.449018541534609,117.47623478060618,2.834047305729108,-5.1122659224395175,-0.0,0.5,377.2304090115167,115.37402232547495,37.296556403597485,-2.261050088593862,10.198648753328653
STABILIZE,2.577300548553467,19.92098676305053,357.76196768801935,114.55954639512217,39.384072928702935,9.361619417149127,285.71500147001706,49.445920392638236,14.48970040749508,2.055018225488777,-1.9066635285083382,118.0459955007903,2.420778476563069,-4.9699420840750355,-0.0,0.5,368.10517431125896,109.05024975141254,37.98190550386305,2.078645509558797,10.141352973815572
STABILIZE,2.6192920207977295,23.81868671667812,361.0530544462332,110.42108705756554,38.84924236722613,9.826696967525281,284.1511266040839,48.54377688451467,14.593725842500401,1.8298870795955173,-1.5690403409237321,118.439332434713,1.2471957375356397,-6.1689980806671905,-0.0,0.5,361.03825924573147,100.72341313806399,43.715493725880435,0.2648764892715576,9.281916281119337
STABILIZE,2.65573787689209,27.442270071512226,362.0183000976727,106.1238268105712,39.84640185064118,10.20345223360754,282.57391716318324,47.633941136748014,14.700200516377453,1.6976902623138015,-1.4107765335614857,118.77979004408145,0.8624333588832571,-5.3716169498584065,-0.0,0.5,360.7935634238086,97.68659568885468,45.80809317981717,6.906040879161253,9.11002894258009
STABILIZE,2.694762945175171,25.632071378372597,363.81279100090643,103.69958394202914,42.86321023288159,10.505191238299517,280.98448323375897,46.71705351852682,14.809124121552246,1.6341433562147665,-1.2821965148887031,119.08453942446907,1.6615581784569424,-5.899386272193914,-0.0,0.5,363.65680773582136,95.66363880633958,49.51400235124998,0.09469424394038128,8.479775367936185
STABILIZE,2.738003730773926,23.13562650309997,363.22484300075337,99.26009020515414,45.45946077594717,10.773562773500684,279.38394838638624,45.79376217755289,14.920495373451029,1.3830919625864257,-1.2190970929020097,119.39187061636297,0.8183441734696804,-4.67995234865302,-0.0,0.5,363.8257220340219,93.17655364109994,50.27780911892538,3.1550650402274556,6.990085100596044
STABILIZE,2.7749319076538086,27.082740362885,362.0598996669623,95.4409199472634,48.18844241209136,11.017507844293812,277.7734483915683,44.86472229923045,15.034312021927194,1.3113909845571592,-1.20276280222363,119.53056443764925,0.8099923418317483,-4.458576700223399,-0.0,0.5,359.8870471153062,89.95439846195882,51.626813684584,6.3721569091320305,5.385803274229739
STABILIZE,2.8155248165130615,24.642225982327506,364.1592893059851,92.3172491574945,50.05679534852398,11.213561631174072,276.15412993553366,43.930595365855446,15.150570862688182,1.1054116890966152,-1.3260055616685766,119.73266973518993,1.0744351280746447,-6.24888047303876,-0.0,0.5,358.7373315704159,85.10505918921955,53.057258408043495,5.61212458739584,4.5263665815335035
STABILIZE,2.8562417030334473,24.567315070258367,362.02833476026774,89.47927137262431,51.50722444920238,11.364051412923493,274.5271493360328,42.99204841580461,15.269267748722369,0.8896860338555804,-1.3608150871650175,119.92793118318225,1.1183041323681815,-4.1384269096826864,-0.0,0.5,360.1827726457777,83.49670676450377,53.060238683209214,4.921342269525326,2.5783100780887045
STABILIZE,2.8962464332580566,25.00300443511851,360.656578963988,86.57946186586227,52.14979748918232,11.477741793769235,272.89367125813567,42.04975330272489,15.390397601725969,0.8618338030807379,-1.3216166315183144,119.97052424284645,1.002118677169415,-4.529589853858527,-0.0,0.5,357.1311279410211,81.16459127252936,52.72686755114964,7.260388134757093,1.7188733853924698
STABILIZE,2.9382073879241943,23.833981134219798,360.4193155247143,84.03086280215504,52.6004837754288,11.53244926331828,271.2548674300285,41.10438595472242,15.513954423529936,0.8407314533923074,-1.237932300033672,120.00186115075847,1.1119559000313752,-5.135444120858436,-0.0,0.5,359.14015173154155,80.43355832256374,52.5312405501578,4.039600371462001,0.2291831180523293
STABILIZE,2.980940103530884,23.41473000206553,361.3084874014119,82.11294748543379,53.12436909841991,11.51928883121931,269.61191535881085,40.15662563355197,15.639931307526853,0.8784422084604172,-1.1278013693610343,119.93142824003729,1.3182983698978052,-5.7849122736863725,0.0,0.5,367.90693843738995,80.36482187835257,54.2462402995396,-1.43005289801971,-1.8907607239317168
STABILIZE,3.018618583679199,26.548244170443326,360.71079075414127,80.64352208219594,53.21184731207268,11.449301168467255,267.9659970462925,39.20715419380597,15.76832045009783,0.8270152062393054,-1.0569232156833426,119.83402974247291,1.4400127586548757,-5.205081624417847,0.0,0.5,358.8752345576564,77.75793217303034,53.49464947630731,5.169119408158565,-3.2658594322456924
STABILIZE,3.0594444274902344,24.497579038974845,360.0594385448015,79.48011724343824,53.43239942251105,11.307792478429215,266.3182977047908,38.25665534210387,15.899113162039416,0.7473739198564873,-1.015340063520953,119.62323644430798,1.5699265922130639,-5.18451767899345,0.0,0.5,358.6149043593035,77.67968257071526,54.16299923540105,2.495108108687859,-5.156620156177409
STABILIZE,3.1041769981384277,22.358769877019686,359.71868141249234,78.76387425821171,53.82492395865468,11.117216867466928,264.67000447292753,37.30581389628131,16.03229987999048,0.621402820003238,-0.9698774706317018,119.32408781903976,1.746694902939228,-5.349863688123523,0.0,0.5,357.16099005683304,77.5833763463967,54.68949023186777,6.191316932516884,-6.245239966925974
STABILIZE,3.1427509784698486,25.934630176965978,359.90325192020964,78.59155328284304,54.566433794797284,10.858910041919508,263.0223051314259,36.355315044579214,16.167870177859108,0.506515889873303,-0.9404667827873328,119.0453341386332,2.017897920126082,-5.810442982510213,0.0,0.5,360.21389563215416,79.57195344572035,56.23878973087087,1.2758177708351326,-7.563042895726867
STABILIZE,3.189854383468628,21.235046932431473,360.1110433668906,78.72098301408741,55.243439383281874,10.582571909528989,261.3763868189075,35.405843604833194,16.305812778249525,0.5325859748833012,-1.061093793223576,118.65068580838987,2.104738957113629,-5.739385671073129,0.0,0.5,361.84510421922545,81.01197053457449,57.63126824196253,2.2282453225532493,-8.422479588423101
STABILIZE,3.22985577583313,25.004345933958497,360.27172734574606,79.50460665856966,56.0119287420016,10.23819550273215,259.7334347476899,34.45808328366276,16.446115563888952,0.5498168346119509,-1.0796958134281056,118.33376503090128,2.4946740899027513,-5.9355423137046674,0.0,0.5,358.4165997718646,81.67605039544156,57.33709626990593,-0.7407554138565757,-8.995437383553925
STABILIZE,3.271139621734619,24.230245751060068,359.60980509554287,80.39289967684579,56.63806489824416,9.885988773533885,258.0946309195827,33.512715935660296,16.588765589054553,0.47343904463107667,-1.0262969676101228,117.96009904178821,2.5995097097462736,-5.567458551138662,0.0,0.5,353.8447737299162,82.12114766209591,57.29368001661386,6.648345623988135,-9.912169855763242
STABILIZE,3.3104982376098633,25.40847493563532,357.9362840962949,82.0756795807644,57.25633423744189,9.53126513871079,256.4611528416856,32.57042082258056,16.733749091000284,0.517930256554305,-1.052021381015095,117.53979652102231,3.03747946192279,-5.065835590752053,0.0,0.5,354.51877044340654,85.99727586598976,57.78083692785639,4.565978494342474,-10.084057194302488
STABILIZE,3.353254795074463,23.394487020737817,355.5963592916451,83.09159079366671,57.090590127471515,9.129980960765758,254.83417224218476,31.631873872529738,16.88105150138383,0.4193777238244555,-0.9461171634999316,117.01485550217181,2.8041480072470875,-4.71320600887733,0.0,0.5,340.15583612045793,84.65150951023189,55.41006918101896,7.8814916755764415,-11.229972784564136
STABILIZE,3.3966007232666016,23.07402517384033,354.99652975535537,84.9461030321346,57.250731411796195,8.684062712808029,253.21485378615003,30.697746939154726,17.030657457693476,0.29494952635211513,-0.8722865538317961,116.52050007042463,3.193257564340293,-5.567504734776976,0.0,0.5,353.8162680689855,90.28453172691393,58.43197466358596,0.6619429063270559,-11.631043241155712
STABILIZE,3.4347918033599854,26.188702335832964,354.39512222885,87.51644129781468,57.78929952631406,8.198444397798497,251.6043537913321,29.76870706083227,17.182550814675018,0.12937332113249572,-0.6851277379075166,116.0342862241681,3.777750459968207,-5.6785208030862115,0.0,0.5,352.34972984479026,94.52774172384193,60.02993684249524,-3.5289612820724443,-12.032113697747288
STABILIZE,3.4787442684173584,22.758765884944708,352.44222716336475,90.09186717857236,58.34684646771111,7.762982412869502,250.0038189439594,28.84541571985838,17.336714655758655,-0.03735477147826253,-0.4697230481966195,115.50725516743158,3.7328559715923033,-4.974692872714412,0.0,0.5,344.59073510827204,94.99827706588437,60.08141472359908,2.8112126955550423,-12.08940947726037
STABILIZE,3.5220303535461426,23.10936759633715,351.28589597283144,92.8959717169458,59.39600868650582,7.260579609935537,248.41438501453516,27.92852810163717,17.4931313044859,-0.24437130853750957,-0.2633609953382904,115.06603860742709,3.9975710937577027,-5.359329254466518,0.0,0.5,352.59445469495927,100.01779855785686,63.02664802182995,-1.2712362336948644,-12.146705256773453
STABILIZE,3.5551881790161133,30.16204632566033,349.1230960583555,95.79957771907888,60.9560114662566,6.757956975034862,246.8371755736344,27.018692353870478,17.651782335936446,-0.36571324768078267,-0.105523007582112,114.6865259763845,4.564148352058904,-4.777737457572087,0.0,0.5,341.1142004560569,99.1695395208974,63.210083079772886,2.3983835208052398,-12.433184154338864
STABILIZE,3.5895566940307617,29.108311992948998,347.7049109617854,98.22806099394735,62.27514406551113,6.338980897651561,245.27330070770128,26.116548845746934,17.812648588155106,-0.5134114994489598,0.14993273748297622,114.20544843238382,4.450226941097684,-5.21736855541884,0.0,0.5,342.4992929573555,102.42694810125626,65.02763765985864,2.49440396416999,-12.948846169956605
STABILIZE,3.630389928817749,24.503303675229155,346.2403693543872,100.4314730041798,63.84542897741433,5.918688028805473,243.72385573484559,25.222729427130986,17.975710173578676,0.44931358918297515,0.46954850484681393,113.57763110425459,4.233055372897626,-5.180059059336723,0.0,0.5,342.80243758422085,105.54480177500416,67.88136140201122,1.3899383043799958,-12.891550390443523
STABILIZE,3.671689748764038,24.22059120753475,345.8028761750213,102.61595883348483,65.54587093574212,5.440116863983921,242.18991992064048,24.337856687752492,18.140946490462852,2.147045846488002,0.8761237327631681,113.05486891574932,4.325977529231368,-5.723571837060178,0.0,0.5,336.6558906855308,105.92070621240954,68.58362451523804,2.652960965305809,-12.204001036286535
STABILIZE,3.708867073059082,26.90467301709484,343.0412681321287,104.83172858405476,67.23742398305976,4.982442284310904,240.67255519391847,23.462543216395503,18.308336234309117,3.366453179388718,0.9924928673038488,112.70867394747806,4.590176639637721,-4.461608491733154,0.0,0.5,331.72340372584506,111.0966473107065,71.48441325841814,-42.06377151849796,-10.370536091867901
STABILIZE,3.7464959621429443,26.579536381034462,340.7226732291193,108.38322618018947,69.04876883818274,4.607953723656523,239.17280486256982,22.59739086008784,18.47785740929165,3.77242105407747,0.914724119970672,112.26263527391954,5.315541258436627,-4.654123225645443,0.0,0.5,333.8009706207147,116.92702750157088,72.26680735538777,0.526005089473756,-9.912169855763242
STABILIZE,3.789762258529663,23.13971091250138,339.3212541249562,112.20512576692629,70.58635659137295,4.240725597627885,237.69169232933848,21.742989983290187,18.649487339684214,3.1157619715173897,0.6922898315825096,111.83623339422482,5.372574800341187,-5.131720652865199,0.0,0.5,333.37938227496704,121.53644603494038,72.71557642580963,2.114139152144034,-9.625690958197831
STABILIZE,3.8286855220794678,25.683238523290203,335.8365100145969,115.53908323891885,70.9097184389939,3.82595464545003,236.23021980761965,20.899918727085236,18.823202681287047,2.0274652423769455,0.3154580497891511,111.40964026923334,5.495425217359388,-3.9621812404134573,0.0,0.5,324.71650181208474,122.21458913496703,69.4981706401161,1.8461393207867616,-9.511099399171666
STABILIZE,3.8611831665039062,30.78117156654093,333.9588049219009,119.53350688047905,71.02144529974582,3.4474937105258183,234.78936703725657,20.06874226836692,18.998979432853787,1.1190717472715233,-0.061929085080667606,111.0788132265946,6.359060103994656,-4.6996579035702615,0.0,0.5,326.09255971448886,125.89282442021056,69.14225881899762,2.993899713875507,-9.85487407625016
STABILIZE,3.8985583782196045,26.76235930680687,332.24922810585645,123.09906698812304,70.67191442973686,3.1494505584907317,233.37009000033788,19.250012079029716,19.176792947518344,0.6080177303032758,-0.29822236090331483,110.87229562685009,6.045003105617673,-4.799268225818676,0.0,0.5,328.8226784289998,128.92444784892643,69.73675890837328,-3.523687958294616,-9.224620501606255
STABILIZE,3.938660144805908,24.94501076471078,330.3835840685356,125.70710125295314,70.17695561912129,2.8555852506221258,231.97331963699423,18.444265185157917,19.3566179442218,0.029551613856853527,-0.6124762430057074,110.52186594129341,5.664428840241264,-4.698229841910204,0.0,0.5,327.8772852856542,129.96719882572137,69.79201330230994,-2.84814115298299,-7.677634454753031
STABILIZE,3.9818778038024902,23.142264400794527,327.9850116251703,127.03435559158868,69.1159962649587,2.5919206737697715,230.59996056119576,17.652023426214527,19.53842851913932,-0.09713949732466347,-0.7765135345681715,110.1339111964367,5.169932472711199,-4.408308690163853,0.0,0.5,317.46731113860807,128.17271772811804,67.41077965499663,0.8989030873691348,-5.844169510334397
STABILIZE,4.023838520050049,23.839128803810347,326.662065031644,128.77986629914372,68.72914522326494,2.3204958057936427,229.25088977654877,16.873792714230916,19.722198157107037,-0.036381122675991924,-0.8304839818423198,109.92941533268652,5.4494328030310815,-4.8952727498131905,0.0,0.5,321.1398309776344,130.94214267274216,67.5639154316473,0.051945900569009495,-5.385803274229739
STABILIZE,4.070027828216553,21.655062033073982,325.19361997173553,130.17475378256884,68.3307902159782,2.1015110247220408,227.9269553920929,16.110062292995593,19.907899743048965,0.1102179021927429,-0.7086264167775636,109.68787252287818,5.323878972551924,-4.814144923589421,0.0,0.5,322.0534101414469,132.86726183733612,67.15048378256391,-0.31761182731105464,-4.297183463481175
STABILIZE,4.113976955413818,22.78745205419913,324.0067393388216,131.7893017453817,67.66102572997227,1.9082508715513025,226.62897533809826,15.361303997243823,20.09550557340387,0.05673867491998682,-0.634112201223045,109.57240817495912,5.529839170409979,-4.932288055821438,0.0,0.5,323.8843372116558,136.99718766299083,66.38793647834366,-2.182695302707586,-2.9220847551671985
STABILIZE,4.159701108932495,21.874955669135286,323.902718763768,133.19529951283556,66.980210365179,1.7537135997359898,225.3577360818623,14.627971511846539,20.284987367552205,-0.0758459023394727,-0.5395179765606295,109.4409202032472,5.504051560933844,-5.451141180249753,0.0,0.5,323.8843372116558,136.99718766299083,66.38793647834366,-2.182695302707586,-2.7501974166279517
STABILIZE,4.19400429725647,29.15991601662982,323.18067030784465,135.29601086131368,66.52350784038568,1.6329123031716661,224.1139913435071,13.910499630999794,20.476316279242965,-0.25940845024296866,-0.3608786476871772,109.35127397039078,6.18211211378049,-5.268196085874358,0.0,0.5,320.3161720671018,138.67627447050856,65.12726703102999,-1.34038067032985,-1.8334649444186344
STABILIZE,4.2306413650512695,27.305244518514662,323.82048094369964,138.282348311526,66.5917369991062,1.5490482073674547,222.89846081177603,13.209303517413815,20.669462908020627,-0.4518702677275284,-0.3869848846750089,109.28509626752253,6.628645622184026,-6.072721500691712,0.0,0.5,333.94116351583943,145.8738299238038,67.90506122524991,-6.941165170219946,-2.2345354010102105
STABILIZE,4.276706695556641,21.720665762136072,324.3716659733131,140.91420731113232,66.78695357609445,1.4802280345274164,221.7118288598311,12.524777961502139,20.86439731065201,-0.4532424420596134,-0.3433686039762033,109.2259741500669,6.303772596623914,-5.903054383614417,0.0,0.5,332.28676552256195,146.0265568353677,68.12656666750512,-8.916963801315148,-1.7188733853924698
STABILIZE,4.314229249954224,26.65012961927515,325.3550647488755,142.44945392547484,66.90351640462757,1.384637515493661,220.55474326104985,11.857296640571178,21.061089012553197,-0.1851222589530654,-0.2516925509562492,109.1260962938338,6.169380569000405,-6.386227924720658,0.0,0.5,325.33450134310783,144.6734207347036,66.97075062100926,-3.814955224595053,-1.776169164905552
STABILIZE,4.353199005126953,25.676006244069665,325.5817333820835,144.01390684913198,66.74163658414916,1.3118175883295429,219.42781390482253,11.207211378009163,21.259507019216436,0.4510506450271269,-0.08458276816476361,109.05569753405848,6.242610177755925,-6.0214076388062265,0.0,0.5,322.9531800432983,144.81945228127668,65.57853737595161,-4.891932482801764,-1.776169164905552
STABILIZE,4.394486904144287,24.22436815598577,324.8330912416017,144.8673851487406,66.3980667565246,1.2821158363671274,218.3316115123489,10.574851402475247,21.45961982763702,1.5725573547377598,0.18672061660034092,109.03405266457871,5.95718428479155,-5.505626717709191,0.0,0.5,316.0642730175926,142.94366596855167,63.40941789290718,-1.6754743295265229,-0.17188733853924698
STABILIZE,4.435150623321533,24.597859425856964,325.18718331552674,145.50122561793663,65.66101729212582,1.257554717567786,217.2666663524356,9.960522607089047,21.661395437740172,1.9819727674100758,0.5840886427938121,109.04378568414597,5.9247226218717355,-6.105335056086826,0.0,0.5,326.7170738030561,149.04303226978394,64.21981390325601,-5.465565520833607,0.0
STABILIZE,4.473328113555908,26.199008082751384,324.6347357678242,145.81002440819074,64.43909717681667,1.2492656563293045,216.23346695729265,9.364506808619637,21.864801363808,1.9022202770098333,0.9300803062155648,109.06118900615117,5.850566476890764,-5.685009230641089,0.0,0.5,319.4647568300358,147.57055078663834,62.0169660909594,-1.1259771360451083,0.2291831180523293
STABILIZE,4.521494626998901,20.765011956096618,324.79354171853987,147.31679980479072,62.70890929475771,1.2529192806391318,215.23245883833124,8.78706100667489,22.06980464590633,1.6107157006399169,1.2836076960042513,109.08333930962952,6.247739355074924,-5.9742294003304535,-0.0,0.5,321.5866196728272,152.20729771770334,58.31981121071443,-6.680625295902786,0.5156620156177409
STABILIZE,4.556140899658203,28.872074453439065,323.13921258134746,148.91883620160252,61.3110758170321,1.2473304949274666,214.26404320196025,8.228416642890608,22.276371861311645,1.3420626960770419,1.5713890722245702,109.09559949918969,6.6370649812933555,-5.059153390327013,0.0,0.5,320.70653041830013,152.82963426533567,58.58936998732354,-6.310174064675223,0.11459155902616465
STABILIZE,4.604330778121948,20.752991004720297,321.41970445817265,150.77496868028265,60.5637473729926,1.267266516741873,213.32857566538314,7.688778860119612,22.48446913593796,1.145495187849364,1.8745688964852714,109.13566538886099,6.533019754219394,-5.095846548491323,-0.0,0.5,318.53070053716306,152.22432836195244,59.672775672709705,-6.454598483147095,0.9167324722093172
STABILIZE,4.652106523513794,20.936660460333545,320.7722505083184,151.84580309982476,60.131181151173834,1.2975556620339963,212.42636497239545,7.168325761621304,22.69406215576373,1.305773047243118,2.021022666442331,109.15806157914946,6.338874424539749,-5.539870462291201,-0.0,0.5,320.1548697442738,154.39720436749445,62.05698279416221,-5.290486449260982,1.088619810748564
STABILIZE,4.689116716384888,27.022020641935857,318.8187266758853,152.10021744289077,59.741977677182135,1.3428014332968101,211.55767170918165,6.6672076702506615,22.905116178258766,1.713190629583205,2.0065708399322304,109.20771705441545,6.1555953337810285,-4.791150333360771,-0.0,0.5,307.32498938383327,148.8426225019684,60.0709487210009,1.0075643787355233,1.3178029288008934
STABILIZE,4.729970932006836,24.555952367012868,319.49881574878714,152.93226455498038,60.59733541878776,1.3792471226979388,210.72270702011224,6.185546387647378,23.117596043811076,2.3541047387242306,2.043752255339664,109.23449822615108,6.40957441248808,-6.209581458959338,-0.0,0.5,321.5049856008077,156.3675332781514,62.596599918742534,-2.89953114655178,1.1459155902616465
STABILIZE,4.769647836685181,25.135761629091608,318.7051884139669,153.62672214912877,61.26434240233167,1.4361359023317257,209.92163132354045,5.723434453425227,23.331466187153826,3.364491634436455,1.99431235791935,109.30465109911627,6.388584711230105,-5.456048334963998,-0.0,0.5,320.368055124494,156.3019222360777,61.92440490504313,-6.084451998014799,1.8907607239317168
STABILIZE,4.801419258117676,31.48427776818622,318.51733968699597,154.49877055387316,60.878295582402856,1.51441199478693,209.15455302759972,5.280934404361119,23.546690648792215,4.234559337283349,1.9391530308427964,109.36102065033639,6.641987088862648,-5.843127713030023,-0.0,0.5,317.9619670142685,156.58457038567437,57.742541573065616,-4.132322429766475,2.46371851906254
STABILIZE,4.844273090362549,23.34227851764457,318.0642581046761,154.93624375750915,60.01540733818355,1.593481263071666,208.42152724600055,4.858078033584775,23.76323308643035,6.2940146244116955,1.8176789702277658,109.49903828289484,6.339679631939898,-5.626846146415376,-0.0,0.5,317.9619670142685,156.58457038567437,57.742541573065616,-4.132322429766475,2.864788975654116
STABILIZE,4.88297176361084,25.87942321575112,317.508500691253,156.7708189113348,58.07731449224175,1.7109969892003718,207.7225545138275,4.454865649767157,23.981056786398177,7.892843661461675,1.7938578317237002,109.63030768855332,7.042459617628051,-5.576763597780931,-0.0,0.5,316.2604711109152,158.01549827109665,50.38048449129188,-3.9405478469819286,3.4377467707849396
STABILIZE,4.927958011627197,22.21594622795913,316.55942415365973,156.70213143944585,54.66311471014065,1.8515954245696116,207.05757950333611,4.0712653363103755,24.20012467507835,10.420830715745856,1.6536580604471391,109.82121147585516,6.232686302305919,-5.365091395719191,-0.0,0.5,310.93808823641723,156.02409591870662,45.52560100823702,-1.7541552838955425,4.469070802020421
STABILIZE,4.9618141651153564,29.545882966208552,313.9115007971104,155.64359356170948,49.197049098958516,2.0458871012686357,206.42648973975054,3.7072122105366248,24.42039933033317,11.865783701645087,1.553336241917992,109.952173523001,5.760797894942539,-4.190936780260853,-0.0,0.5,298.97148289187896,151.009232847396,34.594076849132485,6.293399053473777,5.271211715203574
STABILIZE,5.001725912094116,25.05887273118331,312.86731248561614,154.5285260540538,44.56735615417189,2.211623170474817,205.82911431705963,3.3626076828773535,24.64184299293143,13.710797088931244,1.296223909174911,110.1434324801397,5.753253351502978,-5.141560275119065,-0.0,0.5,298.97148289187896,151.009232847396,34.594076849132485,6.293399053473777,5.443099053742821
STABILIZE,5.04607892036438,22.552325237524265,312.1978803802431,155.1148307712771,39.25180469718465,2.425136852993653,205.265222613815,3.0373187160626003,24.864417577975345,14.932197129522311,1.1218849314359223,110.32160479482864,6.429442178247349,-5.313012787153024,-0.0,0.5,316.14952875782336,159.51609397179078,31.16478428812941,-0.5053859504193241,6.130648407899809
STABILIZE,5.08599328994751,25.06561168448543,313.0364082128739,156.16647127670217,33.416802738306515,2.6856408579011393,204.7345230089271,2.7311770843101613,25.088084686327456,15.892753953257884,0.7452609368037204,110.5317560552116,6.699081375782464,-6.117568288190066,-0.0,0.5,327.07627778554007,163.27370079822205,21.20547469690118,-4.847259314337919,6.932789321082962
STABILIZE,5.125387907028198,25.407551444442426,314.16197929921344,157.25664549260452,27.68213531624292,2.930144169481897,204.2366615974629,2.4439786325148134,25.312805616037494,15.59570902625403,0.4707578752167293,110.75111441059573,6.766885950320221,-6.33393362416641,-0.0,0.5,326.96653570498495,161.47496699821838,16.852263897919066,-1.7519234334118465,6.818197762056797
STABILIZE,5.165632963180542,24.843651526997892,314.7720827654172,158.54065976492345,23.089872063772123,3.168951224558131,203.77122090644298,2.1754825354375953,25.53854137376932,14.665112827312718,0.21592517146999318,110.92198525306193,6.883221789220178,-6.094730615801489,-0.0,0.5006121673274992,322.84279474389865,157.42930420899057,11.632760586778481,-1.416014249678227,6.474423084978302
STABILIZE,5.201393127441406,27.97302939156068,315.60134463179355,158.72369555369522,17.826460231597004,3.403224850128072,203.3377186106377,1.9254105568948034,25.76525268622778,13.28120124202589,0.08228419606564276,111.13364598525146,6.4793849342400325,-6.332285889904133,-0.0,0.5019846981136576,322.89456604192577,151.92441179125473,8.277017688256874,0.30788404249656764,6.016056848873644
STABILIZE,5.243819713592529,23.576485930456094,319.315211877668,158.21280196700968,13.464792209625397,3.6185071476081507,202.93560624836573,1.6934463089473866,25.992900011585647,11.66281950781628,-0.09170051897100447,111.36460200184627,6.17182076382838,-7.769316384855106,-0.0,0.5031320269504901,340.6490262034127,156.9616260383631,9.356444178271383,-4.481397436923885,6.474423084978302
STABILIZE,5.282644271850586,25.76021520565529,323.16977452347436,155.23903411497236,11.405988512236922,3.887650250330048,202.56426793728917,1.4792345110901124,26.221443550910486,10.449452623462793,-0.2797864263534075,111.55372993996393,5.029771490222603,-8.216936277324344,-0.0,0.5037038637596684,329.80798405833025,148.40486153803542,10.911456209958793,1.5045168001328477,6.760901982543714
STABILIZE,5.328738451004028,21.701111364059688,327.51403362644805,152.29389078645346,10.65994582700276,4.1252042377755975,202.22301909021257,1.2823802494410188,26.450843259591544,8.863062641551878,-0.428305608162882,111.84212101728937,5.099346972918622,-8.322878142731456,-0.0,0.5039477243581472,333.72555571566875,146.74925035562381,13.12205047174826,-3.524158545748776,6.41712730546522
STABILIZE,5.367708683013916,25.66579366050667,329.6672056901053,148.49580361481975,11.907659076221849,4.403233882358552,201.91110513087847,1.1024482359301828,26.681058858766697,6.9982668919952475,-0.5534385424193501,112.09759058281536,4.426011487140941,-7.666188264654642,-0.0,0.5036933499456362,333.37490526708115,138.43886835082213,17.871326832873933,-0.6668388014456497,6.245239966925974
STABILIZE,5.406668186187744,25.673020186810632,333.2441234105093,146.70431782443106,14.48040055540682,4.582242261566961,201.6277002097653,0.9389620674893422,26.91204984674929,5.02564465355892,-0.5537915244612223,112.27346795394318,5.175919261897282,-8.577144873516026,-0.0,0.5031079123228356,355.69161954877234,142.96698283931127,21.140725084181735,-13.162894709952297,4.411775022507339
STABILIZE,5.451170921325684,22.47534535789688,336.83475889098276,143.9053891846207,16.83725673658889,4.708476580215067,201.37190591988394,0.7914034852405507,27.143775510455086,2.3021596559824027,-0.4479094517000086,112.42209287028267,4.788042308616452,-8.517310510515433,-0.0,0.5025766296934665,355.69161954877234,142.96698283931127,21.140725084181735,-13.162894709952297,2.635605857601787
STABILIZE,5.488034248352051,27.134602197005965,339.03470428337863,139.7695421239873,19.89238870609116,4.823029142014205,201.142750012575,0.6592116336863114,27.376194936829094,0.5299865009347295,-0.3424546659683174,112.48493744083595,3.8376320104771358,-8.228754839563546,-0.0,0.5018709515576845,340.44235788306554,127.72562623486841,26.187116057470153,-3.07128366923223,1.4896902673401404
STABILIZE,5.523370027542114,28.304129242106256,340.64973746762763,134.7407924230011,23.3550954089679,4.880358479032653,200.93918511330605,0.5417823198979477,27.60926702427257,-0.25787752737353375,-0.2383321940116018,112.50201974395016,3.1603168202850025,-8.027476189387526,-0.0,0.5010635429038262,335.8148315159177,121.60550185069269,30.43558398613195,-1.8222451066375243,0.9740282517223995
STABILIZE,5.565638065338135,23.66521285299179,340.75000028792914,130.90392439394492,26.75227430465071,4.9079075639057015,200.7600874374682,0.4384672727053385,27.84295049406981,-1.5393272037651784,-0.009925999091747476,112.53894374660324,3.8117756901960664,-7.149977345320913,-0.0,0.5002726690473548,341.45112876582454,119.2545282055413,34.857221311287994,-2.6598722355682582,0.4583662361046586
STABILIZE,5.606175422668457,24.676150470071892,342.2126766608176,125.36030292365095,30.276317308193974,4.943324660940806,200.60425550617276,0.34857340188557373,28.07720390181511,-1.8520019514675492,0.1790077322018098,112.5333703122405,2.8575597230808643,-7.897070871542397,-0.0,0.5,341.50939504143736,115.24887548784145,38.760940101898036,-2.6941042169009535,0.34377467707849396
STABILIZE,5.645315647125244,25.55492326158083,342.9018576515262,118.26420673162599,34.84194182168032,4.960049977873159,200.47040886204968,0.2713620573525759,28.311985648839652,-1.9025069315115624,0.3163376500882018,112.53153299135379,1.8385636015273095,-7.562077120453525,-0.0,0.5,339.2390036413376,107.48650187918653,43.968847651613494,-0.7759103612733327,-0.057295779513082325
STABILIZE,5.6861326694488525,24.506023814810053,342.90207344251047,113.27913368831373,38.54175386754168,4.962695983969598,200.3571867850435,0.20604828834711952,28.547253993638392,-1.7853644914907894,0.37060275599201264,112.5129207258655,2.621811327286869,-7.199963077246316,-0.0,0.5,333.3766315949551,102.8002610183071,44.68617628677692,4.131261154473506,-0.34377467707849396
STABILIZE,5.721406698226929,28.355602428372478,340.86550568513894,109.35369666720737,41.88281463549594,4.940880245625998,200.2631470082108,0.15180010262383803,28.782967063296944,-1.5996292363999285,0.4159268774680123,112.48587317675225,2.625572025157822,-5.9462536111256625,0.0,0.5,339.3990774898003,101.97831674516092,47.14088782590326,0.06919870023065755,-1.088619810748564
STABILIZE,5.756125450134277,28.813761455284887,339.7787490918773,105.90430166345509,44.82676549096644,4.900767495392748,200.18676443351683,0.10773772564277806,29.019082864918545,-1.4179353188635995,0.4580069792533733,112.43214007855175,2.668912643651913,-6.4111859537315325,0.0,0.5,346.9975668026789,102.00755318677986,49.576975588640444,-1.3315227792725324,-1.4896902673401404
STABILIZE,5.795742988586426,25.2462079260365,341.3401812846024,103.11813525070929,47.23677353712949,4.849064234082426,200.1264298476326,0.07293285975708841,29.255559297050837,-1.3761170587833733,0.5505479316574067,112.38615924505923,3.0220198311924036,-7.895050250363464,0.0,0.5,352.9338154248666,101.31804342411253,50.81098033271331,-9.109045567811748,-1.7188733853924698
STABILIZE,5.838839769363403,23.20821137086734,342.1272287958591,100.91728312895421,48.443308279754135,4.759022276218279,200.08044863773273,0.046407943403210083,29.492354161112907,-1.2276035599047317,0.7422319613502313,112.22304066730098,3.237231754431275,-7.507650340172654,0.0,0.5,342.111211605971,96.48224127041117,50.001521364736746,-5.7347832065159565,-3.0366763141933633
STABILIZE,5.880754709243774,23.865579497800816,341.7666670569343,99.09804200568942,49.705440824523386,4.643779959190016,200.0470395072922,0.027135410289702122,29.72942517282202,-1.0401813548105836,0.7403200419911566,112.06732601460304,3.285589566266477,-6.947669100003251,0.0,0.5,338.56663485442664,93.70405540198313,50.996839010623134,0.5635902372328871,-3.552338329811104
STABILIZE,5.925483703613281,22.361034696010066,342.0345940464702,97.2525841449204,50.84648811990575,4.528362682403882,200.02433319188128,0.01403694858572635,29.966729973620694,-0.8966751316455017,0.7769556825952241,111.92468434397648,3.2453393125374346,-7.2493867793114655,0.0,0.5,343.65281095772497,92.7510274413158,52.84612430281511,-5.303935743249582,-3.0939720937064457
STABILIZE,5.971862316131592,21.567538938567306,341.90075914501784,94.91350980496686,51.55370518538236,4.38857762738872,200.01037117496605,0.005982760111351126,30.20422614210345,-0.7751390123585593,0.697171816013482,111.76171603037999,3.000346464130333,-7.06236255435316,0.0,0.5,338.16832442971884,90.31218148701211,53.11306091602348,0.6663667479560047,-3.666929888837269
STABILIZE,6.018096923828125,21.63361684349517,343.2758419296231,92.68615987868871,52.43503662490847,4.237549511845363,200.00310440370333,0.0017908195267182236,30.441871205443817,-0.5917565973542093,0.6081119122086279,111.60767477402868,2.9474172411335307,-7.782143729566497,0.0,0.5,344.37729387179706,90.18129379272182,55.21763753034381,-2.202595076953216,-3.6096341093241864
STABILIZE,6.077229261398315,17.017365055665554,343.8981189773727,91.42597038315083,53.47825985802988,4.070452424073864,200.0003920047376,0.00022613352064126957,30.679622650821123,-0.45789956385650427,-0.029899233133010152,111.36726577562257,3.3248365551260073,-7.434229086314792,0.0,0.5,344.37729387179706,90.18129379272182,55.21763753034381,-2.202595076953216,-4.010704565915763
STABILIZE,6.113208293914795,27.79046685130461,344.15062034831317,90.61990351821143,54.46062276635432,3.8599434195642774,199.9999999999999,0.0,30.91743793684752,-0.29274441578683236,-1.111489383519163,111.22881101095724,3.28310303061667,-7.360660538176317,0.0,0.5,349.01757777020265,89.6737210772861,55.90865355224535,-5.709618975288237,-3.8388172273765155
STABILIZE,6.153849840164185,24.6131601030462,343.10593379549306,89.7078948434293,54.67838505117271,3.7393916662434386,200.0,0.0,50.0,-0.038216309128609724,-2.5576065965067643,111.08739194419213,3.2375889837373184,-6.65802263293313,0.0,0.5,344.576323002306,88.19098406740517,53.93493572690702,-2.299749778479196,-3.2658594322456924
STABILIZE,6.199521541595459,21.900884013095716,343.82530761928274,89.38188682608805,54.3022466409555,3.6562898108732576,200.0,0.0,50.0,0.32795345398886633,-4.676108015236225,111.01657654287744,3.4710220259352833,-7.525613937912033,0.0,0.5,347.8662021962886,88.68214140030584,51.2323688649374,-0.2621924721045872,-1.4896902673401404
STABILIZE,6.237760305404663,26.169747867700735,343.36737148538907,88.18640118122562,50.49637377253245,3.6045583625850552,200.0,0.0,50.0,0.5192391982757145,-5.9788095050652466,111.00698695728275,3.0208235355237933,-6.93800623048937,0.0,0.5,334.90314578327747,84.20386556840975,36.188273188228536,8.453261494856122,-0.2291831180523293
STABILIZE,6.278062582015991,24.810586029233434,343.83416014983874,87.47752374183388,45.00877266549582,3.6173735687275355,200.0,0.0,50.0,0.6181268905225706,-7.239567656974867,111.0269720907942,3.2327288511061747,-7.435883560253379,-0.0,0.501247806833626,347.3871202733222,86.63690659576308,27.77963199516064,1.1453051571640174,1.088619810748564
STABILIZE,6.315907716751099,26.430302533823166,345.2816975544935,86.7749163490812,37.74578093479344,3.6640626977453996,200.0,0.0,50.0,0.648543910691606,-8.057715036515674,111.08519262327938,3.1825230366723156,-8.043865287655056,-0.0,0.5030635547663016,349.7486236669568,86.16068411352273,19.59369489873342,-2.0723697494192947,2.2345354010102105
STABILIZE,6.347326755523682,31.83339152081847,345.9531137788885,86.36885635830471,30.877532769158716,3.7524290100230138,200.0,0.0,50.0,0.5343922931145051,-8.616906038959202,111.19924995222944,3.25536299241786,-7.737100821003227,-0.0,0.5047806168077104,349.7486236669568,86.16068411352273,19.59369489873342,-2.0723697494192947,3.380450991271857
STABILIZE,6.385962724685669,25.92324950400811,346.98343229283296,85.49404454457706,21.631696811747013,3.87233289404773,200.0,0.0,50.0,0.3993527297558888,-8.945741227681236,111.35678826543578,3.063970490855244,-7.9015638606698,-0.0,0.5070920757970633,352.61984198335267,84.3080823316677,5.0031890778789005,1.4708146933004116,4.5263665815335035
STABILIZE,6.43071436882019,22.326278584507943,347.6571515284414,85.36129300844428,14.419159931179738,4.045661617164301,200.0,0.0,50.0,0.2369686641376851,-8.858348957250922,111.60316001898731,3.3758920352541066,-7.705093046443602,-0.0,0.5088952100172051,354.40733165506964,83.54010788774582,0.12558878539215054,-3.691629991868467,5.958761069360562
STABILIZE,6.465460777282715,28.785483394985896,350.64729938102414,85.0334930551249,8.242249044559298,4.2798037281029435,200.0,0.0,50.0,0.08650186455855208,-8.604501561652814,111.82003901570272,3.2588120492364463,-9.254888140596053,-0.0,0.5104394377388601,368.497505822968,84.99790682916615,-3.104922437941559,-12.39743515534147,7.219268218648373
STABILIZE,6.503223419189453,26.48855656040014,350.4825635476018,83.15967356047858,3.648769189423556,4.515095691568445,200.0,0.0,50.0,-0.09034028412975378,-8.003195612786985,112.14981420920928,2.539942424749877,-7.453922063543711,-0.0,0.5115878077026441,346.54831552890977,76.79158664029113,-3.3737043769452937,6.269513553832013,7.7349302342661135
