E-kp,E-ki,E-kd,E-I-Tot,E-P,E-I,E-D,E-PID,N-kp,N-ki,N-kd,N-I-Tot,N-P,N-I,N-D,N-PID,D-kp,D-ki,D-kd,D-I-Tot,D-P,D-I,D-D,D-PID,Y-kp,Y-ki,Y-kd,Y-I-Tot,Y-P,Y-I,Y-D,Y-PID,errorN,desiredN,actualN,errorE,desiredE,actualE,errorD,desiredD,actualD,errorY,desiredY,actualY,roll,pitch,yaw-rate,thrust,dt,Time,Mode
0.16,0.015,0.12,0.011072255607295536,0.053601963290596334,0.00016608383410943303,1.216372440202571,1.2701404873272768,0.16,0.015,0.12,0.005495996217770556,0.02660670038326098,8.243994326655834e-05,0.60377745672244,0.6304665970489676,0.002,8e-05,0,-0.012570154602153855,-0.0007606681391750621,-1.0056123681723084e-06,-0.0,-0.0007616737515432345,0.2,0.02,0.0,-0.02400119180032614,-0.14524039268068809,-0.0004800238360065228,-0.0,-0.1457204165166946,0.16629187739538112,0.0,-0.16629187739538112,0.33501227056622707,0.0,-0.33501227056622707,-0.3803340695875311,0.0,0.3803340695875311,-0.7262019634034405,0,0.7262019634034405,1.278029174904163,-0.6143178457738814,0.1457204165166946,0.4,0.0330502986907959,0.03339409828186035,STABILIZE
0.16,0.015,0.12,0.022528546987498788,0.05483298030671148,0.0003379282048124818,0.6219955670714585,0.6771664755829825,0.16,0.015,0.12,0.00530547444017251,-0.0009118899417210891,7.958211660258764e-05,-0.006810304189097707,-0.007642612014216208,0.002,8e-05,0,-0.016977616934955437,-0.00026369167743356815,-1.358209354796435e-06,-0.0,-0.0002650498867883646,0.2,0.02,0.0,-0.062466860093907256,-0.23013416406193585,-0.0012493372018781452,-0.0,-0.231383501263814,-0.005699312135756807,0.0,0.005699312135756807,0.34270612691694674,0.0,-0.34270612691694674,-0.13184583871678407,0.0,0.13184583871678407,-1.1506708203096792,0,1.1506708203096792,0.6768764443075556,0.021239687225535105,0.231383501263814,0.4,0.03342890739440918,0.06672787666320801,STABILIZE
0.16,0.015,0.12,0.03548809990089448,0.06199484438688644,0.0005323214985134172,0.4681954878214834,0.5307226537068832,0.16,0.015,0.12,0.007674092360767564,0.011330799787660654,0.00011511138541151346,0.0869685053155341,0.09841441648860627,0.002,8e-05,0,-0.014911148846076742,0.00012356750311586713,-1.1928919076861395e-06,0.0,0.00012237461120818098,0.2,0.02,0.0,-0.09175969178007716,-0.17516080166606673,-0.0018351938356015432,-0.0,-0.17699599550166828,0.07081749867287909,0.0,-0.07081749867287909,0.3874677774180402,0.0,-0.3874677774180402,0.061783751557933565,0.0,-0.061783751557933565,-0.8758040083303337,0,0.8758040083303337,0.5321649239172481,-0.09029078736293439,0.17699599550166828,0.5001223746112082,0.0334467887878418,0.10017681121826172,STABILIZE
0.16,0.015,0.12,0.04707653623416007,0.05544924834310948,0.000706148043512401,0.31444363702873696,0.3705990334153588,0.16,0.015,0.12,0.015763979256132155,0.03870911783335743,0.00023645968884198232,0.21874422840992733,0.25768980593212676,0.002,8e-05,0,-0.012924387168740767,0.0001188301407508911,-1.0339509734992614e-06,0.0,0.00011779618977739184,0.2,0.02,0.0,-0.11532180649587205,-0.14092729087773065,-0.002306436129917441,-0.0,-0.14323372700764808,0.24193198645848396,0.0,-0.24193198645848396,0.3465578021444342,0.0,-0.3465578021444342,0.05941507037544555,0.0,-0.05941507037544555,-0.7046364543886532,0,0.7046364543886532,0.37374005551618267,-0.2531127230158454,0.14323372700764808,0.5001177961897774,0.033438682556152344,0.1336221694946289,STABILIZE
0.16,0.015,0.12,0.057331691389311726,0.04906651261619206,0.0008599753708396758,0.22292492624519467,0.2728514142322264,0.16,0.015,0.12,0.029076981983744185,0.06369699984164841,0.00043615472975616274,0.2870793976632085,0.35121255223461306,0.002,8e-05,0,-0.011221479325121636,0.000101846032469797,-8.977183460097309e-07,0.0,0.00010094831412378728,0.2,0.02,0.0,-0.13340263072568956,-0.10813622231471398,-0.002668052614513791,-0.0,-0.11080427492922777,0.39810624901030256,0.0,-0.39810624901030256,0.3066657038512004,0.0,-0.3066657038512004,0.050923016234898505,0.0,-0.050923016234898505,-0.5406811115735699,0,0.5406811115735699,0.2761534917439931,-0.3486221451561521,0.11080427492922777,0.5001009483141238,0.03344082832336426,0.16706323623657227,STABILIZE
0.16,0.015,0.12,0.07088860049883171,0.06484179701167694,0.0010633290074824756,0.05038681838106232,0.11629194440022174,0.16,0.015,0.12,0.042580424077196845,0.06458606782040996,0.0006387063611579527,0.17031048741429328,0.2355352615958612,0.002,8e-05,0,-0.007704436539676052,0.0002102722793714666,-6.163549231740842e-07,0.0,0.00020965592444829252,0.2,0.02,0.0,-0.15560081286906727,-0.13271554092281704,-0.0031120162573813454,0.0,-0.13582755718019837,0.4036629238775622,0.0,-0.4036629238775622,0.40526123132298086,0.0,-0.40526123132298086,0.10513613968573329,0.0,-0.10513613968573329,-0.6635777046140852,0,0.6635777046140852,0.11901196306713127,-0.23417264663987297,0.13582755718019837,0.5002096559244483,0.03345227241516113,0.20053410530090332,STABILIZE
0.16,0.015,0.12,0.08712170651546605,0.077649063691616,0.0013068255977319908,0.10229618873160198,0.18125207802094997,0.16,0.015,0.12,0.06071690827509408,0.08675363884036856,0.0009107536241264112,0.3931987063098156,0.4808630987743106,0.002,8e-05,0,-0.0030146805476215493,0.00028041087866365646,-2.4117444380972396e-07,0.0,0.00028016970421984675,0.2,0.02,0.0,-0.18039648621221904,-0.14825881263311122,-0.003607929724244381,0.0,-0.1518667423573556,0.5422102427523035,0.0,-0.5422102427523035,0.48530664807260004,0.0,-0.48530664807260004,0.14020543933182822,0.0,-0.14020543933182822,-0.7412940631655561,0,0.7412940631655561,0.18745815196500643,-0.4784778749447141,0.1518667423573556,0.5002801697042198,0.03344917297363281,0.23398542404174805,STABILIZE
0.16,0.015,0.12,0.1024849772683709,0.07352814488317422,0.0015372746590255634,0.05168719321183682,0.1267526127540366,0.16,0.015,0.12,0.07904909426305552,0.08773728257658035,0.0011857364139458329,0.3427069397860714,0.4316299587765976,0.002,8e-05,0,0.000976393248909118,0.00023876446711002376,7.811145991272945e-08,0.0,0.0002388425785699365,0.2,0.02,0.0,-0.2034758259628105,-0.13807126948119355,-0.00406951651925621,0.0,-0.14214078600044977,0.5483580161036272,0.0,-0.5483580161036272,0.45955090551983885,0.0,-0.45955090551983885,0.11938223355501187,0.0,-0.11938223355501187,-0.6903563474059677,0,0.6903563474059677,0.1319439917776119,-0.4300714233557626,0.14214078600044977,0.50023884257857,0.033431053161621094,0.26744890213012695,STABILIZE
0.16,0.015,0.12,0.11678367308868233,0.06839020107069078,0.0017517550963302348,0.05801087041556302,0.12815282658258403,0.16,0.015,0.12,0.09430926631591015,0.07298891088972986,0.001414638994738652,0.1537604856462401,0.2281640355307086,0.002,8e-05,0,0.003355546758142418,0.00014224268153478442,2.6844374065139343e-07,0.0,0.0001425111252754358,0.2,0.02,0.0,-0.2238267200272289,-0.12167208766138256,-0.004476534400544578,0.0,-0.12614862206192715,0.45618069306081166,0.0,-0.45618069306081166,0.42743875669181736,0.0,-0.42743875669181736,0.07112134076739221,0.0,-0.07112134076739221,-0.6083604383069128,0,0.6083604383069128,0.13056817842207785,-0.22679048669268462,0.12614862206192715,0.5001425111252754,0.03345203399658203,0.3008744716644287,STABILIZE
0.16,0.015,0.12,0.13007574057076107,0.06357145242085026,0.001951136108561416,0.0650348152481132,0.1305574037775249,0.16,0.015,0.12,0.10665640466753136,0.05905217674466618,0.0015998460700129703,-0.02081228664370615,0.039839736170973,0.002,8e-05,0,0.004201164956729968,5.05538144744907e-05,3.360931965383975e-07,-0.0,5.08899076710291e-05,0.2,0.02,0.0,-0.2415966894343324,-0.10623467400826972,-0.004831933788686648,0.0,-0.11106660779695637,0.36907610465416363,0.0,-0.36907610465416363,0.3973215776303141,0.0,-0.3973215776303141,0.02527690723724535,0.0,-0.02527690723724535,-0.5311733700413486,0,0.5311733700413486,0.13092113126892305,-0.03862767979785774,0.11106660779695637,0.500050889907671,0.033454179763793945,0.33433079719543457,STABILIZE
0.16,0.015,0.12,0.14059075109305552,0.05029940915954291,0.0021088612663958325,-0.06522147098615713,-0.01281320056021839,0.16,0.015,0.12,0.11793961222908189,0.05397414225759969,0.0017690941834362284,-0.04757185978565529,0.008171376655380626,0.002,8e-05,0,0.003144738748882783,-6.31687599868598e-05,2.5157909991062267e-07,-0.0,-6.291718088694917e-05,0.2,0.02,0.0,-0.2579145308744778,-0.09757215428579029,-0.005158290617489556,0.0,-0.10273044490327984,0.337338389109998,0.0,-0.337338389109998,0.3143713072471432,0.0,-0.3143713072471432,-0.0315843799934299,0.0,0.0315843799934299,-0.4878607714289514,0,0.4878607714289514,-0.012743159468144574,-0.008280180662879135,0.10273044490327984,0.4,0.0334477424621582,0.3677687644958496,STABILIZE
0.16,0.015,0.12,0.15302460547027333,0.059499136657362284,0.0022953690820541,-0.08138299708947627,-0.01958849135005989,0.16,0.015,0.12,0.12732181506183965,0.04489621251445399,0.0019098272259275946,-0.1877056427134764,-0.1408996029730948,0.002,8e-05,0,0.0010374543536298777,-0.0001260486072995321,8.299634829039023e-08,-0.0,-0.0001259656109512417,0.2,0.02,0.0,-0.27601930302674127,-0.10829488987860506,-0.005520386060534826,0.0,-0.11381527593913988,0.28060132821533745,0.0,-0.28060132821533745,0.3718696041085143,0.0,-0.3718696041085143,-0.06302430364976605,0.0,0.06302430364976605,-0.5414744493930252,0,0.5414744493930252,-0.02091917017299056,0.1407081924786918,0.11381527593913988,0.4,0.03343605995178223,0.401212215423584,STABILIZE
0.16,0.015,0.12,0.1631378375631358,0.04837919357881048,0.0024470675634470367,-0.11276342606196316,-0.06193716491970564,0.16,0.015,0.12,0.13938075188076623,0.05768696232426394,0.0020907112782114936,-0.134755562803683,-0.07497788920120757,0.002,8e-05,0,-0.0034573418224855246,-0.0002687748737308413,-2.76587345798842e-07,-0.0,-0.00026905146107664016,0.2,0.02,0.0,-0.28861937678665844,-0.07534453401506319,-0.005772387535733169,0.0,-0.08111692155079636,0.3605435145266496,0.0,-0.3605435145266496,0.3023699598675655,0.0,-0.3023699598675655,-0.13438743686542065,0.0,0.13438743686542065,-0.37672267007531596,0,0.37672267007531596,-0.06242880600290663,0.07456903143001674,0.08111692155079636,0.4,0.033446550369262695,0.4346601963043213,STABILIZE
0.16,0.015,0.12,0.17174528405362166,0.041152714080340644,0.002576179260804325,-0.12211555958446764,-0.07838666624332266,0.16,0.015,0.12,0.15178707018160945,0.05931534635604559,0.0022768060527241416,-0.061324574769501074,0.00026757763926865685,0.002,8e-05,0,-0.008862774491011027,-0.00032304619223343865,-7.090219592808822e-07,-0.0,-0.00032375521419271956,0.2,0.02,0.0,-0.2991534596427052,-0.06295509654818636,-0.005983069192854104,0.0,-0.06893816574104046,0.3707209147252849,0.0,-0.3707209147252849,0.257204463002129,0.0,-0.257204463002129,-0.16152309611671933,0.0,0.16152309611671933,-0.3147754827409318,0,0.3147754827409318,-0.07838401326092727,-0.000698217477491553,0.06893816574104046,0.4,0.03346538543701172,0.46811914443969727,STABILIZE
0.16,0.015,0.12,0.17825251619575141,0.031119445644676346,0.002673787742936271,-0.14549260844812975,-0.11169937506051714,0.16,0.015,0.12,0.16439182636399408,0.060279549939912844,0.002465877395459911,0.005487086369842448,0.0682325137052152,0.002,8e-05,0,-0.015320912954920713,-0.00038605832038837934,-1.225673036393657e-06,-0.0,-0.000387283993424773,0.2,0.02,0.0,-0.30686053527485724,-0.0460718005704319,-0.006137210705497145,0.0,-0.05220901127592904,0.37674718712445526,0.0,-0.37674718712445526,0.19449653527922717,0.0,-0.19449653527922717,-0.19302916019418967,0.0,0.19302916019418967,-0.2303590028521595,0,0.2303590028521595,-0.11142414261774192,-0.06868105093359862,0.05220901127592904,0.4,0.03345680236816406,0.5015926361083984,STABILIZE
0.16,0.015,0.12,0.18243237833223191,0.019997419256711606,0.0027364856749834787,-0.13585738250995177,-0.11312347757825669,0.16,0.015,0.12,0.1778498911028589,0.06438646878283293,0.0026677483665428835,0.046680492611457056,0.11373470976083286,0.002,8e-05,0,-0.023478548958788995,-0.00048785002347696604,-1.8782839167031197e-06,-0.0,-0.0004897283073936692,0.2,0.02,0.0,-0.3111454238489879,-0.02562486228233999,-0.006222908476979759,0.0,-0.03184777075931975,0.4024154298927058,0.0,-0.4024154298927058,0.12498387035444752,0.0,-0.12498387035444752,-0.24392501173848302,0.0,0.24392501173848302,-0.12812431141169994,0,0.12812431141169994,-0.11286886240637208,-0.11398739089421549,0.03184777075931975,0.4,0.03344321250915527,0.5350396633148193,STABILIZE
0.16,0.015,0.12,0.18618531324843807,0.017950166697018665,0.002792779698726571,-0.1863089120915507,-0.16556596569580548,0.16,0.015,0.12,0.19324113895721703,0.07361584222199818,0.0028986170843582552,0.1287904780141386,0.20530493732049504,0.002,8e-05,0,-0.033373850964442967,-0.0005916113804419201,-2.6699080771554373e-06,-0.0,-0.0005942812885190755,0.2,0.02,0.0,-0.31546281784171637,-0.02581244532496655,-0.006309256356834328,0.0,-0.032121701681800875,0.46009901388748864,0.0,-0.46009901388748864,0.11218854185636665,0.0,-0.11218854185636665,-0.29580569022096004,0.0,0.29580569022096004,-0.12906222662483274,0,0.12906222662483274,-0.16510308419098696,-0.20567736354684465,0.032121701681800875,0.4,0.03345203399658203,0.5684959888458252,STABILIZE
0.16,0.015,0.12,0.1908449597519703,0.02228820979997294,0.0028626743962795543,-0.11698551903143119,-0.0918346348351787,0.16,0.015,0.12,0.20651220936363343,0.06347872124295242,0.0030976831404545013,0.02596917026466702,0.09254557464807395,0.002,8e-05,0,-0.04383822303072596,-0.0006256701014269284,-3.507057842458077e-06,-0.0,-0.0006291771592693865,0.2,0.02,0.0,-0.320396404853916,-0.029498166414279478,-0.0064079280970783204,0.0,-0.035906094511357796,0.39674200776845264,0.0,-0.39674200776845264,0.13930131124983086,0.0,-0.13930131124983086,-0.3128350507134642,0.0,0.3128350507134642,-0.14749083207139738,0,0.14749083207139738,-0.0915960999498078,-0.09278166853553381,0.035906094511357796,0.4,0.03345012664794922,0.6019372940063477,STABILIZE
0.16,0.015,0.12,0.1929235787239019,0.00993807184907539,0.0028938536808585285,-0.13995139723357197,-0.12711947170363805,0.16,0.015,0.12,0.21897608227094276,0.059590942901612626,0.0032846412340641414,0.0012442642201860653,0.06411984835586283,0.002,8e-05,0,-0.05447757850076837,-0.0006358469283988053,-4.35820628006147e-06,-0.0,-0.0006402051346788668,0.2,0.02,0.0,-0.3213189524054748,-0.005513482735041627,-0.006426379048109497,0.0,-0.011939861783151123,0.3724433931350789,0.0,-0.3724433931350789,0.062112949056721184,0.0,-0.062112949056721184,-0.31792346419940265,0.0,0.31792346419940265,-0.02756741367520813,0,0.02756741367520813,-0.12708860623016568,-0.06418100346570449,0.011939861783151123,0.4,0.03346514701843262,0.6354568004608154,STABILIZE
0.16,0.015,0.12,0.19632235823570968,0.015843311362059825,0.002944835373535645,-0.06916165225831016,-0.05037350552271468,0.16,0.015,0.12,0.2334022734823115,0.06724726871404438,0.003501034102234672,0.030380490759266528,0.10112879357554558,0.002,8e-05,0,-0.06590191737399993,-0.000665677772143933,-5.272153389919995e-06,-0.0,-0.000670949925533853,0.2,0.02,0.0,-0.3241036071241859,-0.01622573323420105,-0.006482072142483718,0.0,-0.022707805376684768,0.4202954294627773,0.0,-0.4202954294627773,0.09902069601287392,0.0,-0.09902069601287392,-0.3328388860719665,0.0,0.3328388860719665,-0.08112866617100524,0,0.08112866617100524,-0.050230260508970156,-0.10120001915954992,0.022707805376684768,0.4,0.034323930740356445,0.6697351932525635,STABILIZE
0.16,0.015,0.12,0.1989033147195735,0.012332677627063833,0.0029835497207936026,-0.03500352341586531,-0.019687296068007874,0.16,0.015,0.12,0.24612463126949824,0.060791701923874036,0.0036918694690424737,-0.01695886224105978,0.04752470915185673,0.002,8e-05,0,-0.07729656227466838,-0.0006805930432834909,-6.183724981973471e-06,-0.0,-0.0006867767682654643,0.2,0.02,0.0,-0.3259598191247243,-0.01108700609311365,-0.006519196382494486,0.0,-0.017606202475608138,0.3799481370242127,0.0,-0.3799481370242127,0.07707923516914895,0.0,-0.07707923516914895,-0.34029652164174545,0.0,0.34029652164174545,-0.05543503046556825,0,0.05543503046556825,-0.01964130557320629,-0.04754373483244568,0.017606202475608138,0.4,0.033484458923339844,0.7032656669616699,STABILIZE
0.16,0.015,0.12,0.20189204073024225,0.014311095781893051,0.003028380610953634,-0.0169422848462174,0.0003971915466292851,0.16,0.015,0.12,0.2599676701136694,0.06628545209705318,0.0038995150517050405,-0.03368174587526207,0.036503221273496145,0.002,8e-05,0,-0.08909175371403168,-0.0007059952712791612,-7.127340297122535e-06,-0.0,-0.0007131226115762837,0.2,0.02,0.0,-0.3285212179434835,-0.015331124239909745,-0.00657042435886967,0.0,-0.021901548598779415,0.41428407560658237,0.0,-0.41428407560658237,0.08944434863683157,0.0,-0.08944434863683157,-0.3529976356395806,0.0,0.3529976356395806,-0.07665562119954872,0,0.07665562119954872,0.0004460285800744571,-0.03650265720426791,0.021901548598779415,0.4,0.033414363861083984,0.7366423606872559,STABILIZE
0.16,0.015,0.12,0.2052435342021216,0.01602665846750268,0.003078653013031824,-0.028704325284067227,-0.009599013803532723,0.16,0.015,0.12,0.2755567098809237,0.07454593550080932,0.004133350648213855,0.04880837970171262,0.1274876658507358,0.002,8e-05,0,-0.10197828011394088,-0.0007702833049529673,-8.15826240911527e-06,-0.0,-0.0007784415673620825,0.2,0.02,0.0,-0.33162978178047525,-0.01858122780109437,-0.006632595635609505,0.0,-0.025213823436703874,0.46591209688005825,0.0,-0.46591209688005825,0.10016661542189176,0.0,-0.10016661542189176,-0.38514165247648363,0.0,0.38514165247648363,-0.09290613900547184,0,0.09290613900547184,-0.00939227772705586,-0.1275030632148386,0.025213823436703874,0.4,0.03345918655395508,0.7701036930084229,STABILIZE
0.16,0.015,0.12,0.2070514341416388,0.008640353171720691,0.0031057715121245817,-0.006442093279838654,0.005304031404006618,0.16,0.015,0.12,0.2907557844017444,0.07263973457417301,0.004361336766026166,0.057693701716081895,0.13469477305628108,0.002,8e-05,0,-0.1158167254940643,-0.0008267123418882647,-9.265338039525144e-06,-0.0,-0.0008359776799277899,0.2,0.02,0.0,-0.3332613687749269,-0.009747143325181423,-0.006665227375498538,-0.0,-0.01641237070067996,0.4539983410885813,0.0,-0.4539983410885813,0.05400220732325432,0.0,-0.05400220732325432,-0.41335617094413235,0.0,0.41335617094413235,-0.04873571662590711,0,0.04873571662590711,0.005418600672751813,-0.1346902127274547,0.01641237070067996,0.4,0.0334782600402832,0.8036203384399414,STABILIZE
0.16,0.015,0.12,0.20936492142295096,0.01091434761069022,0.0031404738213442643,-0.022191220770747477,-0.008136399338712992,0.16,0.015,0.12,0.30570333647009384,0.07051812236906994,0.004585550047051408,0.01485100466254056,0.08995467707866192,0.002,8e-05,0,-0.1301677302517244,-0.000846297361093193,-1.0413418420137952e-05,-0.0,-0.000856710779513331,0.2,0.02,0.0,-0.33468445708434946,-0.008392136308254297,-0.0066936891416869895,0.0,-0.015085825449941286,0.44073826480668715,0.0,-0.44073826480668715,0.06821467256681388,0.0,-0.06821467256681388,-0.4231486805465965,0.0,0.4231486805465965,-0.04196068154127148,0,0.04196068154127148,-0.00807051867056517,-0.08996061166373542,0.015085825449941286,0.4,0.033914804458618164,0.8374841213226318,STABILIZE
0.16,0.015,0.12,0.21110113229182523,0.008300927522342303,0.003166516984377378,-0.018178654201353537,-0.006711209694633857,0.16,0.015,0.12,0.321166948317835,0.07393244880730455,0.004817504224767524,0.05907378530441713,0.1378237383364892,0.002,8e-05,0,-0.14464631495508176,-0.0008652871923802479,-1.1571705196406542e-05,-0.0,-0.0008768588975766544,0.2,0.02,0.0,-0.33549512240755053,-0.004844798962360094,-0.0067099024481510105,0.0,-0.011554701410511105,0.4620778050456535,0.0,-0.4620778050456535,0.05188079701463939,0.0,-0.05188079701463939,-0.43264359619012394,0.0,0.43264359619012394,-0.02422399481180047,0,0.02422399481180047,-0.006652938809445391,-0.1378265634404637,0.011554701410511105,0.4,0.03346538543701172,0.8709712028503418,STABILIZE
0.16,0.015,0.12,0.2123386496181562,0.005919258595771231,0.003185079744272343,-0.037739883259153006,-0.028635544919109433,0.16,0.015,0.12,0.3359159340288728,0.07054693990249476,0.005038739010433092,0.01923048020018741,0.09481615911311528,0.002,8e-05,0,-0.15920408205283637,-0.0008704038541030147,-1.2736326564226911e-05,-0.0,-0.0008831401806672416,0.2,0.02,0.0,-0.33607315055979514,-0.0034560103078674293,-0.006721463011195903,0.0,-0.010177473319063332,0.4409183743905923,0.0,-0.4409183743905923,0.03699536622357019,0.0,-0.03699536622357019,-0.43520192705150734,0.0,0.43520192705150734,-0.017280051539337146,0,0.017280051539337146,-0.028606947652029733,-0.09482479110344487,0.010177473319063332,0.4,0.03345060348510742,0.9044511318206787,STABILIZE
0.16,0.015,0.12,0.21230734240514343,-0.00014974779406519035,0.0031846101360771513,-0.07264566155118844,-0.06961079920917648,0.16,0.015,0.12,0.3508424458244748,0.07139607775266578,0.005262636687367122,-0.013994151524939963,0.06266456291509294,0.002,8e-05,0,-0.1740573058544078,-0.0008880691081214274,-1.3924584468352625e-05,-0.0,-0.00090199369258978,0.2,0.02,0.0,-0.33542567018567276,0.0038712627376700534,-0.006708513403713455,0.0,-0.002837250666043402,0.4462254859541611,0.0,-0.4462254859541611,-0.0009359237129074396,0.0,0.0009359237129074396,-0.4440345540607137,0.0,0.4440345540607137,0.019356313688350266,0,-0.019356313688350266,-0.06963196529375927,-0.0626410426254914,0.002837250666043402,0.4,0.03345060348510742,0.9378657341003418,STABILIZE
0.16,0.015,0.12,0.21067151175733823,-0.007826244847122814,0.0031600726763600733,-0.07398216152347796,-0.07864833369424071,0.16,0.015,0.12,0.3665644459796958,0.07521819136128192,0.005498466689695437,0.011689742759096192,0.09240640081007355,0.002,8e-05,0,-0.19000217934797659,-0.000953555951715543,-1.5200174347838128e-05,-0.0,-0.0009687561260633811,0.2,0.02,0.0,-0.33314595144787706,0.013633468911116227,-0.006662919028957541,0.0,0.006970549882158686,0.470113696008012,0.0,-0.470113696008012,-0.04891403029451759,0.0,0.04891403029451759,-0.4767779758577715,0.0,0.4767779758577715,0.06816734455558113,0,-0.06816734455558113,-0.07875821802207444,-0.09231276400119318,-0.006970549882158686,0.4,0.03344297409057617,0.971341609954834,STABILIZE
0.16,0.015,0.12,0.20911751403148215,-0.0074307614835429775,0.0031367627104722322,-0.08226679895529984,-0.08656079772837058,0.16,0.015,0.12,0.3829780968456884,0.07848526585980124,0.005744671452685326,0.03571911479450171,0.11994905210698828,0.002,8e-05,0,-0.20693996524320124,-0.0010123940736254857,-1.65551972194561e-05,-0.0,-0.0010289492708449419,0.2,0.02,0.0,-0.33159772272021454,0.009253969782108124,-0.006631954454404291,0.0,0.002622015327703833,0.49053291162375773,0.0,-0.49053291162375773,-0.046442259272143606,0.0,0.046442259272143606,-0.5061970368127429,0.0,0.5061970368127429,0.04626984891054062,0,-0.04626984891054062,-0.08665763569371512,-0.11987910985952567,-0.002622015327703833,0.4,0.03346085548400879,1.004798412322998,STABILIZE
0.16,0.015,0.12,0.20796290888333838,-0.005520078640465133,0.0031194436332500756,-0.061988912904401824,-0.06438954791161688,0.16,0.015,0.12,0.3973963372305918,0.0689325012189238,0.005960945058458877,-0.02240132228937738,0.05249212398800529,0.002,8e-05,0,-0.22396766271779497,-0.0010176014423298528,-1.79174130174236e-05,-0.0,-0.0010355188553472763,0.2,0.02,0.0,-0.32952618704976805,0.01237981640929038,-0.0065905237409953615,0.0,0.005789292668295018,0.4308281326182738,0.0,-0.4308281326182738,-0.03450049150290708,0.0,0.03450049150290708,-0.5088007211649264,0.0,0.5088007211649264,0.06189908204645189,0,-0.06189908204645189,-0.06444621981221861,-0.05242253058513799,-0.005789292668295018,0.4,0.033466339111328125,1.0382459163665771,STABILIZE
0.16,0.015,0.12,0.2068057537455024,-0.005538148665440239,0.003102086306182536,-0.051390053874383966,-0.05382611623364167,0.16,0.015,0.12,0.41131330320892745,0.06660664939364513,0.006169699548133911,-0.017655756178339373,0.055120592763439676,0.002,8e-05,0,-0.24108319142836168,-0.0010239372771570863,-1.9286655314268935e-05,-0.0,-0.0010432239324713551,0.2,0.02,0.0,-0.32784991986669243,0.010028275984057358,-0.006556998397333849,0.0,0.0034712775867235092,0.4162915587102821,0.0,-0.4162915587102821,-0.034613429159001494,0.0,0.034613429159001494,-0.5119686385785431,0.0,0.5119686385785431,0.050141379920286784,0,-0.050141379920286784,-0.05387433341996773,-0.05507346669626499,-0.0034712775867235092,0.4,0.03343081474304199,1.071671962738037,STABILIZE
0.16,0.015,0.12,0.2053130027423766,-0.007136067135483589,0.003079695041135649,-0.0313366616068372,-0.03539303370118514,0.16,0.015,0.12,0.42374363542182075,0.059422961365845614,0.006356154531327311,-0.053658618865706026,0.012120497031466893,0.002,8e-05,0,-0.2582760964206733,-0.0010273793487846992,-2.0662087713653865e-05,-0.0,-0.001048041436498353,0.2,0.02,0.0,-0.3250133926883646,0.01694995375466631,-0.006500267853767292,0.0,0.010449685900899017,0.3713935085365351,0.0,-0.3713935085365351,-0.04460041959677243,0.0,0.04460041959677243,-0.5136896743923496,0.0,0.5136896743923496,0.08474976877333154,0,-0.08474976877333154,-0.03541092316081682,-0.012068131742807233,-0.010449685900899017,0.4,0.033469438552856445,1.1051723957061768,STABILIZE
0.16,0.015,0.12,0.20412752373921966,-0.005665867775612905,0.003061912856088295,0.009681815554569137,0.007077860635044527,0.16,0.015,0.12,0.4357927871743254,0.05758760843185428,0.006536891807614881,-0.07902537015736656,-0.014900869917897394,0.002,8e-05,0,-0.27524333111366023,-0.0010136631272280197,-2.201946648909282e-05,-0.0,-0.0010356825937171126,0.2,0.02,0.0,-0.32280330172896965,0.013203611277237976,-0.006456066034579393,-0.0,0.006747545242658583,0.35992255269908924,0.0,-0.35992255269908924,-0.035411673597580656,0.0,0.035411673597580656,-0.5068315636140098,0.0,0.5068315636140098,0.06601805638618988,0,-0.06601805638618988,0.007095025198670105,0.014892704687512227,-0.006747545242658583,0.4,0.033477067947387695,1.1386501789093018,STABILIZE
0.16,0.015,0.12,0.20311975312047492,-0.0045002289959234654,0.0030467962968071236,0.012788792152976335,0.011335359453859993,0.16,0.015,0.12,0.4483881959042004,0.056245163857121534,0.006725822938563006,-0.09929123040925596,-0.03632024361357142,0.002,8e-05,0,-0.2934322380797082,-0.0010152886605624466,-2.3474579046376656e-05,-0.0,-0.0010387632396088233,0.2,0.02,0.0,-0.3209936512186586,0.010101308704967721,-0.0064198730243731714,0.0,0.0036814356805945497,0.3515322741070096,0.0,-0.3515322741070096,-0.02812643122452166,0.0,0.02812643122452166,-0.5076443302812232,0.0,0.5076443302812232,0.050506543524838604,0,-0.050506543524838604,0.011367371539351445,0.03631023732205191,-0.0036814356805945497,0.4,0.035830020904541016,1.1744627952575684,STABILIZE
0.16,0.015,0.12,0.20239681671611356,-0.003458077268128533,0.003035952250741703,0.008898332490928671,0.00847620747354184,0.16,0.015,0.12,0.4604155706273369,0.05753146594143844,0.006906233559410053,-0.05070632176321737,0.013731377737631119,0.002,8e-05,0,-0.3105674955254075,-0.0010245549245242415,-2.4845399642032605e-05,-0.0,-0.0010494003241662741,0.2,0.02,0.0,-0.31997217379394977,0.006107639345905492,-0.006399443475878995,-0.0,-0.000291804129973503,0.3595716621339902,0.0,-0.3595716621339902,-0.021612982925803333,0.0,0.021612982925803333,-0.5122774622621207,0.0,0.5122774622621207,0.03053819672952746,0,-0.03053819672952746,0.008468887554336287,-0.013735893538465053,0.000291804129973503,0.4,0.03344917297363281,1.2079386711120605,STABILIZE
0.16,0.015,0.12,0.20104816740689416,-0.005271619297793569,0.0030157225111034124,0.0023336619289256884,7.776514223553155e-05,0.16,0.015,0.12,0.4739165527842447,0.05277282803690179,0.00710874829176367,-0.057708598533878344,0.0021729777947871176,0.002,8e-05,0,-0.33148526325695366,-0.001022045791357419,-2.6518821060556295e-05,0.0,-0.0010485646124179751,0.2,0.02,0.0,-0.31782258827156384,0.010502912473801418,-0.006356451765431277,-0.0,0.004146460708370141,0.3298301752306362,0.0,-0.3298301752306362,-0.03294762061120981,0.0,0.03294762061120981,-0.5110228956787094,0.0,0.5110228956787094,0.05251456236900709,0,-0.05251456236900709,7.577346266625021e-05,-0.00217304815785117,-0.004146460708370141,0.4,0.04093313217163086,1.248842477798462,STABILIZE
0.16,0.015,0.12,0.20051803203471555,-0.0025328944811740767,0.0030077704805207333,0.021762382275445448,0.022237258274792105,0.16,0.015,0.12,0.4845164579695912,0.05064450092171469,0.007267746869543868,-0.0350466879736996,0.02286555981755896,0.002,8e-05,0,-0.34845103238302283,-0.0010132436270875967,-2.787608259064183e-05,0.0,-0.0010411197096782386,0.2,0.02,0.0,-0.31671534711454763,0.006612756767224179,-0.006334306942290952,-0.0,0.0002784498249332268,0.31652813076071684,0.0,-0.31652813076071684,-0.01583059050733798,0.0,0.01583059050733798,-0.5066218135437983,0.0,0.5066218135437983,0.033063783836120894,0,-0.033063783836120894,0.022224059501042837,-0.022878388506279993,-0.0002784498249332268,0.4,0.03348803520202637,1.2823400497436523,STABILIZE
0.16,0.015,0.12,0.1994212115095557,-0.00506484500270841,0.002991318172643335,0.004213716432298203,0.0021401896022331278,0.16,0.015,0.12,0.49522230377394155,0.049436939205735976,0.007428334556609123,-0.03205076693846418,0.024814506823880915,0.002,8e-05,0,-0.366388177498287,-0.0010353660616747357,-2.9311054199862962e-05,-0.0,-0.0010646771158745985,0.2,0.02,0.0,-0.31507556557328475,0.00946513029511866,-0.006301511311465695,-0.0,0.0031636189836529655,0.30898087003584984,0.0,-0.30898087003584984,-0.031655281266927564,0.0,0.031655281266927564,-0.5176830308373678,0.0,0.5176830308373678,0.047325651475593304,0,-0.047325651475593304,0.002119692378730711,-0.02481626613061462,-0.0031636189836529655,0.4,0.034648895263671875,1.3170371055603027,STABILIZE
0.16,0.015,0.12,0.1987981209669527,-0.002836138967635386,0.0029819718145042903,0.008844282875307238,0.008990115722176142,0.16,0.015,0.12,0.5050266649475036,0.04462678997011958,0.0075753999742125535,-0.04695679942626606,0.005245390518066079,0.002,8e-05,0,-0.38452645201187113,-0.001032006258246616,-3.0762116160949696e-05,-0.0,-0.0010627683744075657,0.2,0.02,0.0,-0.31370514971055347,0.007797201137737442,-0.0062741029942110695,-0.0,0.0015230981435263727,0.27891743731324736,0.0,-0.27891743731324736,-0.017725868547721162,0.0,0.017725868547721162,-0.5160031291233079,0.0,0.5160031291233079,0.03898600568868721,0,-0.03898600568868721,0.008986544498383146,-0.0052515064851636414,-0.0015230981435263727,0.4,0.03515148162841797,1.35213303565979,STABILIZE
0.16,0.015,0.12,0.19760076558494435,-0.00573022024937183,0.002964011483774165,-0.00881380872649153,-0.011580017492089194,0.16,0.015,0.12,0.5145136538617708,0.045402172821002396,0.007717704807926562,-0.04924626275391267,0.003873614875016293,0.002,8e-05,0,-0.40178003188907735,-0.0010321373072701495,-3.214240255112619e-05,-0.0,-0.0010642797098212755,0.2,0.02,0.0,-0.3120276014930112,0.010035367224614997,-0.006240552029860224,0.0,0.003794815194754773,0.28376358013126496,0.0,-0.28376358013126496,-0.03581387655857394,0.0,0.03581387655857394,-0.5160686536350747,0.0,0.5160686536350747,0.05017683612307498,0,-0.05017683612307498,-0.011583405373162556,-0.003863472179015654,-0.003794815194754773,0.4,0.033432722091674805,1.3855786323547363,STABILIZE
0.16,0.015,0.12,0.19582206561604698,-0.008503404046983984,0.0029373309842407047,-0.014597170644526342,-0.020163243707269622,0.16,0.015,0.12,0.5241590722773516,0.046111705978579345,0.007862386084160273,-0.02862812067036178,0.02534597139237784,0.002,8e-05,0,-0.418948084165501,-0.0010259380991659893,-3.351584673324008e-05,-0.0,-0.0010594539458992295,0.2,0.02,0.0,-0.3099977433371548,0.012130140242266989,-0.006199954866743096,0.0,0.0059301853755238925,0.2881981623661209,0.0,-0.2881981623661209,-0.053146275293649896,0.0,0.053146275293649896,-0.5129690495829946,0.0,0.5129690495829946,0.06065070121133494,0,-0.06065070121133494,-0.020190062495719342,-0.025324613304864716,-0.0059301853755238925,0.4,0.033468008041381836,1.4190757274627686,STABILIZE
0.16,0.015,0.12,0.1945150288225955,-0.006250891122898105,0.0029177254323389324,-0.01676516603281795,-0.020098331723377123,0.16,0.015,0.12,0.5325261401163824,0.040015422933559794,0.007987892101745737,-0.046428095488658325,0.0015752195466472024,0.002,8e-05,0,-0.4361639407104626,-0.0010291833920548275,-3.489311525683701e-05,-0.0,-0.0010640765073116646,0.2,0.02,0.0,-0.308246056332446,0.010471783199495585,-0.00616492112664892,0.0,0.004306862072846665,0.2500963933347487,0.0,-0.2500963933347487,-0.039068069518113153,0.0,0.039068069518113153,-0.5145916960274137,0.0,0.5145916960274137,0.05235891599747792,0,-0.05235891599747792,-0.020099762822672066,-0.0015568523229183982,-0.004306862072846665,0.4,0.03345537185668945,1.4525153636932373,STABILIZE
0.16,0.015,0.12,0.19269497853060916,-0.00863447154053302,0.002890424677959137,-0.01640515349391131,-0.022149200356485193,0.16,0.015,0.12,0.5411679978175283,0.040997699187996,0.008117519967262924,-0.03683163788728261,0.012283581267976316,0.002,8e-05,0,-0.45362792320415435,-0.0010356325075884176,-3.629023385633235e-05,-0.0,-0.0010719227414447499,0.2,0.02,0.0,-0.30655838940855856,0.010008042146119568,-0.006131167788171171,0.0,0.0038768743579483964,0.256235619924975,0.0,-0.256235619924975,-0.05396544712833138,0.0,0.05396544712833138,-0.5178162537942088,0.0,0.5178162537942088,0.050040210730597834,0,-0.050040210730597834,-0.022159919975349867,-0.012264232217501116,-0.0038768743579483964,0.4,0.03372621536254883,1.486238956451416,STABILIZE
0.16,0.015,0.12,0.1914612782468541,-0.005866879105378475,0.0028719191737028114,-0.01357684711081904,-0.016571807042494703,0.16,0.015,0.12,0.5496476637762276,0.04032517110416685,0.008244714956643414,-0.019303878694937604,0.029266007365872662,0.002,8e-05,0,-0.47098257686215167,-0.0010316287540406313,-3.7678606148972135e-05,0.0,-0.0010693073601896034,0.2,0.02,0.0,-0.30539496571012614,0.006915847265451531,-0.006107899314202523,-0.0,0.0008079479512490073,0.2520323194010428,0.0,-0.2520323194010428,-0.03666799440861547,0.0,0.03666799440861547,-0.5158143770203156,0.0,0.5158143770203156,0.03457923632725765,0,-0.03457923632725765,-0.016589466688826614,-0.029256000594293508,-0.0008079479512490073,0.4,0.0336451530456543,1.5199246406555176,STABILIZE
0.16,0.015,0.12,0.19000840835488686,-0.006944426890814454,0.0028501261253233027,-0.0054207557330063745,-0.009515056498497525,0.16,0.015,0.12,0.5573199769563905,0.03667211927072857,0.008359799654345856,-0.03915228088894202,0.005879638036132402,0.002,8e-05,0,-0.48823609332883977,-0.0010308543832351017,-3.9058887466307186e-05,0.0,-0.001069913270701409,0.2,0.02,0.0,-0.30379659183744423,0.009549883444826315,-0.006075931836748885,-0.0,0.00347395160807743,0.22920074544205354,0.0,-0.22920074544205354,-0.04340266806759034,0.0,0.04340266806759034,-0.5154271916175509,0.0,0.5154271916175509,0.04774941722413157,0,-0.04774941722413157,-0.00951995319316351,-0.0058717062942138685,-0.00347395160807743,0.4,0.03347420692443848,1.5533781051635742,STABILIZE
0.16,0.015,0.12,0.18872845832770596,-0.006100004424369865,0.0028309268749155893,0.010781193049818652,0.007512115500364376,0.16,0.015,0.12,0.5647787753475065,0.035547249673881315,0.008471681630212597,-0.04735819429130917,-0.0033392629872152566,0.002,8e-05,0,-0.5055987135343539,-0.0010343378435012237,-4.044789708274832e-05,-0.0,-0.001074785740583972,0.2,0.02,0.0,-0.302687246010909,0.006608670559706613,-0.00605374492021818,-0.0,0.0005549256394884331,0.22217031046175822,0.0,-0.22217031046175822,-0.038125027652311655,0.0,0.038125027652311655,-0.5171689217506118,0.0,0.5171689217506118,0.033043352798533064,0,-0.033043352798533064,0.007514040055053727,0.0033349300801738947,-0.0005549256394884331,0.4,0.03357243537902832,1.5869574546813965,STABILIZE
0.16,0.015,0.12,0.18754637893918022,-0.005652236221519213,0.0028131956840877033,0.002689094956903188,-0.00014994558052832188,0.16,0.015,0.12,0.5723293360934663,0.03610379586629999,0.008584940041401994,-0.017530131863964227,0.027158604043737756,0.002,8e-05,0,-0.5230399049429877,-0.0010424610096331716,-4.1843192395439016e-05,-0.0,-0.0010843042020286105,0.2,0.02,0.0,-0.3015539238179335,0.006773873239783965,-0.00603107847635867,-0.0,0.000742794763425295,0.22564872416437493,0.0,-0.22564872416437493,-0.035326476384495084,0.0,0.035326476384495084,-0.5212305048165858,0.0,0.5212305048165858,0.03386936619891982,0,-0.03386936619891982,-0.0001659998721184636,-0.027158510661008373,-0.000742794763425295,0.4,0.033461570739746094,1.6204254627227783,STABILIZE
0.16,0.015,0.12,0.18644852854182936,-0.005245450034755719,0.0027967279281274405,0.015112377034700381,0.012663654928072103,0.16,0.015,0.12,0.5800275437576147,0.03678148111701134,0.008700413156364219,-0.018863322338270542,0.02661857193510502,0.002,8e-05,0,-0.5407368895808822,-0.0010569364563231122,-4.3258951166470576e-05,-0.0,-0.0011001954074895829,0.2,0.02,0.0,-0.3003866471623636,0.006971454612922839,-0.006007732943247272,-0.0,0.0009637216696755675,0.22988425698132087,0.0,-0.22988425698132087,-0.03278406271722324,0.0,0.03278406271722324,-0.528468228161556,0.0,0.528468228161556,0.0348572730646142,0,-0.0348572730646142,0.012647458533580404,-0.02662627124933211,-0.0009637216696755675,0.4,0.03348731994628906,1.6538772583007812,STABILIZE
0.16,0.015,0.12,0.18551712056178904,-0.0034497340615398187,0.0027827568084268354,0.009008895209398297,0.008341917956285314,0.16,0.015,0.12,0.5896053996788946,0.035474310416290365,0.008844080995183419,-0.020403879767969004,0.02391451164350478,0.002,8e-05,0,-0.5636991606031018,-0.0010630911771905688,-4.5095932848248145e-05,-0.0,-0.0011081871100388169,0.2,0.02,0.0,-0.2995294864638382,0.003968422701548432,-0.005990589729276764,-0.0,-0.002022167027728332,0.22171444010181476,0.0,-0.22171444010181476,-0.021560837884623867,0.0,0.021560837884623867,-0.5315455885952844,0.0,0.5315455885952844,0.01984211350774216,0,-0.01984211350774216,0.008333635616645019,-0.023917399100774034,0.002022167027728332,0.4,0.04319906234741211,1.6970946788787842,STABILIZE
0.16,0.015,0.12,0.18492828939530526,-0.002815979153728124,0.002773924340929579,0.016678846440399752,0.016636791627601205,0.16,0.015,0.12,0.5968061087748606,0.034436096219882896,0.008952091631622909,-0.00868908327694977,0.034699104574556036,0.002,8e-05,0,-0.5816942274524834,-0.0010757271354283789,-4.653553819619868e-05,-0.0,-0.0011222626736245775,0.2,0.02,0.0,-0.29923009298217906,0.0017897443509756904,-0.005984601859643581,-0.0,-0.0041948575086678905,0.2152256013742681,0.0,-0.2152256013742681,-0.017599869710800777,0.0,0.017599869710800777,-0.5378635677141894,0.0,0.5378635677141894,0.008948721754878451,0,-0.008948721754878451,0.016631371956910116,-0.03470170256294496,0.0041948575086678905,0.4,0.03345656394958496,1.7305669784545898,STABILIZE
0.16,0.015,0.12,0.1845787050732144,-0.001666219698131994,0.002768680576098216,0.018043587972499525,0.019146048850465745,0.16,0.015,0.12,0.6033090094626543,0.030994700094649566,0.009049635141939814,-0.019040739429980053,0.021003595806609328,0.002,8e-05,0,-0.5995826990948838,-0.0010657701853508416,-4.796661592759071e-05,-0.0,-0.0011137368012784324,0.2,0.02,0.0,-0.2990427767936402,0.0011160037199882745,-0.005980855535872805,-0.0,-0.00486485181588453,0.19371687559155978,0.0,-0.19371687559155978,-0.010413873113324963,0.0,0.010413873113324963,-0.5328850926754208,0.0,0.5328850926754208,0.005580018599941372,0,-0.005580018599941372,0.01914400322584197,-0.021005460334893637,0.00486485181588453,0.4,0.0335690975189209,1.7641799449920654,STABILIZE
0.16,0.015,0.12,0.18439214689972758,-0.0008924925571090949,0.0027658822034959136,0.019506512580564957,0.021379902226951776,0.16,0.015,0.12,0.6095594406337924,0.029902004263339187,0.009143391609506887,-0.026436330487564007,0.012609065385282062,0.002,8e-05,0,-0.6175118668487821,-0.0010721621355714612,-4.940094934790257e-05,-0.0,-0.0011215630849193638,0.2,0.02,0.0,-0.29907221077991036,-0.0001760148937805956,-0.0059814442155982075,-0.0,-0.006157459109378803,0.1868875266458699,0.0,-0.1868875266458699,-0.005578078481931843,0.0,0.005578078481931843,-0.5360810677857306,0.0,0.5360810677857306,-0.0008800744689029779,0,0.0008800744689029779,0.02138009590215976,-0.012608736984281462,0.006157459109378803,0.4,0.033444881439208984,1.7975566387176514,STABILIZE
0.16,0.015,0.12,0.1839407054255223,-0.002156003109665752,0.002759110581382834,0.012027237215836326,0.012630344687553408,0.16,0.015,0.12,0.6160161524765698,0.030836091955773616,0.009240242287148547,-0.02528967124615178,0.01478666299677038,0.002,8e-05,0,-0.6354403731982444,-0.001070291434486328,-5.0835229855859556e-05,-0.0,-0.0011211266643421874,0.2,0.02,0.0,-0.29878366407717405,0.0017225588031054122,-0.005975673281543481,-0.0,-0.004253114478438069,0.1927255747235851,0.0,-0.1927255747235851,-0.013475019435410948,0.0,0.013475019435410948,-0.535145717243164,0.0,0.535145717243164,0.00861279401552706,0,-0.00861279401552706,0.012628121789822446,-0.014788561443489983,0.004253114478438069,0.4,0.03350210189819336,1.8310866355895996,STABILIZE
0.16,0.015,0.12,0.18379079771854198,-0.0007169883986497459,0.0027568619657781296,0.012244427413605336,0.01428430098073372,0.16,0.015,0.12,0.6213022753523958,0.02528281468745115,0.009319534130285937,-0.04565132764871621,-0.011048978830979127,0.002,8e-05,0,-0.6534594583522212,-0.0010772857571774896,-5.22767566681777e-05,-0.0,-0.0011295625138456674,0.2,0.02,0.0,-0.2986390097260247,0.0008648278804129755,-0.005972780194520494,-0.0,-0.0051079523141075184,0.15801759179656968,0.0,-0.15801759179656968,-0.004481177491560912,0.0,0.004481177491560912,-0.5386428785887448,0.0,0.5386428785887448,0.004324139402064877,0,-0.004324139402064877,0.014285134811676807,0.011047900756606867,0.0051079523141075184,0.4,0.033452749252319336,1.8645269870758057,STABILIZE
0.16,0.015,0.12,0.18349349169975135,-0.0014220355070312198,0.00275240237549627,0.006241513140272777,0.007571880008737827,0.16,0.015,0.12,0.6268186270337852,0.026385096380209756,0.009402279405506779,-0.03605379964997757,-0.00026642386426103254,0.002,8e-05,0,-0.6715838381359222,-0.0010836272210440984,-5.3726707050873776e-05,-0.0,-0.0011373539280949722,0.2,0.02,0.0,-0.29849426195421735,0.000865423410830026,-0.005969885239084347,-0.0,-0.005104461828254321,0.16490685237631098,0.0,-0.16490685237631098,-0.008887721918945124,0.0,0.008887721918945124,-0.5418136105220491,0.0,0.5418136105220491,0.00432711705415013,0,-0.00432711705415013,0.0075719001081243995,0.00026585201665030095,0.005104461828254321,0.4,0.03345131874084473,1.8979790210723877,STABILIZE
0.16,0.015,0.12,0.18304625902020039,-0.002140197742971951,0.002745693885303006,-0.0021179826805609136,-0.0015124865382298586,0.16,0.015,0.12,0.6325645563715769,0.02749670487488757,0.009488468345573653,-0.015689233629339445,0.021295939591121776,0.002,8e-05,0,-0.6897050858429735,-0.0010839730417678247,-5.517640686743789e-05,-0.0,-0.0011391494486352625,0.2,0.02,0.0,-0.2983439642789461,0.0008990475207235926,-0.005966879285578922,-0.0,-0.005067831764855329,0.1718544054680473,0.0,-0.1718544054680473,-0.013376235893574694,0.0,0.013376235893574694,-0.5419865208839123,0.0,0.5419865208839123,0.004495237603617963,0,-0.004495237603617963,-0.0015141573426496033,-0.02129582086088101,0.005067831764855329,0.4,0.03343486785888672,1.9314706325531006,STABILIZE
0.16,0.015,0.12,0.18269350287697092,-0.0016889185072913285,0.0027404025431545637,-0.003562555890925073,-0.002511071855061838,0.16,0.015,0.12,0.6381038946090754,0.026521128113627453,0.00957155841913613,-0.015167420603216786,0.020925265929546796,0.002,8e-05,0,-0.7076569070840033,-0.0010743669428401287,-5.661255256672027e-05,-0.0,-0.0011309794954068488,0.2,0.02,0.0,-0.2984184075319879,-0.00044552231838618743,-0.005968368150639758,-0.0,-0.006413890469025946,0.16575705071017158,0.0,-0.16575705071017158,-0.010555740670570803,0.0,0.010555740670570803,-0.5371834714200643,0.0,0.5371834714200643,-0.002227611591930937,0,0.002227611591930937,-0.0025102582964703964,-0.020925363542087797,0.006413890469025946,0.4,0.03341841697692871,1.9648189544677734,STABILIZE
0.16,0.015,0.12,0.18222165870230497,-0.002256091893073072,0.0027333248805345746,-0.0004478092590769751,2.9423728384527382e-05,0.16,0.015,0.12,0.6431052205501363,0.023913511104025696,0.009646578308252045,-0.031038530330251838,0.002521559082025903,0.002,8e-05,0,-0.725908534147413,-0.0010908619323928609,-5.807268273179304e-05,-0.0,-0.001148934615124654,0.2,0.02,0.0,-0.2983497240378182,0.0004105070135015646,-0.005966994480756363,-0.0,-0.005556487467254799,0.1494594444001606,0.0,-0.1494594444001606,-0.014100574331706701,0.0,0.014100574331706701,-0.5454309661964304,0.0,0.5454309661964304,0.002052535067507823,0,-0.002052535067507823,2.9333397306649113e-05,-0.002521560134468701,0.005556487467254799,0.4,0.0334627628326416,1.998288631439209,STABILIZE
0.16,0.015,0.12,0.18200077848542043,-0.0010579710248662406,0.002730011677281306,-0.001520178101905662,0.0001518625505094037,0.16,0.015,0.12,0.6479129652704175,0.02302811306849496,0.009718694479056263,-0.010113808896777167,0.022632998650774054,0.002,8e-05,0,-0.7439152083604852,-0.0010781035441029146,-5.951321666883882e-05,-0.0,-0.0011376167607717535,0.2,0.02,0.0,-0.2987399500935055,-0.0023363786597104283,-0.00597479900187011,-0.0,-0.008311177661580538,0.14392570667809348,0.0,-0.14392570667809348,-0.006612318905414003,0.0,0.006612318905414003,-0.5390517720514573,0.0,0.5390517720514573,-0.01168189329855214,0,0.01168189329855214,0.00015647713285433734,-0.022632967217470205,0.008311177661580538,0.4,0.03340435028076172,2.0317187309265137,STABILIZE
0.16,0.015,0.12,0.1817055786794014,-0.0014115890920007074,0.002725583680191021,5.609280282300543e-05,0.0013700873910133188,0.16,0.015,0.12,0.652321331542975,0.02107996555893776,0.009784819973144624,-0.023790021244656484,0.0070747642874259,0.002,8e-05,0,-0.7618691966545985,-0.0010731567872476185,-6.094953573236789e-05,0.0,-0.0011341063229799862,0.2,0.02,0.0,-0.2992568189169593,-0.003089459995849686,-0.005985136378339187,-0.0,-0.009074596374188872,0.131749784743361,0.0,-0.131749784743361,-0.008822431825004421,0.0,0.008822431825004421,-0.5365783936238092,0.0,0.5365783936238092,-0.015447299979248428,0,0.015447299979248428,0.0013719947418311539,-0.007074394646189753,0.009074596374188872,0.4,0.033460140228271484,2.065166473388672,STABILIZE
0.16,0.015,0.12,0.18166626053626164,-0.00018810969784475594,0.0027249939080439245,0.008765655226308153,0.011302539436507322,0.16,0.015,0.12,0.6567822946475139,0.021342575073004123,0.009851734419712708,-0.027599191807102304,0.0035951176856145253,0.002,8e-05,0,-0.7799859327816313,-0.0010834482145671274,-6.239887462253051e-05,0.0,-0.001145847089189658,0.2,0.02,0.0,-0.2999417782166627,-0.004096311416753612,-0.005998835564333254,-0.0,-0.010095146981086866,0.13339109420627576,0.0,-0.13339109420627576,-0.0011756856115297245,0.0,0.0011756856115297245,-0.5417241072835637,0.0,0.5417241072835637,-0.02048155708376806,0,0.02048155708376806,0.011303823863232613,-0.0035910771303655576,0.010095146981086866,0.4,0.03344273567199707,2.0986132621765137,STABILIZE
0.16,0.015,0.12,0.181892803082982,0.0009757780902974048,0.00272839204624473,0.01143991547238962,0.015144085608931756,0.16,0.015,0.12,0.6617919352939658,0.02157783451205442,0.009926879029409487,-0.02227028233378806,0.009234431207675847,0.002,8e-05,0,-0.7999702610068652,-0.0010759717056354322,-6.399762088054922e-05,-0.0,-0.0011399693265159816,0.2,0.02,0.0,-0.30084301427048143,-0.004852324697024857,-0.006016860285409629,-0.0,-0.010869184982434485,0.13486146570034013,0.0,-0.13486146570034013,0.00609861306435878,0.0,-0.00609861306435878,-0.5379858528177162,0.0,0.5379858528177162,-0.024261623485124284,0,0.024261623485124284,0.015147994526780983,-0.009228017689437148,0.010869184982434485,0.4,0.037146568298339844,2.135800361633301,STABILIZE
0.16,0.015,0.12,0.18189533373420935,1.2091785621000246e-05,0.00272843000601314,0.00966549222813812,0.01240601401977226,0.16,0.015,0.12,0.6660771976847416,0.0204755493760688,0.009991157965271124,-0.015519077298911794,0.01494763004242813,0.002,8e-05,0,-0.8179031648681535,-0.0010710722733644265,-6.543225318945228e-05,0.0,-0.0011365045265538788,0.2,0.02,0.0,-0.30147399898932925,-0.0037686603491666713,-0.006029479979786585,-0.0,-0.009798140328953257,0.12797218360043,0.0,-0.12797218360043,7.557366013125153e-05,0.0,-7.557366013125153e-05,-0.5355361366822132,0.0,0.5355361366822132,-0.018843301745833357,0,0.018843301745833357,0.012410929290315433,-0.014943549173301379,0.009798140328953257,0.4,0.03348588943481445,2.1693150997161865,STABILIZE
0.16,0.015,0.12,0.18217866389321352,0.0013510761665939267,0.002732679958398203,0.01027137069458728,0.01435512681957941,0.16,0.015,0.12,0.6699380993151767,0.018410931588710842,0.01004907148972765,-0.020773177334550457,0.007686825743888036,0.002,8e-05,0,-0.8360133332774787,-0.0010794922519385263,-6.68810666621983e-05,-0.0,-0.0011463733186007246,0.2,0.02,0.0,-0.3023556771805516,-0.005255416485457168,-0.006047113543611033,-0.0,-0.0113025300290682,0.11506832242944276,0.0,-0.11506832242944276,0.008444226041212042,0.0,-0.008444226041212042,-0.5397461259692631,0.0,0.5397461259692631,-0.02627708242728584,0,0.02627708242728584,0.01435865065414087,-0.007680241364400465,0.0113025300290682,0.4,0.033553123474121094,2.202796697616577,STABILIZE
0.16,0.015,0.12,0.18252428728744458,0.0016525873061068108,0.0027378643093116687,0.013208183210978053,0.017598634826396533,0.16,0.015,0.12,0.673674946481168,0.017867616296974382,0.01010512419721752,-0.014475216899501674,0.013497523594690228,0.002,8e-05,0,-0.8540736814904941,-0.0010794372827069578,-6.832589451923953e-05,-0.0,-0.0011477631772261973,0.2,0.02,0.0,-0.30316090750146174,-0.004812729075345855,-0.006063218150029235,-0.0,-0.01087594722537509,0.11167260185608988,0.0,-0.11167260185608988,0.010328670663167568,0.0,-0.010328670663167568,-0.5397186413534789,0.0,0.5397186413534789,-0.024063645376729274,0,0.024063645376729274,0.017604302096905375,-0.013490131156625918,0.01087594722537509,0.4,0.0334625244140625,2.236287832260132,STABILIZE
0.16,0.015,0.12,0.18273337532080353,0.000999434484936456,0.0027410006298120527,0.0047936141905800264,0.008534049305328535,0.16,0.015,0.12,0.6772687335726899,0.017178193764060462,0.010159031003590347,-0.018742549044205453,0.008594675723445359,0.002,8e-05,0,-0.8721422618229069,-0.0010795908539069535,-6.977138094583256e-05,0.0,-0.001149362234852786,0.2,0.02,0.0,-0.3038267514766212,-0.003978392615725724,-0.006076535029532424,0.0,-0.010054927645258147,0.1073637110253779,0.0,-0.1073637110253779,0.00624646553085285,0.0,-0.00624646553085285,-0.5397954269534767,0.0,0.5397954269534767,-0.019891963078628616,0,0.019891963078628616,0.008537032692616343,-0.008591712352154208,0.010054927645258147,0.4,0.03347301483154297,2.269758462905884,STABILIZE
0.16,0.015,0.12,0.1831652014860144,0.002066559466075638,0.002747478022290216,0.004881452133910974,0.009695489622276829,0.16,0.015,0.12,0.6806144612390795,0.01601140861048124,0.010209216918586193,-0.024927352740327067,0.0012932727887403662,0.002,8e-05,0,-0.8900718725687271,-0.001072555631029549,-7.120574980549817e-05,0.0,-0.0011437613808350472,0.2,0.02,0.0,-0.30481473940172205,-0.005910178572633844,-0.006096294788034441,-0.0,-0.012006473360668285,0.10007130381550775,0.0,-0.10007130381550775,0.012915996662972737,0.0,-0.012915996662972737,-0.5362778155147745,0.0,0.5362778155147745,-0.02955089286316922,0,0.02955089286316922,0.009696155351566224,-0.001288272067564781,0.012006473360668285,0.4,0.03343343734741211,2.3031795024871826,STABILIZE
0.16,0.015,0.12,0.18350893338711635,0.0016445977815453833,0.002752634000806745,0.007305573398655696,0.011702805181007825,0.16,0.015,0.12,0.6838655879172977,0.015555133827787304,0.010257983818759465,-0.02203628968284901,0.0037768279636977604,0.002,8e-05,0,-0.908122783068549,-0.001079565471945999,-7.264982264548392e-05,-0.0,-0.001152215294591483,0.2,0.02,0.0,-0.3055281336199379,-0.004266575726910773,-0.006110562672398758,-0.0,-0.010377138399309531,0.09721958642367065,0.0,-0.09721958642367065,0.010278736134658645,0.0,-0.010278736134658645,-0.5397827359729995,0.0,0.5397827359729995,-0.021332878634553864,0,0.021332878634553864,0.01170421059227181,-0.003772470408597711,0.010377138399309531,0.4,0.03344106674194336,2.336651563644409,STABILIZE
0.16,0.015,0.12,0.1839006132721933,0.001873338854778134,0.002758509199082899,0.002345266448664213,0.006977114502525246,0.16,0.015,0.12,0.6871566610778261,0.015740648066021143,0.010307349916167392,-0.011974540889900598,0.014073457092287937,0.002,8e-05,0,-0.9260460521969194,-0.0010715496806859056,-7.408368417575356e-05,0.0,-0.0011456333648616592,0.2,0.02,0.0,-0.30630770301781607,-0.004660686247502706,-0.0061261540603563215,0.0,-0.010786840307859027,0.09837905041263215,0.0,-0.09837905041263215,0.011708367842363336,0.0,-0.011708367842363336,-0.5357748403429528,0.0,0.5357748403429528,-0.02330343123751353,0,0.02330343123751353,0.006982837904297469,-0.014070618185144684,0.010786840307859027,0.4,0.03345298767089844,2.3700850009918213,STABILIZE
0.16,0.015,0.12,0.1844172698580608,0.002473125949077587,0.002766259047870912,0.0036853178637270586,0.008924702860675558,0.16,0.015,0.12,0.6900305701725491,0.013756795813441688,0.010350458552588235,-0.018441825444102458,0.005665428921927465,0.002,8e-05,0,-0.9439118920394524,-0.0010690000216111112,-7.55129513631562e-05,0.0,-0.0011445129729742674,0.2,0.02,0.0,-0.3071065390971431,-0.004779824478395326,-0.006142130781942862,0.0,-0.010921955260338189,0.08597997383401054,0.0,-0.08597997383401054,0.015457037181734919,0.0,-0.015457037181734919,-0.5345000108055555,0.0,0.5345000108055555,-0.02389912239197663,0,0.02389912239197663,0.008927065238712974,-0.005661705771631474,0.010921955260338189,0.4,0.033425331115722656,2.403538703918457,STABILIZE
0.16,0.015,0.12,0.1846226771984531,0.000981742986324846,0.0027693401579767965,-7.03108553649785e-05,0.0036807722889366638,0.16,0.015,0.12,0.692442874932901,0.01152959419478725,0.010386643123993514,-0.025331959289218796,-0.003415721970438032,0.002,8e-05,0,-0.9620369916535743,-0.0010828598790956446,-7.696295933228595e-05,-0.0,-0.0011598228384279306,0.2,0.02,0.0,-0.3077438551797783,-0.003807559852804471,-0.006154877103595567,0.0,-0.009962436956400037,0.07205996371742031,0.0,-0.07205996371742031,0.0061358936645302875,0.0,-0.0061358936645302875,-0.5414299395478223,0.0,0.5414299395478223,-0.019037799264022354,0,0.019037799264022354,0.003679637136044736,0.003416944800458095,0.009962436956400037,0.4,0.03347635269165039,2.43700909614563,STABILIZE
0.16,0.015,0.12,0.18500677787721378,0.0018380843872656033,0.0027751016681582066,-0.0010161613369860994,0.0035970247184377102,0.16,0.015,0.12,0.6948748278043614,0.011637924249496593,0.01042312241706542,-0.019611142012183308,0.0024499046543787067,0.002,8e-05,0,-0.9801291458621322,-0.0010822327329012725,-7.841033166897058e-05,-0.0,-0.001160643064570243,0.2,0.02,0.0,-0.3085379887681619,-0.0047503318495845746,-0.0061707597753632385,0.0,-0.010921091624947813,0.0727370265593537,0.0,-0.0727370265593537,0.01148802742041002,0.0,-0.01148802742041002,-0.5411163664506362,0.0,0.5411163664506362,-0.02375165924792287,0,0.02375165924792287,0.0035980400042230514,-0.002448413316539698,0.010921091624947813,0.4,0.03343486785888672,2.4704222679138184,STABILIZE
0.16,0.015,0.12,0.1853032836189623,0.0014185413694979615,0.0027795492542844347,-0.0010051782423205417,0.0031929123814618543,0.16,0.015,0.12,0.6970643159994236,0.010474939083497834,0.010455964739991355,-0.022780721557011822,-0.0018498177335226351,0.002,8e-05,0,-0.9981888628134001,-0.0010800151569460904,-7.985510902507201e-05,-0.0,-0.0011598702659711623,0.2,0.02,0.0,-0.30930981959320997,-0.004615736735517241,-0.0061861963918642,-0.0,-0.010801933127381442,0.06546836927186146,0.0,-0.06546836927186146,0.00886588355936226,0.0,-0.00886588355936226,-0.5400075784730451,0.0,0.5400075784730451,-0.023078683677586205,0,0.023078683677586205,0.00319216701769664,0.001851103685393385,0.010801933127381442,0.4,0.033443450927734375,2.5038657188415527,STABILIZE
0.16,0.015,0.12,0.18571427857779585,0.001960772666959059,0.0027857141786669375,0.00039436332432556207,0.005140850169951559,0.16,0.015,0.12,0.6990267900255333,0.009362561139274637,0.010485401850382998,-0.02858779379209764,-0.008739830802440004,0.002,8e-05,0,-1.0162331471907216,-0.0010760697558889394,-8.129865177525773e-05,-0.0,-0.001157368407664197,0.2,0.02,0.0,-0.3101067032618828,-0.004752210710547052,-0.006202134065237655,-0.0,-0.010954344775784709,0.058516007120466486,0.0,-0.058516007120466486,0.012254829168494118,0.0,-0.012254829168494118,-0.5380348779444697,0.0,0.5380348779444697,-0.02376105355273526,0,0.02376105355273526,0.005137225244829714,0.008741962005697252,0.010954344775784709,0.4,0.03353738784790039,2.5374221801757812,STABILIZE
0.16,0.015,0.12,0.18619457975404377,0.002295514461835387,0.0027929186963106564,-0.0007974007125271717,0.004291032445618871,0.16,0.015,0.12,0.7010456998081689,0.00964902197280657,0.010515685497122533,-0.01840150889313886,0.0017631985767902446,0.002,8e-05,0,-1.034256517636001,-0.0010767438628653233,-8.274052141088009e-05,-0.0,-0.0011594843842762034,0.2,0.02,0.0,-0.3110155277228208,-0.005429457069131085,-0.006220310554456416,-0.0,-0.011649767623587501,0.06030638733004107,0.0,-0.06030638733004107,0.014346965386471167,0.0,-0.014346965386471167,-0.5383719314326616,0.0,0.5383719314326616,-0.02714728534565542,0,0.02714728534565542,0.00429186738418667,-0.0017611652469611363,0.011649767623587501,0.4,0.0334775447845459,2.570899248123169,STABILIZE
0.16,0.015,0.12,0.18652118953793004,0.0015456181910931603,0.0027978178430689503,0.002558206519444639,0.00690164255360675,0.16,0.015,0.12,0.7028544560035326,0.008559591955702595,0.010542816840052989,-0.01325521863439682,0.0058471901613587635,0.002,8e-05,0,-1.0523174023771307,-0.0010683709345357779,-8.418539219017046e-05,0.0,-0.0011525563267259483,0.2,0.02,0.0,-0.3118630989271423,-0.005013710306142574,-0.006237261978542847,-0.0,-0.01125097228468542,0.053497449723141216,0.0,-0.053497449723141216,0.009660113694332251,0.0,-0.009660113694332251,-0.534185467267889,0.0,0.534185467267889,-0.025068551530712867,0,0.025068551530712867,0.006904200206807364,-0.005844169934658589,0.01125097228468542,0.4,0.03381013870239258,2.60469388961792,STABILIZE
0.16,0.015,0.12,0.18692736907798888,0.0019438935648700775,0.002803910536169833,0.0005033092805338652,0.005251113381573776,0.16,0.015,0.12,0.7040028836513784,0.005496143685728583,0.010560043254770677,-0.027485955172792006,-0.011429768232292747,0.002,8e-05,0,-1.0702421882485122,-0.0010723052391439312,-8.561937505988099e-05,0.0,-0.0011579246142038122,0.2,0.02,0.0,-0.3126894306753767,-0.004943321885464693,-0.0062537886135075335,-0.0,-0.011197110498972228,0.03435089803580364,0.0,-0.03435089803580364,0.012149334780437985,0.0,-0.012149334780437985,-0.5361526195719656,0.0,0.5361526195719656,-0.024716609427323465,0,0.024716609427323465,0.005246182248676578,0.011432032426639736,0.011197110498972228,0.4,0.0334322452545166,2.638152837753296,STABILIZE
0.16,0.015,0.12,0.18735503436995274,0.0020425395635905366,0.002810325515549291,0.0028267261718300505,0.007679591250969878,0.16,0.015,0.12,0.7050488614148585,0.004995614572164938,0.010575732921222877,-0.024510884012220284,-0.00893953651883247,0.002,8e-05,0,-1.0881464188908934,-0.0010688878700788758,-8.705171351127147e-05,0.0,-0.0011559395835901473,0.2,0.02,0.0,-0.3134499010836015,-0.004540030851598271,-0.00626899802167203,0.0,-0.010809028873270302,0.03122259107603086,0.0,-0.03122259107603086,0.012765872272440854,0.0,-0.012765872272440854,-0.5344439350394379,0.0,0.5344439350394379,-0.022700154257991354,0,0.022700154257991354,0.007676048871616869,0.008942578413078738,0.010809028873270302,0.4,0.03350067138671875,2.6716482639312744,STABILIZE
0.16,0.015,0.12,0.18765877364169678,0.001434454432014739,0.0028148816046254517,-0.0022907562286530545,0.0019585798079871358,0.16,0.015,0.12,0.7061217887917295,0.005067061042667952,0.010591826831875942,-0.01921931172676486,-0.0035604238522209675,0.002,8e-05,0,-1.1060478344989195,-0.00105677662336955,-8.848382675991357e-05,0.0,-0.0011452604501294636,0.2,0.02,0.0,-0.3141936594225731,-0.004390638390122384,-0.0062838731884514625,0.0,-0.010674511578573846,0.0316691315166747,0.0,-0.0316691315166747,0.008965340200092119,0.0,-0.008965340200092119,-0.528388311684775,0.0,0.528388311684775,-0.021953191950611916,0,0.021953191950611916,0.0019572154683396396,0.003561174031441171,0.010674511578573846,0.4,0.03387928009033203,2.705528974533081,STABILIZE
