E-kp,E-ki,E-kd,E-I-Tot,E-P,E-I,E-D,E-PID,N-kp,N-ki,N-kd,N-I-Tot,N-P,N-I,N-D,N-PID,D-kp,D-ki,D-kd,D-I-Tot,D-P,D-I,D-D,D-PID,Y-kp,Y-ki,Y-kd,Y-I-Tot,Y-P,Y-I,Y-D,Y-PID,errorN,desiredN,actualN,errorE,desiredE,actualE,errorD,desiredD,actualD,errorY,desiredY,actualY,roll,pitch,yaw-rate,thrust,dt,Time,Mode
0.16,0.015,0.11,1.3128621019705005,6.395566478552577,0.019692931529557506,13.75,20.165259410082136,0.17,0.015,0.08,-0.32911508122537625,-1.7034783881958095,-0.004936726218380643,-10.0,-11.70841511441419,0.002,8e-05,0,0.3062869527614781,0.01865084083239975,2.450295622091825e-05,0.0,0.01867534378862067,0.2,0.02,0.0,-0.00031026812133557965,-0.0018893267552614454,-6.205362426711593e-06,-0.0,-0.001895532117688157,-10.020461107034173,-10.0,0.020461107034172133,39.972290490953604,40.0,0.027709509046393452,9.325420416199876,10.0,0.6745795838001237,-0.009446633776307226,0,0.009446633776307226,3.999340446185041,4.000659445080078,0.001895532117688157,0.5186753437886207,0.03284430503845215,0.03351020812988281,STABILIZE
0.16,0.015,0.11,2.645564728556626,6.395514889661983,0.03968347092834939,6.874468110798275,13.309666471388606,0.17,0.015,0.08,-0.663103915508676,-1.7029549034643583,-0.00994655873263014,-4.996305655705449,-6.709207117902437,0.002,8e-05,0,0.6170032056857903,0.018638726884704943,4.936025645486323e-05,0.0,0.018688087141159805,0.2,0.02,0.0,-0.0005319546762922785,-0.0013298162271722397,-1.063909352584557e-05,-0.0,-0.0013404553206980852,-10.01738178508446,-10.0,0.017381785084459762,39.97196806038739,40.0,0.02803193961261148,9.31936344235247,10.0,0.6806365576475292,-0.006649081135861198,0,0.006649081135861198,3.999535779634387,4.0004641664967275,0.0013404553206980852,0.5186880871411598,0.0333409309387207,0.06659173965454102,STABILIZE
0.16,0.015,0.11,3.9827359349808606,6.395373279689831,0.05974103902471291,4.582008668052037,11.03712298676658,0.17,0.015,0.08,-0.9981211425151614,-1.7024523297844525,-0.01497181713772742,-3.328513877414278,-5.045938024336458,0.002,8e-05,0,0.9281563070243226,0.018602145153820887,7.425250456194582e-05,0.0,0.01867639765838283,0.2,0.02,0.0,-0.0006573107407657123,-0.0007494354699391093,-1.3146214815314245e-05,-0.0,-0.0007625816847544235,-10.014425469320308,-10.0,0.014425469320307797,39.97108299806144,40.0,0.028917001938560085,9.301072576910443,10.0,0.6989274230895582,-0.0037471773496955464,0,0.0037471773496955464,3.999738389116081,4.000261593774975,0.0007625816847544235,0.5186763976583828,0.03345346450805664,0.1000528335571289,STABILIZE
0.16,0.015,0.11,5.319992534926205,6.395644953842694,0.07979988802389307,3.4379022607124967,9.913347102579083,0.17,0.015,0.08,-1.3331701433537892,-1.7025773922638623,-0.019997552150306838,-2.4968252105898876,-4.219400155004057,0.002,8e-05,0,1.239229820925061,0.018596989440309047,9.913838567400488e-05,0.0,0.018696127825983053,0.2,0.02,0.0,-0.0009140148979824428,-0.001534661193484413,-1.8280297959648858e-05,-0.0,-0.0015529414914440618,-10.015161130963895,-10.0,0.015161130963894189,39.97278096151683,40.0,0.027219038483166532,9.298494720154524,10.0,0.7015052798454762,-0.007673305967422064,0,0.007673305967422064,3.999464266315505,4.000535661941457,0.0015529414914440618,0.5186961278259831,0.033454179763793945,0.1335289478302002,STABILIZE
0.16,0.015,0.11,6.65799093064798,6.395455264689266,0.0998698639597197,2.7495426226672537,9.244867751316239,0.17,0.015,0.08,-1.6685716639687103,-1.7033733126205441,-0.025028574959530654,-1.9996980472808088,-3.7280999348608836,0.002,8e-05,0,1.5507148532404638,0.018610715417924962,0.00012405718825923712,0.0,0.0187347726061842,0.2,0.02,0.0,-0.0010307590793088765,-0.000697527171438808,-2.061518158617753e-05,-0.0,-0.0007181423530249855,-10.019843015414965,-10.0,0.019843015414965474,39.97159540430791,40.0,0.02840459569208765,9.30535770896248,10.0,0.6946422910375194,-0.00348763585719404,0,0.00348763585719404,3.999773060429505,3.7283434108692446,0.0007181423530249855,0.5187347726061842,0.03347373008728027,0.16699528694152832,STABILIZE
0.16,0.015,0.11,7.994518662836115,6.3950758851248795,0.11991777994254173,-0.002017376536745161,6.512976288530676,0.17,0.015,0.08,-2.0038287721299652,-1.7044123053636036,-0.030057431581949477,-0.002622410550838822,-1.7370921474963918,0.002,8e-05,0,1.8612543310344125,0.018573534596323372,0.000148900346482753,-0.0,0.018722434942806124,0.2,0.02,0.0,-0.000997157847472632,0.0002009707900660772,-1.994315694945264e-05,0.0,0.00018102763311662456,-10.025954737432961,-10.0,0.025954737432962224,39.969224282030495,40.0,0.030775717969500984,9.286767298161685,10.0,0.7132327018383143,0.001004853950330386,0,-0.001004853950330386,4.000030464524175,1.7370219951895067,-0.00018102763311662456,0.5187224349428061,0.033438920974731445,0.2004852294921875,STABILIZE
0.16,0.015,0.11,9.332645251216347,6.394610537160095,0.1399896787682452,-0.0037156945444644708,6.530884521383876,0.17,0.015,0.08,-2.339732041289073,-1.7055327693031521,-0.035095980619336095,-0.007249824125216773,-1.747878574047705,0.002,8e-05,0,2.1715484672678267,0.01853533673875931,0.00017372387738142614,-0.0,0.018709060616140735,0.2,0.02,0.0,-0.0009731773942094133,0.00014324659233891577,-1.9463547884188264e-05,0.0,0.0001237830444547275,-10.032545701783247,-10.0,0.03254570178324647,39.96631585725059,40.0,0.033684142749405024,9.267668369379654,10.0,0.7323316306203456,0.0007162329616945788,0,-0.0007162329616945788,4.000021849259259,1.747828571417568,-0.0001237830444547275,0.5187090606161407,0.03348135948181152,0.23399639129638672,STABILIZE
0.16,0.015,0.11,10.672112582721692,6.394506166320594,0.16008168874082537,-0.0035618413089833646,6.551026013752436,0.17,0.015,0.08,-2.6759434893691183,-1.7053609747161458,-0.04013915234053677,-0.008181328701131283,-1.7536814557578138,0.002,8e-05,0,2.4824629629734996,0.018553500832249024,0.00019859703703788,-0.0,0.018752097869286905,0.2,0.02,0.0,-0.000981333150649328,-4.8668632690198866e-05,-1.962666301298656e-05,0.0,-6.829529570318542e-05,-10.031535145389093,-10.0,0.031535145389092196,39.965663539503716,40.0,0.03433646049628702,9.276750416124512,10.0,0.7232495838754869,-0.0002433431634509943,0,0.0002433431634509943,3.9999925518342923,1.7536984442996548,6.829529570318542e-05,0.5187520978692869,0.03351545333862305,0.26753878593444824,STABILIZE
0.16,0.015,0.11,12.011103699300676,6.394507183093792,0.18016655548951013,-0.0046742761649463255,6.569999462418355,0.17,0.015,0.08,-3.011857585880112,-1.704458971925906,-0.045177863788201676,-0.005295593259630522,-1.7549324289737382,0.002,8e-05,0,2.7936762098445853,0.018577936383882932,0.00022349409678756684,-0.0,0.018801430480670497,0.2,0.02,0.0,-0.0010283986896230282,-0.00028095866667551036,-2.0567973792460566e-05,0.0,-0.0003015266404679709,-10.026229246622975,-10.0,0.026229246622974826,39.965669894336195,40.0,0.03433010566380505,9.288968191941466,10.0,0.7110318080585347,-0.0014047933333775518,0,0.0014047933333775518,3.999956970892382,1.7550305015221535,0.0003015266404679709,0.5188014304806705,0.03350353240966797,0.30104613304138184,STABILIZE
0.16,0.015,0.11,13.346355402720542,6.394988971715312,0.20019533104080814,-0.0019121213133658451,6.593272181442755,0.17,0.015,0.08,-3.346763383220272,-1.7042302247285845,-0.05020145074830408,-0.002413272921606997,-1.7568449483984958,0.002,8e-05,0,3.1048557424743626,0.01862934975381571,0.00024838845939794904,0.0,0.01887773821321366,0.2,0.02,0.0,-0.001194887911665092,-0.0009967191355584337,-2.3897758233301844e-05,-0.0,-0.0010206168937917355,-10.024883674874026,-10.0,0.024883674874026835,39.9686810732207,40.0,0.0313189267792976,9.314674876907855,10.0,0.6853251230921452,-0.004983595677792168,0,0.004983595677792168,3.9998471742263986,1.757192862364973,0.0010206168937917355,0.5188777382132137,0.03340744972229004,0.3344614505767822,STABILIZE
0.16,0.015,0.11,14.690446836748286,6.395108634752697,0.22035670255122428,0.00013716283312759501,6.615602500137049,0.17,0.015,0.08,-3.6839736417352165,-1.7047034098247746,-0.05525960462602825,-0.0008132549951926308,-1.7607762694459956,0.002,8e-05,0,3.418353586515262,0.018645055673356486,0.00027346828692122096,0.0,0.018918523960277708,0.2,0.02,0.0,-0.0013496870965663383,-0.0009206568643251649,-2.6993741931326767e-05,-0.0,-0.0009476506062564917,-10.027667116616321,-10.0,0.027667116616321995,39.96942896720436,40.0,0.030571032795642918,9.322527836678242,10.0,0.6774721633217572,-0.004603284321625824,0,0.004603284321625824,3.9998585219795655,1.761097633634093,0.0009476506062564917,0.5189185239602777,0.033627986907958984,0.36801719665527344,STABILIZE
0.16,0.015,0.11,16.02856757513845,6.395083510055907,0.24042851362707673,0.0019450472697659402,6.63745707095275,0.17,0.015,0.08,-4.01955959173454,-1.7040550755762234,-0.06029339387601809,0.0041590611301623144,-1.7601894083220793,0.002,8e-05,0,3.730665558404759,0.01865733304292844,0.00029845324467238073,0.0,0.01895578628760082,0.2,0.02,0.0,-0.001530258226580172,-0.0010787212831527455,-3.060516453160344e-05,-0.0,-0.001109326447684349,-10.02385338574249,-10.0,0.023853385742488915,39.96927193784942,40.0,0.030728062150582557,9.32866652146422,10.0,0.6713334785357806,-0.005393606415763728,0,0.005393606415763728,3.9998342847515214,1.7605659452845033,0.001109326447684349,0.5189557862876009,0.033478736877441406,0.4014873504638672,STABILIZE
0.16,0.015,0.11,17.382573653819026,6.3950825754184555,0.2607386048072854,0.0023694439232359505,6.658190624148976,0.17,0.015,0.08,-4.359000054481147,-1.7034056839273848,-0.0653850008172172,0.00548082423079386,-1.7633098605138082,0.002,8e-05,0,4.046977037496505,0.01867456561121603,0.0003237581629997204,0.0,0.01899832377421575,0.2,0.02,0.0,-0.0017369975198629655,-0.0012205584533042347,-3.473995039725931e-05,-0.0,-0.001255298403701494,-10.020033434866969,-10.0,0.020033434866968024,39.969266096365345,40.0,0.030733903634657042,9.337282805608014,10.0,0.6627171943919862,-0.006102792266521173,0,0.006102792266521173,3.9998121604433217,1.7637359057849211,0.001255298403701494,0.5189983237742157,0.03387618064880371,0.43539905548095703,STABILIZE
0.16,0.015,0.11,18.72153722682548,6.395240334638921,0.2808230584023822,0.0030128095109242113,6.679076202552228,0.17,0.015,0.08,-4.694633568351712,-1.7032655653495083,-0.07041950352527568,0.003340603157836207,-1.7703444657169478,0.002,8e-05,0,4.360147903370805,0.018697324869862895,0.00034881183226966446,0.0,0.01904613670213256,0.2,0.02,0.0,-0.001971262862470086,-0.001398640708243002,-3.942525724940172e-05,-0.0,-0.0014380659654924038,-10.019209207938284,-10.0,0.01920920793828399,39.97025209149326,40.0,0.029747908506741798,9.348662434931446,10.0,0.6513375650685534,-0.00699320354121501,0,0.00699320354121501,3.9997838918265147,1.7708326702372996,0.0014380659654924038,0.5190461367021325,0.03349900245666504,0.46894383430480957,STABILIZE
0.16,0.015,0.11,20.057864205934134,6.395300869342823,0.300867963089012,0.0012788038909971311,6.697447636322833,0.17,0.015,0.08,-5.029853404311117,-1.7045388035361175,-0.07544780106466675,-0.0008881765517246246,-1.7808747811525087,0.002,8e-05,0,4.672118771099037,0.018662606465174248,0.000373769501687923,0.0,0.01903637596686217,0.2,0.02,0.0,-0.0022441729637448404,-0.0016325927666100085,-4.488345927489681e-05,-0.0,-0.0016774762258849054,-10.026698844330102,-10.0,0.026698844330102632,39.97063043339264,40.0,0.029369566607355735,9.331303232587123,10.0,0.6686967674128764,-0.008162963833050043,0,0.008162963833050043,3.9997462371143433,1.7814446454590298,0.0016774762258849054,0.5190363759668621,0.033432722091674805,0.5023434162139893,STABILIZE
0.16,0.015,0.11,21.421738957289236,6.395243482816623,0.3213260843593385,0.0005582724071392434,6.7171278395831004,0.17,0.015,0.08,-5.37221635324999,-1.7056828838354,-0.08058324529874984,-0.0027194910275855654,-1.7889856201617353,0.002,8e-05,0,4.99098643433436,0.018689732535562227,0.0003992789147467488,0.0,0.019089011450308977,0.2,0.02,0.0,-0.002561913642084989,-0.001862367677422005,-5.123827284169979e-05,-0.0,-0.0019136059502637048,-10.033428728443528,-10.0,0.03342872844352783,39.97027176760389,40.0,0.029728232396113243,9.344866267781113,10.0,0.655133732218887,-0.009311838387110024,0,0.009311838387110024,3.9997091972253154,1.7896356854892819,0.0019136059502637048,0.519089011450309,0.03412222862243652,0.5364353656768799,STABILIZE
0.16,0.015,0.11,22.853031591075666,6.3951385326490335,0.34279547386613496,0.00025847805873844746,6.738192484573906,0.17,0.015,0.08,-5.7313535723478095,-1.7049469671885156,-0.08597030358521714,-0.0026079319767843335,-1.793525202750517,0.002,8e-05,0,5.325833967461799,0.018701594550940778,0.00042606671739694394,0.0,0.01912766126833772,0.2,0.02,0.0,-0.00279652864197033,-0.0013103499859904195,-5.59305728394066e-05,-0.0,-0.001366280558829826,-10.029099806991267,-10.0,0.029099806991267883,39.96961582905646,40.0,0.030384170943544023,9.350797275470388,10.0,0.6492027245296119,-0.006551749929952097,0,0.006551749929952097,3.9997948849448277,1.7939825894557824,0.001366280558829826,0.5191276612683378,0.03580951690673828,0.5722684860229492,STABILIZE
0.16,0.015,0.11,24.192394324346893,6.395007649394323,0.3628859148652034,-0.00027477208273388973,6.7576187921767925,0.17,0.015,0.08,-6.067297557254296,-1.70427104519158,-0.09100946335881444,-0.0025137141348583205,-1.7977942226852526,0.002,8e-05,0,5.639256253033155,0.018706078121422404,0.0004511405002426524,0.0,0.019157218621665056,0.2,0.02,0.0,-0.002927891487974507,-0.0007840168911814878,-5.855782975949014e-05,0.0,-0.0008425747209409779,-10.025123795244587,-10.0,0.025123795244586782,39.96879780871452,40.0,0.031202191285479065,9.353039060711202,10.0,0.646960939288798,-0.003920084455907438,0,0.003920084455907438,3.999876988468377,1.7980678920000817,0.0008425747209409779,0.5191572186216651,0.03351020812988281,0.6058344841003418,STABILIZE
0.16,0.015,0.11,25.528955020383258,6.395005630912299,0.38293432530574883,-0.0009306102045478799,6.7770093460135,0.17,0.015,0.08,-6.402379806756927,-1.7034626139046638,-0.0960356971013539,-0.0006320457723454647,-1.800130356778363,0.002,8e-05,0,5.9519582460994895,0.01870220907650329,0.0004761566596879592,0.0,0.01917836573619125,0.2,0.02,0.0,-0.0030477565596444896,-0.000716893937694385,-6.095513119288979e-05,0.0,-0.0007778490688872748,-10.020368317086257,-10.0,0.020368317086257286,39.96878519320187,40.0,0.031214806798131566,9.351104538251645,10.0,0.6488954617483544,-0.003584469688471925,0,0.003584469688471925,3.999887374580739,1.8003805964474837,0.0007778490688872748,0.5191783657361912,0.03344011306762695,0.6392219066619873,STABILIZE
0.16,0.015,0.11,26.869750273324687,6.394840751744201,0.40304625409987027,-0.0018553697767727125,6.7960316360672985,0.17,0.015,0.08,-6.738375067659083,-1.7026655960165369,-0.10107562601488625,0.005188367673072832,-1.7985528543583502,0.002,8e-05,0,6.264967362565348,0.018660972371174145,0.0005011973890052279,-0.0,0.019162169760179374,0.2,0.02,0.0,-0.003155713401775705,-0.0006436169243363093,-6.311426803551409e-05,0.0,-0.0007067311923718234,-10.015679976567863,-10.0,0.015679976567863938,39.96775469840126,40.0,0.032245301598741796,9.330486185587072,10.0,0.6695138144129281,-0.003218084621681546,0,0.003218084621681546,3.9998989758613455,1.798777516210364,0.0007067311923718234,0.5191621697601794,0.03354692459106445,0.6728174686431885,STABILIZE
0.16,0.015,0.11,28.222058263850457,6.39453308687983,0.4233308739577568,-0.0028743645390427734,6.814989596298544,0.17,0.015,0.08,-7.077073219290639,-1.7016686189552148,-0.10615609828935958,0.011117152641270374,-1.7967075646033042,0.002,8e-05,0,6.580427963579101,0.0186461152426264,0.0005264342370863281,-0.0,0.01917254947971273,0.2,0.02,0.0,-0.003323786362832529,-0.0009934387340174906,-6.647572725665057e-05,0.0,-0.0010599144612741412,-10.00981540561891,-10.0,0.009815405618910474,39.965831792998934,40.0,0.03416820700106767,9.3230576213132,10.0,0.6769423786868001,-0.0049671936700874525,0,0.0049671936700874525,3.9998442214111196,1.7970543333875049,0.0010599144612741412,0.5191725494797127,0.03383660316467285,0.7066400051116943,STABILIZE
0.16,0.015,0.11,29.585504137962005,6.394438804203792,0.44378256206943006,-0.0028513770478067464,6.8353699892254145,0.17,0.015,0.08,-7.418494587664565,-1.701312804905648,-0.11127741881496847,0.010164562712489777,-1.8024256610081268,0.002,8e-05,0,6.898695090499666,0.018658053329486345,0.0005518956072399733,-0.0,0.01920994893672632,0.2,0.02,0.0,-0.003520424734764685,-0.0011527703993913436,-7.04084946952937e-05,0.0,-0.0012231788940866373,-10.00772238179793,-10.0,0.007722381797928916,39.9652425262737,40.0,0.03475747372630428,9.329026664743173,10.0,0.6709733352568268,-0.005763851996956717,0,0.005763851996956717,3.999818658992293,1.8028280446669553,0.0012231788940866373,0.5192099489367263,0.03411579132080078,0.7407705783843994,STABILIZE
0.16,0.015,0.11,30.924613524778874,6.394343939164409,0.4638692028716831,-0.0027036193605988533,6.855509522675493,0.17,0.015,0.08,-7.753830477310103,-1.7013313843621214,-0.11630745715965154,0.008213963309191254,-1.8094248782125817,0.002,8e-05,0,7.211611067033929,0.018677454561570626,0.0005769288853627143,-0.0,0.01925438344693334,0.2,0.02,0.0,-0.0038219122508297227,-0.0017995308020231277,-7.643824501659446e-05,-0.0,-0.0018759690470397223,-10.00783167271836,-10.0,0.007831672718359791,39.96464961977755,40.0,0.035350380222445875,9.338727280785314,10.0,0.6612727192146854,-0.008997654010115638,0,0.008997654010115638,3.9997158009709883,1.8100530106484785,0.0018759690470397223,0.5192543834469333,0.033507347106933594,0.7742369174957275,STABILIZE
0.16,0.015,0.11,32.262951098758585,6.393979670548549,0.4839442664813787,-0.004190901094798139,6.873733035935129,0.17,0.015,0.08,-8.089065461019542,-1.7017033440531555,-0.12133598191529313,0.004893294713325756,-1.8181460312551228,0.002,8e-05,0,7.523953441482926,0.018652905956857133,0.0006019162753186342,-0.0,0.019254822232175766,0.2,0.02,0.0,-0.004251184070121368,-0.00256358647759577,-8.502368140242735e-05,-0.0,-0.002648610158998197,-10.010019670900913,-10.0,0.01001967090091342,39.96237294092843,40.0,0.03762705907156736,9.326452978428566,10.0,0.6735470215714329,-0.012817932387978848,0,0.012817932387978848,3.9995931531426145,1.8190408462438301,0.002648610158998197,0.5192548222321758,0.03348994255065918,0.80777907371521,STABILIZE
0.16,0.015,0.11,33.603861418672636,6.39407171601297,0.5040579212800895,-0.003137912499222446,6.8949917247938375,0.17,0.015,0.08,-8.424845210987312,-1.701222860194683,-0.12637267816480968,0.00400496420485989,-1.8235905741546328,0.002,8e-05,0,7.837182155714425,0.018670216350105233,0.000626974572457154,0.0,0.019297190922562386,0.2,0.02,0.0,-0.004521279778532586,-0.0016099243403162053,-9.042559557065172e-05,-0.0,-0.001700349935886857,-10.00719329526284,-10.0,0.007193295262841206,39.962948225081064,40.0,0.03705177491893725,9.335108175052616,10.0,0.6648918249473837,-0.008049621701581026,0,0.008049621701581026,3.999743759904161,1.8241525257645939,0.001700349935886857,0.5192971909225624,0.0335538387298584,0.8413200378417969,STABILIZE
0.16,0.015,0.11,34.94056624217642,6.394190804018758,0.5241084936326463,-0.0013981169574951633,6.91690118069391,0.17,0.015,0.08,-8.759478014587962,-1.7007775989513296,-0.13139217021881944,0.002484738018869742,-1.8296850311512793,0.002,8e-05,0,8.149783974404036,0.018691819981853534,0.000651982717952323,0.0,0.019343802699805856,0.2,0.02,0.0,-0.004636732635182739,-0.0006903427567829201,-9.273465270365478e-05,0.0,-0.0007830774094865749,-10.004574111478409,-10.0,0.0045741114784084375,39.96369252511724,40.0,0.03630747488276292,9.345909990926767,10.0,0.6540900090732334,-0.0034517137839146003,0,0.0034517137839146003,3.9998897656165844,1.8299260029123476,0.0007830774094865749,0.5193438026998058,0.033447980880737305,0.8747594356536865,STABILIZE
0.16,0.015,0.11,36.35787134114579,6.394458608968545,0.5453680701171868,2.022431941435653e-05,6.939846903405146,0.17,0.015,0.08,-9.114288216314232,-1.7008478608752016,-0.13671432324471347,0.001316657522009348,-1.8362455265979056,0.002,8e-05,0,8.4818012025249,0.01872453595407222,0.0006785440962019921,0.0,0.01940308005027421,0.2,0.02,0.0,-0.004804153998275582,-0.000944194176445118,-9.608307996551165e-05,0.0,-0.0010402772564106297,-10.00498741691295,-10.0,0.00498741691295075,39.965366306053404,40.0,0.03463369394659612,9.36226797703611,10.0,0.6377320229638909,-0.00472097088222559,0,0.00472097088222559,3.9998486862433786,1.8365751063073736,0.0010402772564106297,0.5194030800502742,0.03546333312988281,0.9102425575256348,STABILIZE
0.16,0.015,0.11,37.69629311823214,6.394336433431557,0.5654443967734821,-9.210340918283679e-05,6.959688726795856,0.17,0.015,0.08,-9.44940827189686,-1.7011078411721858,-0.1417411240784529,0.0006382206099936436,-1.842210744640645,0.002,8e-05,0,8.794981792500089,0.01870283055578909,0.0007035985434000071,0.0,0.019406429099189097,0.2,0.02,0.0,-0.005116832954812626,-0.0018672873510253533,-0.00010233665909625251,-0.0,-0.001969624010121606,-10.006516712777563,-10.0,0.006516712777562271,39.96460270894723,40.0,0.03539729105276989,9.351415277894544,10.0,0.6485847221054555,-0.009336436755126767,0,0.009336436755126767,3.9996997557769363,1.8428625264265797,0.001969624010121606,0.5194064290991891,0.03349018096923828,0.9437575340270996,STABILIZE
0.16,0.015,0.11,39.03637090290798,6.3940090438774755,0.5855455635436198,6.105068581752155e-05,6.979615658106913,0.17,0.015,0.08,-9.784733250720294,-1.6999575752151592,-0.1467709987608044,0.004911987489742688,-1.8418165864862208,0.002,8e-05,0,9.108150625375753,0.01867806082383423,0.0007286520500300603,0.0,0.01940671287386429,0.2,0.02,0.0,-0.00551359475074798,-0.0023663724416651973,-0.00011027189501495961,0.0,-0.002476644336680157,-9.999750442442112,-10.0,-0.00024955755788793905,39.96255652423422,40.0,0.03744347576577822,9.339030411917115,10.0,0.6609695880828858,-0.011831862208325985,0,0.011831862208325985,3.9996195704680004,1.842642567017575,0.002476644336680157,0.5194067128738643,0.033533334732055664,0.9772939682006836,STABILIZE
0.16,0.015,0.11,40.37494649800969,6.394297438545016,0.6056241974701454,0.0008677715613083593,7.0007894075764705,0.17,0.015,0.08,-10.119706476415763,-1.7001567560427042,-0.15179559714623644,0.0030045514508357032,-1.848947801738105,0.002,8e-05,0,9.421185662630748,0.018691876127683003,0.0007536948530104599,0.0,0.019445570980693463,0.2,0.02,0.0,-0.00597223863002838,-0.002738643780391209,-0.00011944477260056759,-0.0,-0.0028580885529917765,-10.000922094368848,-10.0,0.000922094368848611,39.96435899090635,40.0,0.03564100909365136,9.345938063841501,10.0,0.6540619361584981,-0.013693218901956043,0,0.013693218901956043,3.999558002489983,1.8499037159459164,0.0028580885529917765,0.5194455709806934,0.03349423408508301,1.0107860565185547,STABILIZE
0.16,0.015,0.11,41.71299326643921,6.394502304303103,0.6256948989965881,0.0012195883357381525,7.0214167916354295,0.17,0.015,0.08,-10.45462366450916,-1.7005986490091642,-0.1568193549676374,0.0005094178856388662,-1.8569085860911627,0.002,8e-05,0,9.734440894702947,0.018713016526990978,0.0007787552715762359,0.0,0.019491771798567214,0.2,0.02,0.0,-0.006440175319472256,-0.0027953266559105705,-0.0001288035063894451,-0.0,-0.0029241301623000155,-10.003521464759789,-10.0,0.0035214647597891884,39.96563940189439,40.0,0.034360598105603914,9.356508263495488,10.0,0.6434917365045116,-0.013976633279552852,0,0.013976633279552852,3.9995469099264187,1.8578842839092848,0.0029241301623000155,0.5194917717985672,0.033479928970336914,1.0442609786987305,STABILIZE
0.16,0.015,0.11,43.06748090313845,6.39483665048091,0.6460122135470767,0.0015377859293293115,7.042386649957316,0.17,0.015,0.08,-10.793699641250717,-1.700906223617571,-0.16190549461876075,-0.0001583039302533223,-1.862970022166585,0.002,8e-05,0,10.05195344049776,0.01873808968260651,0.0008041562752398208,0.0,0.01954224595784633,0.2,0.02,0.0,-0.006807263217512613,-0.0021663792646873397,-0.00013614526435025225,-0.0,-0.0023025245290375917,-10.005330727162182,-10.0,0.005330727162181455,39.96772906550569,40.0,0.03227093449431189,9.369044841303253,10.0,0.6309551586967458,-0.010831896323436698,0,0.010831896323436698,3.9996477298367537,1.8637261978904174,0.0023025245290375917,0.5195422459578464,0.0338895320892334,1.0781292915344238,STABILIZE
0.16,0.015,0.11,44.40453631446602,6.395184080456003,0.6660680447169903,0.003467483353221605,7.064719608526215,0.17,0.015,0.08,-11.128300112145531,-1.7004314561809242,-0.16692450168218295,0.0019081023675115811,-1.8654478554955956,0.002,8e-05,0,10.365710708581256,0.018758903604288907,0.0008292568566865005,0.0,0.019588160460975407,0.2,0.02,0.0,-0.007170483340412202,-0.0021716186255159977,-0.00014340966680824403,-0.0,-0.002315028292324242,-10.002537977534848,-10.0,0.0025379775348478607,39.96990050285002,40.0,0.030099497149980416,9.379451802144454,10.0,0.6205481978555465,-0.010858093127579987,0,0.010858093127579987,3.999646408129646,1.8662058598956168,0.002315028292324242,0.5195881604609754,0.03345155715942383,1.1116352081298828,STABILIZE
0.16,0.015,0.11,45.743072515006375,6.395429447025367,0.6861460877250956,0.005817393575832928,7.087392928326295,0.17,0.015,0.08,-11.463276084175376,-1.7005217299088233,-0.17194914126263064,-0.0015740550725814745,-1.8740449262440355,0.002,8e-05,0,10.680154930784365,0.018779897746815925,0.0008544123944627493,0.0,0.019634310141278675,0.2,0.02,0.0,-0.007469976080039979,-0.0017886933926521355,-0.00014939952160079956,0.0,-0.001938092914252935,-10.003068999463666,-10.0,0.0030689994636657362,39.971434043908545,40.0,0.028565956091457675,9.389948873407963,10.0,0.6100511265920365,-0.008943466963260677,0,0.008943466963260677,3.9997074260794756,1.8746692751911498,0.001938092914252935,0.5196343101412787,0.03348731994628906,1.1450955867767334,STABILIZE
0.16,0.015,0.11,47.07984526095932,6.395929018042379,0.7061976789143898,0.006687601254280262,7.108814298211049,0.17,0.015,0.08,-11.79780690588324,-1.7006350621284634,-0.1769671035882486,-0.001333334295162029,-1.878935500011874,0.002,8e-05,0,10.994236815975086,0.01878447037477517,0.0008795389452780069,0.0,0.019664009320053178,0.2,0.02,0.0,-0.007709086308368668,-0.0014300598704119977,-0.00015418172616737336,0.0,-0.001584241596579371,-10.003735659579196,-10.0,0.003735659579195069,39.974556362764865,40.0,0.025443637235133446,9.392235187387586,10.0,0.6077648126124149,-0.007150299352059988,0,0.007150299352059988,3.999765484717567,1.8794346704439928,0.001584241596579371,0.5196640093200532,0.033440589904785156,1.1785523891448975,STABILIZE
0.16,0.015,0.11,48.41815143088284,6.395878619287451,0.7262722714632426,0.005639241246689073,7.127790131997383,0.17,0.015,0.08,-12.132677128053123,-1.7003964983817665,-0.18199015692079684,0.0005795569930924974,-1.881807098309471,0.002,8e-05,0,11.308589293075336,0.018778964152504397,0.0009046871434460269,0.0,0.019683651295950424,0.2,0.02,0.0,-0.008035642530362274,-0.0019507998292755653,-0.00016071285060724548,0.0,-0.002111512679882811,-10.002332343422156,-10.0,0.002332343422156341,39.97424137054657,40.0,0.025758629453425913,9.389482076252198,10.0,0.6105179237478008,-0.009753999146377826,0,0.009753999146377826,3.999679584326667,1.8824880286387935,0.002111512679882811,0.5196836512959504,0.03347921371459961,1.2120449542999268,STABILIZE
0.16,0.015,0.11,49.755865274561984,6.395826219988527,0.7463379791184297,0.004067399677064616,7.146231598784022,0.17,0.015,0.08,-12.467360591754442,-1.700186749817763,-0.18701040887631662,0.0020236568590082486,-1.8851735018350715,0.002,8e-05,0,11.622846509247493,0.01878143214738769,0.0009298277207397995,0.0,0.01971125986812749,0.2,0.02,0.0,-0.008342954755864747,-0.0018366368103304024,-0.00016685909511729495,0.0,-0.0020034959054476974,-10.001098528339782,-10.0,0.0010985283397823352,39.97391387492829,40.0,0.026086125071706944,9.390716073693845,10.0,0.6092839263061551,-0.009183184051652011,0,0.009183184051652011,3.99969779905235,1.8858145848086154,0.0020034959054476974,0.5197112598681275,0.033464670181274414,1.2454795837402344,STABILIZE
0.16,0.015,0.11,51.15993582991231,6.395936760231696,0.7673990374486845,0.0030720473858366613,7.166407845066217,0.17,0.015,0.08,-12.81865847853987,-1.7002770982756226,-0.19227987717809805,0.00044577898964741336,-1.892111196464073,0.002,8e-05,0,11.952805253170862,0.018788187420296674,0.000956224420253669,0.0,0.01974441184055034,0.2,0.02,0.0,-0.008690939137293524,-0.0019814585605096974,-0.0001738187827458705,0.0,-0.0021552773432555678,-10.001629989856603,-10.0,0.0016299898566032615,39.9746047514481,40.0,0.025395248551903504,9.394093710148336,10.0,0.6059062898516641,-0.009907292802548488,0,0.009907292802548488,3.9996727660232403,1.8928028276914388,0.0021552773432555678,0.5197444118405503,0.03512406349182129,1.2806966304779053,STABILIZE
0.16,0.015,0.11,52.50828123780517,6.395985707753886,0.7876242185670775,0.0022640997598766034,7.18587402608084,0.17,0.015,0.08,-13.156098356013501,-1.7007154915356133,-0.19734147534020252,-0.0005237695940277934,-1.8985807364698437,0.002,8e-05,0,12.27003245859342,0.018809911949455478,0.0009816025966874736,0.0,0.019791514546142953,0.2,0.02,0.0,-0.009133196848911116,-0.0026223566176846722,-0.00018266393697822234,-0.0,-0.0028050205546628947,-10.0042087737389,-10.0,0.0042087737389011224,39.974910673461785,40.0,0.025089326538215873,9.40495597472774,10.0,0.5950440252722609,-0.01311178308842336,0,0.01311178308842336,3.999565416861645,1.8994960618908143,0.0028050205546628947,0.5197915145461429,0.03372979164123535,1.3143599033355713,STABILIZE
0.16,0.015,0.11,53.849016552189994,6.3956912357069005,0.8077352482828499,-0.0009971989217621214,7.202429285067987,0.17,0.015,0.08,-13.491570235521511,-1.70031545012016,-0.20237355353282266,0.0009177374190306536,-1.901771266233952,0.002,8e-05,0,12.585400332897676,0.018804937932852907,0.0010068320266318142,0.0,0.01981176995948472,0.2,0.02,0.0,-0.00955789666792036,-0.0025324246339871693,-0.0001911579333584072,-0.0,-0.0027235825673455763,-10.001855588942117,-10.0,0.001855588942117558,39.97307022316813,40.0,0.02692977683186868,9.402468966426452,10.0,0.5975310335735479,-0.012662123169935846,0,0.012662123169935846,3.99957961897764,1.902655202744776,0.0027235825673455763,0.5198117699594847,0.033540964126586914,1.3479344844818115,STABILIZE
0.16,0.015,0.11,55.18714634792364,6.395627807066258,0.8278071952188545,-0.0010507371198191934,7.222384265165293,0.17,0.015,0.08,-13.826465815877766,-1.7006827075614523,-0.2073969872381665,-0.0007854586456508241,-1.9088651534452696,0.002,8e-05,0,12.90028881272193,0.018812725829267223,0.0010320231050177544,0.0,0.019844748934284978,0.2,0.02,0.0,-0.009994201543242286,-0.0026066637947457123,-0.00019988403086484573,-0.0,-0.002806547825610558,-10.004015926832071,-10.0,0.004015926832071915,39.972673794164116,40.0,0.027326205835886994,9.406362914633611,10.0,0.593637085366388,-0.01303331897372856,0,0.01303331897372856,3.9995656786955243,1.9097750013649362,0.002806547825610558,0.519844748934285,0.03347611427307129,1.381375789642334,STABILIZE
0.16,0.015,0.11,56.52450051486127,6.395473481187415,0.8478675077229191,-0.0014696697146832811,7.241871319195651,0.17,0.015,0.08,-14.161190707700099,-1.7007607154078328,-0.21241786061550147,-0.0015948055085165985,-1.9147733815318508,0.002,8e-05,0,13.215031012446117,0.018814438253442985,0.0010572024809956894,0.0,0.019871640734438673,0.2,0.02,0.0,-0.010300289652078827,-0.0018297120083880906,-0.00020600579304157654,0.0,-0.0020357178014296672,-10.004474796516662,-10.0,0.0044747965166625795,39.971709257421345,40.0,0.0282907425786547,9.407219126721492,10.0,0.5927808732785083,-0.009148560041940453,0,0.009148560041940453,3.9996942123683645,1.915412047098464,0.0020357178014296672,0.5198716407344387,0.03345751762390137,1.4148588180541992,STABILIZE
0.16,0.015,0.11,57.86242459844108,6.395510033996873,0.8679363689766162,-0.0017522435092469071,7.261694159464242,0.17,0.015,0.08,-14.495938410249963,-1.7001618115625767,-0.21743907615374944,0.00033132820248001716,-1.9172695595138463,0.002,8e-05,0,13.529981869725788,0.01881899908101076,0.001082398549578063,0.0,0.019901397630588822,0.2,0.02,0.0,-0.010548428858016516,-0.0014826857525767794,-0.00021096857716033031,0.0,-0.0016936543297371097,-10.00095183272104,-10.0,0.000951832721038571,39.971937712480454,40.0,0.028062287519544517,9.40949954050538,10.0,0.5905004594946209,-0.007413428762883896,0,0.007413428762883896,3.999751893423769,1.917787098426567,0.0016936543297371097,0.5199013976305888,0.03347158432006836,1.4483306407928467,STABILIZE
0.16,0.015,0.11,59.19995522675141,6.395497013239321,0.8879993284012712,-0.0020052832196100928,7.281491058420983,0.17,0.015,0.08,-14.830572631188872,-1.7000819438796242,-0.22245858946783306,0.0017792381509982508,-1.920761295196459,0.002,8e-05,0,13.84491064424431,0.018823176776152837,0.001107592851539545,0.0,0.01993076962769238,0.2,0.02,0.0,-0.010702570707213713,-0.0009213001512731877,-0.00021405141414427425,0.0,-0.001135351565417462,-10.000482022821318,-10.0,0.0004820228213173671,39.97185633274576,40.0,0.028143667254241177,9.411588388076419,10.0,0.5884116119235805,-0.004606500756365938,0,0.004606500756365938,3.9998455605432506,1.9210828834090505,0.001135351565417462,0.5199307696276924,0.033461809158325195,1.481764316558838,STABILIZE
0.16,0.015,0.11,60.55075659447721,6.395294772178695,0.908261348917158,-0.0016209562993132038,7.301935164796539,0.17,0.015,0.08,-15.168651367313966,-1.7006536282614877,-0.2275297705097095,-0.0009354208626060171,-1.9291188196338032,0.002,8e-05,0,14.162852229864901,0.01881596185197169,0.0011330281783891922,0.0,0.019948990030360884,0.2,0.02,0.0,-0.010719617512637497,-0.00010088395323494815,-0.00021439235025274994,0.0,-0.0003152763034876981,-10.003844872126397,-10.0,0.0038448721263963934,39.970592326116844,40.0,0.029407673883157428,9.407980925985845,10.0,0.5920190740141559,-0.0005044197661747407,0,0.0005044197661747407,3.9999830162962473,1.9291540347019704,0.0003152763034876981,0.5199489900303609,0.03379487991333008,1.5155494213104248,STABILIZE
0.16,0.015,0.11,61.889330800866325,6.395383371218732,0.9283399620129948,-0.0009966515818011586,7.322726681649926,0.17,0.015,0.08,-15.503650944774066,-1.700581026161459,-0.23255476417161097,0.0003011627813245359,-1.9328346275517454,0.002,8e-05,0,14.47802380884451,0.01882266841899867,0.001158241904707561,0.0,0.01998091032370623,0.2,0.02,0.0,-0.010754073644839334,-0.00020577881848867866,-0.0002150814728967867,0.0,-0.00042086029138546535,-10.003417800949757,-10.0,0.003417800949757129,39.97114607011707,40.0,0.028853929882930673,9.411334209499335,10.0,0.5886657905006644,-0.0010288940924433933,0,0.0010288940924433933,3.9999652903041087,1.9329064575983659,0.00042086029138546535,0.5199809103237062,0.03348851203918457,1.549058437347412,STABILIZE
0.16,0.015,0.11,63.2264741629659,6.395604752159082,0.9483971124444884,0.000547548799642117,7.344549413403213,0.17,0.015,0.08,-15.838281184945393,-1.7005827429202232,-0.2375742177741809,0.0005157725126422656,-1.9376411881817617,0.002,8e-05,0,14.793013798247037,0.018832605483884914,0.001183441103859763,0.0,0.020016046587744675,0.2,0.02,0.0,-0.010729287408811586,0.00014819182204058392,-0.0002145857481762317,0.0,-6.639392613564779e-05,-10.003427899530724,-10.0,0.0034278995307234134,39.972529700994265,40.0,0.027470299005733553,9.416302741942456,10.0,0.5836972580575449,0.0007409591102029195,0,-0.0007409591102029195,4.000025057582573,1.9375894593153538,6.639392613564779e-05,0.5200160465877447,0.03345155715942383,1.5825529098510742,STABILIZE
0.16,0.015,0.11,64.56502154312616,6.395801614303503,0.9684753231468924,0.0012057537521443962,7.36548269120254,0.17,0.015,0.08,-16.173253488563464,-1.7005878603782412,-0.24259880232845196,-0.001182649078778911,-1.9443693117854721,0.002,8e-05,0,15.10838292700332,0.018836075703194628,0.0012086706341602655,0.0,0.020044746337354893,0.2,0.02,0.0,-0.010643281845150544,0.0005136860777730863,-0.0002128656369030109,0.0,0.0003008204408700754,-10.003458002224948,-10.0,0.0034580022249474673,39.97376008939689,40.0,0.026239910603106917,9.418037851597314,10.0,0.5819621484026867,0.0025684303888654316,0,-0.0025684303888654316,4.00008715732634,1.9441899995643408,-0.0003008204408700754,0.5200447463373549,0.03348565101623535,1.6160361766815186,STABILIZE
0.16,0.015,0.11,65.90076295423476,6.396010609864783,0.9885114443135214,0.0021192742199848355,7.38664132839829,0.17,0.015,0.08,-16.507471179854896,-1.7003767528166338,-0.24761206769782343,-0.0008126690641778786,-1.9488014895786352,0.002,8e-05,0,15.422957582684365,0.018828708335663732,0.0012338366066147494,0.0,0.020062544942278483,0.2,0.02,0.0,-0.01050339708292789,0.0008372732325787077,-0.0002100679416585578,0.0,0.00062720529092015,-10.002216193039022,-10.0,0.002216193039021247,39.97506631165489,40.0,0.024933688345108052,9.414354167831865,10.0,0.5856458321681355,0.0041863661628935385,0,-0.0041863661628935385,4.00014238020523,1.9485092208839918,-0.00062720529092015,0.5200625449422784,0.033414363861083984,1.6494181156158447,STABILIZE
0.16,0.015,0.11,67.2396294919299,6.396142544391126,1.0085944423789486,0.0034837791619220767,7.408220765931997,0.17,0.015,0.08,-16.842461373098654,-1.700363910105861,-0.2526369205964798,0.0008155435863578108,-1.952185287115983,0.002,8e-05,0,15.738468805427386,0.01884107469081251,0.001259077504434191,0.0,0.0201001521952467,0.2,0.02,0.0,-0.010311711008843621,0.0011446729557230055,-0.00020623422017687244,0.0,0.0009384387355461331,-10.002140647681534,-10.0,0.0021406476815340166,39.97589090244454,40.0,0.0241090975554589,9.420537345406256,10.0,0.5794626545937441,0.005723364778615027,0,-0.005723364778615027,4.000194986876141,1.9517857111381611,-0.0009384387355461331,0.5201001521952467,0.03349184989929199,1.6829712390899658,STABILIZE
0.16,0.015,0.11,68.57690265666105,6.396362368786981,1.0286535398499157,0.004023591882499949,7.429039500519397,0.17,0.015,0.08,-17.177052417832893,-1.7004199107632005,-0.2576557862674934,0.00045393527202899426,-1.957621761758665,0.002,8e-05,0,16.05373526785063,0.018849538276553772,0.0012842988214280505,0.0,0.020133837097981822,0.2,0.02,0.0,-0.010078216528540393,0.0013960454626255395,-0.00020156433057080787,0.0,0.0011944811320547316,-10.002470063312943,-10.0,0.0024700633129426186,39.97726480491863,40.0,0.022735195081367284,9.424769138276886,10.0,0.5752308617231128,0.006980227313127697,0,-0.006980227313127697,4.000238463359762,1.9571344354357045,-0.0011944811320547316,0.5201338370979818,0.03345084190368652,1.7165358066558838,STABILIZE
0.16,0.015,0.11,69.93325468959311,6.39661867716295,1.0489988203438967,0.004152402842010741,7.4497699003488576,0.17,0.015,0.08,-17.516623952021714,-1.701524687473784,-0.2627493592803257,-0.002606045050044267,-1.9668800918041538,0.002,8e-05,0,16.37333037686312,0.01884031573112287,0.0013098664301490497,0.0,0.02015018216127192,0.2,0.02,0.0,-0.009754287703091629,0.0019095790810828663,-0.00019508575406183257,0.0,0.0017144933270210338,-10.008968749845787,-10.0,0.008968749845787268,39.978866732268436,40.0,0.02113326773156327,9.420157865561436,10.0,0.5798421344385641,0.009547895405414331,0,-0.009547895405414331,4.000327709707406,1.966213495651634,-0.0017144933270210338,0.520150182161272,0.03392672538757324,1.7503163814544678,STABILIZE
0.16,0.015,0.11,71.27144885610672,6.396983340657524,1.0690717328416006,0.004842106833397019,7.470897180332522,0.17,0.015,0.08,-17.851619402267694,-1.7014685843406532,-0.2677742910340154,-0.0024339024332847765,-1.9716767778079534,0.002,8e-05,0,16.688744984561865,0.018847246174537126,0.0013350995987649493,0.0,0.020182345773302076,0.2,0.02,0.0,-0.009343730409857,0.002453239065495388,-0.00018687460819714002,0.0,0.002266364457298248,-10.008638731415607,-10.0,0.008638731415606908,39.981145879109526,40.0,0.01885412089047619,9.423623087268563,10.0,0.5763769127314371,0.012266195327476938,0,-0.012266195327476938,4.0004220157308445,1.9708203906503303,-0.002266364457298248,0.520182345773302,0.03347063064575195,1.7838037014007568,STABILIZE
0.16,0.015,0.11,72.78107724459761,6.39700992699218,1.091716158668964,0.004078906996631459,7.492804992657775,0.17,0.015,0.08,-18.229506608835102,-1.7013673659737767,-0.2734425991325265,-0.002776225291913378,-1.9775861903982166,0.002,8e-05,0,17.044762120880627,0.01885766368542429,0.0013635809696704504,0.0,0.02022124465509474,0.2,0.02,0.0,-0.008913950157232106,0.002276477909585912,-0.00017827900314464212,0.0,0.00209819890644127,-10.008043329257509,-10.0,0.008043329257508506,39.981312043701124,40.0,0.018687956298875652,9.428831842712144,10.0,0.5711681572878565,0.011382389547929559,0,-0.011382389547929559,4.000392788683075,1.976791510682445,-0.00209819890644127,0.5202212446550948,0.03775835037231445,1.8215680122375488,STABILIZE
0.16,0.015,0.11,74.1210545541856,6.39694075947377,1.111815818312784,0.0032534872783448795,7.512010065064898,0.17,0.015,0.08,-18.564960783310777,-1.701519865618144,-0.27847441174966164,-0.0032405628952057674,-1.9832348402630113,0.002,8e-05,0,17.360727345160246,0.018854897833979214,0.0013888581876128198,0.0,0.020243756021592035,0.2,0.02,0.0,-0.008426800691418162,0.0029070140325540873,-0.00016853601382836326,0.0,0.002738478018725724,-10.008940385989082,-10.0,0.008940385989080826,39.98087974671106,40.0,0.01912025328894017,9.427448916989608,10.0,0.5725510830103924,0.014535070162770435,0,-0.014535070162770435,4.000502987878594,1.9822200371319767,-0.002738478018725724,0.520243756021592,0.03351545333862305,1.8551151752471924,STABILIZE
0.16,0.015,0.11,75.45880809296656,6.396973086758594,1.1318821213944985,0.002482743607817243,7.531337951760911,0.17,0.015,0.08,-18.899753636157165,-1.7009969382717116,-0.28349630454235747,-0.0016120727683374978,-1.9861053155824067,0.002,8e-05,0,17.676089800062428,0.01885030648490866,0.0014140871840049943,-0.0,0.020264393668913652,0.2,0.02,0.0,-0.007892595725534229,0.003193128153380142,-0.00015785191451068458,0.0,0.003035276238869457,-10.005864342774773,-10.0,0.005864342774772219,39.98108179224121,40.0,0.01891820775878933,9.425153242454329,10.0,0.574846757545671,0.01596564076690071,0,-0.01596564076690071,4.00055327889952,1.9849906264944894,-0.003035276238869457,0.5202643936689136,0.03345966339111328,1.8885862827301025,STABILIZE
0.16,0.015,0.11,76.81164417361971,6.396669641218158,1.1521746626042957,0.00021093771276231742,7.549055241535216,0.17,0.015,0.08,-19.238288400549713,-1.7007518674352793,-0.2885743260082457,0.0021343720726558673,-1.987191821370869,0.002,8e-05,0,17.995095493116388,0.01885459426049629,0.001439607639449311,0.0,0.020294201899945602,0.2,0.02,0.0,-0.007205255080612158,0.0040624757679673905,-0.00014410510161224317,0.0,0.003918370666355147,-10.00442274961929,-10.0,0.0044227496192899805,39.97918525761349,40.0,0.020814742386513284,9.427297130248144,10.0,0.572702869751856,0.020312378839836952,0,-0.020312378839836952,4.0007042436702545,1.9857736249638553,-0.003918370666355147,0.5202942018999456,0.033838510513305664,1.9223980903625488,STABILIZE
0.16,0.015,0.11,78.14993194550699,6.396428414082309,1.1722489791826047,-0.0022779536822498305,7.566399439582664,0.17,0.015,0.08,-19.573137639665802,-1.7004594860240612,-0.293597064594987,0.0027986453004038305,-1.9912579053186443,0.002,8e-05,0,18.310812043150065,0.018862332469267377,0.0014648649634520054,0.0,0.020327197432719383,0.2,0.02,0.0,-0.006345868309493655,0.005134364668180479,-0.0001269173661898731,0.0,0.005007447301990605,-10.002702858965066,-10.0,0.0027028589650657953,39.97767758801443,40.0,0.022322411985572426,9.431166234633688,10.0,0.5688337653663118,0.02567182334090239,0,-0.02567182334090239,4.000891797178992,1.9894654741311413,-0.005007447301990605,0.5203271974327194,0.03347587585449219,1.9558515548706055,STABILIZE
0.16,0.015,0.11,79.55155008437167,6.396836371741792,1.193273251265575,-0.0007747206995977324,7.58933490230777,0.17,0.015,0.08,-19.92387566495415,-1.7007768027803578,-0.29885813497431224,0.0016944628838159712,-1.997940474870854,0.002,8e-05,0,18.641512732448017,0.018866035430794483,0.0014913210185958415,0.0,0.020357356449390324,0.2,0.02,0.0,-0.005322792285553716,0.005836512937733021,-0.00010645584571107431,0.0,0.005730057092021947,-10.004569428119751,-10.0,0.004569428119750811,39.9802273233862,40.0,0.019772676613794744,9.433017715397241,10.0,0.5669822846027581,0.029182564688665102,0,-0.029182564688665102,4.001017095812438,1.9959028884551913,-0.005730057092021947,0.5203573564493903,0.035057783126831055,1.9909489154815674,STABILIZE
0.16,0.015,0.11,80.88874587867696,6.396858565581628,1.2133311881801543,-0.0003997147250198089,7.6097900390367625,0.17,0.015,0.08,-20.258435812561245,-1.700493171775369,-0.30387653718841867,0.0029208456600234027,-2.0014488633037644,0.002,8e-05,0,18.956722474242103,0.018848699507369237,0.0015165377979393683,-0.0,0.020365237305308606,0.2,0.02,0.0,-0.0043852864048518425,0.00560603442367111,-8.770572809703685e-05,0.0,0.005518328695574073,-10.002901010443347,-10.0,0.002901010443347464,39.98036603488517,40.0,0.01963396511482571,9.424349753684618,10.0,0.5756502463153814,0.028030172118355547,0,-0.028030172118355547,4.000978667688786,1.9994917486999537,-0.005518328695574073,0.5203652373053086,0.033446311950683594,2.0243585109710693,STABILIZE
0.16,0.015,0.11,82.25473668287451,6.394531910136496,1.2338210502431175,-0.009892559646376173,7.6184604007332375,0.17,0.015,0.08,-20.60028940116514,-1.7003176586861044,-0.3090043410174771,0.0019332248986964043,-2.0073887748048853,0.002,8e-05,0,19.278823167497546,0.018847886411184418,0.0015423058533998038,-0.0,0.02039019226458422,0.2,0.02,0.0,-0.0031657394575550727,0.007136241187015117,-6.331478915110145e-05,0.0,0.007072926397864015,-10.001868580506496,-10.0,0.0018685805064953152,39.965824438353096,40.0,0.03417556164690495,9.42394320559221,10.0,0.5760567944077902,0.03568120593507558,0,-0.03568120593507558,4.001249334715065,2.0048973676113464,-0.007072926397864015,0.5203901922645843,0.034178972244262695,2.0585649013519287,STABILIZE
0.16,0.015,0.11,83.59276139391338,6.392166405295393,1.2538914209087006,-0.018371127168180783,7.627686699035913,0.17,0.015,0.08,-20.935233290099898,-1.7001409786357988,-0.31402849935149846,0.0017480943150521542,-2.012421383672245,0.002,8e-05,0,19.59443675221903,0.018847321509342013,0.0015675549401775223,-0.0,0.020414876449519535,0.2,0.02,0.0,-0.0017132132049755121,0.0086739705159666,-3.426426409951024e-05,0.0,0.00863970625186709,-10.000829286092934,-10.0,0.0008292860929343531,39.951040033096206,40.0,0.04895996690379435,9.423660754671007,10.0,0.5763392453289943,0.043369852579833,0,-0.043369852579833,4.001522149690822,2.0093930205400476,-0.00863970625186709,0.5204148764495196,0.03349161148071289,2.0920674800872803,STABILIZE
0.16,0.015,0.11,84.92743203176384,6.391111371814942,1.2739114804764575,-0.02172191654936317,7.643300935742037,0.17,0.015,0.08,-21.269313912693896,-1.6997400377012692,-0.31903970869040843,0.002055425560168124,-2.0167243208315098,0.002,8e-05,0,19.90849642633377,0.01879855503054924,0.0015926797141067018,-0.0,0.020391234744655942,0.2,0.02,0.0,0.0003144466416609487,0.012136889372273994,6.288932833218973e-06,0.0,0.012143178305107213,-9.998470810007465,-10.0,-0.001529189992534693,39.94444607384339,40.0,0.05555392615661253,9.39927751527462,10.0,0.6007224847253787,0.060684446861369964,0,-0.060684446861369964,4.002133756290395,2.012486616848482,-0.012143178305107213,0.520391234744656,0.03341317176818848,2.1254494190216064,STABILIZE
0.16,0.015,0.11,86.26652224208165,6.3869356158058235,1.2939978336312248,-0.04043789701137677,7.640495552425671,0.17,0.015,0.08,-21.60464829944334,-1.6993769848524525,-0.3240697244916501,0.00392590780803178,-2.019520801536071,0.002,8e-05,0,20.22168845221101,0.018672540591822502,0.001617735076176881,-0.0,0.02029027566799938,0.2,0.02,0.0,0.002916182950499119,0.015511578463699863,5.832365900998238e-05,0.0,0.015569902122709846,-9.996335205014425,-10.0,-0.00366479498557502,39.9183475987864,40.0,0.08165240121359972,9.33627029591125,10.0,0.6637297040887504,0.07755789231849931,0,-0.07755789231849931,4.002730039792942,2.0141043906352234,-0.015569902122709846,0.5202902756679993,0.033545732498168945,2.1590070724487305,STABILIZE
0.16,0.015,0.11,87.6025953732885,6.385979848026404,1.3140389305993274,-0.044454975716987886,7.655563802908743,0.17,0.015,0.08,-21.940606849879337,-1.706129337471908,-0.32910910274819005,-0.01585691733027796,-2.051095357550376,0.002,8e-05,0,20.53537768683331,0.018741611930248436,0.001642830214946665,-0.0,0.0203844421451951,0.2,0.02,0.0,0.006515096660239911,0.021501995183106935,0.00013030193320479823,0.0,0.021632297116311733,-10.03605492630534,-10.0,0.036054926305339574,39.91237405016502,40.0,0.08762594983498029,9.370805965124218,10.0,0.6291940348757827,0.10750997591553467,0,-0.10750997591553467,4.003841637568841,2.0435861388830103,-0.021632297116311733,0.5203844421451951,0.03347516059875488,2.192547082901001,STABILIZE
0.16,0.015,0.11,88.97522840145201,6.385537146130409,1.3346284260217802,-0.036864829930509935,7.68330074222168,0.17,0.015,0.08,-22.287095352840623,-1.7126190019698901,-0.3343064302926093,-0.03409913299813982,-2.0810245652606394,0.002,8e-05,0,20.859243310231744,0.018832928449677107,0.0016687394648185396,-0.0,0.020501667914495647,0.2,0.02,0.0,0.011094029666892227,0.026626696833476134,0.00022188059333784455,0.0,0.02684857742681398,-10.074229423352294,-10.0,0.0742294233522951,39.90960716331506,40.0,0.0903928366849413,9.416464224838553,10.0,0.5835357751614467,0.13313348416738066,0,-0.13313348416738066,4.004824702651777,2.071724485120631,-0.02684857742681398,0.5205016679144956,0.0343935489654541,2.226884603500366,STABILIZE
0.16,0.015,0.11,90.31372228831374,6.39367956567975,1.354705834324706,0.00627170586985718,7.754657105874314,0.17,0.015,0.08,-22.624061887355744,-1.7102129276752471,-0.33936092831033615,-0.027834891262054892,-2.077408747247638,0.002,8e-05,0,21.175759292668147,0.01889905688941481,0.001694060743413452,0.0,0.020593117632828263,0.2,0.02,0.0,0.013616735641146302,0.015062987769432365,0.00027233471282292606,0.0,0.015335322482255291,-10.060076045148511,-10.0,0.06007604514851204,39.960497285498434,40.0,0.03950271450156282,9.449528444707404,10.0,0.5504715552925958,0.07531493884716182,0,-0.07531493884716182,4.002727284051971,2.0721489793561974,-0.015335322482255291,0.5205931176328282,0.033495426177978516,2.2603979110717773,STABILIZE
0.16,0.015,0.11,91.64923389323043,6.389940514674716,1.3747385083984565,-0.004760905612424768,7.759918117460748,0.17,0.015,0.08,-22.959995197256223,-1.707776986334571,-0.34439992795884333,-0.022108314067220337,-2.074285228360635,0.002,8e-05,0,21.49109953576212,0.018859864150892604,0.0017192879628609699,0.0,0.020579152113753576,0.2,0.02,0.0,0.015471958383011577,0.01109571316934598,0.0003094391676602315,-0.0,0.011405152337006211,-10.045746978438652,-10.0,0.04574697843865218,39.93712821671698,40.0,0.0628717832830194,9.429932075446303,10.0,0.5700679245536981,0.055478565846729895,0,-0.055478565846729895,4.002006620987696,2.070411122015572,-0.011405152337006211,0.5205791521137536,0.033440351486206055,2.293888568878174,STABILIZE
0.16,0.015,0.11,92.98499862870418,6.387827008016966,1.3947749794305626,0.0036692319762277404,7.786271219423757,0.17,0.015,0.08,-23.296641668393857,-1.7105122059212272,-0.3494496250259078,-0.030821166728185214,-2.09078299767532,0.002,8e-05,0,21.80624251608778,0.01883826159324805,0.0017444994012870228,0.0,0.02058276099453507,0.2,0.02,0.0,0.017768536074705903,0.013728223068985378,0.00035537072149411807,-0.0,0.014083593790479496,-10.061836505418983,-10.0,0.06183650541898325,39.92391880010604,40.0,0.07608119989396618,9.419130796624025,10.0,0.5808692033759758,0.06864111534492688,0,-0.06864111534492688,4.002501915112288,2.0859894445779594,-0.014083593790479496,0.520582760994535,0.03345775604248047,2.327302932739258,STABILIZE
0.16,0.015,0.11,94.32202678216969,6.396375779000688,1.4148304017325453,0.042741386881485814,7.853947567614719,0.17,0.015,0.08,-23.63323420273173,-1.7109087037389865,-0.35449851304097596,-0.012952274186567412,-2.07835949096653,0.002,8e-05,0,22.12388704265028,0.018995240963795935,0.0017699109634120227,0.0,0.02076515192720796,0.2,0.02,0.0,0.018316598617044152,0.0032774309595721184,0.00036633197234088306,-0.0,0.0036437629319130017,-10.064168845523449,-10.0,0.06416884552344836,39.9773486187543,40.0,0.02265138124569916,9.497620481897968,10.0,0.5023795181020319,0.01638715479786059,0,-0.01638715479786059,4.000594267584021,2.0772153667505258,-0.0036437629319130017,0.520765151927208,0.03344464302062988,2.3607709407806396,STABILIZE
0.16,0.015,0.11,95.65995005948726,6.39924389628097,1.4348992508923089,0.056300242349164795,7.890443389522444,0.17,0.015,0.08,-23.97494510628186,-1.7365417483868841,-0.3596241765942279,-0.06731220269122372,-2.163478127672336,0.002,8e-05,0,22.443635215211625,0.0191168149951069,0.00179549081721693,0.0,0.02091230581232383,0.2,0.02,0.0,0.024234858181212498,0.03538355583862581,0.00048469716362424997,0.0,0.035868253002250064,-10.214951461099318,-10.0,0.21495146109931856,39.99527435175606,40.0,0.004725648243938965,9.55840749755345,10.0,0.44159250244655046,0.17691777919312904,0,-0.17691777919312904,4.0066613033091985,2.151116642462986,-0.035868253002250064,0.5209123058123238,0.03345203399658203,2.394202470779419,STABILIZE
0.16,0.015,0.11,96.99949726753412,6.406737132887439,1.4549924590130119,0.05367390485199211,7.915403496752443,0.17,0.015,0.08,-24.316691867988286,-1.7366497116046353,-0.3647503780198243,-0.07437669082687957,-2.1757767804513395,0.002,8e-05,0,22.76307025335318,0.019097276939111972,0.0018210456202682546,0.0,0.020918322559380226,0.2,0.02,0.0,0.031153743948669745,0.04136424056044157,0.0006230748789733949,0.0,0.04198731543941497,-10.215586538850795,-10.0,0.21558653885079482,40.042107080546494,40.0,-0.04210708054649207,9.548638469555986,10.0,0.4513615304440151,0.20682120280220784,0,-0.20682120280220784,4.007827848219011,2.161323792815728,-0.04198731543941497,0.5209183225593802,0.03345346450805664,2.427639961242676,STABILIZE
0.16,0.015,0.11,98.3475614460543,6.403251319662133,1.4752134216908144,0.05481905104183946,7.933283792394787,0.17,0.015,0.08,-24.659953389893293,-1.732383511415278,-0.3698993008483994,-0.06931246595652656,-2.171595278220204,0.002,8e-05,0,23.084613362989376,0.019091462538586172,0.0018467690690391503,0.0,0.020938231607625323,0.2,0.02,0.0,0.034114004301340824,0.01757639891317387,0.0006822800860268165,0.0,0.018258678999200688,-10.190491243619281,-10.0,0.19049124361928144,40.020320747888334,40.0,-0.020320747888333705,9.545731269293086,10.0,0.4542687307069137,0.08788199456586934,0,-0.08788199456586934,4.003326151754524,2.165457405507343,-0.018258678999200688,0.5209382316076253,0.033684492111206055,2.4613606929779053,STABILIZE
0.16,0.015,0.11,99.68940011370428,6.410432514238572,1.4953410017055642,0.09298748945807796,7.998761005402214,0.17,0.015,0.08,-24.997736239939794,-1.7145634609059797,-0.3749660435990969,-0.011540205907755908,-2.1010697104128324,0.002,8e-05,0,23.403245008695304,0.019027684837811535,0.0018722596006956246,0.0,0.020899944438507158,0.2,0.02,0.0,0.03559301797095566,0.008832206830522849,0.0007118603594191132,-0.0,0.009544067189941961,-10.085667417093997,-10.0,0.08566741709399837,40.065203213991076,40.0,-0.0652032139910785,9.513842418905767,10.0,0.48615758109423307,0.04416103415261424,0,-0.04416103415261424,4.001618222635732,2.0979860648450246,-0.009544067189941961,0.5208999444385072,0.03349137306213379,2.4949405193328857,STABILIZE
0.16,0.015,0.11,101.03134748437994,6.417393295458602,1.515470212265699,0.08644761671088468,8.019311124435186,0.17,0.015,0.08,-25.331625997039296,-1.696505247836919,-0.3799743899555894,0.04037387329968174,-2.036105764492827,0.002,8e-05,0,23.720539810429933,0.018966890746155818,0.0018976431848343948,-0.0,0.020864533930990213,0.2,0.02,0.0,0.03560586763358597,7.681126381574866e-05,0.0007121173526717194,-0.0,0.000788928616487468,-9.979442634334816,-10.0,-0.020557365665184416,40.10870809661626,40.0,-0.10870809661626293,9.48344537307791,10.0,0.5165546269220905,0.00038405631907874327,0,-0.00038405631907874327,4.000013648023346,2.0360789522579608,-0.000788928616487468,0.5208645339309902,0.03345775604248047,2.528322696685791,STABILIZE
0.16,0.015,0.11,102.49334944497353,6.400125946105883,1.5374002416746029,0.009698173988760581,7.947224361769246,0.17,0.015,0.08,-25.69795425132346,-1.7038835907846925,-0.3854693137698519,0.09349284862790773,-1.9958600559266368,0.002,8e-05,0,24.068721302876433,0.019052688230116552,0.0019254977042301147,-0.0,0.020978185934346666,0.2,0.02,0.0,0.03956587181334453,0.02166936688586106,0.0007913174362668907,-0.0,0.02246068432212795,-10.022844651674662,-10.0,0.02284465167466221,40.00078716316177,40.0,-0.0007871631617655944,9.526344115058276,10.0,0.4736558849417245,0.1083468344293053,0,-0.1083468344293053,4.003767035241059,1.988292455943165,-0.02246068432212795,0.5209781859343466,0.03654932975769043,2.564960479736328,STABILIZE
0.16,0.015,0.11,103.89009740980578,6.413164376754367,1.5583514611470866,0.030346842343714472,8.001862680245168,0.17,0.015,0.08,-26.04464659416314,-1.691326730876058,-0.39066969891244707,0.12771117197112833,-1.9542852578173766,0.002,8e-05,0,24.400165462879187,0.01902281167873604,0.001952013237030335,-0.0,0.020974824915766375,0.2,0.02,0.0,0.040999913980421486,0.008230500752659117,0.0008199982796084298,-0.0,0.009050499032267546,-9.948980769859164,-10.0,-0.051019230140836425,40.0822773547148,40.0,-0.08227735471479666,9.51140583936802,10.0,0.48859416063197897,0.041152503763295586,0,-0.041152503763295586,4.001402627032893,1.9514117672333011,-0.009050499032267546,0.5209748249157664,0.03484702110290527,2.5997540950775146,STABILIZE
0.16,0.015,0.11,105.23444462581622,6.426442603413758,1.5785166693872432,0.09912431660322608,8.104083589404228,0.17,0.015,0.08,-26.375131092238636,-1.6785690556450248,-0.3956269663835795,0.15166517142263009,-1.9225308506059744,0.002,8e-05,0,24.718003290855304,0.018992178270207452,0.0019774402632684244,-0.0,0.020969618533475877,0.2,0.02,0.0,0.040077065225050126,-0.005514418529115092,0.0008015413045010026,-0.0,-0.004712877224614089,-9.873935621441321,-10.0,-0.12606437855867822,40.16526627133599,40.0,-0.16526627133598698,9.496089135103725,10.0,0.5039108648962752,-0.02757209264557546,0,0.02757209264557546,3.999074369284693,1.924455523118673,0.004712877224614089,0.5209696185334759,0.03347039222717285,2.6332318782806396,STABILIZE
0.16,0.015,0.11,106.57955190149025,6.426642547958011,1.5986932785223538,0.07046262712451055,8.095798453604875,0.17,0.015,0.08,-26.703588929162525,-1.6673846167663868,-0.4005538339374379,0.1330206468737662,-1.9349178038300585,0.002,8e-05,0,25.03472281568592,0.018915249464262485,0.002002777825254874,-0.0,0.02091802728951736,0.2,0.02,0.0,0.03817827839579934,-0.011340010242166987,0.0007635655679159868,-0.0,-0.010576444674251,-9.808144804508157,-10.0,-0.19185519549184263,40.16651592473757,40.0,-0.16651592473756935,9.457624732131242,10.0,0.5423752678687583,-0.056700051210834934,0,0.056700051210834934,3.9980832420360235,1.9388752660574258,0.010576444674251,0.5209180272895173,0.03348827362060547,2.6666932106018066,STABILIZE
0.16,0.015,0.11,108.32339194808841,6.417614436006531,1.624850879221326,0.013303519897606817,8.055768835125463,0.17,0.015,0.08,-27.132230425621998,-1.6760621779636853,-0.40698345638433,0.06343716860995077,-2.0196084657380644,0.002,8e-05,0,25.444075174645675,0.018831039101021962,0.0020355260139716543,-0.0,0.020866565114993615,0.2,0.02,0.0,0.042765745600676267,0.021103279954027748,0.0008553149120135254,0.0,0.021958594866041275,-9.859189282139324,-10.0,-0.14081071786067567,40.110090225040814,40.0,-0.11009022504081664,9.41551955051098,10.0,0.5844804494890193,0.10551639977013874,0,-0.10551639977013874,4.0037125431557845,2.0122386107661026,-0.021958594866041275,0.5208665651149936,0.04347634315490723,2.710193634033203,STABILIZE
