E-kp,E-ki,E-kd,E-I-Tot,E-P,E-I,E-D,E-PID,N-kp,N-ki,N-kd,N-I-Tot,N-P,N-I,N-D,N-PID,D-kp,D-ki,D-kd,D-I-Tot,D-P,D-I,D-D,D-PID,Y-kp,Y-ki,Y-kd,Y-I-Tot,Y-P,Y-I,Y-D,Y-PID,errorN,desiredN,actualN,errorE,desiredE,actualE,errorD,desiredD,actualD,errorY,desiredY,actualY,roll,pitch,yaw-rate,thrust,dt,Time,Mode
0.16,0.015,0.11,1.3193284985418472,6.391343096389134,0.019789927478127706,13.75,20.16113302386726,0.17,0.015,0.08,-0.33153269947096176,-1.7064536499845882,-0.004972990492064427,-10.0,-11.711426640476652,0.002,8e-05,0,0.3065923322925437,0.01856566416712667,2.4527386583403497e-05,0.0,0.018590191553710073,0.2,0.02,0.0,0.00018643006725412516,0.0011289251735077078,3.7286013450825034e-06,0.0,0.0011326537748527904,-10.037962646968165,-10.0,0.037962646968164884,39.945894352432084,40.0,0.05410564756791275,9.282832083563335,10.0,0.7171679164366647,0.005644625867538539,0,-0.005644625867538539,4.000394049813771,3.999605911363591,-0.0011326537748527904,0.5185901915537101,0.03302788734436035,0.03371262550354004,STABILIZE
0.16,0.015,0.11,2.654918965865316,6.391320338520298,0.03982378448797974,6.874766023850886,13.305910146859164,0.17,0.015,0.08,-0.6669648789386486,-1.7054969120268284,-0.010004473184079729,-4.993267112366194,-6.708768497577102,0.002,8e-05,0,0.616941157858193,0.01856424938447493,4.935529262865545e-05,0.0,0.018613604677103584,0.2,0.02,0.0,0.00030078794895921693,0.0006840587301028874,6.0157589791843385e-06,0.0,0.0006900744890820718,-10.032334776628401,-10.0,0.032334776628400876,39.945752115751866,40.0,0.05424788424813428,9.282124692237465,10.0,0.7178753077625352,0.003420293650514437,0,-0.003420293650514437,4.000238774415126,3.9997612113307177,-0.0006900744890820718,0.5186136046771036,0.03343510627746582,0.06672525405883789,STABILIZE
0.16,0.015,0.11,3.992150943091169,6.39129113995448,0.05988226414636753,4.582977466706043,11.03415087080689,0.17,0.015,0.08,-1.002748706621261,-1.7051813031077812,-0.015041230599318915,-3.327365868359846,-5.047588402066946,0.002,8e-05,0,0.9275212722271096,0.018555194302656564,7.420170177816877e-05,0.0,0.018629396004434733,0.2,0.02,0.0,0.00041184539013874427,0.0006634978559490865,8.236907802774886e-06,0.0,0.0006717347637518615,-10.030478253575183,-10.0,0.030478253575183193,39.945569624715496,40.0,0.05443037528450219,9.277597151328282,10.0,0.7224028486717178,0.0033174892797454324,0,-0.0033174892797454324,4.000231597738118,3.9997683888517273,-0.0006717347637518615,0.5186293960044347,0.03347635269165039,0.10016798973083496,STABILIZE
0.16,0.015,0.11,5.327786421638706,6.3912622864186845,0.07991679632458058,3.4370847831899023,9.908263865933167,0.17,0.015,0.08,-1.3380736187480746,-1.7048785710490666,-0.02007110428122112,-2.4944592330515323,-4.21940890838182,0.002,8e-05,0,1.2375789097730758,0.018546037797103548,9.900631278184607e-05,0.0,0.018645044109885395,0.2,0.02,0.0,0.000520710042963021,0.0006511718214805379,1.0414200859260421e-05,0.0,0.0006615860223397983,-10.028697476759215,-10.0,0.028697476759215197,39.94538929011678,40.0,0.054610709883222634,9.273018898551774,10.0,0.7269811014482266,0.003255859107402689,0,-0.003255859107402689,4.000227295387233,3.9997726916962355,-0.0006615860223397983,0.5186450441098854,0.03343653678894043,0.13361120223999023,STABILIZE
0.16,0.015,0.11,6.663551312626302,6.391061264732278,0.09995326968939452,2.7488412775916635,9.239855812013337,0.17,0.015,0.08,-1.6734868923879505,-1.7051089753940183,-0.025102303385819254,-1.9962158486924981,-3.726427127472336,0.002,8e-05,0,1.5476310649447402,0.018543329858551318,0.00012381048519557924,0.0,0.018667140343746898,0.2,0.02,0.0,0.0005561275525649833,0.00021182196361575718,1.1122551051299665e-05,0.0,0.00022294451466705684,-10.0300527964354,-10.0,0.030052796435400216,39.94413290457674,40.0,0.05586709542326265,9.271664929275659,10.0,0.7283350707243414,0.0010591098180787858,0,-0.0010591098180787858,4.000068882148653,3.7263531870218296,-0.00022294451466705684,0.518667140343747,0.03344082832336426,0.16705560684204102,STABILIZE
0.16,0.015,0.11,7.999291862370482,6.390990367322648,0.11998937793555722,-0.0014502362199018534,6.509529509038304,0.17,0.015,0.08,-2.008940631290633,-1.7053268430918378,-0.030134109469359495,0.003170968491430813,-1.7322899840697665,0.002,8e-05,0,1.8579221717690855,0.018557753180062427,0.00014863377374152686,-0.0,0.018706386953803954,0.2,0.02,0.0,0.000537513831009151,-0.00011132412202554316,1.075027662018302e-05,-0.0,-0.00010057384540536014,-10.031334371128457,-10.0,0.031334371128457,39.94368979576655,40.0,0.056310204233444565,9.278876590031214,10.0,0.7211234099687868,-0.0005566206101277158,0,0.0005566206101277158,3.99998317085253,1.7323288434373452,0.00010057384540536014,0.518706386953804,0.033440589904785156,0.20059418678283691,STABILIZE
0.16,0.015,0.11,9.33514892745044,6.391092186774796,0.1400272339117566,-0.0009380174817910736,6.530181403204762,0.17,0.015,0.08,-2.344418680281263,-1.705328843479797,-0.03516628020421894,0.0004721838008008432,-1.7400229398832152,0.002,8e-05,0,2.168363220203942,0.01856539717993174,0.00017346905761631538,0.0,0.018738866237548057,0.2,0.02,0.0,0.0002762836005587066,-0.00156224281813534,5.525672011174132e-06,-0.0,-0.001556717146124166,-10.031346138116453,-10.0,0.03134613811645211,39.944326167342474,40.0,0.05567383265752858,9.28269858996587,10.0,0.7173014100341306,-0.0078112140906767,0,0.0078112140906767,3.9997627430570435,1.7405682493291157,0.001556717146124166,0.5187388662375481,0.03344297409057617,0.23396897315979004,STABILIZE
0.16,0.015,0.11,10.70443437013661,6.3908746079497805,0.16056651555204915,-0.0016907893157655097,6.549750334186064,0.17,0.015,0.08,-2.688467059752118,-1.7061403763631902,-0.04032700589628177,-0.0026431828120887855,-1.7491105650715606,0.002,8e-05,0,2.4859884482107732,0.01853067794735146,0.00019887907585686187,-0.0,0.01872955702320832,0.2,0.02,0.0,-2.8362581513331775e-05,-0.0017773463157484842,-5.672516302666355e-07,-0.0,-0.0017779135673787509,-10.036119860959941,-10.0,0.03611986095994142,39.94296629968613,40.0,0.057033700313870936,9.26533897367573,10.0,0.7346610263242696,-0.00888673157874242,0,0.00888673157874242,3.9997286600710265,1.749730954933183,0.0017779135673787509,0.5187295570232083,0.034281015396118164,0.2682344913482666,STABILIZE
0.16,0.015,0.11,12.04102691381416,6.390874888642184,0.1806154037072124,-0.0015709824581129907,6.569919309891283,0.17,0.015,0.08,-3.0243633974382633,-1.7064575493487755,-0.04536545096157395,-0.004387407139012711,-1.756210407449362,0.002,8e-05,0,2.7960491747350553,0.01853181921887401,0.00022368393397880444,-0.0,0.018755503152852813,0.2,0.02,0.0,-0.0003231895549187565,-0.0017621322871954324,-6.46379109837513e-06,-0.0,-0.0017685960782938075,-10.037985584404561,-10.0,0.037985584404560666,39.94296805401365,40.0,0.057031945986351244,9.265909609437005,10.0,0.7340903905629962,-0.008810661435977162,0,0.008810661435977162,3.999729891361969,1.7568254868879345,0.0017685960782938075,0.5187555031528528,0.0334625244140625,0.30174708366394043,STABILIZE
0.16,0.015,0.11,13.432853414275922,6.390873565266593,0.20149280121413882,-0.0007496555470632614,6.591616710933668,0.17,0.015,0.08,-3.3742063664667206,-1.7067786957588589,-0.050613095497000805,-0.004606364574834008,-1.7619981558306936,0.002,8e-05,0,3.118935868412889,0.01853255447533681,0.00024951486947303117,-0.0,0.018782069344809842,0.2,0.02,0.0,-0.000625784084185732,-0.001736785599215327,-1.251568168371464e-05,-0.0,-0.0017493012808990416,-10.039874680934464,-10.0,0.039874680934463384,39.942959782916205,40.0,0.05704021708379373,9.266277237668405,10.0,0.7337227623315945,-0.008683927996076634,0,0.008683927996076634,3.9997329000929454,1.762604388132755,0.0017493012808990416,0.5187820693448099,0.03484535217285156,0.3365485668182373,STABILIZE
0.16,0.015,0.11,14.941438421604259,6.390893751056507,0.22412157632406388,-0.00038465308460868377,6.614630674295962,0.17,0.015,0.08,-3.7532180903611163,-1.705977869278319,-0.05629827135541674,-0.001997545830625987,-1.7642736864643618,0.002,8e-05,0,3.469353759042817,0.018556159386166046,0.0002775483007234254,-0.0,0.01883370768688947,0.2,0.02,0.0,-0.0008124589643606125,-0.0009885251074628462,-1.624917928721225e-05,-0.0,-0.0010047742867500585,-10.035163936931287,-10.0,0.03516393693128786,39.94308594410317,40.0,0.056914055896835146,9.278079693083022,10.0,0.7219203069169774,-0.004942625537314231,0,0.004942625537314231,3.999847789889711,1.7646187402566433,0.0010047742867500585,0.5188337076868895,0.03776836395263672,0.3743276596069336,STABILIZE
0.16,0.015,0.11,16.27750575789684,6.391004687734411,0.2441625863684526,-0.000347245852762903,6.634820028250101,0.17,0.015,0.08,-4.088930821000348,-1.706229862467953,-0.06133396231500522,-0.0027009724146173793,-1.7702647971975758,0.002,8e-05,0,3.779003666987877,0.01851491649669404,0.0003023202933590302,-0.0,0.01881723679005307,0.2,0.02,0.0,-0.001210681186649844,-0.0023810926480628005,-2.421362373299688e-05,-0.0,-0.0024053062717957975,-10.036646249811488,-10.0,0.036646249811487536,39.94377929834007,40.0,0.05622070165993226,9.25745824834702,10.0,0.7425417516529813,-0.011905463240314001,0,0.011905463240314001,3.9996320711550237,1.7710959171047593,0.0024053062717957975,0.5188172367900531,0.03344869613647461,0.40779948234558105,STABILIZE
0.16,0.015,0.11,17.613484473312045,6.391172997034074,0.26420226709968064,0.0012174009553571478,6.656592665089112,0.17,0.015,0.08,-4.424583481465419,-1.7060826511635871,-0.06636875222198128,-5.866947215752605e-05,-1.772510072857726,0.002,8e-05,0,4.088591418581393,0.018512915432021323,0.00032708731348651143,-0.0,0.018840002745507834,0.2,0.02,0.0,-0.0016374252004658872,-0.0025518696389741813,-3.2748504009317746e-05,-0.0,-0.002584618142983499,-10.035780300962276,-10.0,0.03578030096227573,39.94483123146296,40.0,0.05516876853703929,9.256457716010662,10.0,0.743542283989339,-0.012759348194870906,0,0.012759348194870906,3.9996051758780564,1.7734007994448304,0.002584618142983499,0.5188400027455078,0.03344559669494629,0.4412517547607422,STABILIZE
0.16,0.015,0.11,18.948814058887663,6.390983372456307,0.28423221088331496,0.000436315894280796,6.675651899233903,0.17,0.015,0.08,-4.760164690110899,-1.7064980207600882,-0.07140247035166347,-0.00033598486300776594,-1.7782364759747593,0.002,8e-05,0,4.3982903552664085,0.01852801712964488,0.00035186322842131274,-0.0,0.018879880358066193,0.2,0.02,0.0,-0.0019668530312521213,-0.001970831594425819,-3.933706062504243e-05,-0.0,-0.0020101686550508613,-10.038223651529929,-10.0,0.038223651529928585,39.943646077851916,40.0,0.05635392214808682,9.26400856482244,10.0,0.7359914351775597,-0.009854157972129095,0,0.009854157972129095,3.9996941063933047,1.7789243996780175,0.0020101686550508613,0.5188798803580662,0.03343033790588379,0.47464752197265625,STABILIZE
0.16,0.015,0.11,20.28546235345349,6.390868252315499,0.3042819353018023,-3.1479050354206205e-05,6.695118708566948,0.17,0.015,0.08,-5.096080953982392,-1.7064858288634375,-0.07644121430973588,0.0005657246331803634,-1.7823613185399931,0.002,8e-05,0,4.708408610009285,0.018534465243749073,0.00037667268880074283,-0.0,0.018911137932549817,0.2,0.02,0.0,-0.002268823775501065,-0.0018047522770149504,-4.53764755100213e-05,-0.0,-0.0018501287525249717,-10.038151934490807,-10.0,0.038151934490808226,39.94292657697187,40.0,0.05707342302813137,9.267232621874536,10.0,0.7327673781254639,-0.009023761385074752,0,0.009023761385074752,3.9997192385600906,1.782991273820461,0.0018501287525249717,0.5189111379325498,0.03346395492553711,0.508150577545166,STABILIZE
0.16,0.015,0.11,21.61972446606547,6.390751170910715,0.32429586699098206,-0.0005868948521043633,6.7144601430495925,0.17,0.015,0.08,-5.43140164342325,-1.7064754445134032,-0.08147102465134874,-0.0014006535296637855,-1.7893471226944158,0.002,8e-05,0,5.018077337205042,0.018540358020870323,0.00040144618697640335,-0.0,0.018941804207846726,0.2,0.02,0.0,-0.0025423637593644287,-0.0016377272835315698,-5.0847275187288575e-05,-0.0,-0.0016885745587188585,-10.038090850078841,-10.0,0.03809085007884235,39.942194818191965,40.0,0.05780518180803483,9.270179010435161,10.0,0.7298209895648395,-0.008188636417657848,0,0.008188636417657848,3.999744228044275,1.7899187790850428,0.0016885745587188585,0.5189418042078467,0.03340482711791992,0.5415236949920654,STABILIZE
0.16,0.015,0.11,22.999553960516923,6.3904866002533645,0.34499330940775386,-0.002095941334602774,6.733383968326516,0.17,0.015,0.08,-5.778149181264159,-1.7062820784022668,-0.08667223771896239,-0.00016480436821381749,-1.793119120489443,0.002,8e-05,0,5.338598096244877,0.018555586251631367,0.0004270878476995902,0.0,0.018982674099330958,0.2,0.02,0.0,-0.0028042554639233557,-0.00151614333096159,-5.608510927846712e-05,0.0,-0.001572228440240057,-10.036953402366274,-10.0,0.03695340236627457,39.940541251583525,40.0,0.059458748416472855,9.277793125815684,10.0,0.7222068741843154,-0.0075807166548079495,0,0.0075807166548079495,3.9997627201507235,1.7936483386542974,0.001572228440240057,0.518982674099331,0.03454709053039551,0.5760860443115234,STABILIZE
0.16,0.015,0.11,24.335218782407036,6.390263558460072,0.3650282817361055,-0.0037049309453115226,6.751586909250865,0.17,0.015,0.08,-6.113822297180447,-1.706344752706432,-0.09170733445770671,-0.0007554497228754269,-1.798807536887014,0.002,8e-05,0,5.649295919515949,0.018581018093038335,0.000451943673561276,0.0,0.01903296176659961,0.2,0.02,0.0,-0.0031001889034225536,-0.0017698046725200954,-6.200377806845107e-05,0.0,-0.0018318084505885464,-10.037322074743717,-10.0,0.03732207474371669,39.93914724037545,40.0,0.06085275962454885,9.290509046519167,10.0,0.7094909534808327,-0.008849023362600477,0,0.008849023362600477,3.9997221361964463,1.799425293804014,0.0018318084505885464,0.5190329617665996,0.03344249725341797,0.6095185279846191,STABILIZE
0.16,0.015,0.11,25.673095377966643,6.390321532551304,0.3850964306694996,-0.0026870286627205964,6.772730934558083,0.17,0.015,0.08,-6.450033940471013,-1.7062723069276857,-0.0967505091070652,0.0006175052848480807,-1.802405310749903,0.002,8e-05,0,5.960609353028155,0.018587223815599838,0.00047684874824225243,0.0,0.01906407256384209,0.2,0.02,0.0,-0.003307756316396793,-0.0012392982590730252,-6.615512632793587e-05,0.0,-0.001305453385400961,-10.036895923104034,-10.0,0.03689592310403321,39.939509578445644,40.0,0.060490421554356445,9.293611907799919,10.0,0.7063880922000805,-0.006196491295365126,0,0.006196491295365126,3.9998050479602028,1.8028378969090748,0.001305453385400961,0.5190640725638421,0.03349757194519043,0.6430723667144775,STABILIZE
0.16,0.015,0.11,27.28368412124738,6.390633295852763,0.4092552618187107,-0.001150929225932229,6.798737628445541,0.17,0.015,0.08,-6.854964469544102,-1.7071382689544936,-0.10282446704316153,-0.001437983945722259,-1.8114007199433775,0.002,8e-05,0,6.335386076893011,0.01858839368548762,0.0005068308861514409,0.0,0.01909522457163906,0.2,0.02,0.0,-0.003581433438133332,-0.0013573996882966365,-7.162866876266664e-05,0.0,-0.001429028357059303,-10.041989817379374,-10.0,0.041989817379373656,39.94145809907977,40.0,0.058541900920233106,9.29419684274381,10.0,0.70580315725619,-0.006786998441483182,0,0.006786998441483182,3.999785401615039,1.8118745291102816,0.001429028357059303,0.519095224571639,0.040323734283447266,0.6833467483520508,STABILIZE
0.16,0.015,0.11,28.618625008399242,6.390627064708785,0.4292793751259886,-0.0006946369935711177,6.8192118028412025,0.17,0.015,0.08,-7.1906170108404055,-1.7072625650343318,-0.10785925516260608,-0.0018172593650223141,-1.8169390795619602,0.002,8e-05,0,6.646291305962805,0.018604563229874395,0.0005317033044770244,0.0,0.01913626653435142,0.2,0.02,0.0,-0.003896932969271601,-0.001887948618175207,-7.793865938543202e-05,-0.0,-0.001965887277560639,-10.042720970790187,-10.0,0.04272097079018713,39.94141915442991,40.0,0.0585808455700912,9.302281614937197,10.0,0.6977183850628021,-0.009439743090876035,0,0.009439743090876035,3.999700596646504,1.817598073289324,0.001965887277560639,0.5191362665343514,0.03342247009277344,0.716834306716919,STABILIZE
0.16,0.015,0.11,29.95401577134542,6.390182407242632,0.4493102365701813,-0.0014702027641081267,6.838022441048705,0.17,0.015,0.08,-7.526499772680119,-1.7077391772563741,-0.11289749659020179,-0.003685646409546273,-1.8243223202561223,0.002,8e-05,0,6.956267876953156,0.018541453235660206,0.0005565014301562526,-0.0,0.019097954665816458,0.2,0.02,0.0,-0.004281636121774363,-0.0023011273042190857,-8.563272243548727e-05,-0.0,-0.002386760026654573,-10.045524572096317,-10.0,0.045524572096317314,39.938640045266446,40.0,0.06135995473355138,9.270726617830103,10.0,0.7292733821698971,-0.011505636521095429,0,0.011505636521095429,3.9996335749251726,1.825125528427008,0.002386760026654573,0.5190979546658164,0.03343605995178223,0.7502155303955078,STABILIZE
0.16,0.015,0.11,31.34009973428176,6.3905658414133235,0.4701014960142264,0.0009660706063376055,6.861633408033888,0.17,0.015,0.08,-7.875129304697474,-1.7078231121489178,-0.11812693957046211,-0.0037368985974847286,-1.8296869503168647,0.002,8e-05,0,7.278309817082904,0.0185597542891253,0.0005822647853666324,-0.0,0.019142019074491933,0.2,0.02,0.0,-0.004696787978558489,-0.0023925816778656785,-9.393575957116977e-05,-0.0,-0.002486517437436848,-10.04601830675834,-10.0,0.046018306758339386,39.94103650883327,40.0,0.05896349116673102,9.27987714456265,10.0,0.7201228554373494,-0.011962908389328392,0,0.011962908389328392,3.999617888561474,1.830522078986999,0.002486517437436848,0.519142019074492,0.03470325469970703,0.784923791885376,STABILIZE
0.16,0.015,0.11,32.67763065812376,6.390853811215788,0.4901644598718564,0.0019105552535447624,6.882928826341189,0.17,0.015,0.08,-8.211574781063964,-1.7080425432499504,-0.12317362171595946,-0.0045571915806736285,-1.8357733565465835,0.002,8e-05,0,7.589271237599074,0.018572551707238198,0.0006071416990079259,-0.0,0.019179693406246125,0.2,0.02,0.0,-0.005032051777558856,-0.0020024041027866452,-0.00010064103555117712,-0.0,-0.0021030451383378225,-10.047309077940884,-10.0,0.0473090779408849,39.94283632009867,40.0,0.05716367990132803,9.286275853619099,10.0,0.7137241463809019,-0.010012020513933226,0,0.010012020513933226,3.999679150896928,1.8364722994063205,0.0021030451383378225,0.5191796934062461,0.033486127853393555,0.8183994293212891,STABILIZE
0.16,0.015,0.11,34.013809886493135,6.391129919977872,0.510207148297397,0.0019824204718844702,6.903319488747154,0.17,0.015,0.08,-8.547708573429052,-1.7082602843477974,-0.12821562860143576,-0.0031486308442380886,-1.8396245437934713,0.002,8e-05,0,7.900099808473794,0.018584200168693783,0.0006320079846779035,-0.0,0.019216208153371685,0.2,0.02,0.0,-0.0053029602292829926,-0.001619740707896985,-0.00010605920458565985,-0.0,-0.0017257999124826446,-10.04858990792822,-10.0,0.04858990792821875,39.9445619998617,40.0,0.055438000138303724,9.292100084346892,10.0,0.7078999156531084,-0.008098703539484924,0,0.008098703539484924,3.999739930875029,1.8401899215817796,0.0017257999124826446,0.5192162081533717,0.03345084190368652,0.8518626689910889,STABILIZE
0.16,0.015,0.11,35.38813990634737,6.391083528065638,0.5308220985952106,0.0018226559366463905,6.923728282597495,0.17,0.015,0.08,-8.893449862535117,-1.7082980543043733,-0.13340174793802675,-0.0029019323878375215,-1.8446017346302375,0.002,8e-05,0,8.220139998027898,0.01860364281349229,0.000657611199842232,-0.0,0.019261254013334523,0.2,0.02,0.0,-0.0055946922665822425,-0.0016958115875163105,-0.00011189384533164485,0.0,-0.0018077054328479553,-10.048812084143371,-10.0,0.0488120841433705,39.94427205041024,40.0,0.055727949589756416,9.301821406746145,10.0,0.6981785932538556,-0.008479057937581552,0,0.008479057937581552,3.9997269782409046,1.8451936643433295,0.0018077054328479553,0.5192612540133346,0.034406185150146484,0.8862607479095459,STABILIZE
0.16,0.015,0.11,36.72395474849276,6.391117995987328,0.5508593212273913,0.00379295177892705,6.9457702689936465,0.17,0.015,0.08,-9.229460042380628,-1.708094699549759,-0.1384419006357094,-0.0009880221605632785,-1.8475246223460318,0.002,8e-05,0,8.53150559214115,0.018621351824782938,0.0006825204473712921,0.0,0.01930387227215423,0.2,0.02,0.0,-0.00584474145969445,-0.001495429837617797,-0.00011689482919388899,0.0,-0.0016123246668116858,-10.047615879704464,-10.0,0.04761587970446489,39.9444874749208,40.0,0.05551252507920029,9.310675912391469,10.0,0.6893240876085316,-0.007477149188088984,0,0.007477149188088984,3.999758862365481,1.848046610100417,0.0016123246668116858,0.5193038722721542,0.033441781997680664,0.9197442531585693,STABILIZE
0.16,0.015,0.11,38.059617905715534,6.391349160596808,0.570894268585733,0.003224326607953871,6.9654677557904945,0.17,0.015,0.08,-9.565353257089575,-1.7077557912247276,-0.1434802988563436,0.0001935723717400132,-1.851042517709331,0.002,8e-05,0,8.843227071121426,0.01864542720077702,0.0007074581656897141,0.0,0.019352885366466732,0.2,0.02,0.0,-0.006121047021765892,-0.001652704606569263,-0.00012242094043531785,0.0,-0.0017751255470045807,-10.045622301321927,-10.0,0.045622301321927065,39.94593225373005,40.0,0.05406774626995412,9.322713600388509,10.0,0.6772863996114913,-0.008263523032846314,0,0.008263523032846314,3.9997329905242345,1.851619401194469,0.0017751255470045807,0.5193528853664667,0.03343677520751953,0.9531781673431396,STABILIZE
0.16,0.015,0.11,39.39611735462896,6.391158345200531,0.5909417603194345,0.0012577073131838652,6.983357812833149,0.17,0.015,0.08,-9.901407303186707,-1.7074534051094181,-0.1485211095478006,0.0016609122382619185,-1.8543136024189568,0.002,8e-05,0,9.154534821631117,0.018608473138664344,0.0007323627857304894,0.0,0.019340835924394832,0.2,0.02,0.0,-0.006459661510852286,-0.0020240738029201582,-0.00012919323021704573,-0.0,-0.002153267033137204,-10.043843559467165,-10.0,0.04384355946716557,39.94473965750332,40.0,0.055260342496682976,9.304236569332172,10.0,0.6957634306678272,-0.01012036901460079,0,0.01012036901460079,3.9996724032173945,1.8550201085317541,0.002153267033137204,0.5193408359243948,0.033458709716796875,0.9866161346435547,STABILIZE
0.16,0.015,0.11,40.73200987381651,6.391352937859998,0.6109801481072477,0.0009228341939991573,7.003255920161245,0.17,0.015,0.08,-10.23734388809873,-1.7076840584686643,-0.15356015832148093,0.0016244202290852262,-1.8596197965610601,0.002,8e-05,0,9.465968147649976,0.018625004207006603,0.0007572774518119982,0.0,0.0193822816588186,0.2,0.02,0.0,-0.006815423571769856,-0.002127604635632946,-0.00013630847143539712,-0.0,-0.002263913107068343,-10.045200343933319,-10.0,0.04520034393331826,39.94595586162499,40.0,0.05404413837501112,9.312502103503302,10.0,0.6874978964966977,-0.01063802317816473,0,0.01063802317816473,3.999654658181717,1.8603624386250894,0.002263913107068343,0.5193822816588186,0.03344249725341797,1.0200669765472412,STABILIZE
0.16,0.015,0.11,42.07010188401601,6.391759892658923,0.6310515282602401,0.002778798594571649,7.025590219513735,0.17,0.015,0.08,-10.573864227341733,-1.7079483439718781,-0.158607963410126,0.0009851326725023523,-1.8655711747095018,0.002,8e-05,0,9.777919524343337,0.018626505901779077,0.0007822335619474671,0.0,0.019408739463726545,0.2,0.02,0.0,-0.007258560382817271,-0.002645954159190567,-0.00014517120765634542,-0.0,-0.0027911253668469124,-10.046754964540458,-10.0,0.04675496454045798,39.94849932911827,40.0,0.051500670881732435,9.313252950889538,10.0,0.6867470491104616,-0.013229770795952833,0,0.013229770795952833,3.999569127279103,1.8664947372073846,0.0027911253668469124,0.5194087394637266,0.033495426177978516,1.053565263748169,STABILIZE
0.16,0.015,0.11,43.40628204451611,6.391681053702609,0.6510942306677416,0.002312983504529516,7.045088267874879,0.17,0.015,0.08,-10.909866639955215,-1.7077386628496818,-0.16364799959932821,0.0010028280638219394,-1.8703838343851882,0.002,8e-05,0,10.089771321534695,0.018646972940058897,0.0008071817057227756,0.0,0.019454154645781672,0.2,0.02,0.0,-0.007587712788720737,-0.001968145145006495,-0.00015175425577441473,-0.0,-0.0021198994007809095,-10.045521546174598,-10.0,0.04552154617459722,39.9480065856413,40.0,0.051993414358700044,9.323486470029447,10.0,0.6765135299705534,-0.009840725725032473,0,0.009840725725032473,3.9996786968476514,1.8710708190532266,0.0021198994007809095,0.5194541546457817,0.033447980880737305,1.0870013236999512,STABILIZE
0.16,0.015,0.11,44.74329200152756,6.391777752017947,0.6711493800229134,0.0017596520903331696,7.064686784131194,0.17,0.015,0.08,-11.245907070653802,-1.706897709358703,-0.168688606059807,0.00241375610761083,-1.8731725593108992,0.002,8e-05,0,10.402057215152142,0.018661622681131217,0.0008321645772121714,0.0,0.019493787258343387,0.2,0.02,0.0,-0.0078101533348337,-0.00132926322494413,-0.000156203066696674,0.0,-0.001485466291640804,-10.040574760933547,-10.0,0.04057476093354606,39.94861095011217,40.0,0.0513890498878289,9.330811340565608,10.0,0.669188659434392,-0.006646316124720649,0,0.006646316124720649,3.999782684885172,1.8736365471051513,0.001485466291640804,0.5194937872583434,0.03346824645996094,1.1204900741577148,STABILIZE
0.16,0.015,0.11,46.078612163630694,6.392579533248976,0.6911791824544604,0.005842413699711501,7.089601129403148,0.17,0.015,0.08,-11.581438170004729,-1.7066813866532446,-0.17372157255007092,0.002172336948986242,-1.8782306222543292,0.002,8e-05,0,10.714475392800722,0.018695498137181927,0.0008571580314240578,0.0,0.019552656168605985,0.2,0.02,0.0,-0.00813068087794189,-0.0019180772803287973,-0.00016261361755883782,0.0,-0.002080690897887635,-10.03930227443085,-10.0,0.0393022744308502,39.9536220828061,40.0,0.0463779171939015,9.347749068590963,10.0,0.6522509314090379,-0.009590386401643987,0,0.009590386401643987,3.9996855585518025,1.878900131216676,0.002080690897887635,0.519552656168606,0.03342175483703613,1.1539239883422852,STABILIZE
0.16,0.015,0.11,47.41593214102231,6.392804445404598,0.7112389821153347,0.005966296095418852,7.110009723615351,0.17,0.015,0.08,-11.91741995524023,-1.706478258343913,-0.17876129932860346,0.003392653729526739,-1.8818469039429897,0.002,8e-05,0,11.027505194339271,0.018704744756775478,0.0008822004155471418,0.0,0.01958694517232262,0.2,0.02,0.0,-0.008655789194400933,-0.0031377258589281435,-0.00017311578388801868,-0.0,-0.0033108416428161624,-10.038107402023018,-10.0,0.03810740202301846,39.95502778377873,40.0,0.04497221622126516,9.352372378387738,10.0,0.6476276216122618,-0.015688629294640717,0,0.015688629294640717,3.9994845660533316,1.8829421063274907,0.0033108416428161624,0.5195869451723226,0.03347063064575195,1.1874055862426758,STABILIZE
0.16,0.015,0.11,48.83755469868129,6.392749444257701,0.7325633204802193,0.004083182749497652,7.129395947487418,0.17,0.015,0.08,-12.274613511924956,-1.7066164678202156,-0.18411920267887433,0.003769672193291002,-1.886965998305799,0.002,8e-05,0,11.360396650095376,0.0187118203186027,0.0009088317320076302,0.0,0.01962065205061033,0.2,0.02,0.0,-0.00920961717248029,-0.0031130656657131386,-0.00018419234344960582,-0.0,-0.0032972580091627443,-10.038920398942444,-10.0,0.03892039894244522,39.95468402661063,40.0,0.0453159733893722,9.35591015930135,10.0,0.6440898406986487,-0.015565328328565692,0,0.015565328328565692,3.9994872274651834,1.888052593574941,0.0032972580091627443,0.5196206520506104,0.03558087348937988,1.2229526042938232,STABILIZE
0.16,0.015,0.11,50.17509427911721,6.393171116878896,0.7526264141867581,0.00613935817491108,7.151936889240565,0.17,0.015,0.08,-12.610562450090033,-1.706129128525153,-0.1891584367513505,0.0045498866523827255,-1.8907376786241208,0.002,8e-05,0,11.673656899548895,0.018716515086415184,0.0009338925519639117,0.0,0.019650407638379094,0.2,0.02,0.0,-0.009595095426671448,-0.002303135993998601,-0.00019190190853342895,-0.0,-0.00249503790253203,-10.036053697206782,-10.0,0.0360536972067822,39.9573194804931,40.0,0.04268051950689989,9.358257543207591,10.0,0.6417424567924089,-0.011515679969993003,0,0.011515679969993003,3.999619906404174,1.8915415865543097,0.00249503790253203,0.5196504076383791,0.03347420692443848,1.256432294845581,STABILIZE
0.16,0.015,0.11,51.511632859954965,6.393441147066347,0.7726744928993244,0.006852150020864123,7.172967789986536,0.17,0.015,0.08,-12.946329584339303,-1.706555020475745,-0.19419494376508953,0.0009865961648469917,-1.8997633680759876,0.002,8e-05,0,11.986716567367099,0.018719330201276824,0.000958937325389368,0.0,0.019678267526666193,0.2,0.02,0.0,-0.009957022936177855,-0.002164137145673627,-0.0001991404587235571,-0.0,-0.0023632776043971838,-10.03855894397497,-10.0,0.038558943974969014,39.959007169164664,40.0,0.04099283083533482,9.359665100638413,10.0,0.6403348993615865,-0.010820685728368133,0,0.010820685728368133,3.999641145830768,1.9005187605653793,0.0023632776043971838,0.5196782675266662,0.0334477424621582,1.2898750305175781,STABILIZE
0.16,0.015,0.11,52.84822222139802,6.393501766356983,0.7927233333209702,0.0038027446003179085,7.190027844278271,0.17,0.015,0.08,-13.282067080523506,-1.7063557311304536,-0.19923100620785258,0.0009381771828434474,-1.9046485601554628,0.002,8e-05,0,12.2999163940018,0.018727177009041456,0.0009839933115201442,0.0,0.0197111703205616,0.2,0.02,0.0,-0.010399471034597206,-0.0026455327084446575,-0.00020798942069194412,-0.0,-0.0028535221291366014,-10.03738665370855,-10.0,0.037386653708550883,39.95938603973114,40.0,0.04061396026885959,9.363588504520727,10.0,0.6364114954792728,-0.013227663542223286,0,0.013227663542223286,3.9995601742754316,1.9055719745137307,0.0028535221291366014,0.5197111703205616,0.03344869613647461,1.32332444190979,STABILIZE
0.16,0.015,0.11,54.18492288998119,6.393669611028861,0.8127738433497178,0.0035687196810312927,7.210012174059611,0.17,0.015,0.08,-13.617645071630692,-1.7054478109377054,-0.20426467607446036,0.0029215432826026834,-1.9067909437295631,0.002,8e-05,0,12.613237175251026,0.018733341022604898,0.0010090589740200822,0.0,0.01974239999662498,0.2,0.02,0.0,-0.01097621603331314,-0.003448338377349201,-0.0002195243206662628,-0.0,-0.0036678626980154636,-10.032045946692383,-10.0,0.03204594669238248,39.96043506893038,40.0,0.03956493106961645,9.366670511302448,10.0,0.6333294886975525,-0.017241691886746003,0,0.017241691886746003,3.999426019182996,1.9079945545444128,0.0036678626980154636,0.519742399996625,0.03345060348510742,1.356773853302002,STABILIZE
0.16,0.015,0.11,55.52601125676896,6.393784940234627,0.8328901688515343,0.004253790746331583,7.230928899832493,0.17,0.015,0.08,-13.954430668774652,-1.7060159145450438,-0.20931646003161977,0.001693898714311966,-1.9136384758623515,0.002,8e-05,0,12.927419815853563,0.01872374973301769,0.001034193585268285,0.0,0.019757943318285974,0.2,0.02,0.0,-0.011464890811008495,-0.002912262822942226,-0.0002292978162201699,0.0,-0.003141560639162396,-10.035387732617904,-10.0,0.03538773261790479,39.96115587646642,40.0,0.03884412353357686,9.361874866508845,10.0,0.6381251334911554,-0.01456131411471113,0,0.01456131411471113,3.999513533244606,1.9146549855506683,0.003141560639162396,0.519757943318286,0.03355979919433594,1.3903822898864746,STABILIZE
0.16,0.015,0.11,56.864300715042155,6.393613244670714,0.8529645107256323,0.001816794131976999,7.2483945495283235,0.17,0.015,0.08,-14.290685202990053,-1.7068422826171066,-0.21436027804485078,-0.0019986411115199536,-1.9232012017734774,0.002,8e-05,0,13.240904558375844,0.018720727692748292,0.0010592723646700676,0.0,0.01978000005741836,0.2,0.02,0.0,-0.011926193941682267,-0.0027548167810885187,-0.00023852387883364535,-0.0,-0.002993340659922164,-10.040248721277097,-10.0,0.04024872127709666,39.960082779191964,40.0,0.03991722080803704,9.360363846374145,10.0,0.6396361536258545,-0.013774083905442592,0,0.013774083905442592,3.999537540856314,1.9241627586521828,0.002993340659922164,0.5197800000574183,0.033490657806396484,1.4239022731781006,STABILIZE
0.16,0.015,0.11,58.24147397692567,6.393628071488753,0.873622109653885,0.0007658843818052605,7.268016065524444,0.17,0.015,0.08,-14.636641912723785,-1.7065125384723405,-0.21954962869085679,0.00010027080221407414,-1.9259618963609832,0.002,8e-05,0,13.563925906340266,0.018745629319099417,0.0010851140725072215,0.0,0.019830743391606637,0.2,0.02,0.0,-0.012334268540056299,-0.0023681453884906965,-0.000246685370801126,-0.0,-0.0026148307592918224,-10.038309049837297,-10.0,0.03830904983729618,39.960175446804705,40.0,0.03982455319529568,9.372814659549709,10.0,0.6271853404502906,-0.011840726942453483,0,0.011840726942453483,3.9996018959345814,1.9267884939117992,0.0026148307592918224,0.5198307433916066,0.03446364402770996,1.4583029747009277,STABILIZE
0.16,0.015,0.11,59.65482511390726,6.393727450416117,0.8948223767086089,0.0009030423670621527,7.289452869491788,0.17,0.015,0.08,-14.991609744867846,-1.7061687521041158,-0.22487414617301768,0.00045434931375376,-1.9305885489633798,0.002,8e-05,0,13.895402639713476,0.018744208656710445,0.0011116322111770782,0.0,0.019855840867887522,0.2,0.02,0.0,-0.01280368599989781,-0.002654442357034357,-0.0002560737199979562,-0.0,-0.002910516077032313,-10.036286777083033,-10.0,0.03628677708303355,39.96079656510073,40.0,0.03920343489927118,9.372104328355222,10.0,0.6278956716447774,-0.013272211785171784,0,0.013272211785171784,3.99955268382887,1.931515072337208,0.002910516077032313,0.5198558408678875,0.03536844253540039,1.4936895370483398,STABILIZE
0.16,0.015,0.11,60.99196643372337,6.394136654385853,0.9148794965058505,0.00189472761523441,7.310910878506938,0.17,0.015,0.08,-15.327297467307686,-1.705567848242473,-0.22990946200961526,-0.00040991499054869075,-1.935887225242637,0.002,8e-05,0,14.209159289490719,0.018754589222980088,0.0011367327431592575,0.0,0.019891321966139346,0.2,0.02,0.0,-0.013394689276608359,-0.0035326816792603023,-0.0002678937855321672,-0.0,-0.0038005754647924693,-10.032752048485134,-10.0,0.03275204848513361,39.963354089911576,40.0,0.03664591008842496,9.377294611490044,10.0,0.6227053885099565,-0.01766340839630151,0,0.01766340839630151,3.9994030056466223,1.9371202717648692,0.0038005754647924693,0.5198913219661393,0.03345918655395508,1.5271401405334473,STABILIZE
0.16,0.015,0.11,62.32909762169908,6.394270457908991,0.9349364643254862,0.0019720840923036858,7.331179006326781,0.17,0.015,0.08,-15.662997002923545,-1.7056764850670239,-0.23494495504385315,0.0008777236562001497,-1.939743716454677,0.002,8e-05,0,14.5228491430063,0.018751130978377453,0.001161827931440504,0.0,0.01991295890981796,0.2,0.02,0.0,-0.014137749044351094,-0.004441715558713384,-0.00028275498088702186,-0.0,-0.004724470539600406,-10.033391088629552,-10.0,0.03339108862955152,39.964190361931195,40.0,0.03580963806880833,9.375565489188727,10.0,0.624434510811274,-0.02220857779356692,0,0.02220857779356692,3.9992478300291574,1.9412940219174635,0.004724470539600406,0.5199129589098179,0.03345823287963867,1.5606038570404053,STABILIZE
0.16,0.015,0.11,63.66470516750225,6.394229010071609,0.9549705775125337,0.002506473972694568,7.351706061556836,0.17,0.015,0.08,-15.9983550105694,-1.7058739689186821,-0.23997532515854098,0.0026438874463855476,-1.9432054066308377,0.002,8e-05,0,14.836216348863058,0.01875309184938574,0.0011868973079090447,0.0,0.019939989157294783,0.2,0.02,0.0,-0.014847593147999263,-0.00424797854582904,-0.00029695186295998526,-0.0,-0.004544930408789025,-10.034552758345189,-10.0,0.03455275834518972,39.96393131294755,40.0,0.036068687052446494,9.376545924692868,10.0,0.6234540753071316,-0.021239892729145202,0,0.021239892729145202,3.9992793671487346,1.9446880973199105,0.004544930408789025,0.5199399891572948,0.03342032432556152,1.5940468311309814,STABILIZE
0.16,0.015,0.11,65.00337562650294,6.393476317059309,0.9750506343975441,-0.0006420084716216159,7.367884942985231,0.17,0.015,0.08,-16.33458156842694,-1.7061779864480866,-0.2450187235264041,0.0008892721456696349,-1.950307437828821,0.002,8e-05,0,15.15041906324822,0.018757861575178777,0.0012120335250598577,0.0,0.019969895100238635,0.2,0.02,0.0,-0.01562640083292868,-0.004649471846918347,-0.0003125280166585736,-0.0,-0.00496199986357692,-10.03634109675345,-10.0,0.03634109675345007,39.95922698162068,40.0,0.04077301837932235,9.378930787589388,10.0,0.6210692124106126,-0.023247359234591734,0,0.023247359234591734,3.9992083472522575,1.9519302490914694,0.00496199986357692,0.5199698951002386,0.03350090980529785,1.6275138854980469,STABILIZE
0.16,0.015,0.11,66.34141167454239,6.393677046394726,0.9951211751181357,-0.00020407541406135892,7.388594146098799,0.17,0.015,0.08,-16.670465338338136,-1.7053001861587989,-0.25005698007507204,0.0024417788929641917,-1.9529153873409066,0.002,8e-05,0,15.46443346252854,0.01875609648052633,0.0012371546770022833,0.0,0.019993251157528615,0.2,0.02,0.0,-0.016205122869592272,-0.003456709749599478,-0.0003241024573918454,-0.0,-0.0037808122069913235,-10.031177565639993,-10.0,0.031177565639992945,39.960481539967034,40.0,0.03951846003296499,9.378048240263166,10.0,0.6219517597368343,-0.01728354874799739,0,0.01728354874799739,3.9994107116544226,1.9541219177975433,0.0037808122069913235,0.5199932511575286,0.03348398208618164,1.6610119342803955,STABILIZE
0.16,0.015,0.11,67.67795503076533,6.393919754980729,1.01516932546148,-0.0008878731836618579,7.408201207258547,0.17,0.015,0.08,-17.00591520018367,-1.7050640044731133,-0.255088728002755,0.0014161232854576226,-1.9587366091904106,0.002,8e-05,0,15.777949806173428,0.018747973399132194,0.0012622359844938745,-0.0,0.02001020938362607,0.2,0.02,0.0,-0.016717652510192044,-0.0030648775615714054,-0.0003343530502038409,0.0,-0.0033992306117752464,-10.029788261606548,-10.0,0.029788261606547795,39.96199846862955,40.0,0.03800153137044575,9.373986699566096,10.0,0.6260133004339032,-0.015324387807857026,0,0.015324387807857026,3.9994759712379726,1.9598063832105517,0.0033992306117752464,0.5200102093836261,0.03344535827636719,1.694476842880249,STABILIZE
0.16,0.015,0.11,69.01323519898271,6.393938879233747,1.0351985279847407,-0.0013590544025999212,7.427778352815888,0.17,0.015,0.08,-17.341030992623242,-1.7049824575461447,-0.2601154648893486,0.0019514141995662772,-1.9631465082359272,0.002,8e-05,0,16.091146299812834,0.018746620420811492,0.0012872917039850268,-0.0,0.020033912124796518,0.2,0.02,0.0,-0.0171714710027413,-0.0027163659851060845,-0.000343429420054826,0.0,-0.0030597954051609106,-10.02930857380085,-10.0,0.02930857380085152,39.96211799521092,40.0,0.03788200478908213,9.373310210405746,10.0,0.6266897895942538,-0.013581829925530422,0,0.013581829925530422,3.999534528353529,1.9640946436734725,0.0030597954051609106,0.5200339121247965,0.03341364860534668,1.7278656959533691,STABILIZE
0.16,0.015,0.11,70.37964534580256,6.393551432556352,1.0556946801870384,-0.002746485087692664,7.446499627655697,0.17,0.015,0.08,-17.68396441728944,-1.7049036480752222,-0.2652594662593416,0.002724479756263566,-1.9674386345783004,0.002,8e-05,0,16.411961112973156,0.018764003738557765,0.0013129568890378526,0.0,0.02007696062759562,0.2,0.02,0.0,-0.017519664359567214,-0.0020365335954600806,-0.0003503932871913443,0.0,-0.0023869268826514248,-10.028844988677777,-10.0,0.028844988677776597,39.9596964534772,40.0,0.04030354652279673,9.382001869278882,10.0,0.617998130721117,-0.010182667977300403,0,0.010182667977300403,3.999650281507713,1.9681494878353618,0.0023869268826514248,0.5200769606275957,0.0341947078704834,1.7620930671691895,STABILIZE
0.16,0.015,0.11,71.71820700457504,6.3937757439180745,1.0757731050686254,0.0012636165406426337,7.4708124655273425,0.17,0.015,0.08,-18.019650558912634,-1.7036538916993735,-0.2702947583836895,0.007090110859824721,-1.9668585392232383,0.002,8e-05,0,16.726274223383903,0.018766856275998944,0.0013381019378707125,0.0,0.020104958213869657,0.2,0.02,0.0,-0.017834192799072113,-0.001877971304216035,-0.00035668385598144225,0.0,-0.002234655160197477,-10.02149348058455,-10.0,0.021493480584550168,39.961098399487966,40.0,0.038901600512032196,9.383428137999472,10.0,0.6165718620005283,-0.009389856521080174,0,0.009389856521080174,3.999677609812665,1.9675140484577536,0.002234655160197477,0.5201049582138697,0.03349661827087402,1.7955858707427979,STABILIZE
0.16,0.015,0.11,73.05468502201423,6.393835074768575,1.0958202753302133,0.0006832620480156953,7.490338612146804,0.17,0.015,0.08,-18.354951741735636,-1.7043690300785757,-0.27532427612603455,0.0026102443550948397,-1.9770830618495154,0.002,8e-05,0,17.040139949924374,0.018769535160101318,0.00136321119599395,0.0,0.020132746356095268,0.2,0.02,0.0,-0.018084534347731177,-0.0014970715507494731,-0.0003616906869546235,0.0,-0.0018587622377040968,-10.025700176932798,-10.0,0.025700176932798434,39.96146921730359,40.0,0.038530782696409395,9.384767580050658,10.0,0.6152324199493412,-0.0074853577537473655,0,0.0074853577537473655,3.999741671551609,1.9776056215296802,0.0018587622377040968,0.5201327463560953,0.03344416618347168,1.8290135860443115,STABILIZE
0.16,0.015,0.11,74.39083532714497,6.393999380375872,1.1158625299071745,0.0003611401490089208,7.510223050432055,0.17,0.015,0.08,-18.69022373030159,-1.7046824252096342,-0.2803533559545238,0.0010634251934779906,-1.9839723559706801,0.002,8e-05,0,17.353967544119538,0.018772340161913738,0.001388317403529563,0.0,0.020160657565443302,0.2,0.02,0.0,-0.01826933880092324,-0.0011054515673342734,-0.0003653867760184648,0.0,-0.0014708383433527383,-10.02754367770373,-10.0,0.027543677703728436,39.9624961273492,40.0,0.03750387265080504,9.38617008095687,10.0,0.6138299190431297,-0.0055272578366713674,0,0.0055272578366713674,3.99980858986046,1.9843582221298477,0.0014708383433527383,0.5201606575654433,0.03343510627746582,1.8624532222747803,STABILIZE
0.16,0.015,0.11,75.75224808616997,6.394332604984141,1.1362837212925496,0.001627451216500741,7.532243777493192,0.17,0.015,0.08,-19.03182138034607,-1.7047049383421684,-0.28547732070519105,0.000771528200866332,-1.9894107308464932,0.002,8e-05,0,17.67374153847994,0.018774075540370288,0.0014138993230783953,0.0,0.020187974863448685,0.2,0.02,0.0,-0.018495517412335117,-0.0013279048362753358,-0.00036991034824670235,0.0,-0.0016978151845220381,-10.027676107895108,-10.0,0.027676107895108187,39.964578781150884,40.0,0.03542121884911632,9.387037770185144,10.0,0.6129622298148557,-0.006639524181376678,0,0.006639524181376678,3.9997694371289882,1.9898742437189427,0.0016978151845220381,0.5201879748634487,0.03406548500061035,1.8965115547180176,STABILIZE
0.16,0.015,0.11,77.0884838768723,6.394590855945112,1.1563272581530846,0.004247482092230009,7.5551655961904265,0.17,0.015,0.08,-19.367095251365747,-1.704740621061121,-0.2905064287704862,0.0004541653108405646,-1.9947928845207665,0.002,8e-05,0,17.98768622041275,0.01877987970320135,0.0014390148976330202,0.0,0.02021889460083437,0.2,0.02,0.0,-0.018832815393258477,-0.0020176852389648336,-0.00037665630786516956,0.0,-0.002394341546830003,-10.027886006241888,-10.0,0.027886006241887397,39.96619284965695,40.0,0.03380715034305462,9.389939851600674,10.0,0.6100601483993257,-0.010088426194824168,0,0.010088426194824168,3.9996487023386176,1.9954971586087744,0.002394341546830003,0.5202188946008344,0.033434152603149414,1.9299399852752686,STABILIZE
0.16,0.015,0.11,78.76386160274454,6.3946523466320935,1.181457924041168,0.003528403705067964,7.579638674378329,0.17,0.015,0.08,-19.787522544308757,-1.7049986577695033,-0.29681283816463133,-0.0036367015581324864,-2.0054481974922673,0.002,8e-05,0,18.381281909464228,0.01877865777482321,0.0014705025527571383,0.0,0.020249160327580347,0.2,0.02,0.0,-0.019095300950660744,-0.0012523324290389347,-0.0003819060190132149,0.0,-0.0016342384480521495,-10.029403869232372,-10.0,0.029403869232372093,39.966577166450584,40.0,0.03342283354941483,9.389328887411605,10.0,0.6106711125883957,-0.0062616621451946726,0,0.0062616621451946726,3.999780807456048,2.005885331999621,0.0016342384480521495,0.5202491603275804,0.04191946983337402,1.9719281196594238,STABILIZE
0.16,0.015,0.11,80.10053749110871,6.394599363005857,1.2015080623666305,0.0030666480514660354,7.599174073423954,0.17,0.015,0.08,-20.1229772310505,-1.7051006840035734,-0.3018446584657575,-0.0019112901372868613,-2.008856632606618,0.002,8e-05,0,18.695394233392925,0.01878374634412043,0.0014956315386714342,0.0,0.020279377882791865,0.2,0.02,0.0,-0.019212363200534828,-0.0007000258953882905,-0.00038424726401069655,0.0,-0.001084273159398987,-10.03000402355043,-10.0,0.030004023550431202,39.966246018786606,40.0,0.033753981213395616,9.391873172060215,10.0,0.6081268279397851,-0.0035001294769414523,0,0.0035001294769414523,3.999877273928247,2.0091009839925755,0.001084273159398987,0.5202793778827919,0.033445119857788086,2.005375385284424,STABILIZE
0.16,0.015,0.11,81.46196830983001,6.394417428417815,1.2219295246474502,0.001656599955936735,7.618003553021202,0.17,0.015,0.08,-20.46468747838315,-1.705266842539019,-0.3069703121757473,-0.0014881734905287584,-2.013725328205295,0.002,8e-05,0,19.01530724503763,0.018782237307877554,0.0015212245796030104,0.0,0.020303461887480563,0.2,0.02,0.0,-0.019275432753651466,-0.00037028419302122934,-0.00038550865507302936,0.0,-0.0007557928480942587,-10.03098142670011,-10.0,0.030981426700109782,39.96510892761134,40.0,0.034891072388662916,9.391118653938777,10.0,0.6088813460612229,-0.0018514209651061466,0,0.0018514209651061466,3.9999349276164318,2.013854580720678,0.0007557928480942587,0.5203034618874806,0.03406548500061035,2.039382219314575,STABILIZE
0.16,0.015,0.11,82.80743294355302,6.393120857677857,1.2421114941532954,-0.00498284329480339,7.630249508536349,0.17,0.015,0.08,-20.80266613516229,-1.7063135608095206,-0.3120399920274343,-0.004351617419264465,-2.022705170256219,0.002,8e-05,0,19.331287785024436,0.018767696769741313,0.001546503022801955,-0.0,0.02031419979254327,0.2,0.02,0.0,-0.019007051308210395,0.0015940543638773526,-0.0003801410261642079,0.0,0.0012139133377131448,-10.037138592997179,-10.0,0.037138592997178865,39.957005360486605,40.0,0.04299463951339402,9.383848384870657,10.0,0.6161516151293431,0.007970271819386763,0,-0.007970271819386763,4.000281334727505,2.0221487207453297,-0.0012139133377131448,0.5203141997925432,0.03367280960083008,2.073056221008301,STABILIZE
0.16,0.015,0.11,84.14537310326247,6.390989046848513,1.262180596548937,-0.014796018532494024,7.638373624864956,0.17,0.015,0.08,-21.1386047315049,-1.7049836767267075,-0.3170790709725735,-0.0005144010346529906,-2.022577148733934,0.002,8e-05,0,19.645448890258827,0.018758314487462145,0.0015716359112207064,-0.0,0.02032995039868285,0.2,0.02,0.0,-0.018392242314172705,0.0036709765364731774,-0.0003678448462834541,0.0,0.003303131690189723,-10.02931574545122,-10.0,0.02931574545121879,39.943681542803205,40.0,0.05631845719679343,9.379157243731072,10.0,0.6208427562689272,0.018354882682365885,0,-0.018354882682365885,4.000647733670316,2.0212956324247195,-0.003303131690189723,0.5203299503986829,0.03349566459655762,2.1065709590911865,STABILIZE
0.16,0.015,0.11,85.48095642715327,6.391149432662291,1.282214346407299,-0.014338150499731129,7.659025628569859,0.17,0.015,0.08,-21.47370494870442,-1.7037726100837063,-0.3221055742305663,0.0034739441270572355,-2.0224042401872158,0.002,8e-05,0,19.959073480129927,0.018759795661647503,0.0015967258784103943,-0.0,0.020356521540057897,0.2,0.02,0.0,-0.017567692311217502,0.004932135447226211,-0.0003513538462243501,0.0,0.004580781601001861,-10.022191824021801,-10.0,0.022191824021802087,39.94468395413932,40.0,0.05531604586068032,9.37989783082375,10.0,0.620102169176249,0.02466067723613105,0,-0.02466067723613105,4.000870092503977,2.020682412858203,-0.004580781601001861,0.5203565215400578,0.033435821533203125,2.1399943828582764,STABILIZE
0.16,0.015,0.11,86.81737537168756,6.391912052210804,1.3022606305753133,-0.010985747455966852,7.68318693533015,0.17,0.015,0.08,-21.809070579719663,-1.7042592476502854,-0.32713605869579493,0.002391924742338295,-2.029003381603742,0.002,8e-05,0,20.273087962582718,0.01877361290005305,0.0016218470370066177,-0.0,0.02039545993705967,0.2,0.02,0.0,-0.017000530377549016,0.003390824050906162,-0.00034001060755098036,0.0,0.0030508134433551814,-10.025054397942855,-10.0,0.02505439794285461,39.949450326317525,40.0,0.05054967368247247,9.386806450026526,10.0,0.6131935499734733,0.01695412025453081,0,-0.01695412025453081,4.000600217563902,2.027819671910467,-0.0030508134433551814,0.5203954599370597,0.033452749252319336,2.1734495162963867,STABILIZE
0.16,0.015,0.11,88.1517708562108,6.392621880819525,1.322276562843162,-0.007329057461441103,7.7075693862012455,0.17,0.015,0.08,-22.143990048639502,-1.7047621166638391,-0.33215985072959253,0.0014338952785717576,-2.03548807211486,0.002,8e-05,0,20.586716608485702,0.018781063855363784,0.0016469373286788563,-0.0,0.02042800118404264,0.2,0.02,0.0,-0.016684563260806175,0.0018921098800325142,-0.0003336912652161235,0.0,0.0015584186148163907,-10.02801245096376,-10.0,0.028012450963758845,39.95388675512203,40.0,0.04611324487796983,9.390531927681891,10.0,0.6094680723181077,0.00946054940016257,0,-0.00946054940016257,4.000336040653026,2.0348275734259014,-0.0015584186148163907,0.5204280011840426,0.03339838981628418,2.2068374156951904,STABILIZE
0.16,0.015,0.11,89.4883281257197,6.390159872024458,1.3423249218857956,-0.012150335449713995,7.720334458460539,0.17,0.015,0.08,-22.479833538089416,-1.7060431983951299,-0.3371975030713412,0.0007566406617235333,-2.0424840608047474,0.002,8e-05,0,20.899694500068858,0.018704574144065348,0.0016719755600055088,-0.0,0.020376549704070858,0.2,0.02,0.0,-0.016384060358866914,0.0017959028292374756,-0.0003276812071773383,0.0,0.0014682216220601374,-10.035548225853704,-10.0,0.035548225853703416,39.93849920015286,40.0,0.061500799847140714,9.352287072032674,10.0,0.6477129279673267,0.008979514146187377,0,-0.008979514146187377,4.000320053239903,2.041857147375437,-0.0014682216220601374,0.5203765497040709,0.03346538543701172,2.2403182983398438,STABILIZE
0.16,0.015,0.11,90.82382718046665,6.387011618786864,1.3623574077069998,-0.016338405384343693,7.73303062110952,0.17,0.015,0.08,-22.815898530674986,-1.7076793820817628,-0.34223847796012474,-0.007583088934217927,-2.057500948976106,0.002,8e-05,0,21.210500376457414,0.018580327112783807,0.0016968400301165933,-0.0,0.020277167142900402,0.2,0.02,0.0,-0.016080990108770704,0.001811788261654682,-0.0003216198021754141,-0.0,0.001490168459479268,-10.045172835775075,-10.0,0.04517283577507516,39.918822617417895,40.0,0.08117738258210347,9.290163556391903,10.0,0.7098364436080978,0.00905894130827341,0,-0.00905894130827341,4.000325258087606,2.056868489851481,-0.001490168459479268,0.5202771671429004,0.03345537185668945,2.273785352706909,STABILIZE
0.16,0.015,0.11,92.16091520618725,6.395476823311865,1.3824137280928088,0.01779833381020288,7.795688885214877,0.17,0.015,0.08,-23.156929736565647,-1.7331493529621163,-0.3473539460484847,-0.08265467261728121,-2.163157971627882,0.002,8e-05,0,21.52128044401957,0.018581300193099615,0.0017217024355215657,-0.0,0.02030300262862118,0.2,0.02,0.0,-0.02244548608161386,-0.03805282982812902,-0.0004489097216322772,-0.0,-0.0385017395497613,-10.1949961938948,-10.0,0.19499619389479955,39.971730145699155,40.0,0.0282698543008455,9.290650096549808,10.0,0.7093499034501916,-0.1902641491406451,0,0.1902641491406451,3.9927946824213003,2.1764289637489758,0.0385017395497613,0.5203030026286212,0.03345084190368652,2.3072445392608643,STABILIZE
0.16,0.015,0.11,93.49954471605412,6.398745359387013,1.4024931707408117,0.028090493142002997,7.829329023269828,0.17,0.015,0.08,-23.497298815242235,-1.7286754751933484,-0.3524594822286335,-0.06870586107982404,-2.1498408185018056,0.002,8e-05,0,21.832679361714753,0.01860636536130106,0.0017466143489371804,-0.0,0.020352979710238243,0.2,0.02,0.0,-0.02976857310920167,-0.04375610352675657,-0.0005953714621840335,-0.0,-0.044351474988940605,-10.168679265843226,-10.0,0.16867926584322543,39.992158496168834,40.0,0.007841503831167104,9.303182680650531,10.0,0.6968173193494693,-0.21878051763378287,0,0.21878051763378287,3.991761820035716,2.165098870029187,0.044351474988940605,0.5203529797102382,0.033472299575805664,2.340696334838867,STABILIZE
0.16,0.015,0.11,94.8372616514042,6.401998479947065,1.422558924771063,0.038547479015444884,7.863104883733572,0.17,0.015,0.08,-23.836489377037125,-1.7247416036737386,-0.3575473406555569,-0.05621430053440297,-2.1385032448636982,0.002,8e-05,0,22.143989711772736,0.01862322602783503,0.001771519176941819,-0.0,0.020394745204776847,0.2,0.02,0.0,-0.038111182331292154,-0.0499072058400739,-0.0007622236466258431,-0.0,-0.050669429486699745,-10.145538845139638,-10.0,0.14553884513963788,40.012490499669155,40.0,-0.012490499669156486,9.311613013917514,10.0,0.6883869860824857,-0.2495360292003695,0,0.2495360292003695,3.990648430066868,2.1559038095187386,0.050669429486699745,0.5203947452047768,0.0334324836730957,2.374138116836548,STABILIZE
0.16,0.015,0.11,96.17311976904271,6.3914161781723635,1.4425967965356405,0.005152135487826101,7.839165110195831,0.17,0.015,0.08,-24.175964766231935,-1.7257345634716927,-0.362639471493479,-0.05540600075358456,-2.143780035718756,0.002,8e-05,0,22.455220311632132,0.018613543841393212,0.0017964176249305706,-0.0,0.020409961466323782,0.2,0.02,0.0,-0.04303608204460744,-0.02945399223908964,-0.0008607216408921488,-0.0,-0.03031471387998179,-10.151379785127604,-10.0,0.15137978512760422,39.94635111357727,40.0,0.053648886422727735,9.306771920696606,10.0,0.6932280793033929,-0.1472699611954482,0,0.1472699611954482,3.994476536897935,2.154054325619062,0.03031471387998179,0.5204099614663238,0.03344130516052246,2.4075682163238525,STABILIZE
0.16,0.015,0.11,97.51303239352345,6.40501560568132,1.4626954859028516,0.07395724063268896,7.94166833221686,0.17,0.015,0.08,-24.51729073337105,-1.7335723896062847,-0.3677593610005657,-0.07284196566612154,-2.174173716272972,0.002,8e-05,0,22.766573116314444,0.018604007608665037,0.0018213258493051557,0.0,0.020425333457970193,0.2,0.02,0.0,-0.04758730453005381,-0.02719454473338225,-0.0009517460906010762,-0.0,-0.028146290823983323,-10.19748464474285,-10.0,0.19748464474285074,40.031347535508246,40.0,-0.03134753550824616,9.302003804332518,10.0,0.6979961956674816,-0.13597272366691124,0,0.13597272366691124,3.994829053380664,2.1836602718367093,0.028146290823983323,0.5204253334579702,0.03347158432006836,2.4410626888275146,STABILIZE
0.16,0.015,0.11,98.8515064896604,6.403293204529452,1.482772597344906,0.03207967950895117,7.918145481383308,0.17,0.015,0.08,-24.858038718010548,-1.7320309669020402,-0.3728705807701582,0.0031583844773540905,-2.101743163194844,0.002,8e-05,0,23.07772415366036,0.0186069282996374,0.001846217932292829,0.0,0.02045314623193023,0.2,0.02,0.0,-0.050620399787496106,-0.018138003479788205,-0.001012407995749922,0.0,-0.01915041147553813,-10.188417452364941,-10.0,0.18841745236494123,40.02058252830907,40.0,-0.020582528309070598,9.3034641498187,10.0,0.6965358501813004,-0.09069001739894103,0,0.09069001739894103,3.996668268736792,2.108071885327615,0.01915041147553813,0.5204531462319302,0.03344464302062988,2.4744973182678223,STABILIZE
0.16,0.015,0.11,100.190332622643,6.406804258360859,1.502854989339645,0.03309195611967759,7.9427512038201815,0.17,0.015,0.08,-25.19891286470819,-1.7331664645449292,-0.37798369297062284,-0.012617648384973507,-2.1237678059005254,0.002,8e-05,0,23.388198089169464,0.018571733131792362,0.0018710558471335573,-0.0,0.02044278897892592,0.2,0.02,0.0,-0.0571570899168316,-0.03910075879579905,-0.001143141798336632,0.0,-0.040243900594135684,-10.195096850264289,-10.0,0.19509685026428858,40.04252661475537,40.0,-0.0425266147553664,9.28586656589618,10.0,0.7141334341038199,-0.19550379397899526,0,0.19550379397899526,3.992730039623962,2.1374041555269714,0.040243900594135684,0.5204427889789259,0.03343510627746582,2.5079293251037598,STABILIZE
0.16,0.015,0.11,101.5297154057243,6.401342950093967,1.5229457310858645,-0.00271822227577804,7.921570458904053,0.17,0.015,0.08,-25.539124516055498,-1.7276052082451632,-0.38308686774083245,-0.008057379708284204,-2.11874945569428,0.002,8e-05,0,23.700621463225385,0.018664652743599363,0.001896049717058031,0.0,0.020560702460657394,0.2,0.02,0.0,-0.06651569943325035,-0.055909772216861754,-0.001330313988665007,-0.0,-0.05724008620552676,-10.162383577912724,-10.0,0.16238357791272456,40.00839343808729,40.0,-0.008393438087289852,9.332326371799681,10.0,0.667673628200319,-0.27954886108430876,0,0.27954886108430876,3.989614950496842,2.138240351966281,0.05724008620552676,0.5205607024606574,0.0334775447845459,2.5414257049560547,STABILIZE
0.16,0.015,0.11,102.86632125942391,6.396088139357164,1.5429948188913587,0.019183027148898815,7.958265985397421,0.17,0.015,0.08,-25.877887184805683,-1.7224061410893425,-0.3881683077720852,0.009372046139986807,-2.101202402721441,0.002,8e-05,0,24.01405200830653,0.01874832234907582,0.0019211241606645225,0.0,0.020669446509740345,0.2,0.02,0.0,-0.07871303877526839,-0.07296023102216025,-0.0015742607755053679,-0.0,-0.07453449179766561,-10.131800829937308,-10.0,0.13180082993730904,39.975550870982275,40.0,0.024449129017722122,9.37416117453791,10.0,0.6258388254620904,-0.36480115511080125,0,0.36480115511080125,3.9865406974157414,2.1266275661361984,0.07453449179766561,0.5206694465097403,0.03343558311462402,2.5748648643493652,STABILIZE
0.16,0.015,0.11,104.20423743031118,6.39688472812393,1.5630635614546677,-0.033409826507745516,7.926538463070853,0.17,0.015,0.08,-26.21251304315047,-1.6999183375987594,-0.39318769564725703,0.09465765238132443,-1.9984483808646918,0.002,8e-05,0,24.326337374769746,0.01866385143379683,0.00194610698998158,0.0,0.02060995842377841,0.2,0.02,0.0,-0.08966870213864012,-0.06547693082402055,-0.0017933740427728024,-0.0,-0.06727030486679335,-9.999519632933879,-10.0,-0.0004803670661207571,39.98052955077456,40.0,0.019470449225440563,9.331925716898414,10.0,0.6680742831015857,-0.3273846541201027,0,0.3273846541201027,3.988515749679663,2.0212713933408315,0.06727030486679335,0.5206099584237784,0.03346419334411621,2.6083273887634277,STABILIZE
0.16,0.015,0.11,105.54286569710844,6.401383995657002,1.5831429854566266,-0.007838503832544601,7.976688477281083,0.17,0.015,0.08,-26.54839975201285,-1.7066153440682184,-0.39822599628019273,0.0714814126114869,-2.033359927736924,0.002,8e-05,0,24.63480894527504,0.018439071394258526,0.0019707847156220032,-0.0,0.02040985610988053,0.2,0.02,0.0,-0.11033077051875763,-0.12350874130473569,-0.0022066154103751526,-0.0,-0.12571535671511083,-10.038913788636577,-10.0,0.03891378863657654,40.00864997285626,40.0,-0.008649972856264197,9.219535697129263,10.0,0.7804643028707373,-0.6175437065236784,0,0.6175437065236784,3.977852187721344,2.0763536713110375,0.12571535671511083,0.5204098561098806,0.03345847129821777,2.6418561935424805,STABILIZE
0.16,0.015,0.11,106.88100674412944,6.405718389984186,1.6032151011619415,-0.004446459031511054,8.004487032114616,0.17,0.015,0.08,-26.88525761220748,-1.7133321870887404,-0.40327886418311215,0.0557638149768514,-2.0608472362950008,0.002,8e-05,0,24.939440066124348,0.01822847054623019,0.001995155205289948,-0.0,0.020223625751520136,0.2,0.02,0.0,-0.14019277402039296,-0.1786878010898473,-0.0028038554804078594,-0.0,-0.18149165657025515,-10.078424629933766,-10.0,0.07842462993376567,40.03573993740116,40.0,-0.03573993740115888,9.114235273115094,10.0,0.885764726884906,-0.8934390054492365,0,0.8934390054492365,3.9673792775601906,2.1229679694547254,0.18149165657025515,0.5202236257515201,0.033423662185668945,2.6752254962921143,STABILIZE
0.16,0.015,0.11,108.21876652422678,6.401655695832992,1.6232814978634016,0.001276911212326139,8.02621410490872,0.17,0.015,0.08,-27.221286548619254,-1.7085189253861368,-0.4083192982292888,0.05367800712404452,-2.063160216491381,0.002,8e-05,0,25.242168584053207,0.018108293524766342,0.002019373486724257,-0.0,0.0201276670114906,0.2,0.02,0.0,-0.16170038849848872,-0.12865196799146447,-0.0032340077699697747,-0.0,-0.13188597576143424,-10.050111325800804,-10.0,0.0501113258008035,40.0103480989562,40.0,-0.01034809895619718,9.054146762383171,10.0,0.9458532376168284,-0.6432598399573224,0,0.6432598399573224,3.9765852938985318,2.1079372569558825,0.13188597576143424,0.5201276670114906,0.03343534469604492,2.708637237548828,STABILIZE
