Mode,Time,Freq,time2delay,actualDelay,North-Desired,East-Desired,Down-Desired,Roll-UAV,Pitch-UAV,Yaw-UAV,Roll-Control,Pitch-Control,Yaw-Control,Thrust-Control,North-Pos,East-Pos,Down-Pos,Yaw-Ang,North-Vel,East-Vel,Down-Vel,Yaw-Vel,North-Acc,East-Acc,Down-Acc,North-Avg,East-Avg,Down-Avg,Yaw-Avg,North-Dif,East-Dif,Down-Dif,Yaw-Dif,North-One,East-One,Down-One,Yaw-One,North-Two,East-Two,Down-Two,Yaw-Two,Landing-State,Q-Size,Kalman-Time,Kalman-Dt
STABILIZE,0.034422874450683594,29.0595073959885,0.03330400784810384,0.033418893814086914,0.0,0.0,0.0,1.191795759572411,-0.7897134087477501,20.728037819553965,-0.004044813933986178,0.0038070302480500058,0.06725118158896903,0.4,0.12721716623062326,0.13452885863371639,0.19432229655442246,0.13450236317793807,-0.09592349524609745,0.10436257580295205,1.8014714121818542,0.0972173841595641,-1.139438059180975,0.08804438984952867,24.666202068328857,0.0,0.0,0.0,0.0,0.0,0.0,0.0,0.0,0.0,0.0,0.0,0.0,0.0,0.0,0.0,0.0,False,0,0.1801462173461914,0.069851318359375
STABILIZE,0.07064080238342285,27.612089452998994,0.032247336705525716,0.03523516654968262,0.0,0.0,0.0,1.1927444088151022,-0.7897610066285286,20.728630338464463,-0.005077327085101777,0.004740408252223161,0.0844805364895414,0.4,0.1585120095308404,0.16877753035644566,0.26416318359127705,0.1689610729790828,-0.02048187016043812,0.05158333806321025,1.8588095903396606,0.075392842018004,5.996429920196533,-0.1327084726653993,21.371781826019287,0.0,0.0,0.0,0.0,0.0,0.0,0.0,0.0,0.0,0.0,0.0,0.0,0.0,0.0,0.0,0.0,False,0,0.2084057331085205,0.0348486328125
STABILIZE,0.10402536392211914,29.953109712988024,0.0323517640431722,0.0325009822845459,0.0,0.0,0.0,1.1933101405774498,-0.7883574561149439,20.731005536748334,-0.005243315601473792,0.004829080134730579,0.08602188437593554,0.4,0.16149342009589832,0.17429305201765058,0.2919634181980983,0.17204376875187108,-0.12126142391934991,0.07598389638587832,1.7181754112243652,-0.15749847932966118,2.3455753922462463,-0.12102825567126274,20.924849808216095,0.0,0.0,0.0,0.0,0.0,0.0,0.0,0.0,0.0,0.0,0.0,0.0,0.0,0.0,0.0,0.0,False,0,0.23712849617004395,0.0598720703125
STABILIZE,0.1378786563873291,29.54296943785086,0.03243997891743978,0.03274941444396973,0.0,0.0,0.0,1.193315369941033,-0.7885817317796435,20.73109603675484,-0.005790963149951722,0.005239711954837851,0.09333026459128266,0.4,0.1752850050567441,0.1924620767141209,0.34916132287055796,0.18666052918256532,-0.12126142391934991,0.07598389638587832,1.7181754112243652,-0.15749847932966118,2.3455753922462463,-0.12102825567126274,20.924849808216095,0.0,0.0,0.0,0.0,0.0,0.0,0.0,0.0,0.0,0.0,0.0,0.0,0.0,0.0,0.0,0.0,False,0,0.2657036781311035,0.0598720703125
STABILIZE,0.17109918594360352,30.097979979189837,0.03219488461812337,0.0323338508605957,0.0,0.0,0.0,1.1933296706496077,-0.7895347566122719,20.73233230099461,-0.006203317044664288,0.005626727538224541,0.09695756969125781,0.4,0.18825633787285928,0.20614127106231123,0.4092465007988861,0.19391513938251562,0.16624723793938756,0.09123347117565572,2.011321485042572,-0.26690954541637646,3.9802081882953644,1.7651990056037903,20.248699188232422,0.0,0.0,0.0,0.0,0.0,0.0,0.0,0.0,0.0,0.0,0.0,0.0,0.0,0.0,0.0,0.0,False,0,0.2946317195892334,0.034925048828125
STABILIZE,0.20447087287902832,29.96530734718372,0.0324430783589681,0.03255653381347656,0.0,0.0,0.0,1.1937053310539585,-0.7898368324004863,20.73328681993112,-0.006149763488196609,0.005437942765964153,0.09520734997722069,0.4,0.18194501990932324,0.20438857666446789,0.4303745249514433,0.19041469995444138,-0.18953996477648616,0.1099602086469531,1.5439754351973534,0.016356805623246293,-0.4012840799987316,-0.24879979901015759,16.91392809152603,0.0,0.0,0.0,0.0,0.0,0.0,0.0,0.0,0.0,0.0,0.0,0.0,0.0,0.0,0.0,0.0,False,1,0.3233296871185303,0.06985107421875
STABILIZE,0.23820996284484863,29.64172438162544,0.03251007397969564,0.03263521194458008,0.0,0.0,0.0,1.192789978983471,-0.7895380649851511,20.733447329376613,-0.006754352858665168,0.005743444392242362,0.10447942527376078,0.4,0.19226798003950993,0.22444538433043382,0.560277047172772,0.20895885054752156,0.08677213336341083,0.07512830197811127,2.0064514130353928,0.26927545891184546,3.679327666759491,0.1511224079877138,31.49794340133667,0.0,0.0,0.0,0.0,0.0,0.0,0.0,0.0,0.0,0.0,0.0,0.0,0.0,0.0,0.0,0.0,False,0,0.38202857971191406,0.029935791015625
STABILIZE,0.27154994010925293,29.992520290321426,0.03147462209065755,0.031610965728759766,0.0,0.0,0.0,1.19298378560117,-0.7896876888166567,20.73371029165966,-0.006397261477493557,0.00544817349325529,0.1000282871964137,0.4,0.18234924029482769,0.21260664756917197,0.5722419328253076,0.2000565743928274,-0.005738280015066266,-0.03172522701788694,1.8554836511611938,0.08031458028437999,4.816611856222153,1.637120172381401,23.103927075862885,0.0,0.0,0.0,0.0,0.0,0.0,0.0,0.0,0.0,0.0,0.0,0.0,0.0,0.0,0.0,0.0,False,0,0.41066932678222656,0.03492626953125
STABILIZE,0.3049356937408447,29.9503291869582,0.03229239781697591,0.03242897987365723,0.0,0.0,0.0,1.1940260297798317,-0.7892455407896042,20.733430253903688,-0.006217405182436534,0.005058383057251309,0.09349566591684845,0.4,0.1692882431849527,0.20669544961903322,0.5902209421838827,0.1869913318336969,-0.2605415415018797,0.1483761123381555,1.8330415710806847,-0.23599200044722618,-5.037542060017586,-0.049224274698644876,24.22708123922348,0.0,0.0,0.0,0.0,0.0,0.0,0.0,0.0,0.0,0.0,0.0,0.0,0.0,0.0,0.0,0.0,False,0,0.43944287300109863,0.034925048828125
STABILIZE,0.33912158012390137,29.255510295184422,0.032398494084676106,0.0333864688873291,0.0,0.0,0.0,1.1943852550414922,-0.7907965807005789,20.734565772853202,-0.006031135706791444,0.004818331704283666,0.08791754922154472,0.4,0.16122726487378194,0.20054401146610987,0.6095505353468179,0.17583509844308945,-0.026240275474265218,0.12176417512819171,1.9191833212971687,-0.1579827290696445,2.733626775443554,0.021529506193473935,26.811787486076355,0.0,0.0,0.0,0.0,0.0,0.0,0.0,0.0,0.0,0.0,0.0,0.0,0.0,0.0,0.0,0.0,False,0,0.4679985046386719,0.029935791015625
STABILIZE,0.3733532428741455,29.209465576556124,0.03251818021138509,0.03340649604797363,0.0,0.0,0.0,1.1950019997792032,-0.7906160075743967,20.735243669128327,-0.005993095002679281,0.00444617760000615,0.08433435876319983,0.4,0.1487933642906078,0.19933267622720582,0.6226912955595318,0.16866871752639967,-0.2326485002413392,0.42797294445335865,1.94765105843544,0.0738396810131269,-2.7057182043790817,2.145109884440899,23.3208104968071,0.0,0.0,0.0,0.0,0.0,0.0,0.0,0.0,0.0,0.0,0.0,0.0,0.0,0.0,0.0,0.0,False,0,0.49910783767700195,0.034926025390625
STABILIZE,0.4068489074707031,29.854609903837257,0.03249719937642415,0.03267931938171387,0.0,0.0,0.0,1.1947734018854193,-0.7916885073566473,20.736358697510333,-0.006003762244967982,0.004111620140162722,0.08142885252097985,0.4,0.13762228735293416,0.19973503752184205,0.6422061890816838,0.1628577050419597,-0.2326485002413392,0.42797294445335865,1.94765105843544,0.0738396810131269,-2.7057182043790817,2.145109884440899,23.3208104968071,0.0,0.0,0.0,0.0,0.0,0.0,0.0,0.0,0.0,0.0,0.0,0.0,0.0,0.0,0.0,0.0,False,0,0.5277729034423828,0.034926025390625
STABILIZE,0.44069933891296387,29.541929031258363,0.032505305608113606,0.033020734786987305,0.0,0.0,0.0,1.1953867315285451,-0.7915004637110604,20.737098065487984,-0.005501352300455502,0.003675429984687176,0.07550923561574323,0.4,0.122997249922779,0.18305485385034703,0.6711877458671162,0.15101847123148646,-0.08992443326860666,-0.03828015469480306,1.755068078637123,0.011650073240906913,-1.4202624559402466,-0.17200580332428217,25.823885202407837,0.0,0.0,0.0,0.0,0.0,0.0,0.0,0.0,0.0,0.0,0.0,0.0,0.0,0.0,0.0,0.0,False,0,0.5868644714355469,0.02993505859375
STABILIZE,0.47411465644836426,29.924900649966823,0.03249219258626302,0.03261137008666992,0.0,0.0,0.0,1.1961301549310188,-0.7912258687620848,20.737658140999926,-0.005237967741353466,0.0034567939534516515,0.07205553232875546,0.4,0.11566525358353924,0.17430855368247752,0.681359962334363,0.14411106465751092,-0.06233333260752261,-0.035300798481330276,1.8715545535087585,0.008690525259608612,-0.02474915236234665,-2.0992858335375786,27.67045795917511,0.0,0.0,0.0,0.0,0.0,0.0,0.0,0.0,0.0,0.0,0.0,0.0,0.0,0.0,0.0,0.0,False,0,0.615464448928833,0.034926025390625
STABILIZE,0.507636308670044,29.832738239185172,0.032521994908650716,0.03263664245605469,0.0,0.0,0.0,1.195432194975208,-0.7909533015255189,20.739464726035393,-0.005030476414392515,0.003221106613497721,0.07142004358168555,0.4,0.10778792394463252,0.16741434917199247,0.6943525602877347,0.1428400871633711,-0.1256702234968543,-0.0033531552617205307,1.6837907955050468,0.26701973557759584,1.050498429685831,-0.2588356379419565,22.45595008134842,0.0,0.0,0.0,0.0,0.0,0.0,0.0,0.0,0.0,0.0,0.0,0.0,0.0,0.0,0.0,0.0,False,0,0.6443943977355957,0.034926025390625
STABILIZE,0.5465445518493652,25.70212453045242,0.032424243291219075,0.03803849220275879,0.0,0.0,0.0,1.1968530877659824,-0.7904277504853982,20.739312754326363,-0.004875571240132467,0.0029817779715459614,0.06795969742183532,0.4,0.09977785334899625,0.16228280107462328,0.7086791166070185,0.13591939484367063,-0.1461833482608199,0.08482644916512072,1.7892055213451385,-0.052873027973597615,-0.25061778724193573,-0.13548542046919465,23.11234325170517,0.0,0.0,0.0,0.0,0.0,0.0,0.0,0.0,0.0,0.0,0.0,0.0,0.0,0.0,0.0,0.0,False,0,0.6730751991271973,0.02992919921875
STABILIZE,0.5799763202667236,29.9110293383538,0.032449992497762044,0.03258657455444336,0.0,0.0,0.0,1.1963704922124385,-0.7894493258867938,20.74114666011851,-0.004691992317455846,0.0027498590491524897,0.06450197335038312,0.4,0.09201387651510161,0.1561929667397486,0.7210716626367722,0.12900394670076623,-0.14515379443764687,0.058682821691036224,2.0563671365380287,-0.0393586849477208,-0.36735632456839085,-0.01559997326694429,27.87034809589386,0.0,0.0,0.0,0.0,0.0,0.0,0.0,0.0,0.0,0.0,0.0,0.0,0.0,0.0,0.0,0.0,False,0,0.7021517753601074,0.034925048828125
STABILIZE,0.613358736038208,29.955890755342246,0.03247884114583333,0.03264570236206055,0.0,0.0,0.0,1.1963823383217804,-0.7887625717100902,20.74251782059439,-0.004431880877290178,0.0023844082230653724,0.0591783094246565,0.4,0.07978527072635477,0.1475648640892923,0.7513851520061268,0.118356618849313,-0.19161016680300236,0.11781895300373435,1.9611740484833717,-0.05745593149422411,-2.048870734870434,-0.014543837460223585,25.62883496284485,0.0,0.0,0.0,0.0,0.0,0.0,0.0,0.0,0.0,0.0,0.0,0.0,0.0,0.0,0.0,0.0,False,0,0.7592499256134033,0.03492578125
STABILIZE,0.648857593536377,28.169731486829555,0.03259232838948568,0.03470921516418457,0.0,0.0,0.0,1.1975575577458457,-0.7889714794491575,20.744483207528063,-0.0042703984973633275,0.0022941885266600038,0.05563928030409246,0.4,0.07674926884802104,0.1421978241758296,0.7622751335024999,0.11127856060818492,0.07911602733656764,0.031913636485114694,1.6961676999926567,-0.10592598874314275,3.0442070215940475,1.7447354272007942,21.48449867963791,0.0,0.0,0.0,0.0,0.0,0.0,0.0,0.0,0.0,0.0,0.0,0.0,0.0,0.0,0.0,0.0,False,0,0.7880122661590576,0.029936279296875
STABILIZE,0.6824355125427246,29.782956635352093,0.03252080281575521,0.03267264366149902,0.0,0.0,0.0,1.1974817853347408,-0.7891858833560723,20.744949367938915,-0.004099894468237271,0.0022122823572109226,0.052099446788649806,0.4,0.07399116064113716,0.1365288134464622,0.7665567204661288,0.10419889357729961,0.07911602733656764,0.031913636485114694,1.6961676999926567,-0.10592598874314275,3.0442070215940475,1.7447354272007942,21.48449867963791,0.0,0.0,0.0,0.0,0.0,0.0,0.0,0.0,0.0,0.0,0.0,0.0,0.0,0.0,0.0,0.0,False,0,0.823075532913208,0.029936279296875
STABILIZE,0.715796947479248,29.972587860338148,0.032414944966634114,0.03254413604736328,0.0,0.0,0.0,1.198292229968445,-0.7891062156027066,20.746006339712974,-0.003970714113705897,0.0021342578404355663,0.050680102263702835,0.4,0.07137596551716129,0.13223107507561485,0.7739032369231333,0.10136020452740567,0.07609979948028922,0.09541066247038543,1.8705766648054123,0.12317535134753227,2.652480825781822,-0.07625127909705043,24.61605966091156,0.0,0.0,0.0,0.0,0.0,0.0,0.0,0.0,0.0,0.0,0.0,0.0,0.0,0.0,0.0,0.0,False,0,0.8517765998840332,0.03492578125
STABILIZE,0.7492649555206299,29.880131936083664,0.03251174290974935,0.03264427185058594,0.0,0.0,0.0,1.1967788094587584,-0.7879925212420242,20.74754483982352,-0.003908156506597029,0.002011222680310762,0.04739821497832552,0.4,0.06725620026412348,0.13016078571128867,0.7889472008706235,0.09479642995665104,-0.019375710689928383,0.19009674433618784,1.9731836393475533,-0.11442381128769642,3.0690157786011696,0.09577344753779471,28.203865885734558,0.0,0.0,0.0,0.0,0.0,0.0,0.0,0.0,0.0,0.0,0.0,0.0,0.0,0.0,0.0,0.0,False,0,0.8803184032440186,0.034925048828125
STABILIZE,0.7827107906341553,29.898449584773854,0.032499106725056966,0.03262591361999512,0.0,0.0,0.0,1.1972480647990795,-0.787389543604359,20.747754868140497,-0.003816936327548831,0.0019120197783010226,0.04633846709432644,0.4,0.0639397078729759,0.1271279536642901,0.7979913965098806,0.09267693418865287,0.018221735081169754,0.1266987295821309,1.6578739508986473,0.13725087712304762,4.852278530597687,1.7919721081852913,22.9246586561203,0.0,0.0,0.0,0.0,0.0,0.0,0.0,0.0,0.0,0.0,0.0,0.0,0.0,0.0,0.0,0.0,False,0,0.9091074466705322,0.02993603515625
STABILIZE,0.816133975982666,29.920631183969295,0.03249672253926595,0.032616615295410156,0.0,0.0,0.0,1.1968949226746486,-0.7873042196005867,20.7483695851658,-0.0036397315469802165,0.0018170247785603926,0.04470058643664121,0.4,0.06075672668650204,0.12122973107146139,0.8061393885905612,0.08940117287328242,0.011767310206778347,-0.027895410312339664,1.9856341183185577,0.06557862057284938,5.995460599660873,-0.2431222004815936,23.35122674703598,0.0,0.0,0.0,0.0,0.0,0.0,0.0,0.0,0.0,0.0,0.0,0.0,0.0,0.0,0.0,0.0,False,0,0.9377045631408691,0.03492578125
STABILIZE,0.8496484756469727,29.83804394994629,0.03251055081685384,0.03265237808227539,0.0,0.0,0.0,1.1976918136517187,-0.7886351993542401,20.749704887148535,-0.003377959950977556,0.0015594384771333947,0.04073393916027728,0.4,0.05214133206570985,0.11252463994730938,0.8278392932107388,0.08146787832055456,-0.13881883351132274,0.08872795151546597,1.6463395208120346,-0.05518009778854131,-0.6261046975851059,-0.10741844307631254,23.337341845035553,0.0,0.0,0.0,0.0,0.0,0.0,0.0,0.0,0.0,0.0,0.0,0.0,0.0,0.0,0.0,0.0,False,0,0.9953556060791016,0.029936279296875
STABILIZE,0.883007287979126,29.97472986107141,0.03242352803548177,0.03253769874572754,0.0,0.0,0.0,1.1977726019829953,-0.7891481038722257,20.749711717337707,-0.0032583937271740866,0.0015524248480408929,0.03938949753945984,0.4,0.05189678389768722,0.1085418712298587,0.833964899866301,0.07877899507891968,0.1581396092660725,0.05592969828285277,1.9321000203490257,0.07200849662447592,1.3237431645393372,-0.1627156976610422,23.424862325191498,0.0,0.0,0.0,0.0,0.0,0.0,0.0,0.0,0.0,0.0,0.0,0.0,0.0,0.0,0.0,0.0,False,0,1.0239379405975342,0.03492578125
STABILIZE,0.9168355464935303,29.56254273007281,0.032543452580769856,0.03306770324707031,0.0,0.0,0.0,1.1982421774884338,-0.7884297067097579,20.751195575934894,-0.0031145740007238075,0.0014871596021886204,0.036014284391033,0.4,0.049702462270597256,0.10375673262322353,0.8429566735070458,0.072028568782066,0.039917207323014736,-0.014968863979447633,1.75777617841959,-0.18128874858032962,-1.1534024961292744,-0.18398762913420796,22.963055968284607,0.0,0.0,0.0,0.0,0.0,0.0,0.0,0.0,0.0,0.0,0.0,0.0,0.0,0.0,0.0,0.0,False,0,1.0525484085083008,0.02993603515625
STABILIZE,0.9504351615905762,29.764357742500906,0.03256252606709798,0.03269505500793457,0.0,0.0,0.0,1.198759137431239,-0.7877962600250921,20.751345840096633,-0.002969181235498052,0.0014283920494956622,0.03272288589180734,0.4,0.04772608823245182,0.09891825754475574,0.8456650815184508,0.06544577178361469,0.039917207323014736,-0.014968863979447633,1.75777617841959,-0.18128874858032962,-1.1534024961292744,-0.18398762913420796,22.963055968284607,0.0,0.0,0.0,0.0,0.0,0.0,0.0,0.0,0.0,0.0,0.0,0.0,0.0,0.0,0.0,0.0,False,0,1.081162929534912,0.02993603515625
STABILIZE,0.9839696884155273,29.821284341049996,0.03240564664204915,0.032544851303100586,0.0,0.0,0.0,1.1992506976080684,-0.7880693608701869,20.75128949103598,-0.0028239876654368207,0.001302895874806558,0.030074537582525932,0.4,0.04352865922940827,0.09408727767491143,0.848716704692656,0.060149075165051864,-0.10241987183690071,-0.026381859788671136,1.7756406217813492,-0.11648993017141206,-3.6824215203523636,1.710238866508007,21.559490263462067,0.0,0.0,0.0,0.0,0.0,0.0,0.0,0.0,0.0,0.0,0.0,0.0,0.0,0.0,0.0,0.0,False,0,1.1099061965942383,0.034925048828125
STABILIZE,1.0173132419586182,29.988445918892637,0.03231933911641439,0.03250741958618164,0.0,0.0,0.0,1.2003595361311377,-0.7897628208975269,20.752250840161658,-0.0027823174684948634,0.001282697733482903,0.028911084221098494,0.4,0.04285016530166628,0.09270071899056981,0.8550689828246514,0.05782216844219699,0.11016045464202762,0.16617001965641975,1.6340456902980804,0.06142389120592467,6.185091286897659,1.7625775188207626,18.667635321617126,0.0,0.0,0.0,0.0,0.0,0.0,0.0,0.0,0.0,0.0,0.0,0.0,0.0,0.0,0.0,0.0,False,0,1.1386213302612305,0.034926025390625
STABILIZE,1.0507712364196777,29.88843599464128,0.03247693379720052,0.03259396553039551,0.0,0.0,0.0,1.1995530402005472,-0.7904403970075333,20.752090330716165,-0.0026644983935950094,0.0009895422347884345,0.025391994785409173,0.4,0.03306345060458593,0.08878734228234945,0.8717030984051541,0.050783989570818346,-0.13196761719882488,0.096407305682078,1.864655688405037,-0.06059721820283495,-6.880670785903931,-0.16369547229260206,22.509130835533142,0.0,0.0,0.0,0.0,0.0,0.0,0.0,0.0,0.0,0.0,0.0,0.0,0.0,0.0,0.0,0.0,False,0,1.1960375308990479,0.02993603515625
STABILIZE,1.084223747253418,29.891205039944698,0.032473357518514,0.03260993957519531,0.0,0.0,0.0,1.1997414040112515,-0.7907692599438988,20.752964594929924,-0.0025932526527691424,0.0008431361043366966,0.02501382611264892,0.4,0.02818000246898267,0.08641718274544435,0.8699708826321799,0.05002765222529784,-0.17291231779381633,0.09288923465646803,1.5714200213551521,0.12292563589621691,-0.46709422022104263,-0.3160837572067976,19.25831288099289,0.0,0.0,0.0,0.0,0.0,0.0,0.0,0.0,0.0,0.0,0.0,0.0,0.0,0.0,0.0,0.0,False,0,1.2246577739715576,0.03492578125
STABILIZE,1.1185081005096436,29.168433057943197,0.032480748494466145,0.033478736877441406,0.0,0.0,0.0,1.199728917571675,-0.7905011750189759,20.75384910442744,-0.002529747364586271,0.0006936402668949952,0.02464606612463326,0.4,0.02319387922988093,0.08430498942748862,0.8736912806849924,0.04929213224926652,-0.17291231779381633,0.09288923465646803,1.5714200213551521,0.12292563589621691,-0.46709422022104263,-0.3160837572067976,19.25831288099289,0.0,0.0,0.0,0.0,0.0,0.0,0.0,0.0,0.0,0.0,0.0,0.0,0.0,0.0,0.0,0.0,False,0,1.2534844875335693,0.03492578125
STABILIZE,1.1524410247802734,29.47073165590461,0.032514365514119466,0.03300881385803223,0.0,0.0,0.0,1.2003174877790597,-0.790363877544488,20.75534150076109,-0.0024254221620569455,0.0007178857343473312,0.022370329480061867,0.4,0.023992648635844015,0.08082869486395722,0.8784294834915312,0.04474065896012373,0.16891142586246133,0.005374674219638109,1.6637539491057396,-0.11472416618840509,5.342476814985275,-0.2158291870728135,23.0847030878067,0.0,0.0,0.0,0.0,0.0,0.0,0.0,0.0,0.0,0.0,0.0,0.0,0.0,0.0,0.0,0.0,False,0,1.2820587158203125,0.034926025390625
STABILIZE,1.1858818531036377,29.90420510773004,0.03239634831746419,0.03253817558288574,0.0,0.0,0.0,1.2007200420532673,-0.7906575756787986,20.75704051031713,-0.0023621037493300147,0.0005146897768068045,0.0186509642463283,0.4,0.01720758317058088,0.07872560547901059,0.8860886485530381,0.0373019284926566,-0.2945322310552001,0.08309374679811299,1.8657095730304718,-0.29183981592820235,-7.821421325206757,-0.07324322359636426,25.997617840766907,0.0,0.0,0.0,0.0,0.0,0.0,0.0,0.0,0.0,0.0,0.0,0.0,0.0,0.0,0.0,0.0,False,0,1.3107531070709229,0.029936279296875
STABILIZE,1.2197465896606445,29.527163162007476,0.032411845525105794,0.033063650131225586,0.0,0.0,0.0,1.2009642213160954,-0.7905228928861023,20.75664265179798,-0.0022912143895675616,0.0004055445599907032,0.018087082063909375,0.4,0.013566368540530824,0.07636526296730989,0.8873384904266881,0.03617416412781875,-0.12819692492485046,0.06779296672903001,1.8175376579165459,0.06972515904885536,-0.20359782502055168,-0.09065986960195005,24.336551129817963,0.0,0.0,0.0,0.0,0.0,0.0,0.0,0.0,0.0,0.0,0.0,0.0,0.0,0.0,0.0,0.0,False,1,1.3395633697509766,0.0349248046875
STABILIZE,1.2532963752746582,29.80814441048966,0.032534392674764,0.032678842544555664,0.0,0.0,0.0,1.2017722113505667,-0.7910065556567039,20.75713613296551,-0.0022251864310019183,6.449449948628101e-05,0.01263553429312705,0.4,0.002182531378933056,0.07417192561340935,0.8922723348217614,0.0252710685862541,-0.24262377992272377,0.12804983416572213,1.5845395624637604,-0.1888412302550712,-3.3254429697990417,1.5818381682038307,15.388557314872742,0.0,0.0,0.0,0.0,0.0,0.0,0.0,0.0,0.0,0.0,0.0,0.0,0.0,0.0,0.0,0.0,False,0,1.3972413539886475,0.034925048828125
STABILIZE,1.286684274673462,29.949901459541287,0.032436402638753255,0.03255581855773926,0.0,0.0,0.0,1.201865806286537,-0.7911309398047922,20.75794721792945,-0.002162556542200262,1.7343589160147758e-05,0.013683918637699514,0.4,0.0006125517151911524,0.07208493370597019,0.8956598653406049,0.02736783727539903,-0.005284896906232461,0.060741318156942725,1.6778534278273582,0.2527256704290665,4.788238927721977,-0.10651752818375826,24.41963404417038,0.0,0.0,0.0,0.0,0.0,0.0,0.0,0.0,0.0,0.0,0.0,0.0,0.0,0.0,0.0,0.0,False,0,1.425980806350708,0.02993701171875
STABILIZE,1.3201825618743896,29.852485035693697,0.03249696095784505,0.03262734413146973,0.0,0.0,0.0,1.2012345473968398,-0.7915325335836477,20.758034302841367,-0.002105298227814599,-4.534008898045287e-05,0.012875416613067438,0.4,-0.0014797961960690334,0.07017727975637712,0.8966362759907437,0.025750833226134875,-0.06761552067473531,0.07358021684922278,1.8527824431657791,0.009780043818878122,-2.7628878131508827,-0.13960269279778004,26.110592484474182,0.0,0.0,0.0,0.0,0.0,0.0,0.0,0.0,0.0,0.0,0.0,0.0,0.0,0.0,0.0,0.0,False,0,1.455012321472168,0.0349248046875
STABILIZE,1.3535916805267334,29.93152073075002,0.03242948849995931,0.03256392478942871,0.0,0.0,0.0,1.2008362619908632,-0.7918912785976321,20.760057746382984,-0.002054235204266608,-0.00011587326390868074,0.01202636682910965,0.4,-0.003833696234161647,0.06847612222603083,0.9027816127108921,0.0240527336582193,-0.06761552067473531,0.07358021684922278,1.8527824431657791,0.009780043818878122,-2.7628878131508827,-0.13960269279778004,26.110592484474182,0.0,0.0,0.0,0.0,0.0,0.0,0.0,0.0,0.0,0.0,0.0,0.0,0.0,0.0,0.0,0.0,False,0,1.4834411144256592,0.0349248046875
STABILIZE,1.3870387077331543,29.89866271278264,0.03245666821797689,0.032582998275756836,0.0,0.0,0.0,1.2018098841127076,-0.7914270925383357,20.760807359644392,-0.001983374365906688,-0.00018618047820067256,0.010680298683512472,0.4,-0.006181367933973075,0.06611478795093301,0.9087467828767255,0.021360597367024944,-0.07486662943847477,0.030110825900919735,1.8613720312714577,-0.05599118275248033,-3.230726718902588,-0.18220172496512532,22.1333846449852,0.0,0.0,0.0,0.0,0.0,0.0,0.0,0.0,0.0,0.0,0.0,0.0,0.0,0.0,0.0,0.0,False,0,1.5121138095855713,0.064862060546875
STABILIZE,1.4204926490783691,29.89163109245494,0.032496007283528645,0.032622337341308594,0.0,0.0,0.0,1.2035191389525033,-0.7911994551399039,20.762069237093552,-0.001960633167912253,-0.00035538125520501494,0.011051949613100125,0.4,-0.011820828143515478,0.06535900410187528,0.9401412720783636,0.02210389922620025,-0.14385096728801727,0.0892197189386934,1.6453595831990242,0.19264114997091228,-0.8244543336331844,0.016093964222818613,30.454882979393005,0.0,0.0,0.0,0.0,0.0,0.0,0.0,0.0,0.0,0.0,0.0,0.0,0.0,0.0,0.0,0.0,False,0,1.5419566631317139,0.034926025390625
STABILIZE,1.4586448669433594,26.213416996862616,0.032483609517415364,0.03716278076171875,0.0,0.0,0.0,1.2037103842492636,-0.7908055986847174,20.764166105168748,-0.0018896975424696537,-0.000709817735499209,0.012328567263780652,0.4,-0.023633481396471527,0.06300009454154674,0.9295346413656486,0.024657134527561304,-0.2939267084002495,0.09604073711670935,1.4473133720457554,0.14872738251724088,-3.3398665487766266,-0.08676092838868499,26.399734616279602,0.0,0.0,0.0,0.0,0.0,0.0,0.0,0.0,0.0,0.0,0.0,0.0,0.0,0.0,0.0,0.0,False,0,1.5996770858764648,0.034925048828125
STABILIZE,1.4919459819793701,30.02537009993414,0.0323062260945638,0.032460689544677734,0.0,0.0,0.0,1.2048901927066775,-0.7909222455091366,20.766042699643208,-0.0018605674165047127,-0.0008085218070304684,0.013457883748561595,0.4,-0.0269215893798175,0.062031567649426904,0.9272694308204917,0.02691576749712319,-0.15885703032836318,0.10066797258332372,1.6174711287021637,0.19585703515186434,5.093378946185112,1.8072579056024551,23.467281460762024,0.0,0.0,0.0,0.0,0.0,0.0,0.0,0.0,0.0,0.0,0.0,0.0,0.0,0.0,0.0,0.0,False,0,1.6283001899719238,0.029935791015625
STABILIZE,1.5253996849060059,29.892696276868694,0.03249958356221517,0.03263545036315918,0.0,0.0,0.0,1.2053306331864375,-0.7911812590890681,20.766701812898113,-0.0018327818026964316,-0.0008252002099866389,0.010719024283199645,0.4,-0.027483813009742553,0.061103014501542395,0.9252351528702812,0.02143804856639929,-0.04289184289518744,0.10567134013399482,1.8870335072278976,-0.23566700617269523,2.895829640328884,-0.22668903693556786,19.804243743419647,0.0,0.0,0.0,0.0,0.0,0.0,0.0,0.0,0.0,0.0,0.0,0.0,0.0,0.0,0.0,0.0,False,0,1.6569039821624756,0.069822021484375
STABILIZE,1.558849573135376,29.89461380013257,0.03250625928243001,0.03261160850524902,0.0,0.0,0.0,1.20533436844614,-0.7904089141043278,20.76745142615952,-0.0018387267936675659,-0.0009500167949931313,0.0076493135444906405,0.4,-0.031650860003084744,0.061299346448198566,0.9606333558756519,0.015298627088981281,-0.04289184289518744,0.10567134013399482,1.8870335072278976,-0.23566700617269523,2.895829640328884,-0.22668903693556786,19.804243743419647,0.0,0.0,0.0,0.0,0.0,0.0,0.0,0.0,0.0,0.0,0.0,0.0,0.0,0.0,0.0,0.0,True,0,1.6872882843017578,0.069822021484375
STABILIZE,1.5923271179199219,29.87204523926529,0.03247717221577962,0.03261876106262207,0.0,0.0,0.0,1.2052978696227625,-0.7901648949240585,20.76790051109745,-0.0017620821557723049,-0.0011585074742638006,0.00412877166363529,0.4,-0.038608450287607364,0.058741636769904716,0.9902886075582362,0.00825754332727058,-0.20921914838254452,-0.023220064758788794,1.7872704192996025,-0.23292399152984752,-2.503426745533943,-0.21459441632032394,21.664194762706757,0.0,0.0,0.0,0.0,0.0,0.0,0.0,0.0,0.0,0.0,0.0,0.0,0.0,0.0,0.0,0.0,True,0,1.7143516540527344,0.029935791015625
STABILIZE,1.6258113384246826,29.864175555017585,0.03246119817097982,0.03260684013366699,0.0,0.0,0.0,1.2054161172727684,-0.7911117832586044,20.769271671573332,-0.0017427145825081077,-0.0010295090687768385,0.003495095434826823,0.4,-0.03430988155731262,0.058094672384833505,0.9760051237202997,0.006990190869653646,0.04840331675950438,0.13051098212599754,1.8277902156114578,0.011639736243185988,3.802167624235153,-0.0368630513548851,25.934743881225586,0.0,0.0,0.0,0.0,0.0,0.0,0.0,0.0,0.0,0.0,0.0,0.0,0.0,0.0,0.0,0.0,True,0,1.7717702388763428,0.03492626953125
STABILIZE,1.6605827808380127,28.75923259417726,0.03244450887044271,0.034003496170043945,0.0,0.0,0.0,1.2056871904054534,-0.7919037650372085,20.769956398037625,-0.0017243235012441667,-0.0009459014081132902,0.003656150002221006,0.4,-0.031522711194880405,0.05748147355496757,0.9670672172889193,0.007312300004442012,0.09174044826067984,0.10781108867377043,1.5712829306721687,0.0585568526007457,2.2330982610583305,1.6005570068955421,15.308286249637604,0.0,0.0,0.0,0.0,0.0,0.0,0.0,0.0,0.0,0.0,0.0,0.0,0.0,0.0,0.0,0.0,True,0,1.8003184795379639,0.034925048828125
STABILIZE,1.69413161277771,29.80687341880099,0.03256038029988607,0.03268885612487793,0.0,0.0,0.0,1.205911519431006,-0.7921529068593554,20.769908586713434,-0.001709377399541235,-0.0009870177373036747,0.0032371598643811234,0.4,-0.03289415248133602,0.05698296399505513,0.961478769312948,0.006474319728762247,-0.11535492958500981,0.11016596108675003,1.7129231244325638,-0.001994285170564802,-4.057322070002556,1.8749456852674484,22.87360429763794,0.0,0.0,0.0,0.0,0.0,0.0,0.0,0.0,0.0,0.0,0.0,0.0,0.0,0.0,0.0,0.0,True,0,1.831101655960083,0.029935791015625
STABILIZE,1.7288525104522705,28.800703142166558,0.0324585755666097,0.033951759338378906,0.0,0.0,0.0,1.2063853638046755,-0.7910250185118041,20.771730539674536,-0.0016910978221607162,-0.0010177545245030014,0.002915605282771159,0.4,-0.03391941365802345,0.056373379805733675,0.9517649937630316,0.005831210565542318,-0.11535492958500981,0.11016596108675003,1.7129231244325638,-0.001994285170564802,-4.057322070002556,1.8749456852674484,22.87360429763794,0.0,0.0,0.0,0.0,0.0,0.0,0.0,0.0,0.0,0.0,0.0,0.0,0.0,0.0,0.0,0.0,True,0,1.8597052097320557,0.029935791015625
STABILIZE,1.7623674869537354,29.838468488336524,0.03255275090535482,0.03267407417297363,0.0,0.0,0.0,1.2061959327769136,-0.7908411903735956,20.77200033214675,-0.0015852134405944787,-0.0010610130684339735,0.0019966429999179348,0.4,-0.03536341942797048,0.052842912836636814,0.9435963826633641,0.0039932859998358695,-0.13916643802076578,-0.04671182541642338,1.7440041527152061,-0.06695306274118222,-2.0537346601486206,-0.10704530868679285,22.30817824602127,0.0,0.0,0.0,0.0,0.0,0.0,0.0,0.0,0.0,0.0,0.0,0.0,0.0,0.0,0.0,0.0,True,0,1.8884952068328857,0.069852294921875
STABILIZE,1.7957985401153564,29.91145595618439,0.03246620496114095,0.03259015083312988,0.0,0.0,0.0,1.206435949893216,-0.7913383534399784,20.77248527557782,-0.0015912349167652284,-0.0011244348337726702,-0.0013414624850683439,0.4,-0.037483644783536815,0.05303940874588426,0.9712507381622799,-0.0026829249701366877,-0.04987316206097603,0.08700904436409473,1.703682541847229,-0.24709900861557763,-3.3568430691957474,1.9890883937478065,23.593169450759888,0.0,0.0,0.0,0.0,0.0,0.0,0.0,0.0,0.0,0.0,0.0,0.0,0.0,0.0,0.0,0.0,True,0,1.9171698093414307,0.034925048828125
STABILIZE,1.829233169555664,29.909962847016708,0.03249409993489583,0.032631635665893555,0.0,0.0,0.0,1.207008191679616,-0.7904527767254039,20.774529209686946,-0.0016392843362894275,-0.0007931980819096365,-0.0027165129395720425,0.4,-0.026445117405086607,0.054640303818468225,0.947872247006981,-0.005433025879144085,0.2076013246551156,0.17048827139660716,1.5805583447217941,-0.05325058602327924,7.155908644199371,1.871037296950817,17.82623529434204,0.0,0.0,0.0,0.0,0.0,0.0,0.0,0.0,0.0,0.0,0.0,0.0,0.0,0.0,0.0,0.0,True,0,1.9755606651306152,0.029935791015625
STABILIZE,1.8627207279205322,29.862474546826718,0.03251221974690755,0.03262925148010254,0.0,0.0,0.0,1.2069821515834054,-0.7890933022763069,20.774968049341123,-0.0016498360523401557,-0.0009089697284565882,-0.0016808181217381581,0.4,-0.03030221751490392,0.054992757292446126,0.9338147464003403,-0.0033616362434763162,-0.2645704196766019,0.15116635477170348,1.48830721154809,0.11432250570848339,-5.813416466116905,2.0207885652780533,21.37821912765503,0.0,0.0,0.0,0.0,0.0,0.0,0.0,0.0,0.0,0.0,0.0,0.0,0.0,0.0,0.0,0.0,True,0,2.004185199737549,0.034926025390625
STABILIZE,1.8962640762329102,29.81174614230985,0.03246286710103353,0.032598018646240234,0.0,0.0,0.0,1.206514176903554,-0.7915944855338539,20.776839521173706,-0.001665760442595419,-0.0008631862381048584,0.0005592865753905373,0.4,-0.02877179058861238,0.0555259098025601,0.9237439672302217,0.0011185731507810746,0.021419925906229764,0.1469617709517479,1.4118773862719536,0.25106107862314037,5.705436319112778,-0.15602416824549437,11.519284546375275,0.0,0.0,0.0,0.0,0.0,0.0,0.0,0.0,0.0,0.0,0.0,0.0,0.0,0.0,0.0,0.0,True,0,2.0330610275268555,0.06486083984375
STABILIZE,1.9295928478240967,30.00303299092964,0.03237417538960775,0.03250551223754883,0.0,0.0,0.0,1.2066489664179558,-0.7896508164673093,20.778142379757885,-0.0017270294357182852,-0.0008396937878001908,0.0027677902415391823,0.4,-0.027984230949249372,0.05757035179740057,0.9386846553891629,0.005535580483078365,0.021419925906229764,0.1469617709517479,1.4118773862719536,0.25106107862314037,5.705436319112778,-0.15602416824549437,11.519284546375275,0.0,0.0,0.0,0.0,0.0,0.0,0.0,0.0,0.0,0.0,0.0,0.0,0.0,0.0,0.0,0.0,True,0,2.064925193786621,0.06486083984375
STABILIZE,1.9630653858184814,29.87630084978168,0.03246191342671712,0.03259444236755371,0.0,0.0,0.0,1.207521416362719,-0.7897090865186659,20.77819360617666,-0.001759690997257099,-0.0009618976815475362,0.00021341256321956176,0.4,-0.03206281908986996,0.05865660542895642,0.9578849961476845,0.00042682512643912353,-0.21678551565855742,0.10364137124270201,1.782974973320961,-0.2264414749968443,-2.0960794761776924,1.8832361325621605,17.57957637310028,0.0,0.0,0.0,0.0,0.0,0.0,0.0,0.0,0.0,0.0,0.0,0.0,0.0,0.0,0.0,0.0,True,0,2.0907788276672363,0.03492626953125
STABILIZE,1.996567964553833,29.848236206687968,0.03248098691304525,0.032688140869140625,0.0,0.0,0.0,1.2073952713064855,-0.790123646984774,20.77869733262795,-0.0017188832051675026,-0.00098546821078533,0.002900822670629725,0.4,-0.03284313851263289,0.05729943275704642,0.9489864663485452,0.00580164534125945,-0.10343098547309637,0.06758460658602417,1.725631207227707,0.25998130567917704,6.130341440439224,0.052450504153966904,21.644462645053864,0.0,0.0,0.0,0.0,0.0,0.0,0.0,0.0,0.0,0.0,0.0,0.0,0.0,0.0,0.0,0.0,True,0,2.12021803855896,0.0349248046875
STABILIZE,2.0300416946411133,29.873960113960113,0.03247860272725423,0.03260302543640137,0.0,0.0,0.0,1.2077294169672872,-0.7890933556371599,20.7798021157262,-0.0016755321114365715,-0.00108778211962764,0.0017436102089794646,0.4,-0.036256004630035664,0.05585327715120958,0.9409788892823366,0.0034872204179589293,-0.2290455624461174,0.059360871091485023,1.7230179160833359,-0.09773587822689005,-0.5902010947465897,2.116762101650238,25.293323397636414,0.0,0.0,0.0,0.0,0.0,0.0,0.0,0.0,0.0,0.0,0.0,0.0,0.0,0.0,0.0,0.0,True,0,2.160585641860962,0.02993701171875
STABILIZE,2.0640013217926025,29.447351053821418,0.032473119099934895,0.033080101013183594,0.0,0.0,0.0,1.207301676370515,-0.7904798306778196,20.780905191277157,-0.0017033935159974092,-0.0011302682380449833,0.0030786055827238647,0.4,-0.037669505956885736,0.05678383229546028,0.9264582584382131,0.006157211165447729,-0.1498380210250616,0.18260509241372347,1.566673070192337,0.14146202225169105,0.1685652183368802,0.161050446331501,24.317151308059692,0.0,0.0,0.0,0.0,0.0,0.0,0.0,0.0,0.0,0.0,0.0,0.0,0.0,0.0,0.0,0.0,True,0,2.1888315677642822,0.0349150390625
STABILIZE,2.097341299057007,29.99337819380582,0.03243282636006673,0.03254961967468262,0.0,0.0,0.0,1.207373500078506,-0.7904210803787869,20.782722021596378,-0.0016494731101746078,-0.0009069929711053339,0.004242850281553674,0.4,-0.030224955618658796,0.05498691402798256,0.9261771773376128,0.008485700563107348,0.3032730659469962,0.03341905539855361,2.0011121407151222,0.12778883730697177,7.5754314661026,0.23842682130634785,29.43023443222046,0.0,0.0,0.0,0.0,0.0,0.0,0.0,0.0,0.0,0.0,0.0,0.0,0.0,0.0,0.0,0.0,True,1,2.217668294906616,0.034926025390625
STABILIZE,2.130819320678711,29.868854326895686,0.03254822095235189,0.03267669677734375,0.0,0.0,0.0,1.2075226970231885,-0.7902266334308531,20.782841549906852,-0.0015625554709643207,-0.0009619381884618211,0.0031203456379059,0.4,-0.03205893294201536,0.05208867455299629,0.9198815700021702,0.0062406912758118,-0.1733721699565649,0.1024779281578958,1.9538646563887596,0.02094955088617782,-4.682474955916405,2.2683773189783096,30.04409372806549,0.0,0.0,0.0,0.0,0.0,0.0,0.0,0.0,0.0,0.0,0.0,0.0,0.0,0.0,0.0,0.0,True,0,2.274756908416748,0.034925048828125
STABILIZE,2.1642966270446777,29.873534565034685,0.032485278447469075,0.03260374069213867,0.0,0.0,0.0,1.2076228019832116,-0.7896979341004118,20.78487182363764,-0.001544855974880695,-0.0009677692767175687,0.001537623792213766,0.4,-0.032256211932220606,0.051496930530839855,0.916628961824256,0.003075247584427532,-0.07314459653571248,0.08394895703531802,1.748000644147396,-0.15425816821829838,-6.259331107139587,0.3014870919287205,29.047438502311707,0.0,0.0,0.0,0.0,0.0,0.0,0.0,0.0,0.0,0.0,0.0,0.0,0.0,0.0,0.0,0.0,True,0,2.303598165512085,0.03492578125
STABILIZE,2.197740077972412,29.89866271278264,0.032453330357869466,0.032587289810180664,0.0,0.0,0.0,1.206604890353468,-0.7894474582569427,20.78527992744055,-0.0015516288629566994,-0.0008976135631922928,0.0016003820118161906,0.4,-0.029917562726579913,0.051722633490121614,0.9079302525567159,0.0032007640236323812,0.061377452220767736,0.12514577247202396,1.4380727894604206,0.017653804518768162,3.5877082496881485,0.14374000020325184,22.856011986732483,0.0,0.0,0.0,0.0,0.0,0.0,0.0,0.0,0.0,0.0,0.0,0.0,0.0,0.0,0.0,0.0,True,0,2.3321261405944824,0.029936279296875
STABILIZE,2.23128080368042,29.81640849926424,0.03248742421468099,0.03260993957519531,0.0,0.0,0.0,1.2058951910100213,-0.7896585004301255,20.78515186139361,-0.0015690306618293874,-0.000912520279123102,0.0022888775558078042,0.4,-0.03041316385087671,0.05230345214539883,0.8965033771069855,0.0045777551116156084,-0.09653327870182693,0.15521005261689425,1.4960600063204765,0.08486538058188611,-6.191526353359222,2.062011882662773,19.861578941345215,0.0,0.0,0.0,0.0,0.0,0.0,0.0,0.0,0.0,0.0,0.0,0.0,0.0,0.0,0.0,0.0,True,0,2.3639914989471436,0.03492578125
STABILIZE,2.2646191120147705,29.994665141059105,0.03238108952840169,0.032494544982910156,0.0,0.0,0.0,1.2059586904249613,-0.7899359768651573,20.787398993630543,-0.0015715982511201455,-0.0010299204308020394,0.0006909481157345279,0.4,-0.03432941752304543,0.05238743636474236,0.8898579147651144,0.0013818962314690558,-0.27446665335446596,0.11366266990080476,1.473466120660305,-0.16423579393521762,0.3591857384890318,0.09535084827803075,18.36676001548767,0.0,0.0,0.0,0.0,0.0,0.0,0.0,0.0,0.0,0.0,0.0,0.0,0.0,0.0,0.0,0.0,True,0,2.392709255218506,0.034925048828125
STABILIZE,2.298139810562134,29.83252605000178,0.03247812589009603,0.03264641761779785,0.0,0.0,0.0,1.2060767246315556,-0.7890862052828724,20.787650003082543,-0.0015856488941149865,-0.0009880725919982198,0.0006873900722107945,0.4,-0.03293448483188406,0.05285575339690215,0.8861429113381751,0.001374780144421589,0.016158062499016523,0.1337232068181038,1.6160326078534126,0.009487212798427047,-0.264757894910872,2.119123935699463,20.403942465782166,0.0,0.0,0.0,0.0,0.0,0.0,0.0,0.0,0.0,0.0,0.0,0.0,0.0,0.0,0.0,0.0,True,0,2.4215548038482666,0.02993603515625
STABILIZE,2.331540107727051,29.940280821477774,0.03244450887044271,0.03256416320800781,0.0,0.0,0.0,1.2051800488595799,-0.7911720276615181,20.790293286291337,-0.0015688312034447672,-0.0008427127213025229,0.0019197993050593884,0.4,-0.028086919544149342,0.05229625577223472,0.872603266400526,0.0038395986101187767,0.11825175024569035,0.07505908142775297,1.6638841480016708,0.1462475969617031,5.789369717240334,1.9586343318223953,15.983405709266663,0.0,0.0,0.0,0.0,0.0,0.0,0.0,0.0,0.0,0.0,0.0,0.0,0.0,0.0,0.0,0.0,True,0,2.478817939758301,0.03492578125
STABILIZE,2.3650002479553223,29.88524157979864,0.03248599370320638,0.032610177993774414,0.0,0.0,0.0,1.2062350996429354,-0.7899301071713393,20.790981427850216,-0.0016383488798064698,-0.0008588182909723919,0.00034509306051017596,0.4,-0.028626618510875924,0.05461197416767125,0.8697150781300573,0.0006901861210203519,-0.09000760037451982,0.23513829801231623,1.5628799796104431,-0.17232347162423997,0.7075554691255093,1.9110647961497307,14.549115300178528,0.0,0.0,0.0,0.0,0.0,0.0,0.0,0.0,0.0,0.0,0.0,0.0,0.0,0.0,0.0,0.0,True,0,2.5081379413604736,0.0399150390625
STABILIZE,2.398513078689575,29.841015972395148,0.032472880681355794,0.03264164924621582,0.0,0.0,0.0,1.2063960359752537,-0.7898801080521807,20.7896410032256,-0.0016992955375329348,-0.0008436396890742312,0.0009280858405544352,0.4,-0.02811948792436916,0.05664409558172799,0.8721922814193704,0.0018561716811088705,-0.022366418852470815,0.2003595232963562,1.6239453107118607,0.07600214291673675,3.05644478648901,2.1044980734586716,21.708112955093384,0.0,0.0,0.0,0.0,0.0,0.0,0.0,0.0,0.0,0.0,0.0,0.0,0.0,0.0,0.0,0.0,True,0,2.5367348194122314,0.024947265625
STABILIZE,2.4319045543670654,29.946480079965728,0.03243878682454427,0.0325775146484375,0.0,0.0,0.0,1.2068142783402112,-0.7906386325760223,20.79132976749789,-0.0017302286562599898,-0.0008177769200244346,0.0015260138539195196,0.4,-0.027256158438707757,0.05767574050302985,0.8619855036962104,0.0030520277078390392,-0.022366418852470815,0.2003595232963562,1.6239453107118607,0.07600214291673675,3.05644478648901,2.1044980734586716,21.708112955093384,0.0,0.0,0.0,0.0,0.0,0.0,0.0,0.0,0.0,0.0,0.0,0.0,0.0,0.0,0.0,0.0,True,0,2.5653982162475586,0.024947265625
STABILIZE,2.465374231338501,29.877790599934464,0.03251245816548665,0.032624006271362305,0.0,0.0,0.0,1.2064249575575205,-0.7902189494680368,20.791155597674052,-0.0016916461265281822,-0.0007900644642903683,0.0010854278451885675,0.4,-0.02633334565515816,0.05638920199113771,0.8532700127701726,0.002170855690377135,-0.015048199566081166,0.062372052343562245,1.6492027789354324,-0.04490713309108513,3.0472762882709503,0.08281214977614582,19.598335027694702,0.0,0.0,0.0,0.0,0.0,0.0,0.0,0.0,0.0,0.0,0.0,0.0,0.0,0.0,0.0,0.0,True,0,2.5942060947418213,0.0349248046875
STABILIZE,2.4987926483154297,29.923192717362614,0.032468350728352864,0.03267693519592285,0.0,0.0,0.0,1.207326649249668,-0.7914271992600415,20.791896673199,-0.0016747845227578046,-0.0007699742780686494,0.0006545071549671604,0.4,-0.025664533823981303,0.05582673712074979,0.8538334964405213,0.0013090143099343209,-0.015048199566081166,0.062372052343562245,1.6492027789354324,-0.04490713309108513,3.0472762882709503,0.08281214977614582,19.598335027694702,0.0,0.0,0.0,0.0,0.0,0.0,0.0,0.0,0.0,0.0,0.0,0.0,0.0,0.0,0.0,0.0,True,0,2.6227834224700928,0.0349248046875
STABILIZE,2.532346248626709,29.802849326748856,0.032575400670369466,0.03273820877075195,0.0,0.0,0.0,1.2074391339275616,-0.7913925680665154,20.79216646567121,-0.0017672781403830237,-0.0008599871751874962,0.004285243831138371,0.4,-0.02865742701326447,0.05891355867562922,0.8507172184657572,0.008570487662276742,-0.23343448992818594,0.2817706437781453,1.4260564930737019,0.4404938939737846,-9.774482995271683,2.2119980305433273,23.339439928531647,0.0,0.0,0.0,0.0,0.0,0.0,0.0,0.0,0.0,0.0,0.0,0.0,0.0,0.0,0.0,0.0,True,1,2.651726722717285,0.064862060546875
STABILIZE,2.5658650398254395,29.835284744846422,0.032518657048543294,0.032634735107421875,0.0,0.0,0.0,1.206779273620715,-0.7912024433476658,20.793389069532644,-0.0018023460303934955,-0.000492687593117138,0.0025085632398639704,0.4,-0.016417658937350282,0.060079638861929734,0.8675699839683274,0.005017126479727941,0.3061895724385977,0.07950227591209114,1.479167863726616,-0.10835733598446895,6.769885867834091,1.9226271659135818,15.86487740278244,0.0,0.0,0.0,0.0,0.0,0.0,0.0,0.0,0.0,0.0,0.0,0.0,0.0,0.0,0.0,0.0,True,0,2.709083318710327,0.03489794921875
STABILIZE,2.5992984771728516,29.91145595618439,0.032361539204915364,0.032492637634277344,0.0,0.0,0.0,1.2033237315092173,-0.7871907744273411,20.792550663812026,-0.0017981883399607347,-0.0004621613981267538,0.0020924402248885814,0.4,-0.015401001910695575,0.059940736380206736,0.8672065815161292,0.004184880449777163,-0.0030157199944369495,0.10464348597452044,1.7219619825482368,-0.03550253623314614,3.286726027727127,-0.017363642109557986,19.07157003879547,0.0,0.0,0.0,0.0,0.0,0.0,0.0,0.0,0.0,0.0,0.0,0.0,0.0,0.0,0.0,0.0,True,0,2.737675905227661,0.069851318359375
STABILIZE,2.632667303085327,29.964665118771208,0.03244665463765462,0.03256702423095703,0.0,0.0,0.0,1.2059117328744176,-0.7881426786820587,20.792516512866175,-0.0018358691719156906,-0.0003615698023807323,0.0016748222720030747,0.4,-0.012048749086025294,0.06119634356633345,0.8953847397113893,0.0033496445440061493,0.09317566873505712,0.06443278980441391,1.7251333221793175,-0.03452276427300632,1.9347447901964188,0.10720798745751381,24.194294214248657,0.0,0.0,0.0,0.0,0.0,0.0,0.0,0.0,0.0,0.0,0.0,0.0,0.0,0.0,0.0,0.0,True,0,2.7662878036499023,0.029936767578125
STABILIZE,2.6661715507507324,29.848448619413606,0.03253057797749837,0.03264164924621582,0.0,0.0,0.0,1.2091078345191604,-0.7918569675692234,20.796770013171802,-0.001791500662871384,-0.00028214910608733855,0.0012440417961792352,0.4,-0.00940237698186082,0.05971709711926326,0.8883076789300997,0.0024880835923584703,0.09317566873505712,0.06443278980441391,1.7251333221793175,-0.03452276427300632,1.9347447901964188,0.10720798745751381,24.194294214248657,0.0,0.0,0.0,0.0,0.0,0.0,0.0,0.0,0.0,0.0,0.0,0.0,0.0,0.0,0.0,0.0,True,0,2.7950820922851562,0.029936767578125
STABILIZE,2.699549913406372,29.9597422820326,0.032444270451863606,0.03257894515991211,0.0,0.0,0.0,1.2067092641817223,-0.7912365942935158,20.797705749088095,-0.0017349717730647577,-0.0002732003093933136,0.001833862101893874,0.4,-0.009102974886250987,0.05783297527057578,0.8770634151643819,0.003667724203787748,-0.024314134498126805,0.03781902778428048,1.4565194956958294,0.07138401456309576,-2.6511341333389282,3.318507596850395,2.592972293496132,0.0,0.0,0.0,0.0,0.0,0.0,0.0,0.0,0.0,0.0,0.0,0.0,0.0,0.0,0.0,0.0,True,0,2.8237249851226807,0.034925048828125
STABILIZE,2.7334718704223633,29.479845653197636,0.032537015279134114,0.033080101013183594,0.0,0.0,0.0,1.2064606026072515,-0.7939621065766154,20.806861617670496,-0.0017295546615684993,-0.00028435417685290505,0.0020701675089609714,0.4,-0.009474306473485324,0.05765250683967453,0.8793203275165451,0.004140335017921943,-0.06357020465657115,0.10983772808685899,1.905355043709278,0.03453135537032173,-1.5774678438901901,-2.0259112119674683,22.98559546470642,0.0,0.0,0.0,0.0,0.0,0.0,0.0,0.0,0.0,0.0,0.0,0.0,0.0,0.0,0.0,0.0,True,1,2.852428913116455,0.0399150390625
STABILIZE,2.7668697834014893,29.940708274143926,0.032468350728352864,0.03258371353149414,0.0,0.0,0.0,1.1995898591890417,-0.7922172066870886,20.81848830718515,-0.0017174619801006538,-0.00037866492180020964,0.026066204147174234,0.4,-0.012570069241130386,0.05726019365278589,0.8644302965794599,0.05213240829434847,-0.12252053711563349,0.10785491904243827,1.375454943627119,1.295326913237818,1.6529038548469543,-0.6012469064444304,5.564122647047043,0.0,0.0,0.0,0.0,0.0,0.0,0.0,0.0,0.0,0.0,0.0,0.0,0.0,0.0,0.0,0.0,True,0,2.910430908203125,0.02993603515625
STABILIZE,2.800339460372925,29.878003433513083,0.03251221974690755,0.032637596130371094,0.0,0.0,0.0,1.2001292306900613,-0.792248796312,20.821739477230075,-0.0018147238967505873,-0.00040791922837177686,0.010876188775847475,0.4,-0.013574341265306291,0.06049595442492888,0.8692293354709695,0.02175237755169495,-0.09117885492742062,0.3075413405895233,2.225366234779358,-1.609825001283465,-9.231771528720856,8.48553329706192,48.74473214149475,0.0,0.0,0.0,0.0,0.0,0.0,0.0,0.0,0.0,0.0,0.0,0.0,0.0,0.0,0.0,0.0,True,0,2.9392688274383545,0.02993701171875
STABILIZE,2.8337578773498535,29.925327663582074,0.0324895699818929,0.032610177993774414,0.0,0.0,0.0,1.208984037340454,-0.7900070001603549,20.80058296627596,-0.0021092035000943627,-0.0007202994544815693,0.000208937646729317,0.4,-0.024009469046969566,0.07030695844660284,0.8645870310937036,0.000417875293458634,-0.6176891271024942,0.6778798066079617,1.6806935891509056,-1.1576152518098457,-33.6888313293457,17.76101589202881,33.082884550094604,0.0,0.0,0.0,0.0,0.0,0.0,0.0,0.0,0.0,0.0,0.0,0.0,0.0,0.0,0.0,0.0,True,0,2.968257427215576,0.06486083984375
STABILIZE,2.870509147644043,27.209767300044764,0.032509597142537434,0.03588438034057617,0.0,0.0,0.0,1.2087147784767673,-0.7933849555917493,20.822564222572357,-0.0018885896176613064,-0.000749887463190401,0.013271783808980406,0.4,-0.02496708169444859,0.0629645605778421,0.8953872840218843,0.02654356761796081,-0.023811667051631957,-0.41714352555572987,1.9597247242927551,1.4076977190713966,10.907305777072906,-39.64705467224121,9.19245034456253,0.0,0.0,0.0,0.0,0.0,0.0,0.0,0.0,0.0,0.0,0.0,0.0,0.0,0.0,0.0,0.0,True,0,2.996798515319824,0.03492626953125
STABILIZE,2.907259702682495,27.209590782883982,0.03243306477864583,0.03592348098754883,0.0,0.0,0.0,1.205628173302156,-0.7917429354265959,20.794097701659034,-0.0015732483160725333,-0.0007403706271209572,0.026615548662541857,0.4,-0.024630288966983632,0.052464516139653194,0.8981252398408966,0.053231097325083715,-0.023811667051631957,-0.41714352555572987,1.9597247242927551,1.4076977190713966,10.907305777072906,-39.64705467224121,9.19245034456253,0.0,0.0,0.0,0.0,0.0,0.0,0.0,0.0,0.0,0.0,0.0,0.0,0.0,0.0,0.0,0.0,True,0,3.0255703926086426,0.03492626953125
STABILIZE,2.9407784938812256,29.83464807767543,0.032517464955647786,0.03264570236206055,0.0,0.0,0.0,1.2031885151079922,-0.7895065820819456,20.787877106872447,-0.0014743130962599216,-0.00022730780906719835,0.016072762776345263,0.4,-0.0075493538986712815,0.049148013139538246,0.8964700122855425,0.032145525552690526,0.8542303927242756,-0.046244950499385595,1.7139306291937828,-1.0834706668833012,14.343371987342834,34.769997000694275,16.421519219875336,0.0,0.0,0.0,0.0,0.0,0.0,0.0,0.0,0.0,0.0,0.0,0.0,0.0,0.0,0.0,0.0,True,0,3.063459634780884,0.034925048828125
STABILIZE,2.974228858947754,29.895253029223092,0.032444270451863606,0.032572269439697266,0.0,0.0,0.0,1.2008931446600448,-0.7890566967312239,20.807114334669787,-0.0010890572597097674,-0.0008112589782094566,0.024119011683888233,0.4,-0.027011393335443473,0.036324662753227835,0.8788990050902529,0.04823802336777647,-1.2272996827960014,-1.131653506308794,1.833968609571457,1.426178289974747,-21.85247093439102,-27.86862552165985,25.405335426330566,0.0,0.0,0.0,0.0,0.0,0.0,0.0,0.0,0.0,0.0,0.0,0.0,0.0,0.0,0.0,0.0,True,0,3.119901418685913,0.034925048828125
STABILIZE,3.007634162902832,29.934297765438885,0.03243902524312337,0.03255605697631836,0.0,0.0,0.0,1.1955689054803142,-0.802699252546384,20.773675436040698,-0.0016726353539015884,-0.0009410150026300254,0.012233800604542464,0.4,-0.0313433544770139,0.05576790175372396,0.8741754557675178,0.02446760120908493,-0.2709165681153536,1.1728592216968536,1.48196155205369,-1.2567318621156032,17.497998476028442,34.83785390853882,24.023975431919098,0.0,0.0,0.0,0.0,0.0,0.0,0.0,0.0,0.0,0.0,0.0,0.0,0.0,0.0,0.0,0.0,True,0,3.148571491241455,0.034926025390625
STABILIZE,3.0411593914031982,29.83019216818628,0.03247025807698568,0.03260922431945801,0.0,0.0,0.0,1.1958486230711673,-0.7963805271513288,20.78443639907805,-0.0013993878795891723,-0.0006700239562820895,0.013025227805861652,0.4,-0.022312921088315115,0.046656412406596175,0.8761862044556308,0.026050455611723304,0.4542554263025522,-0.38289912045001984,1.8384194001555443,0.124343166953259,37.46159374713898,-29.65025007724762,31.77032172679901,0.0,0.0,0.0,0.0,0.0,0.0,0.0,0.0,0.0,0.0,0.0,0.0,0.0,0.0,0.0,0.0,True,0,3.1842777729034424,0.02996337890625
STABILIZE,3.0794129371643066,26.141041701724536,0.03240540822347005,0.037428855895996094,0.0,0.0,0.0,1.1921813450953993,-0.792513466142338,20.79256603173766,-0.000951976717280648,-0.0006880993372327776,0.02165352069791207,0.4,-0.022912652956702393,0.03174988484986594,0.8743802143982513,0.04330704139582414,-0.0804836512543261,-0.7082646246999502,1.85690987855196,1.0074212062302637,-19.213110208511353,9.58569124341011,52.29004621505737,0.0,0.0,0.0,0.0,0.0,0.0,0.0,0.0,0.0,0.0,0.0,0.0,0.0,0.0,0.0,0.0,True,0,3.212878704071045,0.034926025390625
STABILIZE,3.1128270626068115,29.926395250938253,0.03249052365620931,0.032607316970825195,0.0,0.0,0.0,1.1924580744784907,-0.7948279397756203,20.78417685188959,-0.0005105980857096632,-0.0007100347399768755,0.030362047276214197,0.4,-0.023649773046190745,0.01704501062486891,0.8774269169270669,0.060724094552428394,-0.0804836512543261,-0.7082646246999502,1.85690987855196,1.0074212062302637,-19.213110208511353,9.58569124341011,52.29004621505737,0.0,0.0,0.0,0.0,0.0,0.0,0.0,0.0,0.0,0.0,0.0,0.0,0.0,0.0,0.0,0.0,True,0,3.241751194000244,0.034926025390625
STABILIZE,3.1462559700012207,29.913802571801472,0.032518657048543294,0.032639265060424805,0.0,0.0,0.0,1.194631888903553,-0.8000044761145494,20.802707155107836,-0.000872589304030327,-0.0011143608092912646,0.021379303966802855,0.4,-0.03712364348034668,0.0291140228157062,0.8720547426979893,0.04275860793360571,-0.7926107384264469,0.7808535825461149,1.3826032169163227,-0.96318943477379,3.7914425134658813,-17.077402770519257,3.3466916531324387,0.0,0.0,0.0,0.0,0.0,0.0,0.0,0.0,0.0,0.0,0.0,0.0,0.0,0.0,0.0,0.0,True,0,3.2704858779907227,0.034925048828125
STABILIZE,3.1797494888305664,29.855672451347466,0.03253343900044759,0.032713890075683594,0.0,0.0,0.0,1.1902832995580763,-0.8026114739433786,20.81976896765453,-0.00041307383448915775,-0.0010753424378681553,0.021671332481410295,0.4,-0.03583432171129866,0.013796239429715702,0.8775194116724834,0.04334266496282059,0.033383810659870505,-0.7614200469106436,1.9866479560732841,0.08348817698941617,27.608826756477356,-5.631346255540848,-3.0075764283537865,0.0,0.0,0.0,0.0,0.0,0.0,0.0,0.0,0.0,0.0,0.0,0.0,0.0,0.0,0.0,0.0,True,1,3.2993009090423584,0.0399150390625
STABILIZE,3.214932441711426,28.42362635873248,0.032549174626668294,0.034421443939208984,0.0,0.0,0.0,1.1910113550349173,-0.8125710636920208,20.839363072836,-0.000839107647047913,-0.0005429576404425523,0.0014859851894860835,0.4,-0.018097137154588033,0.027971193649825914,0.8549297579177919,0.002971970378972167,-0.17222127644345164,0.8864924311637878,1.2403828091919422,-0.826540721535401,44.47362720966339,33.62413048744202,8.71478095650673,0.0,0.0,0.0,0.0,0.0,0.0,0.0,0.0,0.0,0.0,0.0,0.0,0.0,0.0,0.0,0.0,True,0,3.356947898864746,0.069850830078125
STABILIZE,3.2484591007232666,29.82764653173847,0.03256109555562337,0.032708168029785156,0.0,0.0,0.0,1.199714830306512,-0.811311160594418,20.810816297199935,-0.0013030428128178687,-0.0006195561991047065,-0.007886399313201477,0.4,-0.02066382955735454,0.04342907358373747,0.8755115940817031,-0.015772798626402955,-0.17222127644345164,0.8864924311637878,1.2403828091919422,-0.826540721535401,44.47362720966339,33.62413048744202,8.71478095650673,0.0,0.0,0.0,0.0,0.0,0.0,0.0,0.0,0.0,0.0,0.0,0.0,0.0,0.0,0.0,0.0,True,0,3.3893041610717773,0.069850830078125
STABILIZE,3.2820467948913574,29.774499712498848,0.032477649052937825,0.03265261650085449,0.0,0.0,0.0,1.200782687694561,-0.8122292874292558,20.824509118938515,-0.0006394886936580209,0.0011566106853121694,0.0023530714028866806,0.4,0.038555440251089826,0.021313123005815178,0.9100498832804009,0.004706142805773361,2.8257522732019424,-1.0849673300981522,2.146436460316181,1.1937147225640672,18.332940340042114,-70.36399245262146,15.05260169506073,0.0,0.0,0.0,0.0,0.0,0.0,0.0,0.0,0.0,0.0,0.0,0.0,0.0,0.0,0.0,0.0,True,0,3.4154434204101562,0.02993603515625
STABILIZE,3.315737724304199,29.680319284440543,0.03239301045735677,0.0328218936920166,0.0,0.0,0.0,1.2067116120592494,-0.8161335943135644,20.81075994813928,-0.00016279185585330448,0.0004810545731258107,-0.0015491856782523126,0.4,0.01603485897209343,0.005427262316612143,0.9082410701173768,-0.0030983713565046252,-1.0936957783997059,-0.7126783020794392,2.0692000165581703,-0.3702437174933374,-63.45086693763733,17.47918725013733,13.841606676578522,0.0,0.0,0.0,0.0,0.0,0.0,0.0,0.0,0.0,0.0,0.0,0.0,0.0,0.0,0.0,0.0,True,0,3.448989152908325,0.03492578125
STABILIZE,3.3492603302001953,29.83316262660749,0.032407553990681966,0.03255105018615723,0.0,0.0,0.0,1.2041627775600712,-0.8155101261083891,20.8116666557516,-0.00020446887301011846,0.0006611251432983653,-0.004237413943745331,0.4,0.02203649641096417,0.006818888673539995,0.9041102263432997,-0.008474827887490662,0.26978207752108574,0.14154722448438406,1.6935698688030243,-0.25443359124753995,35.00876724720001,15.190726518630981,3.3061303198337555,0.0,0.0,0.0,0.0,0.0,0.0,0.0,0.0,0.0,0.0,0.0,0.0,0.0,0.0,0.0,0.0,True,0,3.4776628017425537,0.034925048828125
STABILIZE,3.382608652114868,29.98330092645545,0.03238395055135091,0.03250408172607422,0.0,0.0,0.0,1.2075044476114998,-0.820618894164147,20.838719327506727,-0.0004858260449814541,0.001426665137322167,-0.006260301175605508,0.4,0.047551964592171675,0.016204593214242488,0.8957002166967077,-0.012520602351211016,1.265078317373991,0.5395078100264072,1.4520241878926754,-0.19356654722195643,31.878575682640076,11.878777295351028,24.99556690454483,0.0,0.0,0.0,0.0,0.0,0.0,0.0,0.0,0.0,0.0,0.0,0.0,0.0,0.0,0.0,0.0,True,0,3.5063300132751465,0.029936279296875
STABILIZE,3.4161407947540283,29.821496370345617,0.03249672253926595,0.0328068733215332,0.0,0.0,0.0,1.208814563271673,-0.8178456239177103,20.84199440321375,-0.0010638107681121905,0.0007932695582879553,-0.014933982605854544,0.4,0.026423829733426135,0.03547413834917599,0.8676621854477075,-0.029867965211709088,-1.3543740846216679,1.0821039788424969,1.5386738814413548,0.04497462122977867,-31.65009319782257,17.499104142189026,25.10344088077545,0.0,0.0,0.0,0.0,0.0,0.0,0.0,0.0,0.0,0.0,0.0,0.0,0.0,0.0,0.0,0.0,True,0,3.5636892318725586,0.034926025390625
STABILIZE,3.449702739715576,29.820436254017007,0.03259876569112142,0.03273200988769531,0.0,0.0,0.0,1.2125300794584541,-0.8237750285300748,20.823575090569516,-0.0016468793588285176,1.994239333861266e-05,-0.014471532619279207,0.4,0.0006370155594454217,0.05489630742132362,0.8628794473026891,-0.028943065238558413,-1.3543740846216679,1.0821039788424969,1.5386738814413548,0.04497462122977867,-31.65009319782257,17.499104142189026,25.10344088077545,0.0,0.0,0.0,0.0,0.0,0.0,0.0,0.0,0.0,0.0,0.0,0.0,0.0,0.0,0.0,0.0,True,0,3.59238862991333,0.034926025390625
STABILIZE,3.4831464290618896,29.877790599934464,0.03248551686604818,0.03260684013366699,0.0,0.0,0.0,1.2047754668729624,-0.8254183827165504,20.880562773909517,-0.0012981417726467663,0.0005486238687998419,-0.0074914718056868276,0.4,0.018276146125601692,0.04327617314442317,0.8641160996413094,-0.014982943611373655,0.9371267631649971,-0.5512395408004522,1.8384816125035286,0.7308329625948617,28.406623005867004,-27.443155646324158,21.41144424676895,0.0,0.0,0.0,0.0,0.0,0.0,0.0,0.0,0.0,0.0,0.0,0.0,0.0,0.0,0.0,0.0,True,0,3.6213016510009766,0.034925048828125
STABILIZE,3.5197901725769043,27.28890045543266,0.032486708958943684,0.03590679168701172,0.0,0.0,0.0,1.2024863930056562,-0.8077481497251985,20.885321708213723,-0.0009327124749553835,0.0008745703545211491,0.003196318629434305,0.4,0.029155813806783386,0.031087163036326082,0.8651739299839388,0.00639263725886861,0.585522223263979,-0.5837821401655674,1.8143674358725548,1.1294323971904923,24.241136014461517,-3.8200154900550842,38.288477063179016,0.0,0.0,0.0,0.0,0.0,0.0,0.0,0.0,0.0,0.0,0.0,0.0,0.0,0.0,0.0,0.0,True,0,3.6497738361358643,0.02993603515625
STABILIZE,3.5533788204193115,29.773231588287487,0.03259280522664388,0.0327146053314209,0.0,0.0,0.0,1.2118916702144695,-0.786672693906625,20.78919021074038,-0.0012812430180483077,0.0012026798904478447,-0.028795063161421545,0.4,0.04004638193185664,0.04274837430224368,0.8589282853695208,-0.05759012632284309,0.6252474617213011,0.7096515502780676,1.6308551654219627,-3.4905124666045984,15.301668643951416,15.234670042991638,24.14880394935608,0.0,0.0,0.0,0.0,0.0,0.0,0.0,0.0,0.0,0.0,0.0,0.0,0.0,0.0,0.0,0.0,True,0,3.6784491539001465,0.034926025390625
STABILIZE,3.5876567363739014,29.17107029342829,0.03242996533711751,0.03347134590148926,0.0,0.0,0.0,1.2073407365148312,-0.7897968651216711,20.81169568405557,-0.0016315490273222084,0.0015409744243201813,-0.06052677333224468,0.4,0.05125079595203665,0.05449337093036988,0.857505892752286,-0.12105354666448936,0.6252474617213011,0.7096515502780676,1.6308551654219627,-3.4905124666045984,15.301668643951416,15.234670042991638,24.14880394935608,0.0,0.0,0.0,0.0,0.0,0.0,0.0,0.0,0.0,0.0,0.0,0.0,0.0,0.0,0.0,0.0,True,1,3.7072036266326904,0.034926025390625
STABILIZE,3.621093988418579,29.906763829271423,0.03252986272176107,0.032645225524902344,0.0,0.0,0.0,1.2084030443741796,-0.7971010587479123,20.853882347464157,-0.00024259479225022406,-0.0003632402565810021,0.013271920702648994,0.4,-0.012104260963768945,0.00809210157408946,0.8390922414505747,0.026543841405297988,-2.8411801904439926,-2.1855562925338745,1.0552234016358852,6.8782028385570015,34.306296706199646,-100.64165592193604,8.805091679096222,0.0,0.0,0.0,0.0,0.0,0.0,0.0,0.0,0.0,0.0,0.0,0.0,0.0,0.0,0.0,0.0,True,0,3.7646596431732178,0.034926025390625
