E-kp,E-ki,E-kd,E-I-Tot,E-P,E-I,E-D,E-PID,N-kp,N-ki,N-kd,N-I-Tot,N-P,N-I,N-D,N-PID,D-kp,D-ki,D-kd,D-I-Tot,D-P,D-I,D-D,D-PID,Y-kp,Y-ki,Y-kd,Y-I-Tot,Y-P,Y-I,Y-D,Y-PID,errorN,desiredN,actualN,errorE,desiredE,actualE,errorD,desiredD,actualD,errorY,desiredY,actualY,roll,pitch,yaw-rate,thrust,dt,Time,Mode
0.16,0.015,0.11,1.3194520066417486,6.396189260692459,0.01979178009962623,13.75,20.165981040792087,0.17,0.015,0.08,-0.3288801909919141,-1.6939257214594754,-0.004933202864878711,-10.0,-11.698858924324353,0.002,8e-05,0,0.3086587531890594,0.018703217248797425,2.4692700255124753e-05,0.0,0.01872790994905255,0.2,0.02,0.0,5.3376068684263855e-05,0.00032343298162584085,1.067521373685277e-06,0.0,0.0003245005029995261,-9.96426894976162,-10.0,-0.03573105023838087,39.97618287932787,40.0,0.023817120672126255,9.351608624398713,10.0,0.6483913756012878,0.0016171649081292041,0,-0.0016171649081292041,4.0001128978154785,3.9998870989979523,-0.0003245005029995261,0.5187279099490526,0.03300595283508301,0.03329348564147949,STABILIZE
0.16,0.015,0.11,2.655120603805559,6.39607268651836,0.039826809057083384,6.873800667102248,13.309700162677691,0.17,0.015,0.08,-0.661862437935013,-1.6942000624229359,-0.009927936569025195,-5.001931952399882,-6.706059951391843,0.002,8e-05,0,0.6212909134659397,0.01871364297925604,4.970327307727518e-05,0.0,0.018763346252333314,0.2,0.02,0.0,4.214652400118413e-05,-6.721819336585299e-05,8.429304800236827e-07,-0.0,-6.63752628858293e-05,-9.965882720134916,-10.0,-0.034117279865084456,39.97545429073975,40.0,0.024545709260248957,9.35682148962802,10.0,0.64317851037198,-0.0003360909668292649,0,0.0003360909668292649,3.999976536355353,4.000023463507012,6.63752628858293e-05,0.5187633462523333,0.03341221809387207,0.06664848327636719,STABILIZE
0.16,0.015,0.11,3.991999499100838,6.396300091174514,0.059879992486512566,4.584092137312378,11.040272220973407,0.17,0.015,0.08,-0.9950206377386817,-1.6936209186441584,-0.014925309566080224,-3.331904718544643,-5.0404509467548815,0.002,8e-05,0,0.9342775329221881,0.018718564837937594,7.474220263377506e-05,0.0,0.018793307040571368,0.2,0.02,0.0,7.322994821060591e-05,0.00018589839158619822,1.4645989642121182e-06,0.0,0.00018736299055041033,-9.96247599202446,-10.0,-0.03752400797554054,39.976875569840715,40.0,0.023124430159282068,9.359282418968798,10.0,0.6407175810312019,0.000929491957930991,0,-0.000929491957930991,4.0000648902537925,3.999935108693504,-0.00018736299055041033,0.5187933070405714,0.03344130516052246,0.10009145736694336,STABILIZE
0.16,0.015,0.11,5.329625172725251,6.396179346047506,0.07994437759087876,3.43744887925488,9.913572602893264,0.17,0.015,0.08,-1.328450758487849,-1.6940249612408205,-0.019926761377317737,-2.500349146993616,-4.214300869611754,0.002,8e-05,0,1.2477090041502408,0.018734350930537914,9.981672033201927e-05,0.0,0.018834167650869933,0.2,0.02,0.0,0.00011730910598603412,0.0002634688875535963,2.3461821197206824e-06,0.0,0.000265815069673317,-9.964852713181296,-10.0,-0.03514728681870384,39.976120912796915,40.0,0.023879087203084483,9.367175465268957,10.0,0.6328245347310429,0.0013173444377679814,0,-0.0013173444377679814,4.000091966934016,3.9999080309514565,-0.000265815069673317,0.51883416765087,0.03346061706542969,0.13360381126403809,STABILIZE
0.16,0.015,0.11,6.6679738095317305,6.39576274501929,0.10001960714297595,2.7482481974523574,9.244030549614623,0.17,0.015,0.08,-1.6621471659639953,-1.6943516654870505,-0.02493220748945993,-2.0011977113919035,-3.720481584368414,0.002,8e-05,0,1.561610395381907,0.018751082195964403,0.00012492883163055257,0.0,0.018876011027594956,0.2,0.02,0.0,0.00016741533442021631,0.00029931247013993434,3.3483066884043264e-06,0.0,0.0003026607768283387,-9.966774502865002,-10.0,-0.033225497134997804,39.97351715637056,40.0,0.02648284362943764,9.375541097982202,10.0,0.6244589020177973,0.0014965623506996717,0,-0.0014965623506996717,4.000097177393031,3.72037710333735,-0.0003026607768283387,0.518876011027595,0.03348088264465332,0.1670546531677246,STABILIZE
0.16,0.015,0.11,8.003885793088505,6.395549631217581,0.12005828689632758,-0.0026285899875942674,6.512979328126314,0.17,0.015,0.08,-1.9952211541290001,-1.6942195304940397,-0.029928317311935,-0.0008256034385869952,-1.7249734512445616,0.002,8e-05,0,1.8751430719926896,0.018762592698416465,0.0001500114457594152,0.0,0.01891260414417588,0.2,0.02,0.0,0.0002208997126506891,0.0003200641206888169,4.417994253013782e-06,-0.0,0.0003244821149418307,-9.965997238200233,-10.0,-0.034002761799767856,39.97218519510988,40.0,0.02781480489012244,9.381296349208233,10.0,0.618703650791767,0.0016003206034440845,0,-0.0016003206034440845,4.000048178437939,1.7248617271172513,-0.0003244821149418307,0.5189126041441758,0.03342103958129883,0.2004866600036621,STABILIZE
0.16,0.015,0.11,9.340856076532873,6.395734178544355,0.14011284114799308,-0.0013901759734764676,6.534456843718872,0.17,0.015,0.08,-2.328517337126551,-1.694056651105471,-0.03492776005689826,0.00040551551548539526,-1.728578895646884,0.002,8e-05,0,2.189068805097613,0.018771785409201436,0.00017512550440780905,0.0,0.018946910913609245,0.2,0.02,0.0,0.00016610488275346406,-0.0003276560918376884,3.3220976550692814e-06,-0.0,-0.0003243339941826191,-9.965039124149829,-10.0,-0.0349608758501701,39.97333861590222,40.0,0.026661384097779225,9.385892704600717,10.0,0.614107295399282,-0.0016382804591884418,0,0.0016382804591884418,3.9999505724376463,1.7286932684925769,0.0003243339941826191,0.5189469109136092,0.033446550369262695,0.2339308261871338,STABILIZE
0.16,0.015,0.11,10.678713917097351,6.395740064239068,0.16018070875646026,-0.0023010112423235674,6.553619761753205,0.17,0.015,0.08,-2.6620984315919665,-1.6943815142181389,-0.0399314764738795,-0.0021379843061013395,-1.7364509749981196,0.002,8e-05,0,2.503349612206079,0.018780567416237154,0.00020026796897648635,0.0,0.01898083538521364,0.2,0.02,0.0,7.921740235163509e-05,-0.0005192159834152258,1.584348047032702e-06,-0.0,-0.0005176316353681931,-9.96695008363611,-10.0,-0.0330499163638906,39.973375401494174,40.0,0.026624598505824135,9.390283708118577,10.0,0.6097162918814218,-0.002596079917076129,0,0.002596079917076129,3.999921317053412,1.7366322137843744,0.0005176316353681931,0.5189808353852137,0.03346872329711914,0.26740503311157227,STABILIZE
0.16,0.015,0.11,12.019890527714434,6.395523286403338,0.1802983579157165,-0.0026931896195300314,6.573128454699525,0.17,0.015,0.08,-2.9966026242691286,-1.6948084393036398,-0.04494903936403693,-0.0021990456629048787,-1.7419565243305815,0.002,8e-05,0,2.8186820102050305,0.018796142118745588,0.00022549456081640245,0.0,0.01902163667956199,0.2,0.02,0.0,7.454269108913428e-05,-2.786473505787951e-05,1.4908538217826856e-06,-0.0,-2.6373881236096824e-05,-9.969461407668469,-10.0,-0.030538592331531837,39.972020540020864,40.0,0.027979459979139264,9.398071059372795,10.0,0.601928940627205,-0.00013932367528939754,0,0.00013932367528939754,3.9999957641476422,1.7419662509528704,2.6373881236096824e-05,0.519021636679562,0.03355288505554199,0.30093979835510254,STABILIZE
0.16,0.015,0.11,13.357403500894685,6.3951391981325285,0.20036105251342026,-0.002560497186980445,6.592939753458968,0.17,0.015,0.08,-3.330207247609587,-1.6947787042585893,-0.0499531087141438,-0.0011970200208321873,-1.7459288329935654,0.002,8e-05,0,3.132969036362359,0.018784016685686824,0.00025063752290898874,0.0,0.019034654208595812,0.2,0.02,0.0,0.00010395945316865198,0.0001758153864944881,2.0791890633730394e-06,-0.0,0.00017789457555786114,-9.96928649563876,-10.0,-0.03071350436124009,39.969619988328304,40.0,0.030380011671698164,9.392008342843411,10.0,0.6079916571565889,0.0008790769324724404,0,-0.0008790769324724404,4.0000267869431365,1.745867461640671,-0.00017789457555786114,0.5190346542085958,0.033463239669799805,0.33442115783691406,STABILIZE
0.16,0.015,0.11,14.69397904314184,6.394757515445089,0.22040968564712757,-0.0032530450631511484,6.611914156029065,0.17,0.015,0.08,-3.663475850756513,-1.6941580008776658,-0.05495213776134769,0.00017776283860882082,-1.7489323758004047,0.002,8e-05,0,3.446825384943832,0.01877031245543316,0.00027574603079550655,0.0,0.019046058486228666,0.2,0.02,0.0,0.00010628932532471134,1.3933899552487644e-05,2.125786506494227e-06,-0.0,1.6059686058981872e-05,-9.965635299280386,-10.0,-0.03436470071961413,39.9672344715318,40.0,0.032765528468197774,9.38515622771658,10.0,0.6148437722834192,6.966949776243821e-05,0,-6.966949776243821e-05,4.00000212663257,1.7489275119506151,-1.6059686058981872e-05,0.5190460584862286,0.033441781997680664,0.36786603927612305,STABILIZE
0.16,0.015,0.11,16.0314961277487,6.394521021632852,0.2404724419162305,-0.004983378880096387,6.630010084668986,0.17,0.015,0.08,-3.996886474506358,-1.6936242131966464,-0.05995329711759537,0.0012205894174616614,-1.75235692089678,0.002,8e-05,0,3.76109952153905,0.01878137292732541,0.000300887961723124,0.0,0.019082260889048533,0.2,0.02,0.0,8.03710320705014e-05,-0.00015489061127358007,1.607420641410028e-06,0.0,-0.00015328319063217003,-9.962495371744978,-10.0,-0.03750462825502235,39.965756385205324,40.0,0.034243614794676615,9.390686463662703,10.0,0.6093135363372958,-0.0007744530563679003,0,0.0007744530563679003,3.9999763134541335,1.7524109877596412,0.00015328319063217003,0.5190822608890485,0.03346657752990723,0.4013514518737793,STABILIZE
0.16,0.015,0.11,17.373967034498477,6.3950607625820695,0.26060950551747714,-0.0027979885886881854,6.652872279510858,0.17,0.015,0.08,-4.3315017769110495,-1.6936143673369346,-0.06497252665366574,0.002161728949382224,-1.7564251650412182,0.002,8e-05,0,4.076445818450017,0.01877749007316818,0.0003261156654760014,-0.0,0.019103605738644183,0.2,0.02,0.0,0.00013940250560853242,0.0003515065561964803,2.7880501121706487e-06,0.0,0.0003542946063086509,-9.962437454923144,-10.0,-0.037562545076855205,39.96912976613793,40.0,0.03087023386206891,9.38874503658409,10.0,0.6112549634159102,0.0017575327809824012,0,-0.0017575327809824012,4.000053875992385,1.756302465279933,-0.0003542946063086509,0.5191036057386442,0.03358769416809082,0.43493032455444336,STABILIZE
0.16,0.015,0.11,18.77418130779369,6.395082841334139,0.2816127196169053,-0.001822973177911584,6.674872587773133,0.17,0.015,0.08,-4.680636765216579,-1.694236315526976,-0.07020955147824869,0.0016883517576976583,-1.762757515247527,0.002,8e-05,0,4.40541196163618,0.01878074822004546,0.00035243295693089446,-0.0,0.019133181176976356,0.2,0.02,0.0,0.0002463407189589938,0.0006105125714715163,4.926814379179876e-06,0.0,0.0006154393858506962,-9.966095973688093,-10.0,-0.03390402631190645,39.96926775833837,40.0,0.0307322416616288,9.39037411002273,10.0,0.6096258899772705,0.003052562857357581,0,-0.003052562857357581,4.000093909235485,1.7625444036559228,-0.0006154393858506962,0.5191331811769764,0.03503227233886719,0.47001171112060547,STABILIZE
0.16,0.015,0.11,20.112894167563606,6.3950441862254035,0.3016934125134541,-0.0004034482590549394,6.696334150479802,0.17,0.015,0.08,-5.014589892569894,-1.695003377191466,-0.0752188483885484,-0.0005507276973903528,-1.7707729532774048,0.002,8e-05,0,4.7197485639542425,0.018769862096468,0.00037757988511633945,-0.0,0.01914744198158434,0.2,0.02,0.0,0.0004386921093679206,0.0011485805488176126,8.773842187358413e-06,0.0,0.001157354391004971,-9.97060810112627,-10.0,-0.029391898873729283,39.96902616390877,40.0,0.03097383609122951,9.384931048234,10.0,0.6150689517659994,0.005742902744088063,0,-0.005742902744088063,4.000177469015522,1.7703720141369574,-0.001157354391004971,0.5191474419815844,0.033493757247924805,0.5034422874450684,STABILIZE
0.16,0.015,0.11,21.45277390879824,6.395110191094854,0.3217916086319736,0.0014366198747223257,6.718338419601549,0.17,0.015,0.08,-5.348836173177153,-1.6950313433127457,-0.08023254259765729,-0.002376135840822294,-1.7776400217512254,0.002,8e-05,0,5.034350787919594,0.01876955657572716,0.0004027480630335676,-0.0,0.019172304638760726,0.2,0.02,0.0,0.0006460395844973702,0.0012370606018681557,1.2920791689947403e-05,0.0,0.001249981393558103,-9.970772607722033,-10.0,-0.02922739227796678,39.969438694342834,40.0,0.030561305657163744,9.384778287863579,10.0,0.6152217121364202,0.006185303009340778,0,-0.006185303009340778,4.000191879869564,1.7772081957827297,-0.001249981393558103,0.5191723046387607,0.033522605895996094,0.5369882583618164,STABILIZE
0.16,0.015,0.11,22.789322211997188,6.395402309395439,0.3418398331799578,0.0036094987474311418,6.740851641322828,0.17,0.015,0.08,-5.682150796071557,-1.6945973242467887,-0.08523226194107335,-0.0026556608278377036,-1.7824852470156995,0.002,8e-05,0,5.348243411354462,0.018774757373272444,0.00042785947290835695,-0.0,0.0192026168461808,0.2,0.02,0.0,0.0007037309112734559,0.00034506725609241285,1.4074618225469117e-05,0.0,0.000359141874317882,-9.968219554392874,-10.0,-0.03178044560712526,39.971264433721494,40.0,0.028735566278507565,9.387378686636222,10.0,0.6126213133637787,0.0017253362804620642,0,-0.0017253362804620642,4.000053673806034,1.7823647950123636,-0.000359141874317882,0.5192026168461809,0.03343772888183594,0.5704164505004883,STABILIZE
0.16,0.015,0.11,24.125775182382416,6.395174135748547,0.3618866277357362,0.00046161699361290125,6.757522380477897,0.17,0.015,0.08,-6.015564630468577,-1.6951621576502878,-0.09023346945702866,-0.004273151599839877,-1.7896687787071563,0.002,8e-05,0,5.661671487801283,0.01874763994998977,0.00045293371902410266,-0.0,0.019200573669013874,0.2,0.02,0.0,0.00072324786115183,0.00011674025932512005,1.44649572230366e-05,-0.0,0.00013120521654815665,-9.971542103825222,-10.0,-0.02845789617477805,39.96983834842842,40.0,0.03016165157157909,9.373819974994886,10.0,0.6261800250051144,0.0005837012966256002,0,-0.0005837012966256002,4.000018232060068,1.789628028576389,-0.00013120521654815665,0.5192005736690138,0.03343653678894043,0.6038565635681152,STABILIZE
0.16,0.015,0.11,25.645898850183517,6.395086007663367,0.38468848275275275,5.634519050233129e-05,6.779830835606623,0.17,0.015,0.08,-6.394966114839077,-1.6958812291651228,-0.09592449172258616,-0.004381696426790651,-1.7961874173144996,0.002,8e-05,0,6.018397788583615,0.01875912650250486,0.0004814718230866892,-0.0,0.01924059832559155,0.2,0.02,0.0,0.0007018725401968301,-0.00011240616375834869,1.4037450803936601e-05,-0.0,-9.836871295441208e-05,-9.975771936265428,-10.0,-0.024228063734571346,39.969287547896045,40.0,0.030712452103954287,9.379563251252431,10.0,0.6204367487475688,-0.0005620308187917434,0,0.0005620308187917434,3.9999823804873644,1.7962266543812249,9.836871295441208e-05,0.5192405983255916,0.03803229331970215,0.6418812274932861,STABILIZE
0.16,0.015,0.11,26.981698202845855,6.395786066673676,0.4047254730426878,0.0030955482863753996,6.803607088002739,0.17,0.015,0.08,-6.728355345910342,-1.6960287349879917,-0.10092533018865513,-0.0026416932492011403,-1.7995957584258477,0.002,8e-05,0,6.332044474371233,0.01877169182277167,0.0005065635579496986,0.0,0.01927825538072137,0.2,0.02,0.0,0.0006408171368346856,-0.00036541537595116463,1.2816342736693714e-05,-0.0,-0.00035259903321447093,-9.97663961757642,-10.0,-0.023360382423579008,39.973662916710474,40.0,0.026337083289529065,9.385845911385834,10.0,0.6141540886141663,-0.001827076879755823,0,0.001827076879755823,3.9999426115438865,1.7997233115397977,0.00035259903321447093,0.5192782553807214,0.0334169864654541,0.6753072738647461,STABILIZE
0.16,0.015,0.11,28.319164880164685,6.395965948801502,0.42478747320247023,0.003564069845035058,6.8243174918490075,0.17,0.015,0.08,-7.062280730891711,-1.6966862743202709,-0.10593421096337566,-0.004412853306459866,-1.8070333385901063,0.002,8e-05,0,6.646239679625611,0.01878160656413735,0.000531699174370049,0.0,0.0193133057385074,0.2,0.02,0.0,0.0003917087655889331,-0.0014890919219416024,7.834175311778662e-06,-0.0,-0.0014812577466298237,-9.980507496001593,-10.0,-0.01949250399840726,39.974787180009386,40.0,0.02521281999061227,9.390803282068676,10.0,0.6091967179313242,-0.007445459609708011,0,0.007445459609708011,3.999765146248915,1.80755311446953,0.0014812577466298237,0.5193133057385074,0.03345775604248047,0.7087788581848145,STABILIZE
0.16,0.015,0.11,29.65593778630382,6.396203399330931,0.44483906679455726,0.0033392275631748897,6.844381693688663,0.17,0.015,0.08,-7.396116661699104,-1.6971750865426924,-0.11094174992548655,-0.007010300689699623,-1.8151271371578785,0.002,8e-05,0,6.960377621460542,0.01878862671995118,0.0005568302097168434,0.0,0.019345456929668024,0.2,0.02,0.0,0.00010424645599364427,-0.001719315406312488,2.0849291198728852e-06,-0.0,-0.001717230477192615,-9.983382862015837,-10.0,-0.01661713798416363,39.97627124581832,40.0,0.023728754181679516,9.394313359975591,10.0,0.6056866400244086,-0.00859657703156244,0,0.00859657703156244,3.999727615891309,1.815727271019351,0.001717230477192615,0.519345456929668,0.03343915939331055,0.7422106266021729,STABILIZE
0.16,0.015,0.11,30.99268502492908,6.396308611061622,0.4648902753739362,0.004710179070807464,6.865909065506366,0.17,0.015,0.08,-7.72989039061708,-1.6969193553625999,-0.1159483558592562,-0.0047005944343662225,-1.8175683056562224,0.002,8e-05,0,7.274681092385917,0.01879919721803624,0.0005819744873908734,0.0,0.01938117170542711,0.2,0.02,0.0,-0.0002267462533171663,-0.0019797418086876482,-4.534925066343326e-06,-0.0,-0.0019842767337539917,-9.981878560956469,-10.0,-0.018121439043530824,39.97692881913514,40.0,0.023071180864861908,9.399598609018119,10.0,0.6004013909818808,-0.009898709043438241,0,0.009898709043438241,3.9996859280004586,1.8182593387856265,0.0019842767337539917,0.5193811717054271,0.03343796730041504,0.7756569385528564,STABILIZE
0.16,0.015,0.11,32.33405876776417,6.3966905959873195,0.48501088151646254,0.006594225821299441,6.888295703325081,0.17,0.015,0.08,-8.064829054101251,-1.6970700362482645,-0.12097243581151876,-0.0033438075961541858,-1.8213862796559375,0.002,8e-05,0,7.590253467748037,0.01881111487956517,0.0006072202774198431,0.0,0.019418335156985014,0.2,0.02,0.0,-0.0005404850780905679,-0.0018701817826164001,-1.0809701561811359e-05,-0.0,-0.0018809914841782115,-9.982764919107437,-10.0,-0.017235080892562576,39.979316224920744,40.0,0.020683775079253418,9.405557439782585,10.0,0.5944425602174143,-0.009350908913082,0,0.009350908913082,3.9997026889331115,1.8220390719905362,0.0018809914841782115,0.519418335156985,0.033551692962646484,0.8092246055603027,STABILIZE
0.16,0.015,0.11,33.671430539630904,6.396606063492016,0.5050714580944635,0.0033662520916894166,6.90504377367817,0.17,0.015,0.08,-8.398756485870274,-1.6969868979128178,-0.1259813472880541,-0.0026944525885512073,-1.8256626977894232,0.002,8e-05,0,7.904871129100058,0.01881007662399041,0.0006323896903280046,0.0,0.019442466314318414,0.2,0.02,0.0,-0.000847505358512577,-0.0018355851273700063,-1.695010717025154e-05,-0.0,-0.0018525352345402579,-9.982275870075398,-10.0,-0.017724129924601706,39.978787896825104,40.0,0.0212121031748953,9.405038311995204,10.0,0.5949616880047961,-0.009177925636850031,0,0.009177925636850031,3.9997075048654285,1.8263034144475885,0.0018525352345402579,0.5194424663143185,0.03345203399658203,0.8427937030792236,STABILIZE
0.16,0.015,0.11,35.19734638556806,6.396516917280896,0.5279601957835209,0.002305854630441957,6.926782967694859,0.17,0.015,0.08,-8.779746521418357,-1.696897171671789,-0.13169619782127534,-0.0006235250768311204,-1.8292168945698957,0.002,8e-05,0,8.263824129281968,0.01880877756369799,0.0006611059303425575,0.0,0.01946988349404055,0.2,0.02,0.0,-0.0011900648715173737,-0.0017949775260746332,-2.3801297430347473e-05,-0.0,-0.0018187788235049806,-9.981748068657582,-10.0,-0.018251931342418055,39.978230733005596,40.0,0.0217692669944013,9.404388781848995,10.0,0.5956112181510042,-0.008974887630373166,0,0.008974887630373166,3.999713419944199,1.8298434374826211,0.0018187788235049806,0.5194698834940406,0.03816866874694824,0.8808388710021973,STABILIZE
0.16,0.015,0.11,36.5654072068458,6.396369308720351,0.5484811081026869,0.00073637856500701,6.945586795388044,0.17,0.015,0.08,-9.121338062533262,-1.6969309527073893,-0.13682007093799892,0.0006593749233163684,-1.8330916487220719,0.002,8e-05,0,8.585666995926532,0.01880970679828004,0.0006868533596741226,0.0,0.019496560157954163,0.2,0.02,0.0,-0.001490679865458954,-0.0017569070130898767,-2.981359730917908e-05,-0.0,-0.0017867206103990558,-9.9819467806317,-10.0,-0.01805321936829962,39.97730817950219,40.0,0.022691820497808865,9.40485339914002,10.0,0.5951466008599796,-0.008784535065449383,0,0.008784535065449383,3.999718905098884,1.8337049034152662,0.0017867206103990558,0.5194965601579542,0.03422093391418457,0.9150974750518799,STABILIZE
0.16,0.015,0.11,37.90319502207551,6.396635617352749,0.5685479253311326,0.0013980280034136838,6.966581570687295,0.17,0.015,0.08,-9.455401597969809,-1.6971584377671785,-0.14183102396954714,-0.0007002656058271708,-1.8396897273425528,0.002,8e-05,0,8.900411585858555,0.01881190005814336,0.0007120329268686845,0.0,0.019523932985012045,0.2,0.02,0.0,-0.0016671512232799513,-0.0010547477709372081,-3.334302446559903e-05,0.0,-0.001088090795402807,-9.983284928042226,-10.0,-0.016715071957775007,39.97897260845468,40.0,0.021027391545316,9.40595002907168,10.0,0.5940499709283185,-0.005273738854686041,0,0.005273738854686041,3.999830650458069,1.8400578959766174,0.001088090795402807,0.5195239329850121,0.0334622859954834,0.9485290050506592,STABILIZE
0.16,0.015,0.11,39.23970050310667,6.397250027586755,0.5885955075466,0.002359935391305149,6.98820547052466,0.17,0.015,0.08,-9.789141371635917,-1.697303420753948,-0.14683712057453877,-0.0006857992385286931,-1.8448263405670153,0.002,8e-05,0,9.214803876180225,0.018810679384397486,0.000737184310094418,-0.0,0.019547863694491904,0.2,0.02,0.0,-0.001970193698758667,-0.0018131598711443831,-3.940387397517334e-05,0.0,-0.0018525637451195565,-9.984137769140869,-10.0,-0.015862230859130726,39.98281267241722,40.0,0.017187327582784087,9.405339692198742,10.0,0.594660307801257,-0.009065799355721915,0,0.009065799355721915,3.9997080466580686,1.845459229663062,0.0018525637451195565,0.5195478636944919,0.03342700004577637,0.9819395542144775,STABILIZE
0.16,0.015,0.11,40.57795480247226,6.397088522939027,0.6086693220370839,0.0020439396524456247,7.0078017846285565,0.17,0.015,0.08,-10.123300628022536,-1.6971731317679384,-0.15184950942033804,-0.0005533544991801762,-1.8495759956874567,0.002,8e-05,0,9.529643648459656,0.018812361510516476,0.0007623714918767726,0.0,0.01957473300239325,0.2,0.02,0.0,-0.0023661570961557967,-0.0023659674642871574,-4.732314192311593e-05,-0.0,-0.002413290606210273,-9.983371363340813,-10.0,-0.016628636659186506,39.98180326836892,40.0,0.018196731631079443,9.406180755258237,10.0,0.5938192447417627,-0.011829837321435787,0,0.011829837321435787,3.9996180335065348,1.850401834703091,0.002413290606210273,0.5195747330023932,0.03347158432006836,1.015420913696289,STABILIZE
0.16,0.015,0.11,41.97369820179996,6.3970847053619675,0.6296054730269994,0.002350046227411631,7.029040224616379,0.17,0.015,0.08,-10.471698324986903,-1.696604962229695,-0.15707547487480353,0.0007572076440338166,-1.8529232294604647,0.002,8e-05,0,9.857920264433014,0.018807301186080188,0.0007886336211546412,-0.0,0.01959593480723483,0.2,0.02,0.0,-0.0027381710667453533,-0.00213130587128849,-5.4763421334907065e-05,-0.0,-0.0021860692926233974,-9.98002918958644,-10.0,-0.01997081041355959,39.981779408512296,40.0,0.01822059148770728,9.403650593040094,10.0,0.5963494069599063,-0.01065652935644245,0,0.01065652935644245,3.9996553028007953,1.853667163503652,0.0021860692926233974,0.5195959348072349,0.03490948677062988,1.0503392219543457,STABILIZE
0.16,0.015,0.11,43.310968312424535,6.397077276238662,0.649664524686368,0.002912597699905003,7.049654398624934,0.17,0.015,0.08,-10.80538757089361,-1.6960303064916344,-0.16208081356340415,0.002467157386371908,-1.8556439626686667,0.002,8e-05,0,10.17235918574706,0.018802204415565058,0.0008137887348597649,-0.0,0.019615993150424824,0.2,0.02,0.0,-0.003054135861298556,-0.0018893445602994928,-6.108271722597111e-05,-0.0,-0.001950427277525464,-9.976648861715496,-10.0,-0.023351138284503428,39.981732976491635,40.0,0.01826702350836755,9.401102207782529,10.0,0.5988977922174714,-0.009446722801497463,0,0.009446722801497463,3.9996939937062246,1.8563034431091876,0.001950427277525464,0.5196159931504248,0.0334470272064209,1.0837881565093994,STABILIZE
0.16,0.015,0.11,44.64797573398226,6.396960632267325,0.6697196360097338,0.0013387016454524201,7.068018969922511,0.17,0.015,0.08,-11.138930116970082,-1.6955868444795035,-0.1670839517545512,0.0043550870796912455,-1.8583157091543634,0.002,8e-05,0,10.486805463653099,0.01880599565393917,0.0008389444370922479,-0.0,0.019644940091031418,0.2,0.02,0.0,-0.003460087018774084,-0.00242786009554154,-6.920174037548168e-05,-0.0,-0.0024970618359170214,-9.974040261644138,-10.0,-0.02595973835586238,39.98100395167078,40.0,0.018996048329219296,9.402997826969584,10.0,0.5970021730304164,-0.012139300477707698,0,0.012139300477707698,3.9996061874587534,1.8591631504877515,0.0024970618359170214,0.5196449400910315,0.03344106674194336,1.117246150970459,STABILIZE
0.16,0.015,0.11,45.984437608093344,6.397086928211173,0.6897665641214001,-0.0006691240925105689,7.086184368240062,0.17,0.015,0.08,-11.472402722511058,-1.6959567778124398,-0.17208604083766585,0.0037217055140809454,-1.8643211131360247,0.002,8e-05,0,10.800881736659235,0.01879190551025991,0.0008640705389327389,-0.0,0.01965597604919265,0.2,0.02,0.0,-0.003869900456426961,-0.0024520080181469764,-7.739800912853921e-05,-0.0,-0.0025294060272755157,-9.976216340073174,-10.0,-0.023783659926825726,39.981793301319826,40.0,0.018206698680176523,9.395952755129954,10.0,0.6040472448700455,-0.012260040090734881,0,0.012260040090734881,3.999600984603609,1.8651769827130582,0.0025294060272755157,0.5196559760491927,0.033426761627197266,1.150641679763794,STABILIZE
0.16,0.015,0.11,47.32201244641285,6.396619937048349,0.7098301866961927,-0.0019248850270455157,7.104525238717497,0.17,0.015,0.08,-11.805962602409686,-1.69486536314459,-0.17708943903614527,0.006425597241385017,-1.8655292049393504,0.002,8e-05,0,11.114642535594916,0.01875604007751951,0.0008891714028475933,-0.0,0.019645211480367103,0.2,0.02,0.0,-0.004108567970159114,-0.0014267102416703958,-8.217135940318229e-05,0.0,-0.0015088816010735782,-9.969796253791705,-10.0,-0.030203746208296064,39.97887460655218,40.0,0.021125393447817834,9.378020038759754,10.0,0.6219799612402461,-0.007133551208351978,0,0.007133551208351978,3.9997677032321834,1.8660272063028418,0.0015088816010735782,0.5196452114803671,0.033457040786743164,1.1841108798980713,STABILIZE
0.16,0.015,0.11,48.66459331191068,6.396220207697988,0.7299688996786602,-0.0035464076689222476,7.1226426997077255,0.17,0.015,0.08,-12.140609467853476,-1.6939424595111578,-0.18210914201780215,0.007480153390800756,-1.8685714481381592,0.002,8e-05,0,11.429701343120646,0.018762235883665733,0.0009143761074496518,-0.0,0.019676611991115384,0.2,0.02,0.0,-0.0041536553524208234,-0.0002685022862920952,-8.307310704841647e-05,0.0,-0.0003515753933405117,-9.964367408889164,-10.0,-0.035632591110836456,39.97637629811243,40.0,0.023623701887569442,9.381117941832866,10.0,0.6188820581671353,-0.001342511431460476,0,0.001342511431460476,3.9999562159470705,1.8686651726041046,0.0003515753933405117,0.5196766119911154,0.0335843563079834,1.217724323272705,STABILIZE
0.16,0.015,0.11,50.00494927038746,6.396427785173901,0.7500742390558119,-0.002664571290428249,7.143837452939285,0.17,0.015,0.08,-12.474592329160254,-1.6934425648979836,-0.1871188849374038,0.007266399690716259,-1.873295050144671,0.002,8e-05,0,11.744311195447683,0.01876720870477798,0.0009395448956358147,-0.0,0.019706753600413796,0.2,0.02,0.0,-0.004187717614221142,-0.00020318930619466847,-8.375435228442285e-05,0.0,-0.0002869436584790913,-9.961426852341079,-10.0,-0.03857314765892079,39.97767365733688,40.0,0.022326342663121543,9.38360435238899,10.0,0.6163956476110114,-0.0010159465309733423,0,0.0010159465309733423,3.99996678283021,1.8733659762981347,0.0002869436584790913,0.5197067536004139,0.03352761268615723,1.2512226104736328,STABILIZE
0.16,0.015,0.11,51.34299028242333,6.396205653168562,0.7701448542363499,-0.003097494357529817,7.163253013047383,0.17,0.015,0.08,-12.808211610883443,-1.6944668447041358,-0.19212317416325164,0.003138105254544592,-1.883451913612843,0.002,8e-05,0,12.05859519649047,0.01877955427083378,0.0009646876157192377,-0.0,0.019744241886553018,0.2,0.02,0.0,-0.00413312901604131,0.00032618572332205264,-8.26625803208262e-05,0.0,0.00024352314300122644,-9.967452027671387,-10.0,-0.03254797232861311,39.97628533230351,40.0,0.023714667696489184,9.389777135416889,10.0,0.6102228645831107,0.001630928616610263,0,-0.001630928616610263,4.000053610977992,1.8833380525529155,-0.00024352314300122644,0.519744241886553,0.033470869064331055,1.2846989631652832,STABILIZE
0.16,0.015,0.11,52.67907195849805,6.39631638780349,0.7901860793774708,-0.003161430606516927,7.183341036574444,0.17,0.015,0.08,-13.14148392219952,-1.695216230927493,-0.19712225883299278,0.002069357226638712,-1.890269132533847,0.002,8e-05,0,12.372785259548037,0.018801798247135498,0.000989822820763843,0.0,0.01979162106789934,0.2,0.02,0.0,-0.003960159478023363,0.0010350863184739934,-7.920318956046725e-05,0.0,0.0009558831289135262,-9.971860181926429,-10.0,-0.02813981807357059,39.976977423771814,40.0,0.0230225762281897,9.400899123567749,10.0,0.5991008764322507,0.005175431592369967,0,-0.005175431592369967,4.0001707285192785,1.8899078115367967,-0.0009558831289135262,0.5197916210678993,0.03342127799987793,1.3181207180023193,STABILIZE
0.16,0.015,0.11,54.01699166951716,6.396400365441402,0.8102548750427574,-0.0008971885924686156,7.205758051891691,0.17,0.015,0.08,-13.47534827604628,-1.695916941764409,-0.20213022414069418,-0.0029714763012286716,-1.901018642206332,0.002,8e-05,0,12.687660090754834,0.018817137052504047,0.0010150128072603868,0.0,0.019832149859764434,0.2,0.02,0.0,-0.0036661263412605953,0.0017571623019970385,-7.332252682521191e-05,0.0,0.0016838397751718266,-9.975982010378877,-10.0,-0.02401798962112421,39.977502284008764,40.0,0.022497715991234225,9.408568526252024,10.0,0.5914314737479767,0.008785811509985192,0,-0.008785811509985192,4.0002914577144715,1.9004052545056365,-0.0016838397751718266,0.5198321498597644,0.03346681594848633,1.3515968322753906,STABILIZE
0.16,0.015,0.11,55.36234731682386,6.396588579678993,0.8304352097523579,0.0015084062587049213,7.228532195690057,0.17,0.015,0.08,-13.811187345630962,-1.696568772728973,-0.20716781018446442,-0.007380889672844665,-1.9111174725862823,0.002,8e-05,0,13.00400265853435,0.018800913910530848,0.0010403202126827481,0.0,0.019841234123213595,0.2,0.02,0.0,-0.0030975541445303224,0.0033791459042899863,-6.195108289060645e-05,0.0,0.00331719482139938,-9.97981631017043,-10.0,-0.020183689829570448,39.978678622993705,40.0,0.02132137700629854,9.400456955265424,10.0,0.599543044734576,0.01689572952144993,0,-0.01689572952144993,4.000563388072822,1.9099378450713729,-0.00331719482139938,0.5198412341232136,0.03365182876586914,1.3852732181549072,STABILIZE
0.16,0.015,0.11,56.7007124805788,6.396524973063094,0.850510687208682,0.0003958619375722342,7.247431522209348,0.17,0.015,0.08,-14.145430330457849,-1.6973082242463637,-0.21218145495686772,-0.010863061928823064,-1.9203527411320545,0.002,8e-05,0,13.318909506568986,0.018813153280143928,0.0010655127605255189,0.0,0.019878666040669447,0.2,0.02,0.0,-0.002491950524225815,0.0036179949108460377,-4.98390104845163e-05,0.0,0.0035681559003615214,-9.98416602497861,-10.0,-0.015833975021390403,39.97828108164434,40.0,0.021718918355662715,9.406576640071965,10.0,0.5934233599280361,0.018089974554230188,0,-0.018089974554230188,4.000606112856109,1.919089726967379,-0.0035681559003615214,0.5198786660406695,0.0334773063659668,1.4187612533569336,STABILIZE
0.16,0.015,0.11,58.03814086008639,6.396603277656917,0.8705721129012959,0.0016302378332631897,7.268805628391475,0.17,0.015,0.08,-14.479426448206633,-1.6972633732335596,-0.21719139672309948,-0.00785667828665065,-1.9223114482433097,0.002,8e-05,0,13.633637769013168,0.018815884517335183,0.0010906910215210536,0.0,0.019906575538856237,0.2,0.02,0.0,-0.0018450120920449945,0.003867691682725521,-3.690024184089989e-05,0.0,0.003830791440884621,-9.983902195491526,-10.0,-0.016097804508473743,39.97877048535573,40.0,0.021229514644271433,9.40794225866759,10.0,0.5920577413324086,0.019338458413627604,0,-0.019338458413627604,4.000648590269403,1.9209612596881611,-0.003830791440884621,0.5199065755388562,0.03345346450805664,1.4522206783294678,STABILIZE
0.16,0.015,0.11,59.37579004508999,6.396975481626574,0.8906368506763499,0.00270432388292187,7.290316656185845,0.17,0.015,0.08,-14.813321713093412,-1.6965695021432894,-0.22219982569640118,-0.003794410640571625,-1.9225637384802623,0.002,8e-05,0,13.948293264782901,0.01880952339899774,0.0011158634611826322,0.0,0.01992538686018037,0.2,0.02,0.0,-0.0012333921293558757,0.0036561509823155904,-2.4667842587117512e-05,0.0,0.0036314831397284727,-9.979820600842878,-10.0,-0.02017939915712201,39.98109676016608,40.0,0.018903239833921046,9.40476169949887,10.0,0.5952383005011305,0.018280754911577952,0,-0.018280754911577952,4.000613208353484,1.921287403192673,-0.0036314831397284727,0.5199253868601804,0.033457040786743164,1.4856858253479004,STABILIZE
0.16,0.015,0.11,60.71269917241701,6.397402547464203,0.9106904875862551,0.004115519473406184,7.312208554523864,0.17,0.015,0.08,-15.147000844542337,-1.6965230934952968,-0.22720501266813503,-0.0016931914898708777,-1.9254212976533027,0.002,8e-05,0,14.262859553863121,0.018815856085257297,0.0011410287643090497,-0.0,0.019956884849566345,0.2,0.02,0.0,-0.0005586673654344739,0.004035881941521928,-1.117334730868948e-05,0.0,0.004024708594213239,-9.979547608795864,-10.0,-0.02045239120413591,39.98376592165127,40.0,0.01623407834872861,9.407928042628647,10.0,0.5920719573713525,0.02017940970760964,0,-0.02017940970760964,4.000677879775636,1.924012389703053,-0.004024708594213239,0.5199568848495664,0.03343629837036133,1.519085168838501,STABILIZE
0.16,0.015,0.11,62.049606672796976,6.39721230007124,0.9307441000919546,0.002564152244637697,7.330520552407833,0.17,0.015,0.08,-15.480758904573742,-1.6968759911707563,-0.23221138356860613,-0.0008634667639292468,-1.9299508415032918,0.002,8e-05,0,14.577490118153875,0.018819163959428002,0.00116619920945231,0.0,0.01998536316888031,0.2,0.02,0.0,7.918198597287485e-05,0.0038152019822387073,1.583639719457497e-06,0.0,0.0038167856219581647,-9.981623477475036,-10.0,-0.018376522524964134,39.982576875445254,40.0,0.017423124554746674,9.409581979714002,10.0,0.590418020285999,0.019076009911193535,0,-0.019076009911193535,4.000642334543855,1.9286189778374467,-0.0038167856219581647,0.5199853631688803,0.033437252044677734,1.5525176525115967,STABILIZE
0.16,0.015,0.11,63.676479813085386,6.397412871097798,0.9551471971962807,0.003503201212290495,7.35606326950637,0.17,0.015,0.08,-15.886878595185868,-1.6968118017698686,-0.23830317892778802,0.0013638962666488324,-1.9337510844310077,0.002,8e-05,0,14.961087530541521,0.018855427034813934,0.0011968870024433218,0.0,0.020052314037257254,0.2,0.02,0.0,0.0007607222109972797,0.0033500570048819707,1.5214444219945595e-05,-0.0,0.0033652714491019162,-9.981245892763932,-10.0,-0.018754107236068476,39.98383044436124,40.0,0.016169555638761834,9.427713517406966,10.0,0.5722864825930334,0.016750285024409853,0,-0.016750285024409853,4.000565156593248,1.9325816113142908,-0.0033652714491019162,0.5200523140372573,0.040688276290893555,1.5932250022888184,STABILIZE
0.16,0.015,0.11,65.01264097285208,6.397472749594447,0.9751896145927812,0.0034277334027174836,7.3760900975899455,0.17,0.015,0.08,-16.22034608366212,-1.69641474532042,-0.24330519125493177,0.002355998990086074,-1.9373639375852656,0.002,8e-05,0,15.276138150929919,0.018855582501641484,0.0012220910520743936,0.0,0.02007767355371588,0.2,0.02,0.0,0.0013519235657819975,0.0035383031166492506,2.7038471315639953e-05,-0.0,0.0035653415879648904,-9.978910266590704,-10.0,-0.021089733409295083,39.98420468496529,40.0,0.0157953150347085,9.427791250820743,10.0,0.572208749179257,0.01769151558324625,0,-0.01769151558324625,4.000598019236957,1.9361287444623159,-0.0035653415879648904,0.5200776735537159,0.0334172248840332,1.6266419887542725,STABILIZE
0.16,0.015,0.11,66.35063659653339,6.397446926880015,0.9952595489480008,0.0017919637697328828,7.394498439597749,0.17,0.015,0.08,-16.55432769472437,-1.6966938778442076,-0.24831491542086556,-0.00038100171191428794,-1.9453897949769874,0.002,8e-05,0,15.59158850434035,0.018853545354433895,0.0012473270803472281,0.0,0.020100872434781123,0.2,0.02,0.0,0.002034728881200376,0.004080927741342407,4.0694577624007524e-05,0.0,0.004121622318966415,-9.980552222612985,-10.0,-0.019447777387015298,39.98404329300009,40.0,0.015956706999907182,9.426772677216947,10.0,0.5732273227830532,0.020404638706712035,0,-0.020404638706712035,4.000692554357005,1.943965159130439,-0.004121622318966415,0.5201008724347811,0.033463239669799805,1.6600947380065918,STABILIZE
0.16,0.015,0.11,67.68781089808444,6.397485409864245,1.0153171634712665,0.00019396621140344787,7.412996539546915,0.17,0.015,0.08,-16.888033142435436,-1.696342401735047,-0.25332049713653154,0.0004775293255612303,-1.9491853695460173,0.002,8e-05,0,15.906782243544638,0.018849892507478587,0.0012725425794835711,0.0,0.020122435086962157,0.2,0.02,0.0,0.0026387441878320903,0.0036122619794488075,5.277488375664181e-05,-0.0,0.0036650368632054494,-9.978484716088511,-10.0,-0.021515283911489505,39.98428381165153,40.0,0.015716188348470495,9.424946253739293,10.0,0.5750537462607062,0.018061309897244037,0,-0.018061309897244037,4.000614241638976,1.9479243554223669,-0.0036650368632054494,0.5201224350869622,0.03344249725341797,1.693572759628296,STABILIZE
0.16,0.015,0.11,69.02500248635015,6.397522505961239,1.0353750372952522,0.0011288185569229177,7.434026361813414,0.17,0.015,0.08,-17.221847544957594,-1.696884159996645,-0.2583277131743639,-5.381676902464083e-05,-1.9552656899400338,0.002,8e-05,0,16.222062230959132,0.018854916087411407,0.0012977649784767307,0.0,0.020152681065888137,0.2,0.02,0.0,0.0030903530618239545,0.0027007890647535414,6.180706123647909e-05,-0.0,0.0027625961259900205,-9.98167152939203,-10.0,-0.018328470607970476,39.98451566225774,40.0,0.015484337742259702,9.427458043705704,10.0,0.5725419562942962,0.013503945323767707,0,-0.013503945323767707,4.000460722159752,1.95432288241062,-0.0027625961259900205,0.5201526810658882,0.03344273567199707,1.7269787788391113,STABILIZE
0.16,0.015,0.11,70.36378393435393,6.398104450112122,1.055456759015309,0.0028410612131214742,7.456402270340552,0.17,0.015,0.08,-17.555933493185698,-1.696402049019595,-0.26333900239778546,0.0011530176315813728,-1.9585880337857993,0.002,8e-05,0,16.53766929159061,0.01885377690029209,0.001323013543327249,-0.0,0.02017679044361934,0.2,0.02,0.0,0.003366789166132364,0.0016513777059957127,6.733578332264728e-05,-0.0,0.00171871348931836,-9.978835582468205,-10.0,-0.021164417531794707,39.98815281320076,40.0,0.01184718679923645,9.426888450146045,10.0,0.5731115498539556,0.008256888529978563,0,-0.008256888529978563,4.000282210371409,1.9580115738868755,-0.00171871348931836,0.5201767904436193,0.03347945213317871,1.7604658603668213,STABILIZE
0.16,0.015,0.11,71.70139192166603,6.39841991445343,1.0755208788249904,0.0038914940561281465,7.477832287334548,0.17,0.015,0.08,-17.889684678174632,-1.6962725733618282,-0.26834527017261944,0.0003990515752526171,-1.9642187919591951,0.002,8e-05,0,16.852886152036568,0.018847915984916152,0.0013482308921629255,-0.0,0.020196146877079078,0.2,0.02,0.0,0.0035607993176370516,0.001160054392587965,7.121598635274104e-05,-0.0,0.001231270378940706,-9.97807396095193,-10.0,-0.02192603904806934,39.990124465333935,40.0,0.009875534666062781,9.423957992458076,10.0,0.5760420075419244,0.005800271962939824,0,-0.005800271962939824,4.000198824920401,1.9638138465218862,-0.001231270378940706,0.520196146877079,0.03344845771789551,1.793917179107666,STABILIZE
0.16,0.015,0.11,73.03869910664595,6.3984404790383955,1.0955804865996892,0.0040821554729283975,7.498103121111013,0.17,0.015,0.08,-18.22341531137585,-1.6965550941382626,-0.27335122967063774,0.0003889893528888218,-1.9695173344560115,0.002,8e-05,0,17.168039754324006,0.018848432774450554,0.0013734431803459205,-0.0,0.020221875954796475,0.2,0.02,0.0,0.0037105169809278273,0.000895418390017402,7.421033961855655e-05,-0.0,0.0009696287296359586,-9.979735847872131,-10.0,-0.020264152127867842,39.99025299398997,40.0,0.00974700601003243,9.424216387225277,10.0,0.5757836127747233,0.00447709195008701,0,-0.00447709195008701,4.000153885863666,1.9692047684617577,-0.0009696287296359586,0.5202218759547965,0.03344082832336426,1.827359914779663,STABILIZE
0.16,0.015,0.11,74.37599056470951,6.398502088119708,1.1156398584706426,0.004177257292057507,7.518319203882408,0.17,0.015,0.08,-18.55714988856934,-1.6966114321490795,-0.2783572483285401,-0.0007587384368467172,-1.9757274189144665,0.002,8e-05,0,17.483347935370492,0.018858081036318725,0.0013986678348296396,0.0,0.020256748871148363,0.2,0.02,0.0,0.003717779184525542,4.343408518403102e-05,7.435558369051084e-05,-0.0,0.00011778966887454186,-9.98006724793576,-10.0,-0.019932752064239456,39.990638050748174,40.0,0.009361949251824372,9.429040518159361,10.0,0.5709594818406389,0.00021717042592015508,0,-0.00021717042592015508,4.000007488647897,1.975712257544393,-0.00011778966887454186,0.5202567488711484,0.03344011306762695,1.8608086109161377,STABILIZE
0.16,0.015,0.11,75.71351963926163,6.398544129693369,1.1357027945889244,0.004197574629329009,7.538444498911622,0.17,0.015,0.08,-18.890929306046882,-1.6965490853668543,-0.2833639395907032,0.0009413737212776682,-1.97897165123628,0.002,8e-05,0,17.798604605943467,0.01885177448868578,0.0014238883684754775,-0.0,0.02027566285716126,0.2,0.02,0.0,0.0037493627270173404,0.00018886382944001388,7.498725454034681e-05,-0.0,0.0002638510839803607,-9.979700502157966,-10.0,-0.020299497842033914,39.990900810583554,40.0,0.009099189416443563,9.42588724434289,10.0,0.5741127556571091,0.0009443191472000693,0,-0.0009443191472000693,4.000032615835063,1.978905725054267,-0.0002638510839803607,0.5202756628571612,0.03344583511352539,1.8942484855651855,STABILIZE
0.16,0.015,0.11,77.05268711145048,6.398582284774633,1.1557903066717572,0.001964201234761074,7.556336792681152,0.17,0.015,0.08,-19.22510311816089,-1.6964857615263211,-0.28837654677241337,-0.0002359613423628204,-1.9850982696410973,0.002,8e-05,0,18.114139568096657,0.018845443727068468,0.0014491311654477328,-0.0,0.0202945748925162,0.2,0.02,0.0,0.003807059996686848,0.0003445991028513363,7.614119993373695e-05,-0.0,0.00042074030278507323,-9.979328008978358,-10.0,-0.02067199102164251,39.991139279841455,40.0,0.00886072015854361,9.422721863534234,10.0,0.577278136465767,0.0017229955142566812,0,-0.0017229955142566812,4.000059693956778,1.984977980964648,-0.00042074030278507323,0.5202945748925162,0.03348660469055176,1.9277517795562744,STABILIZE
0.16,0.015,0.11,78.38788828923425,6.398400058020919,1.1758183243385139,-8.305649114560057e-05,7.574135325868287,0.17,0.015,0.08,-19.55839576727353,-1.6969902923317874,-0.29337593650910293,-0.0020224904993572696,-1.9923887193402476,0.002,8e-05,0,18.428756109549383,0.018845872541346106,0.0014743004887639508,-0.0,0.020320173030110057,0.2,0.02,0.0,0.0038294764876218956,0.00013427721537954658,7.658952975243792e-05,-0.0,0.0002108667451319845,-9.982295837245807,-10.0,-0.017704162754192995,39.990000362630745,40.0,0.009999637369253916,9.422936270673054,10.0,0.5770637293269465,0.0006713860768977329,0,-0.0006713860768977329,4.000023346332362,1.9923418476130865,-0.0002108667451319845,0.52032017303011,0.033388376235961914,1.961195707321167,STABILIZE
0.16,0.015,0.11,79.72585656187889,6.398410247573515,1.1958878484281832,-0.00012573682838315823,7.594172359173315,0.17,0.015,0.08,-19.89240805408644,-1.697139919239883,-0.2983861208112966,-0.0016482568609581336,-1.9971742969121378,0.002,8e-05,0,18.743316634047662,0.01880357819933206,0.001499465330723813,-0.0,0.020303043530055874,0.2,0.02,0.0,0.0038812698132748226,0.0003096065059885201,7.762539626549645e-05,-0.0,0.00038723190225401654,-9.983175995528724,-10.0,-0.01682400447127667,39.990064047334464,40.0,0.009935952665533576,9.40178909966603,10.0,0.5982109003339706,0.0015480325299426004,0,-0.0015480325299426004,4.000053958723577,1.997066223124894,-0.00038723190225401654,0.5203030435300559,0.03345751762390137,1.994673728942871,STABILIZE
0.16,0.015,0.11,81.06336150108844,6.398109407347863,1.2159504225163265,-0.0016157927670468085,7.612444037097142,0.17,0.015,0.08,-20.226366569344776,-1.6973747135196393,-0.3033954985401716,-0.0021503783995405474,-2.0029205904593512,0.002,8e-05,0,19.057221296606052,0.018769990259924974,0.0015245777037284842,-0.0,0.02029456796365346,0.2,0.02,0.0,0.003893203562683313,7.135808634893605e-05,7.786407125366627e-05,0.0,0.00014922215760260232,-9.98455713835082,-10.0,-0.015442861649180798,39.988183795924144,40.0,0.011816204075859134,9.384995129962487,10.0,0.6150048700375125,0.0003567904317446802,0,-0.0003567904317446802,4.000012472444999,2.002895681749423,-0.00014922215760260232,0.5202945679636535,0.0334475040435791,2.0280349254608154,STABILIZE
0.16,0.015,0.11,82.40070380963142,6.397833096098965,1.2360105571444713,-0.0029246133215491995,7.630919039921887,0.17,0.015,0.08,-20.560354193125725,-1.6976557727066102,-0.3084053128968859,-0.003116756305446176,-2.0091778419089423,0.002,8e-05,0,19.37128367303899,0.018780893393435607,0.0015497026938431195,-0.0,0.020330596087278725,0.2,0.02,0.0,0.0038737472596442916,-0.00011634846470833657,7.747494519288583e-05,-0.0,-3.887351951545074e-05,-9.986210427685942,-10.0,-0.01378957231405891,39.98645685061853,40.0,0.013543149381470575,9.390446696717802,10.0,0.6095533032821984,-0.0005817423235416828,0,0.0005817423235416828,3.999979599970376,2.0092184550811547,3.887351951545074e-05,0.5203305960872787,0.033444881439208984,2.0614871978759766,STABILIZE
0.16,0.015,0.11,83.737226355851,6.397788034151768,1.256058395337765,-0.00326665553718053,7.6505797739523524,0.17,0.015,0.08,-20.894024452332435,-1.697070934270585,-0.3134103667849865,-0.0016479358555601248,-2.012129236911132,0.002,8e-05,0,19.68531201633913,0.018790243969629486,0.0015748249613071305,-0.0,0.020365068930936616,0.2,0.02,0.0,0.003777349946476472,-0.0005768043143509856,7.554699892952944e-05,-0.0,-0.0005012573154214561,-9.982770201591675,-10.0,-0.01722979840832479,39.98617521344855,40.0,0.01382478655145373,9.395121984814743,10.0,0.6048780151852569,-0.0028840215717549278,0,0.0028840215717549278,3.9998987130551393,2.0123305770505038,0.0005012573154214561,0.5203650689309366,0.03342461585998535,2.0949361324310303,STABILIZE
0.16,0.015,0.11,85.0740683366389,6.397856778619038,1.2761110250495835,-0.0022334774195073488,7.671734326249114,0.17,0.015,0.08,-21.22776269814652,-1.697029360620931,-0.3184164404721978,-0.00010868963115636144,-2.015554490724285,0.002,8e-05,0,19.999603253435122,0.018801682908421078,0.00159996826027481,-0.0,0.020401651168695887,0.2,0.02,0.0,0.0035782515332844537,-0.0011910561894739678,7.156503066568907e-05,-0.0,-0.0011194911588082786,-9.982525650711358,-10.0,-0.017474349288642655,39.986604866368985,40.0,0.013395133631014609,9.40084145421054,10.0,0.5991585457894606,-0.005955280947369838,0,0.005955280947369838,3.9997904831505497,2.015970236877798,0.0011194911588082786,0.5204016511686959,0.0334322452545166,2.128340721130371,STABILIZE
0.16,0.015,0.11,86.4133408750928,6.398082124366446,1.296200113126392,-0.0013502016619423556,7.692932035830895,0.17,0.015,0.08,-21.562340371389443,-1.6982700156105508,-0.32343510557084165,-0.0031742278290143784,-2.0248793490104067,0.002,8e-05,0,20.31471935385764,0.018817479558164436,0.0016251775483086114,0.0,0.02044265710647305,0.2,0.02,0.0,0.0032456723378045914,-0.00198603061031211,6.491344675609183e-05,-0.0,-0.0019211171635560183,-9.989823621238534,-10.0,-0.010176378761467025,39.988013277290285,40.0,0.011986722709715899,9.408739779082218,10.0,0.5912602209177822,-0.00993015305156055,0,0.00993015305156055,3.9996490002582514,2.0255725740594874,0.0019211171635560183,0.5204426571064731,0.03349184989929199,2.161874771118164,STABILIZE
0.16,0.015,0.11,87.75045900192482,6.39771836881617,1.3162568850288723,-0.0016091826757086126,7.712366071169334,0.17,0.015,0.08,-21.896525579888028,-1.6989144259958324,-0.3284478836983204,-0.004327256812687469,-2.03168956650684,0.002,8e-05,0,20.629389632800674,0.01882006330738407,0.001650351170624054,0.0,0.020470414478008125,0.2,0.02,0.0,0.002848399958369737,-0.002376039884145714,5.696799916739474e-05,-0.0,-0.002319071884978319,-9.99361427056372,-10.0,-0.006385729436279325,39.98573980510106,40.0,0.014260194898934618,9.410031653692036,10.0,0.5899683463079641,-0.01188019942072857,0,0.01188019942072857,3.9995786460376554,2.0325189172089764,0.002319071884978319,0.5204704144780081,0.03343987464904785,2.1953330039978027,STABILIZE
0.16,0.015,0.11,89.2996744228978,6.397598087034362,1.339495116343467,-0.0009000624862812242,7.736193140891547,0.17,0.015,0.08,-22.28389345785246,-1.6996429025218196,-0.3342584018677869,-0.005305911183491598,-2.0392072155730983,0.002,8e-05,0,20.99417794724966,0.01883024942091028,0.001679534235779973,0.0,0.02050978365669025,0.2,0.02,0.0,0.0024388548768510907,-0.0021140578600364105,4.877709753702182e-05,-0.0,-0.0020652807624993888,-9.997899426598938,-10.0,-0.002100573401061856,39.98498804396476,40.0,0.01501195603523581,9.415124710455139,10.0,0.5848752895448611,-0.010570289300182053,0,0.010570289300182053,3.999623726033213,2.0399451262711916,0.0020652807624993888,0.5205097836566902,0.03874492645263672,2.234030246734619,STABILIZE
0.16,0.015,0.11,90.63802384873158,6.39749767454874,1.3595703577309737,-0.0011271773409767562,7.7559408549387365,0.17,0.015,0.08,-22.618675807537805,-1.7003256706661374,-0.33928013711306704,-0.008872549603566862,-2.048478357382771,0.002,8e-05,0,21.309572951631594,0.018845403600788596,0.0017047658361305277,0.0,0.020550169436919122,0.2,0.02,0.0,0.002134108416377135,-0.0018209134462348082,4.26821683275427e-05,-0.0,-0.0017782312779072655,-10.001915709800807,-10.0,0.00191570980080664,39.984360465929626,40.0,0.015639534070370633,9.422701800394298,10.0,0.5772981996057014,-0.009104567231174041,0,0.009104567231174041,3.99967443671204,2.049113950217957,0.0017782312779072655,0.5205501694369191,0.03347182273864746,2.2675094604492188,STABILIZE
0.16,0.015,0.11,91.97725976038285,6.397633890627315,1.3796588964057428,-0.0008507012881277862,7.77644208574493,0.17,0.015,0.08,-22.953662598214166,-1.7002740166554522,-0.34430493897321246,-0.008844436606852798,-2.0534233922355174,0.002,8e-05,0,21.625172640337556,0.01884555259057348,0.0017300138112270047,0.0,0.020575566401800485,0.2,0.02,0.0,0.0016622293622067094,-0.0028177535815138467,3.324458724413419e-05,-0.0,-0.0027845089942697123,-10.00161186267913,-10.0,0.0016118626791297918,39.985211816420716,40.0,0.014788183579281654,9.42277629528674,10.0,0.5772237047132598,-0.014088767907569234,0,0.014088767907569234,3.9994949517351954,2.0544069116960992,0.0027845089942697123,0.5205755664018005,0.0334932804107666,2.3010318279266357,STABILIZE
0.16,0.015,0.11,93.31440173848763,6.39719394296219,1.3997160260773145,-0.003584674504258753,7.793325294535245,0.17,0.015,0.08,-23.2881918741081,-1.7004938412062176,-0.3493228781116215,-0.005976632346508133,-2.055793351664347,0.002,8e-05,0,21.940521982427466,0.018858794860307185,0.0017552417585941975,0.0,0.020614036618901384,0.2,0.02,0.0,0.0010770705907724415,-0.003499417236152641,2.154141181544883e-05,-0.0,-0.0034778758243371923,-10.002904948271867,-10.0,0.0029049482718670697,39.982462143513686,40.0,0.017537856486314275,9.429397430153593,10.0,0.5706025698464076,-0.017497086180763205,0,0.017497086180763205,3.9993720116948825,2.057014782839189,0.0034778758243371923,0.5206140366189014,0.03344321250915527,2.334442138671875,STABILIZE
0.16,0.015,0.11,94.65703238249687,6.39695689738504,1.419855485737453,-0.0030595437409674355,7.813752839381526,0.17,0.015,0.08,-23.624131379614298,-1.700618450497347,-0.35436197069421443,-0.004512153228364186,-2.0594925744199255,0.002,8e-05,0,22.257244702179975,0.018862797409320856,0.0017805795761743981,0.0,0.020643376985495253,0.2,0.02,0.0,0.0005105370206352315,-0.003374057903843439,1.021074041270463e-05,-0.0,-0.0033638471634307343,-10.00363794410204,-10.0,0.003637944102040943,39.9809806086565,40.0,0.019019391343496547,9.431398704660428,10.0,0.5686012953395727,-0.016870289519217194,0,0.016870289519217194,3.9993934253022947,2.0606702535193704,0.0033638471634307343,0.5206433769854952,0.03358173370361328,2.3680152893066406,STABILIZE
0.16,0.015,0.11,96.18132977240207,6.397204962646509,1.442719946586031,-0.001737998445739004,7.838186910786801,0.17,0.015,0.08,-24.005610172534826,-1.7010610403773372,-0.3600841525880224,-0.003835196778049771,-2.0649803897434094,0.002,8e-05,0,22.61695744898488,0.0188706300377077,0.0018093565959187907,0.0,0.020679986633626492,0.2,0.02,0.0,-0.00019371438751241148,-0.0036945223361508055,-3.87428775024823e-06,-0.0,-0.0036983966239010537,-10.006241413984336,-10.0,0.006241413984335584,39.982531016540676,40.0,0.01746898345932655,9.435315018853851,10.0,0.5646849811461484,-0.018472611680754026,0,0.018472611680754026,3.9993340261365997,2.06626991397805,0.0036983966239010537,0.5206799866336265,0.03812408447265625,2.406190872192383,STABILIZE
0.16,0.015,0.11,97.51740181549587,6.397456853166516,1.462761027232438,-0.00028900420406713324,7.859928876194887,0.17,0.015,0.08,-24.340054985823887,-1.701495844447039,-0.3651008247873583,-0.0031400358740823766,-2.06973670510848,0.002,8e-05,0,22.93236818915887,0.01887834765084907,0.0018345894551327097,0.0,0.02071293710598178,0.2,0.02,0.0,-0.0008631625601215845,-0.0040068627117041304,-1.726325120243169e-05,-0.0,-0.004024125962906563,-10.00879908498258,-10.0,0.008799084982581563,39.984105332290724,40.0,0.015894667709278304,9.439173825424534,10.0,0.5608261745754654,-0.02003431355852065,0,0.02003431355852065,3.9992760415474407,2.0711352374912515,0.004024125962906563,0.5207129371059818,0.03341507911682129,2.439558267593384,STABILIZE
0.16,0.015,0.11,98.8547603674879,6.39740914717973,1.4828214055123183,-0.0010443276937563487,7.879186224998293,0.17,0.015,0.08,-24.67480877854296,-1.7014167839877248,-0.3701221316781444,-0.0030627184485009324,-2.0746016341143703,0.002,8e-05,0,23.248052165970012,0.01887638470122234,0.001859844173277601,0.0,0.02073622887449994,0.2,0.02,0.0,-0.0015203977545557345,-0.003929950609036963,-3.0407955091114688e-05,-0.0,-0.003960358564128077,-10.008334023457204,-10.0,0.008334023457203993,39.983807169873316,40.0,0.016192830126682423,9.43819235061117,10.0,0.5618076493888305,-0.019649753045184813,0,0.019649753045184813,3.999288274159041,2.0759733236349676,0.003960358564128077,0.5207362288744999,0.0334475040435791,2.473008871078491,STABILIZE
0.16,0.015,0.11,100.1921660064675,6.397223990300304,1.5028824900970126,3.377653286324694e-06,7.900109858050603,0.17,0.015,0.08,-25.009604931299613,-1.7015229244722891,-0.3751440739694942,-0.0027427252867371905,-2.0794097237285207,0.002,8e-05,0,23.56370912043653,0.018873558094152965,0.0018850967296349227,0.0,0.020758654823787887,0.2,0.02,0.0,-0.0021406561166360727,-0.0037086090024191515,-4.281312233272145e-05,-0.0,-0.003751422124751873,-10.008958379248758,-10.0,0.008958379248757673,39.9826499393769,40.0,0.017350060623101047,9.436779047076483,10.0,0.5632209529235173,-0.018543045012095756,0,0.018543045012095756,3.9993268162123257,2.080704163561391,0.003751422124751873,0.5207586548237879,0.033449649810791016,2.506495952606201,STABILIZE
0.16,0.015,0.11,101.52936942507363,6.3972598562529,1.5229405413761044,0.001121413596031579,7.921321811225035,0.17,0.015,0.08,-25.344330381133595,-1.7014303931811614,-0.3801649557170039,-0.002133092652240709,-2.0837284415504063,0.002,8e-05,0,23.879311885562124,0.018873277541095298,0.00191034495084497,0.0,0.020783622491940268,0.2,0.02,0.0,-0.002884574277286292,-0.004448685330188852,-5.769148554572584e-05,-0.0,-0.004506376815734577,-10.008414077536242,-10.0,0.008414077536243146,39.98287410158062,40.0,0.01712589841938023,9.436638770547649,10.0,0.5633612294523511,-0.02224342665094426,0,0.02224342665094426,3.99919075138323,2.0852811686141806,0.004506376815734577,0.5207836224919402,0.03344440460205078,2.539973497390747,STABILIZE
0.16,0.015,0.11,102.86735669861363,6.397361421936189,1.5430103504792045,0.0006440595604938851,7.9410158319758875,0.17,0.015,0.08,-25.67930061592163,-1.701704161282081,-0.38518950923882445,-0.0018104486559115257,-2.0887041191768168,0.002,8e-05,0,24.19518787558044,0.018878849902216954,0.0019356150300464355,0.0,0.02081446493226339,0.2,0.02,0.0,-0.003846779800381021,-0.005750780122457628,-7.693559600762042e-05,-0.0,-0.005827715718465248,-10.010024478129887,-10.0,0.010024478129887363,39.98350888710118,40.0,0.016491112898821762,9.439424951108476,10.0,0.560575048891523,-0.028753900612288136,0,0.028753900612288136,3.998951279676372,2.0907112570225728,0.005827715718465248,0.5208144649322634,0.033463478088378906,2.573396921157837,STABILIZE
0.16,0.015,0.11,104.23604827921743,6.397446431529533,1.5635407241882613,-5.0977592412115704e-05,7.960936178125382,0.17,0.015,0.08,-26.022012369905028,-1.701997824819988,-0.3903301855485754,-0.0013931949006259063,-2.0937212052691896,0.002,8e-05,0,24.518300765014256,0.018878407586332108,0.0019614640612011405,0.0,0.02083987164753325,0.2,0.02,0.0,-0.005061648490403333,-0.007098072235466261,-0.00010123296980806665,-0.0,-0.0071993052052743275,-10.011751910705811,-10.0,0.011751910705812276,39.984040197059585,40.0,0.015959802940413083,9.439203793166053,10.0,0.5607962068339464,-0.0354903611773313,0,0.0354903611773313,3.9987023322695525,2.096198498066419,0.0071993052052743275,0.5208398716475332,0.034230947494506836,2.607630968093872,STABILIZE
0.16,0.015,0.11,105.57601220339943,6.397559512577372,1.5836401830509914,0.0006091120159936852,7.981808807644357,0.17,0.015,0.08,-26.357543128373003,-1.702089943739606,-0.39536314692559504,-0.0018743771766504625,-2.099327467841851,0.002,8e-05,0,24.834694563930878,0.018882487444719764,0.0019867755651144705,0.0,0.020869263009834237,0.2,0.02,0.0,-0.006154125869082205,-0.0065199414328535495,-0.00012308251738164412,-0.0,-0.006643023950235194,-10.012293786703564,-10.0,0.01229378670356398,39.98474695360857,40.0,0.015253046391431277,9.441243722359882,10.0,0.5587562776401183,-0.032599707164267744,0,0.032599707164267744,3.9988048935848717,2.101603016812871,0.006643023950235194,0.5208692630098343,0.03351187705993652,2.6411447525024414,STABILIZE
0.16,0.015,0.11,106.91498108741717,6.397678974865346,1.6037247163112576,0.0018607581537474199,8.00326444933035,0.17,0.015,0.08,-26.692763844907955,-1.7018126525910662,-0.4003914576736193,-0.000796366856153051,-2.1030004771208386,0.002,8e-05,0,25.150823441427807,0.018881049972957035,0.0020120658753142247,0.0,0.02089311584827126,0.2,0.02,0.0,-0.00703792080855466,-0.0052785359408325655,-0.00014075841617109322,-0.0,-0.005419294357003659,-10.010662662300389,-10.0,0.01066266230038956,39.98549359290841,40.0,0.014506407091587731,9.440524986478517,10.0,0.5594750135214832,-0.026392679704162827,0,0.026392679704162827,3.9990308512856876,2.104842810576539,0.005419294357003659,0.5208931158482712,0.033486366271972656,2.6746327877044678,STABILIZE
0.16,0.015,0.11,108.25301029003032,6.397516318116967,1.6237951543504547,0.0010449575827327566,8.022356430050156,0.17,0.015,0.08,-27.02770753462661,-1.7015571847894466,-0.40541561301939916,-0.0003382535972919728,-2.1073110514061377,0.002,8e-05,0,25.46686817568619,0.01888880060244765,0.0020373494540548956,0.0,0.020926150056502547,0.2,0.02,0.0,-0.007889523054290757,-0.005089705117236604,-0.00015779046108581514,-0.0,-0.005247495578322419,-10.009159910526156,-10.0,0.00915991052615565,39.984476988231044,40.0,0.01552301176895773,9.444400301223826,10.0,0.5555996987761741,-0.02544852558618302,0,0.02544852558618302,3.9990636210142374,2.1090874857290616,0.005247495578322419,0.5209261500565026,0.03346371650695801,2.7081220149993896,STABILIZE
