E-kp,E-ki,E-kd,E-I-Tot,E-P,E-I,E-D,E-PID,N-kp,N-ki,N-kd,N-I-Tot,N-P,N-I,N-D,N-PID,D-kp,D-ki,D-kd,D-I-Tot,D-P,D-I,D-D,D-PID,Y-kp,Y-ki,Y-kd,Y-I-Tot,Y-P,Y-I,Y-D,Y-PID,errorN,desiredN,actualN,errorE,desiredE,actualE,errorD,desiredD,actualD,errorY,desiredY,actualY,roll,pitch,yaw-rate,thrust,dt,Time,Mode
0.17,0.004,0.1,0.001025122595673407,0.005285556446905223,4.100490382693628e-06,0.09429915071450085,0.09958880765178876,0.17,0.004,0.1,-0.0015098761549334966,-0.007784957309905717,-6.0395046197339865e-06,-0.1388907431123151,-0.14668173992684055,0.002,8e-05,0,-0.02211702002858198,-0.0013415985938920324,-1.7693616022865587e-06,-0.0,-0.001343367955494319,0.2,0.02,0,-0.004431607388194784,-0.026881732860034188,-8.863214776389568e-05,-0.0,-0.026970365007798085,-0.045793866528857155,0.0,0.045793866528857155,0.03109150851120719,0.0,-0.03109150851120719,-0.6707992969460161,0.0,0.6707992969460161,-0.13440866430017093,0,0.13440866430017093,0.09924443710162313,0.14691495887707365,0.026970365007798085,0.4,0.03297114372253418,0.0332789421081543,STABILIZE
0.17,0.004,0.1,0.004026787975539461,0.015262657837864443,1.6107151902157845e-05,0.1349192400520288,0.1501980050417954,0.17,0.004,0.1,-0.001971978334762779,-0.002349664790810348,-7.887913339051116e-06,-0.021630501963740518,-0.02398805466788992,0.002,8e-05,0,-0.04406561138784325,-0.0013129724671256504,-3.52524891102746e-06,-0.0,-0.0013164977160366779,0.2,0.02,0,-0.010325059524696848,-0.03525483829414412,-0.00020650119049393697,-0.0,-0.03546133948463806,-0.013821557593002048,0.0,0.013821557593002048,0.08978034022273201,0.0,-0.08978034022273201,-0.6564862335628252,0.0,0.6564862335628252,-0.1762741914707206,0,0.1762741914707206,0.15012349351770055,0.024450034342016667,0.03546133948463806,0.4,0.03343343734741211,0.06663322448730469,STABILIZE
0.17,0.004,0.1,0.008998088975519472,0.02527321738120871,3.5992355902077886e-05,0.1486450284611542,0.173954238198265,0.17,0.004,0.1,-0.001352608765918271,0.0031487656355500705,-5.410435063673084e-06,0.017820784622773447,0.020964139823259845,0.002,8e-05,0,-0.0655377302014294,-0.0012842407590217771,-5.243018416114352e-06,-0.0,-0.0012894837774378915,0.2,0.02,0,-0.017631794439458334,-0.04370135464678444,-0.0003526358887891667,-0.0,-0.04405399053557361,0.018522150797353355,0.0,-0.018522150797353355,0.14866598459534536,0.0,-0.14866598459534536,-0.6421203795108885,0.0,0.6421203795108885,-0.2185067732339222,0,0.2185067732339222,0.17403292316543928,-0.020300586202378887,0.04405399053557361,0.4,0.03343939781188965,0.10008668899536133,STABILIZE
0.17,0.004,0.1,0.012173769996517857,0.016140919497505783,4.869507998607143e-05,0.07133117498478539,0.08752078956227724,0.17,0.004,0.1,0.00011248404287272896,0.007446574428194811,4.4993617149091584e-07,0.03226205722946279,0.0397090815938291,0.002,8e-05,0,-0.08770329450138421,-0.001325413117474287,-7.016263560110738e-06,-0.0,-0.0013324293810343976,0.2,0.02,0,-0.021732532670437683,-0.02452079346646461,-0.00043465065340875367,-0.0,-0.02495544411987336,0.04380337898938124,0.0,-0.04380337898938124,0.09494658527944579,0.0,-0.09494658527944579,-0.6627065587371435,0.0,0.6627065587371435,-0.12260396733232304,0,0.12260396733232304,0.08760556031837599,-0.03952171008361328,0.02495544411987336,0.4,0.0334470272064209,0.13353204727172852,STABILIZE
0.17,0.004,0.1,0.015016511958806822,0.014440570203449533,6.0066047835227286e-05,0.05108747280710723,0.06558810905839199,0.17,0.004,0.1,6.988070849818409e-05,-0.0002164165615796096,2.7952283399273634e-07,-0.0011290998657237639,-0.0013452369044693808,0.002,8e-05,0,-0.10954416304234374,-0.0013052625605177988,-8.7635330433875e-06,-0.0,-0.0013140260935611864,0.2,0.02,0,-0.026082607821406922,-0.025997089902128564,-0.0005216521564281385,-0.0,-0.026518742058556703,-0.0012730385975271152,0.0,0.0012730385975271152,0.08494453060852666,0.0,-0.08494453060852666,-0.6526312802588994,0.0,0.6526312802588994,-0.1299854495106428,0,0.1299854495106428,0.06558488836986359,0.0014940313575022746,0.026518742058556703,0.4,0.03346586227416992,0.1670083999633789,STABILIZE
0.17,0.004,0.1,0.018856513070803126,0.019539162955296067,7.54260522832125e-05,0.05018147155913682,0.0697960605667161,0.17,0.004,0.1,0.0012982473622179936,0.00625032532956886,5.192989448871975e-06,0.04942058260385928,0.05567610092287701,0.002,8e-05,0,-0.13076410678209338,-0.0012702813068829432,-1.0461128542567471e-05,0.0,-0.0012807424354255106,0.2,0.02,0,-0.0281737409908028,-0.01251806983027283,-0.000563474819816056,0.0,-0.013081544650088886,0.03676661958569918,0.0,-0.03676661958569918,0.11493625267821214,0.0,-0.11493625267821214,-0.6351406534414715,0.0,0.6351406534414715,-0.06259034915136415,0,0.06259034915136415,0.06985683990873329,-0.05559982196529677,0.013081544650088886,0.4,0.033409833908081055,0.2004222869873047,STABILIZE
0.17,0.004,0.1,0.02208432914660042,0.016404618164597873,8.833731658640168e-05,0.00404897679984055,0.020541932281024824,0.17,0.004,0.1,0.002199369343509049,0.004579741123928281,8.797477374036196e-06,0.024418958357052975,0.02900749695835529,0.002,8e-05,0,-0.15180487498444614,-0.0012580561124777407,-1.2144389998755693e-05,0.0,-0.0012702005024764964,0.2,0.02,0,-0.031713614296830714,-0.02116538335110424,-0.0006342722859366143,0.0,-0.021799655637040852,0.026939653670166354,0.0,-0.026939653670166354,0.09649775390939924,0.0,-0.09649775390939924,-0.6290280562388704,0.0,0.6290280562388704,-0.1058269167555212,0,0.1058269167555212,0.020595474874034438,-0.028969505973354417,0.021799655637040852,0.4,0.033449649810791016,0.23389410972595215,STABILIZE
0.17,0.004,0.1,0.02639936051938227,0.021939830492793206,0.00010559744207752908,-0.011693627520555082,0.010351800414315654,0.17,0.004,0.1,0.003072373110391334,0.004438798472192619,1.2289492441565336e-05,0.00457835277747209,0.009029440742106275,0.002,8e-05,0,-0.17254411449529353,-0.0012405755332055284,-1.3803529159623483e-05,0.0,-0.0012543790623651518,0.2,0.02,0,-0.036068338364927836,-0.026048998228295202,-0.0007213667672985567,0.0,-0.026770364995593758,0.026110579248191875,0.0,-0.026110579248191875,0.12905782642819533,0.0,-0.12905782642819533,-0.6202877666027642,0.0,0.6202877666027642,-0.130244991141476,0,0.130244991141476,0.010372299410589881,-0.009005885679382748,0.026770364995593758,0.4,0.03343486785888672,0.2673215866088867,STABILIZE
0.17,0.004,0.1,0.03180948493321445,0.02750235341786755,0.0001272379397328578,0.03999735673389859,0.067626948091499,0.17,0.004,0.1,0.00391526212247153,0.004284824105523032,1.5661048489886122e-05,-0.011080502712285282,-0.006780017558272364,0.002,8e-05,0,-0.19299517695765883,-0.0012230932112323712,-1.5439614156612708e-05,0.0,-0.0012385328253889838,0.2,0.02,0,-0.04125580841838715,-0.03102410653496921,-0.000825116168367743,-0.0,-0.031849222703336955,0.025204847679547244,0.0,-0.025204847679547244,0.16177854951686793,0.0,-0.16177854951686793,-0.6115466056161856,0.0,0.6115466056161856,-0.15512053267484605,0,0.15512053267484605,0.06760834429171839,0.006963083253362084,0.031849222703336955,0.4,0.03344154357910156,0.30075597763061523,STABILIZE
0.17,0.004,0.1,0.03625427274443239,0.022587337649497205,0.00014501709097772955,0.028689756436982596,0.05142211117745753,0.17,0.004,0.1,0.00489958517530057,0.005002091909611572,1.959834070120228e-05,0.018380721597808163,0.02340241184812094,0.002,8e-05,0,-0.21350937435260967,-0.0012264493441819927,-1.7080749948208774e-05,0.0,-0.0012435300941302015,0.2,0.02,0,-0.0426881092586196,-0.008563066798834498,-0.0008537621851723921,0.0,-0.00941682898400689,0.02942407005653866,0.0,-0.02942407005653866,0.1328666920558659,0.0,-0.1328666920558659,-0.6132246720909963,0.0,0.6132246720909963,-0.04281533399417249,0,0.04281533399417249,0.05143958470484685,-0.023363979191241373,0.00941682898400689,0.4,0.03345298767089844,0.3342165946960449,STABILIZE
0.17,0.004,0.1,0.04055918887300085,0.021884966129648683,0.00016223675549200339,0.008264884954831866,0.03031208783997255,0.17,0.004,0.1,0.00781347475714706,0.014813383791858575,3.1253899028588236e-05,0.030126703611690626,0.04497134130257779,0.002,8e-05,0,-0.2348450249037381,-0.0012760513403755958,-1.878760199229905e-05,-0.0,-0.0012948389423678949,0.2,0.02,0,-0.04662525563211163,-0.02354744653841222,-0.0009325051126422326,-0.0,-0.024479951651054453,0.08713755171681514,0.0,-0.08713755171681514,0.12873509488028637,0.0,-0.12873509488028637,-0.6380256701877979,0.0,0.6380256701877979,-0.1177372326920611,0,0.1177372326920611,0.030404435492182677,-0.04490895801700206,0.024479951651054453,0.4,0.03344011306762695,0.3676939010620117,STABILIZE
0.17,0.004,0.1,0.046369894563769276,0.029564633052955057,0.0001854795782550771,0.046330227617414135,0.07608034024862427,0.17,0.004,0.1,0.011536391493040076,0.018942048184998776,4.6145565972160305e-05,0.050539733433917315,0.06952792718488825,0.002,8e-05,0,-0.2551758163968194,-0.0012169674839282857,-2.0414065311745556e-05,0.0,-0.0012373815492400313,0.2,0.02,0,-0.05090445007015154,-0.025614548702019447,-0.001018089001403031,-0.0,-0.026632637703422477,0.11142381285293397,0.0,-0.11142381285293397,0.17390960619385326,0.0,-0.17390960619385326,-0.6084837419641428,0.0,0.6084837419641428,-0.12807274351009723,0,0.12807274351009723,0.07623556520437806,-0.06935769192340949,0.026632637703422477,0.4,0.03341221809387207,0.4010624885559082,STABILIZE
0.17,0.004,0.1,0.05201852783976872,0.028037580225056313,0.0002080741113590749,0.02160805349040002,0.049853707826815405,0.17,0.004,0.1,0.014191834303573687,0.013180567262124456,5.676733721429475e-05,0.03124486379587617,0.044482198395214924,0.002,8e-05,0,-0.27829217294480496,-0.001349887599680366,-2.22633738355844e-05,-0.0,-0.0013721509735159505,0.2,0.02,0,-0.04860520734567191,0.013426507053512383,-0.0009721041469134382,0.0,0.012454402906598945,0.07753274860073209,0.0,-0.07753274860073209,0.16492694250033124,0.0,-0.16492694250033124,-0.674943799840183,0.0,0.674943799840183,0.06713253526756191,0,-0.06713253526756191,0.049801554547926834,-0.04454058062893439,-0.012454402906598945,0.4,0.034249305725097656,0.4353179931640625,STABILIZE
0.17,0.004,0.1,0.05865336216187024,0.03369741198365795,0.00023461344864748095,0.021932231387835684,0.055864256820141116,0.17,0.004,0.1,0.018434325347071474,0.021547029147887198,7.37373013882859e-05,0.06119284910397485,0.08281361555325034,0.002,8e-05,0,-0.3029737573536926,-0.001474757368119765,-2.4237900588295407e-05,-0.0,-0.0014989952687080605,0.2,0.02,0,-0.04857595422824738,0.0001747912522454244,-0.0009715190845649476,0.0,-0.0007967278323195232,0.12674723028168938,0.0,-0.12674723028168938,0.19822007049210558,0.0,-0.19822007049210558,-0.7373786840598825,0.0,0.7373786840598825,0.0008739562612271219,0,-0.0008739562612271219,0.055862993623256495,-0.08281446766426888,0.0007967278323195232,0.4,0.03347206115722656,0.46878790855407715,STABILIZE
0.17,0.004,0.1,0.06507230023636132,0.027762213010174234,0.00026028920094544526,0.021452580284166196,0.04947508249528587,0.17,0.004,0.1,0.02148733605613208,0.013204416781042679,8.594934422452833e-05,0.03369999260208828,0.04699035872735549,0.002,8e-05,0,-0.33240661189818904,-0.0014976293913951722,-2.6592528951855124e-05,-0.0,-0.0015242219203470274,0.2,0.02,0,-0.04491902880804867,0.018607501977594598,-0.0008983805761609734,0.0,0.017709121401433624,0.07767303988848634,0.0,-0.07767303988848634,0.16330713535396607,0.0,-0.16330713535396607,-0.7488146956975861,0.0,0.7488146956975861,0.09303750988797298,0,-0.09303750988797298,0.049398713846289244,-0.04707063491789045,-0.017709121401433624,0.4,0.039305925369262695,0.5081133842468262,STABILIZE
0.17,0.004,0.1,0.06933978205305705,0.021691258405531846,0.0002773591282122282,0.0025684934813688938,0.024537111015112967,0.17,0.004,0.1,0.022412097279944455,0.0047004850941958515,8.964838911977783e-05,-0.030730868576571646,-0.025940735093256017,0.002,8e-05,0,-0.3578201561556021,-0.0015197053084266391,-2.862561249244817e-05,-0.0,-0.0015483309209190874,0.2,0.02,0,-0.038706418534009385,0.03715080713265478,-0.0007741283706801877,0.0,0.03637667876197459,0.027649912318799125,0.0,-0.027649912318799125,0.12759563767959908,0.0,-0.12759563767959908,-0.7598526542133196,0.0,0.7598526542133196,0.1857540356632739,0,-0.1857540356632739,0.02462108228647613,0.025861049112304663,-0.03637667876197459,0.4,0.03344535827636719,0.5415511131286621,STABILIZE
0.17,0.004,0.1,0.07419601743991888,0.024682788563146332,0.00029678406975967554,-0.013949693708182418,0.01102987892472359,0.17,0.004,0.1,0.02396891549944333,0.007912840272756304,9.587566199777333e-05,-0.03396895672760887,-0.02596024079285479,0.002,8e-05,0,-0.3831478259864827,-0.0015145053231590028,-3.0651826078918623e-05,-0.0,-0.0015451571492379214,0.2,0.02,0,-0.03546730679845211,0.019368745717883218,-0.0007093461359690421,0.0,0.018659399581914177,0.04654611925150767,0.0,-0.04654611925150767,0.14519287390086077,0.0,-0.14519287390086077,-0.7572526615795013,0.0,0.7572526615795013,0.09684372858941609,0,-0.09684372858941609,0.011073742235445532,0.02594156055483119,-0.018659399581914177,0.4,0.0334467887878418,0.5749990940093994,STABILIZE
0.17,0.004,0.1,0.07896146717877556,0.02418050164921424,0.0003158458687151022,-0.01046802044263771,0.014028327075291634,0.17,0.004,0.1,0.027109598116522957,0.01593622540653902,0.00010843839246609183,0.013996021776139149,0.030040685575144263,0.002,8e-05,0,-0.4085112956308571,-0.0015140881162980862,-3.2680903650468566e-05,-0.0,-0.0015467690199485547,0.2,0.02,0,-0.032400915733282805,0.0183050124324187,-0.0006480183146656561,0.0,0.017656994117753046,0.093742502391406,0.0,-0.093742502391406,0.14223824499537788,0.0,-0.14223824499537788,-0.7570440581490431,0.0,0.7570440581490431,0.0915250621620935,0,-0.0915250621620935,0.013980321795270015,-0.03006305627937285,-0.017656994117753046,0.4,0.03350329399108887,0.6084961891174316,STABILIZE
0.17,0.004,0.1,0.08282710865433143,0.01964873706582039,0.00033130843461732574,-0.046301995422624836,-0.02632194992218712,0.17,0.004,0.1,0.030298407340943353,0.016208454508753724,0.00012119362936377341,-0.014452692676275497,0.0018769554618420017,0.002,8e-05,0,-0.43387424223985444,-0.0015166796181052752,-3.470993937918836e-05,-0.0,-0.0015513895574844636,0.2,0.02,0,-0.026962503092072588,0.03252118034599171,-0.0005392500618414518,0.0,0.03198193028415026,0.09534385005149248,0.0,-0.09534385005149248,0.1155808062695317,0.0,-0.1155808062695317,-0.7583398090526376,0.0,0.7583398090526376,0.16260590172995854,0,-0.16260590172995854,-0.02632717072808665,-0.0018022460892015476,-0.03198193028415026,0.4,0.03344535827636719,0.6419491767883301,STABILIZE
0.17,0.004,0.1,0.08764907765984083,0.02452068337581243,0.0003505963106393633,-0.011392067129996979,0.013479212556454815,0.17,0.004,0.1,0.03331892535512741,0.015359942333125981,0.00013327570142050965,0.007531626151002222,0.02302484418554871,0.002,8e-05,0,-0.45916135218165366,-0.0015128240709375935,-3.6732908174532295e-05,-0.0,-0.001549556979112126,0.2,0.02,0,-0.024493648336081142,0.01477014538675617,-0.0004898729667216228,-0.0,0.014280272420034547,0.09035260195956459,0.0,-0.09035260195956459,0.14423931397536724,0.0,-0.14423931397536724,-0.7564120354687968,0.0,0.7564120354687968,0.07385072693378085,0,-0.07385072693378085,0.01344952376330489,-0.023042198928296374,-0.014280272420034547,0.4,0.03343033790588379,0.6754128932952881,STABILIZE
0.17,0.004,0.1,0.09139040518320048,0.018997358353353904,0.0003655616207328019,-0.009445807210085958,0.009917112764000749,0.17,0.004,0.1,0.03779550723909554,0.022730763269692943,0.00015118202895638216,0.06334590991853631,0.08622785521718564,0.002,8e-05,0,-0.4845865570862584,-0.001518843483054228,-3.8766924566900675e-05,0.0,-0.0015576104076211288,0.2,0.02,0,-0.021722179597676586,0.016556119203790205,-0.0004344435919535317,-0.0,0.016121675611836674,0.13371037217466436,0.0,-0.13371037217466436,0.11174916678443472,0.0,-0.11174916678443472,-0.7594217415271141,0.0,0.7594217415271141,0.08278059601895102,0,-0.08278059601895102,0.009792520972539584,-0.08624209339952392,-0.016121675611836674,0.4,0.03347969055175781,0.7088546752929688,STABILIZE
0.17,0.004,0.1,0.09560206873877343,0.02140814922456409,0.00038240827495509373,-0.011487918054725363,0.010302639444793822,0.17,0.004,0.1,0.04132277146101539,0.01792930461347202,0.00016529108584406154,0.03515659994900427,0.05325119564832035,0.002,8e-05,0,-0.5101257176883667,-0.0015272605929747786,-4.081005741506934e-05,-0.0,-0.0015680706503898478,0.2,0.02,0,-0.017715431543931244,0.023960648134843183,-0.0003543086308786249,0.0,0.023606339503964558,0.105466497726306,0.0,-0.105466497726306,0.12593028955625934,0.0,-0.12593028955625934,-0.7636302964873892,0.0,0.7636302964873892,0.11980324067421591,0,-0.11980324067421591,0.010191270830226886,-0.05327262163973235,-0.023606339503964558,0.4,0.03344440460205078,0.7423126697540283,STABILIZE
0.17,0.004,0.1,0.1006868506512072,0.025833557230084885,0.0004027474026048288,0.005835427487506328,0.03207173212019604,0.17,0.004,0.1,0.04388302806132727,0.013007546153774422,0.00017553211224530908,-0.01032228509115344,0.002860793174866292,0.002,8e-05,0,-0.535212332551028,-0.0014994604590818272,-4.281698660408224e-05,0.0,-0.0015422774456859095,0.2,0.02,0,-0.01495017137357419,0.016528329179620604,-0.0002990034274714838,-0.0,0.01622932575214912,0.07651497737514365,0.0,-0.07651497737514365,0.1519621013534405,0.0,-0.1519621013534405,-0.7497302295409136,0.0,0.7497302295409136,0.08264164589810302,0,-0.08264164589810302,0.03206757244129437,-0.002907049449409751,-0.01622932575214912,0.4,0.03346085548400879,0.7758121490478516,STABILIZE
0.17,0.004,0.1,0.10487862936850571,0.021312390962583017,0.00041951451747402284,0.005868285339960769,0.027600190820017807,0.17,0.004,0.1,0.047573068566575505,0.018761387759108964,0.00019029227426630203,0.008965408899061849,0.027917088932437113,0.002,8e-05,0,-0.5602259750411769,-0.0014962075391790042,-4.4818078003294155e-05,0.0,-0.0015410256171822984,0.2,0.02,0,-0.011881432110212399,0.018355866497351585,-0.000237628642204248,-0.0,0.018118237855147337,0.11036110446534685,0.0,-0.11036110446534685,0.12536700566225303,0.0,-0.12536700566225303,-0.7481037695895021,0.0,0.7481037695895021,0.09177933248675793,0,-0.09177933248675793,0.027555436397273758,-0.027961264505004035,-0.018118237855147337,0.4,0.03343605995178223,0.8092141151428223,STABILIZE
0.17,0.004,0.1,0.10759837515638353,0.013809575716578797,0.00043039350062553413,-0.03764074984027152,-0.02340078062306719,0.17,0.004,0.1,0.05177225711890798,0.021321482515053135,0.00020708902847563194,0.02094727670151649,0.04247584824504526,0.002,8e-05,0,-0.5852942169064108,-0.0014974660095609593,-4.682353735251287e-05,0.0,-0.001544289546913472,0.2,0.02,0,-0.008882536353040834,0.017914078245786447,-0.0001776507270608167,0.0,0.01773642751872563,0.12542048538266548,0.0,-0.12542048538266548,0.08123279833281645,0.0,-0.08123279833281645,-0.7487330047804797,0.0,0.7487330047804797,0.08957039122893223,0,-0.08957039122893223,-0.023467154420197995,-0.0424392139574193,-0.01773642751872563,0.4,0.03348088264465332,0.842700719833374,STABILIZE
0.17,0.004,0.1,0.1098899327776402,0.011659434711727184,0.0004395597311105608,-0.025802750690779076,-0.013703756247941332,0.17,0.004,0.1,0.05700066637661224,0.02660212242577722,0.00022800266550644896,0.013640021123482032,0.040470146214765704,0.002,8e-05,0,-0.6104835200016886,-0.0015078006954436392,-4.883868160013509e-05,0.0,-0.0015566393770437743,0.2,0.02,0,-0.00637957351147278,0.014982427655544818,-0.0001275914702294556,-0.0,0.014854836185315362,0.15648307309280718,0.0,-0.15648307309280718,0.06858491006898343,0.0,-0.06858491006898343,-0.7539003477218196,0.0,0.7539003477218196,0.07491213827772408,0,-0.07491213827772408,-0.013756657757355201,-0.040452194468217725,-0.014854836185315362,0.4,0.03341197967529297,0.876105546951294,STABILIZE
0.17,0.004,0.1,0.11258776681174505,0.013708959048595763,0.0004503510672469802,-0.02707583519136976,-0.012916525075527017,0.17,0.004,0.1,0.06224467813598905,0.026647281319328718,0.0002489787125439562,0.03068887102304062,0.057585131054913294,0.002,8e-05,0,-0.635781809728698,-0.0015123819526105258,-5.086254477829585e-05,0.0,-0.0015632444973888216,0.2,0.02,0,-0.003461635431600544,0.017444012771038256,-6.923270863201089e-05,-0.0,0.017374780062406246,0.1567487136431101,0.0,-0.1567487136431101,0.08064093557997506,0.0,-0.08064093557997506,-0.7561909763052629,0.0,0.7561909763052629,0.08722006385519128,0,-0.08722006385519128,-0.013004170612895603,-0.0575654018079346,-0.017374780062406246,0.4,0.03345489501953125,0.9095666408538818,STABILIZE
0.17,0.004,0.1,0.11468470621499842,0.010654696578517527,0.00045873882485999366,-0.053375135297109993,-0.04226169989373248,0.17,0.004,0.1,0.06653004473108774,0.021774249044894545,0.000266120178924351,0.030858481086342163,0.05289885031016106,0.002,8e-05,0,-0.660869843547368,-0.0014996948728047631,-5.2869587483789445e-05,-0.0,-0.0015525644602885525,0.2,0.02,0,-0.0002453922816983713,0.019225832508294367,-4.9078456339674265e-06,0.0,0.0192209246626604,0.12808381791114437,0.0,-0.12808381791114437,0.06267468575598545,0.0,-0.06267468575598545,-0.7498474364023815,0.0,0.7498474364023815,0.09612916254147183,0,-0.09612916254147183,-0.04235039249549588,-0.052827870461738105,-0.0192209246626604,0.4,0.03345751762390137,0.9430346488952637,STABILIZE
0.17,0.004,0.1,0.1170929665067389,0.012244305427026161,0.0004683718660269556,-0.03187399589651433,-0.019161318603461215,0.17,0.004,0.1,0.07155542900313966,0.025550535432657482,0.0002862217160125586,0.023900223348500282,0.04973698049717032,0.002,8e-05,0,-0.6858073725394447,-0.001491644123751559,-5.4864589803155576e-05,0.0,-0.0015465087135547145,0.2,0.02,0,0.0017635970014974072,0.012016816340989415,3.5271940029948144e-05,-0.0,0.012052088281019363,0.15029726725092635,0.0,-0.15029726725092635,0.07202532604133036,0.0,-0.07202532604133036,-0.7458220618757795,0.0,0.7458220618757795,0.06008408170494707,0,-0.06008408170494707,-0.0192134654913953,-0.049716859347812906,-0.012052088281019363,0.4,0.03343629837036133,0.9764597415924072,STABILIZE
0.17,0.004,0.1,0.11981932428759705,0.013851335048853278,0.0004792772971503882,0.00014004259294670085,0.014470654938950367,0.17,0.004,0.1,0.07736501344117637,0.029515752155067996,0.0003094600537647055,0.028845862091353494,0.0586710743001862,0.002,8e-05,0,-0.710760468607464,-0.0014914692353252374,-5.686083748859712e-05,0.0,-0.0015483300728138345,0.2,0.02,0,0.0025750069401918626,0.0048498709639119165,5.150013880383725e-05,-0.0,0.004901371102715754,0.17362207150039996,0.0,-0.17362207150039996,0.08147844146384281,0.0,-0.08147844146384281,-0.7457346176626187,0.0,0.7457346176626187,0.02424935481955958,0,-0.02424935481955958,0.014445822221345064,-0.058677193476251326,-0.004901371102715754,0.4,0.03346109390258789,1.0099256038665771,STABILIZE
0.17,0.004,0.1,0.12249296648450865,0.013584770420234538,0.0004899718659380346,0.0067736019644584235,0.020848344250630996,0.17,0.004,0.1,0.08354892579021488,0.031420445734130074,0.00033419570316085953,0.0169495799796649,0.04870422141695584,0.002,8e-05,0,-0.7356871635305274,-0.0014900292336454673,-5.88549730824422e-05,0.0,-0.0015488842067279095,0.2,0.02,0,0.004504239847634553,0.01153226867610399,9.008479695269106e-05,-0.0,0.01162235347305668,0.1848261513772357,0.0,-0.1848261513772357,0.07991041423667375,0.0,-0.07991041423667375,-0.7450146168227336,0.0,0.7450146168227336,0.057661343380519946,0,-0.057661343380519946,0.020799318732665162,-0.04872517811236488,-0.01162235347305668,0.4,0.03345799446105957,1.043395757675171,STABILIZE
0.17,0.004,0.1,0.12525788234254273,0.014075311633891816,0.0005010315293701709,0.001294429942649681,0.01587077310591167,0.17,0.004,0.1,0.08895133816471272,0.027501971723623054,0.0003558053526588509,0.002986130409574777,0.03084390748585668,0.002,8e-05,0,-0.7603038120394385,-0.00147430079116302,-6.082430496315509e-05,0.0,-0.0015351250961261752,0.2,0.02,0,0.004638347503314213,0.0008031760407919433,9.276695006628427e-05,-0.0,0.0008959429908582277,0.1617763042566062,0.0,-0.1617763042566062,0.08279595078759891,0.0,-0.08279595078759891,-0.7371503955815101,0.0,0.7371503955815101,0.004015880203959717,0,-0.004015880203959717,0.015868611207216086,-0.030845019797847935,-0.0008959429908582277,0.4,0.03339433670043945,1.0767700672149658,STABILIZE
0.17,0.004,0.1,0.12992007775352493,0.014075311633891816,0.0005196803110140997,0.012034168632142232,0.026629160577048148,0.17,0.004,0.1,0.09806087475600915,0.027501971723623054,0.00039224349902403663,0.02012123054114468,0.04801544576379177,0.002,8e-05,0,-0.8018123539281632,-0.00147430079116302,-6.414498831425306e-05,0.0,-0.0015384457794772731,0.2,0.02,0,0.004864479555423694,0.0008031760407919433,9.728959110847388e-05,-0.0,0.0009004656319004172,0.1617763042566062,0.0,-0.1617763042566062,0.08279595078759891,0.0,-0.08279595078759891,-0.7371503955815101,0.0,0.7371503955815101,0.004015880203959717,0,-0.004015880203959717,0.02662579509310987,-0.048017312092552306,-0.0009004656319004172,0.4,0.05630946159362793,1.1330878734588623,STABILIZE
0.17,0.004,0.1,0.13225265157496527,0.011800759405602525,0.0005290106062998611,-0.0015224137824712946,0.010807356229431091,0.17,0.004,0.1,0.10317787026474984,0.02588746916524638,0.00041271148105899934,0.00118164042024693,0.027481821066552305,0.002,8e-05,0,-0.8262192197585753,-0.0014526722716043771,-6.609753758068602e-05,0.0,-0.0015187698091850632,0.2,0.02,0,0.005555085762306236,0.004110419151344225,0.00011110171524612472,-0.0,0.00422152086659035,0.15227923038380223,0.0,-0.15227923038380223,0.0694162317976619,0.0,-0.0694162317976619,-0.7263361358021886,0.0,0.7263361358021886,0.020552095756721126,0,-0.020552095756721126,0.010797497757356474,-0.027485695915943315,-0.00422152086659035,0.4,0.03360271453857422,1.1666948795318604,STABILIZE
0.17,0.004,0.1,0.13492085775833199,0.013560628791152794,0.000539683431033328,-0.0009828779104065035,0.013117434311779618,0.17,0.004,0.1,0.10801600474955939,0.02458885906163132,0.00043206401899823757,-0.01732723155580849,0.007693691524821064,0.002,8e-05,0,-0.8506463896870272,-0.0014605440820485921,-6.805171117496218e-05,0.0,-0.0015285957932235543,0.2,0.02,0,0.0053403230000639325,-0.001284104881392962,0.00010680646000127865,-0.0,-0.0011772984213916833,0.1446403474213607,0.0,-0.1446403474213607,0.07976840465383996,0.0,-0.07976840465383996,-0.7302720410242961,0.0,0.7302720410242961,-0.0064205244069648094,0,0.0064205244069648094,0.01311829637903255,-0.007692221546134652,0.0011772984213916833,0.4,0.033449411392211914,1.2001430988311768,STABILIZE
0.17,0.004,0.1,0.13716639957168028,0.011407154675249071,0.0005486655982867211,-0.0076161267394848275,0.004339693534050964,0.17,0.004,0.1,0.1130827695846464,0.02573871919613444,0.0004523310783385856,-0.019982287520398843,0.006208762754074181,0.002,8e-05,0,-0.8749053165843007,-0.0014498024995325265,-6.999242532674406e-05,0.0,-0.0015197949248592706,0.2,0.02,0,0.006140148389310719,0.004780050055099071,0.00012280296778621438,-0.0,0.004902853022885285,0.15140423056549668,0.0,-0.15140423056549668,0.0671009098544063,0.0,-0.0671009098544063,-0.7249012497662632,0.0,0.7249012497662632,0.023900250275495354,0,-0.023900250275495354,0.004337103245317464,-0.006210572465185418,-0.004902853022885285,0.4,0.03346514701843262,1.2336299419403076,STABILIZE
0.17,0.004,0.1,0.1389922365239671,0.00928494721992919,0.0005559689460958684,-0.01681285561995252,-0.006971939453927463,0.17,0.004,0.1,0.1183988881397935,0.027034111746727978,0.00047359555255917403,-0.001618838359646464,0.025888868939640687,0.002,8e-05,0,-0.8990809280699922,-0.0014463586226322843,-7.192647424559938e-05,0.0,-0.0015182850968778836,0.2,0.02,0,0.007951775154559965,0.01083845177798504,0.0001590355030911993,0.0,0.010997487281076239,0.15902418674545868,0.0,-0.15902418674545868,0.05461733658781876,0.0,-0.05461733658781876,-0.7231793113161421,0.0,0.7231793113161421,0.054192258889925196,0,-0.054192258889925196,-0.006996422887277758,-0.02588226306769751,-0.010997487281076239,0.4,0.033429622650146484,1.267054557800293,STABILIZE
0.17,0.004,0.1,0.14059956947005386,0.008171047624554091,0.0005623982778802155,-0.020731628503010587,-0.01199818260057628,0.17,0.004,0.1,0.1235505546280751,0.026189043361583925,0.0004942022185123004,-0.004591845160063705,0.02209140042003252,0.002,8e-05,0,-0.9230531274748097,-0.0014337084699584915,-7.384425019798479e-05,0.0,-0.0015075527201564762,0.2,0.02,0,0.009546125582942922,0.00953535249166675,0.00019092251165885846,0.0,0.009726275003325608,0.1540531962446113,0.0,-0.1540531962446113,0.04806498602678877,0.0,-0.04806498602678877,-0.7168542349792457,0.0,0.7168542349792457,0.047676762458333743,0,-0.047676762458333743,-0.012016561062968173,-0.022081408887454208,-0.009726275003325608,0.4,0.03344082832336426,1.3005008697509766,STABILIZE
0.17,0.004,0.1,0.14243918897561983,0.008715429401308055,0.0005697567559024793,-0.010983324829922682,-0.0016981386727121482,0.17,0.004,0.1,0.1293763504090467,0.027600442201157944,0.0005175054016361868,0.005688178535695059,0.03380612613848919,0.002,8e-05,0,-0.9492430511456227,-0.0014597419551930237,-7.593944409164983e-05,-0.0,-0.0015356813992846736,0.2,0.02,0,0.01134513646798966,0.010027106988777804,0.0002269027293597932,0.0,0.010254009718137596,0.1623555423597526,0.0,-0.1623555423597526,0.051267231772400314,0.0,-0.051267231772400314,-0.7298709775965119,0.0,0.7298709775965119,0.05013553494388902,0,-0.05013553494388902,-0.001727719398686886,-0.03380462727383048,-0.010254009718137596,0.4,0.03588294982910156,1.3363771438598633,STABILIZE
0.17,0.004,0.1,0.14374566929928514,0.006638744174612911,0.0005749826771971406,-0.024475814522117237,-0.017262087670307187,0.17,0.004,0.1,0.1344650801695142,0.025857852155557515,0.0005378603206780568,0.004127720304840696,0.03052343278107627,0.002,8e-05,0,-0.9735238386090718,-0.0014515329596370427,-7.788190708872574e-05,0.0,-0.0015294148667257684,0.2,0.02,0,0.01307893014607503,0.010364814867473642,0.0002615786029215006,0.0,0.010626393470395143,0.15210501267975007,0.0,-0.15210501267975007,0.039051436321252415,0.0,-0.039051436321252415,-0.7257664798185214,0.0,0.7257664798185214,0.0518240743373682,0,-0.0518240743373682,-0.01728968907250165,-0.030507806726385128,-0.010626393470395143,0.4,0.03345537185668945,1.3698906898498535,STABILIZE
0.17,0.004,0.1,0.1446554580524597,0.004623063021102854,0.0005786218322098388,-0.023993573481688076,-0.018791888628375383,0.17,0.004,0.1,0.13919190400735024,0.02401920711342845,0.000556767616029401,-0.006380380288212393,0.01819559444124546,0.002,8e-05,0,-0.9975680166203271,-0.0014374086660393448,-7.980544132962618e-05,0.0,-0.001517214107368971,0.2,0.02,0,0.014859230854455636,0.01064299085285577,0.0002971846170891127,0.0,0.010940175469944883,0.14128945360840264,0.0,-0.14128945360840264,0.027194488359428552,0.0,-0.027194488359428552,-0.7187043330196724,0.0,0.7187043330196724,0.053214954264278844,0,-0.053214954264278844,-0.018808780155160774,-0.018178133137546796,-0.010940175469944883,0.4,0.03345489501953125,1.403289794921875,STABILIZE
0.17,0.004,0.1,0.14586722432086438,0.006163614002710253,0.0005834688972834576,-0.011102188658352156,-0.004355105758358446,0.17,0.004,0.1,0.14448569845892903,0.026926732043942237,0.0005779427938357161,-0.0007045544210584182,0.026800120416719538,0.002,8e-05,0,-1.021055266304459,-0.0014054966443502448,-8.168442130435673e-05,0.0,-0.0014871810656546015,0.2,0.02,0,0.016599080255118324,0.01041140417542498,0.0003319816051023665,-0.0,0.010743385780527345,0.15839254143495432,0.0,-0.15839254143495432,0.03625655295711913,0.0,-0.03625655295711913,-0.7027483221751224,0.0,0.7027483221751224,0.052057020877124896,0,-0.052057020877124896,-0.004379453646731259,-0.026796152452792297,-0.010743385780527345,0.4,0.033421993255615234,1.436713457107544,STABILIZE
0.17,0.004,0.1,0.14690434431353508,0.005274753992521705,0.0005876173772541403,-0.010311934249576209,-0.004449562879800363,0.17,0.004,0.1,0.1493722168582245,0.02485265216982332,0.0005974888674328979,-0.005031681645054447,0.02041845939220177,0.002,8e-05,0,-1.0444074665066918,-0.0013972756243691097,-8.355259732053535e-05,0.0,-0.001480828221689645,0.2,0.02,0,0.018246764929899538,0.009858898145701088,0.0003649352985979908,0.0,0.010223833444299078,0.146192071587196,0.0,-0.146192071587196,0.03102796466189238,0.0,-0.03102796466189238,-0.6986378121845548,0.0,0.6986378121845548,0.04929449072850543,0,-0.04929449072850543,-0.004467128276193113,-0.02041462364914734,-0.010223833444299078,0.4,0.033425331115722656,1.470139503479004,STABILIZE
0.17,0.004,0.1,0.14777077117123483,0.0044009331866528235,0.0005910830846849394,-0.01516838225333389,-0.010176365981996126,0.17,0.004,0.1,0.15385365729895403,0.02276305239657018,0.0006154146291958161,-0.017004418108272187,0.006374048917493807,0.002,8e-05,0,-1.067656403509026,-0.0013893032258081907,-8.541251228072208e-05,0.0,-0.0014747157380889128,0.2,0.02,0,0.019803104194516287,0.009300326980828893,0.00039606208389032576,-0.0,0.00969638906471922,0.1339003082151187,0.0,-0.1339003082151187,0.025887842274428374,0.0,-0.025887842274428374,-0.6946516129040953,0.0,0.6946516129040953,0.04650163490414447,0,-0.04650163490414447,-0.010181535850218793,-0.006365787612922805,-0.00969638906471922,0.4,0.03346848487854004,1.5036158561706543,STABILIZE
0.17,0.004,0.1,0.14842762734893122,0.003340174467987689,0.0005937105093957249,-0.011598552372505396,-0.007664667395121982,0.17,0.004,0.1,0.15881271363204771,0.025217260507776566,0.0006352508545281909,-0.0022399434407263294,0.02361256792157843,0.002,8e-05,0,-1.0911914213537495,-0.0014079734629324713,-8.729531370829996e-05,0.0,-0.0014952687766407713,0.2,0.02,0,0.021772108700459345,0.011779494330758795,0.0004354421740091869,0.0,0.012214936504767982,0.14833682651633273,0.0,-0.14833682651633273,0.019648085105809933,0.0,-0.019648085105809933,-0.7039867314662356,0.0,0.7039867314662356,0.05889747165379397,0,-0.05889747165379397,-0.007688935993824504,-0.023604676515721852,-0.012214936504767982,0.4,0.033431053161621094,1.5370395183563232,STABILIZE
0.17,0.004,0.1,0.14856321828842714,0.0006890207487495959,0.0005942528731537086,-0.013833512896197673,-0.012550239274294368,0.17,0.004,0.1,0.16371201942285607,0.024896378451878667,0.0006548480776914243,0.003097370427722035,0.028648596957292126,0.002,8e-05,0,-1.1145855978693646,-0.001398590155593814,-8.916684782954918e-05,0.0,-0.001487757003423363,0.2,0.02,0,0.024065471620605468,0.013710569385416574,0.00048130943241210934,0.0,0.014191878817828683,0.14644928501105098,0.0,-0.14644928501105098,0.004053063227938799,0.0,-0.004053063227938799,-0.699295077796907,0.0,0.699295077796907,0.06855284692708287,0,-0.06855284692708287,-0.012584507552596191,-0.02863356043390444,-0.014191878817828683,0.4,0.033453941345214844,1.5704967975616455,STABILIZE
0.17,0.004,0.1,0.1489620180117054,0.0020179889197623623,0.0005958480720468216,-0.014602496491594825,-0.011988659499785642,0.17,0.004,0.1,0.16826002055081032,0.023013596418357145,0.0006730400822032414,-0.013730458359742782,0.009956178140817604,0.002,8e-05,0,-1.1378284499347657,-0.0013836760421730029,-9.102627599478126e-05,0.0,-0.001474702318167784,0.2,0.02,0,0.02567851232158476,0.009602632958789933,0.0005135702464316952,-0.0,0.010116203205221629,0.13537409657857144,0.0,-0.13537409657857144,0.01187052305742566,0.0,-0.01187052305742566,-0.6918380210865014,0.0,0.6918380210865014,0.04801316479394966,0,-0.04801316479394966,-0.01199699844536556,-0.009946128295743583,-0.010116203205221629,0.4,0.03359580039978027,1.60410737991333,STABILIZE
0.17,0.004,0.1,0.14911525908179238,0.0007670893251227419,0.0005964610363271695,-0.0158073439804212,-0.014443793618971289,0.17,0.004,0.1,0.17260477636371815,0.021748841889803885,0.0006904191054548726,-0.010811686555931226,0.01162757443932753,0.002,8e-05,0,-1.1610257709347878,-0.001366122579852525,-9.288206167478303e-05,0.0,-0.001459004641527308,0.2,0.02,0,0.02750228853124024,0.01074047240457565,0.0005500457706248048,0.0,0.011290518175200454,0.1279343640576699,0.0,-0.1279343640576699,0.004512290147780834,0.0,-0.004512290147780834,-0.6830612899262625,0.0,0.6830612899262625,0.053702362022878244,0,-0.053702362022878244,-0.014454685601184977,-0.011614031411204052,-0.011290518175200454,0.4,0.033960819244384766,1.6380579471588135,STABILIZE
0.17,0.004,0.1,0.14926938081834948,0.0007388406509554906,0.0005970775232733979,-0.012829441297798803,-0.011493523123569915,0.17,0.004,0.1,0.17682846763348692,0.020247856512018127,0.0007073138705339477,-0.00844602227356425,0.012509148108987825,0.002,8e-05,0,-1.1849174963707378,-0.0013474587470976745,-9.479339970965903e-05,0.0,-0.0014422521468073334,0.2,0.02,0,0.02853413947321064,0.0058194900204523725,0.0005706827894642128,-0.0,0.006390172809916586,0.11910503830598898,0.0,-0.11910503830598898,0.004346121476208768,0.0,-0.004346121476208768,-0.6737293735488372,0.0,0.6737293735488372,0.029097450102261863,0,-0.029097450102261863,-0.011499874365847944,-0.01250330955284813,-0.006390172809916586,0.4,0.0354619026184082,1.673520565032959,STABILIZE
0.17,0.004,0.1,0.1494249561029535,0.0007862420638581648,0.000597699824411814,-0.008930747716420055,-0.007546805828150076,0.17,0.004,0.1,0.1805374627154713,0.0187444166052567,0.0007221498508618852,-0.022340775480325595,-0.0028742090242070105,0.002,8e-05,0,-1.2071856934686498,-0.0013239811489281301,-9.657485547749199e-05,0.0,-0.001420556004405622,0.2,0.02,0,0.028702849106150074,0.0010030824348835135,0.0005740569821230015,-0.0,0.001577139417006515,0.1102612741485688,0.0,-0.1102612741485688,0.004624953316812733,0.0,-0.004624953316812733,-0.6619905744640651,0.0,0.6619905744640651,0.0050154121744175675,0,-0.0050154121744175675,-0.007546554204039898,0.002874869626282329,-0.001577139417006515,0.4,0.03363823890686035,1.7071573734283447,STABILIZE
0.17,0.004,0.1,0.14928968909822316,-0.0006738275891729847,0.0005971587563928926,-0.004640882338578753,-0.004717551171358846,0.17,0.004,0.1,0.1846637943246381,0.020555168541476383,0.0007386551772985523,-0.01496998482729818,0.006323838891476755,0.002,8e-05,0,-1.2294959027540107,-0.0013074998085250663,-9.835967222032086e-05,0.0,-0.001405859480745387,0.2,0.02,0,0.02964747160618728,0.0055360024737084726,0.0005929494321237456,-0.0,0.006128951905832218,0.12091275612633166,0.0,-0.12091275612633166,-0.003963691701017557,0.0,0.003963691701017557,-0.6537499042625331,0.0,0.6537499042625331,0.02768001236854236,0,-0.02768001236854236,-0.0047206057137855265,-0.006321559069938255,-0.006128951905832218,0.4,0.03412652015686035,1.741288661956787,STABILIZE
0.17,0.004,0.1,0.1491011387437018,-0.0009571577392065819,0.0005964045549748071,-0.010290076024724683,-0.010650829208956457,0.17,0.004,0.1,0.18817026716701124,0.017800272117839334,0.0007526810686680449,-0.018054964348352683,0.0004979888381546962,0.002,8e-05,0,-1.251119198697326,-0.0012913950828453786,-0.00010008953589578609,0.0,-0.0013914846187411648,0.2,0.02,0,0.029780895299122444,0.0007968382870179804,0.0005956179059824489,-0.0,0.0013924561930004293,0.10470748304611373,0.0,-0.10470748304611373,-0.005630339642391658,0.0,0.005630339642391658,-0.6456975414226893,0.0,0.6456975414226893,0.003984191435089901,0,-0.003984191435089901,-0.010650863811984363,-0.0004972482074865877,-0.0013924561930004293,0.4,0.03348827362060547,1.7748029232025146,STABILIZE
0.17,0.004,0.1,0.14895960023634694,-0.00071833785088169,0.0005958384009453878,-0.005117913225700447,-0.0052404126756367495,0.17,0.004,0.1,0.19101777277068036,0.014451692998182152,0.0007640710910827214,-0.02543467274076841,-0.010218908651503537,0.002,8e-05,0,-1.27257410748554,-0.001281037628209808,-0.0001018059285988432,0.0,-0.0013828435568086512,0.2,0.02,0,0.029535902724120634,-0.0014628107269406805,0.0005907180544824127,-0.0,-0.0008720926724582679,0.08500995881283618,0.0,-0.08500995881283618,-0.0042255167698922935,0.0,0.0042255167698922935,-0.640518814104904,0.0,0.640518814104904,-0.007314053634703402,0,0.007314053634703402,-0.00524171712074576,0.010218239606939588,0.0008720926724582679,0.4,0.03349614143371582,1.808281660079956,STABILIZE
0.17,0.004,0.1,0.14897624259885905,8.462855747925571e-05,0.0005959049703954363,-0.0021984611108682136,-0.0015179275829935216,0.17,0.004,0.1,0.1942212528225761,0.01629010878161806,0.0007768850112903045,-0.013985454458789013,0.0030815393341193497,0.002,8e-05,0,-1.2937273374918445,-0.0012654929393072817,-0.00010349818699934757,0.0,-0.0013689911263066292,0.2,0.02,0,0.028924418627152525,-0.0036582063683947745,0.0005784883725430505,-0.0,-0.003079717995851724,0.09582416930363563,0.0,-0.09582416930363563,0.0004978150439956218,0.0,-0.0004978150439956218,-0.6327464696536408,0.0,0.6327464696536408,-0.018291031841973872,0,0.018291031841973872,-0.0015169437589605816,-0.0030820237583587544,0.003079717995851724,0.4,0.03343081474304199,1.8417353630065918,STABILIZE
0.17,0.004,0.1,0.14878607862613336,-0.0009658510898307646,0.0005951443145045335,-0.006056584137364672,-0.006427290912690903,0.17,0.004,0.1,0.19672764968221623,0.012730098681330416,0.0007869105987288649,-0.021240404776340156,-0.007723395496280875,0.002,8e-05,0,-1.3153354953003737,-0.0012911620410571592,-0.00010522683962402991,0.0,-0.0013963888806811891,0.2,0.02,0,0.028159851195145785,-0.004568554407937491,0.0005631970239029157,-0.0,-0.004005357384034575,0.07488293341959068,0.0,-0.07488293341959068,-0.005681476999004497,0.0,0.005681476999004497,-0.6455810205285796,0.0,0.6455810205285796,-0.022842772039687452,0,0.022842772039687452,-0.006430369577347787,0.007720832440032021,0.004005357384034575,0.4,0.033470869064331055,1.875190258026123,STABILIZE
0.17,0.004,0.1,0.14847549807124896,-0.0015796688410339534,0.0005939019922849959,-0.003183715605357855,-0.0041694824541068124,0.17,0.004,0.1,0.1993099581765419,0.013134087766511838,0.0007972398327061676,-0.026060773216482078,-0.012129445617264072,0.002,8e-05,0,-1.3367262915128273,-0.0012799700708621038,-0.0001069381033210262,0.0,-0.00138690817418313,0.2,0.02,0,0.027614241673425806,-0.003264786645820944,0.0005522848334685161,-0.0,-0.002712501812352428,0.07725933980301081,0.0,-0.07725933980301081,-0.009292169653140902,0.0,0.009292169653140902,-0.6399850354310519,0.0,0.6399850354310519,-0.01632393322910472,0,0.01632393322910472,-0.0041729380413013115,0.012128257212836951,0.002712501812352428,0.4,0.03342390060424805,1.9086172580718994,STABILIZE
0.17,0.004,0.1,0.1480574497935603,-0.0021262236043272822,0.0005922297991742412,-0.004112102163729799,-0.0056460959688828406,0.17,0.004,0.1,0.20197917125246884,0.013575809661011233,0.0008079166850098753,-0.0148278347807415,-0.000444108434720392,0.002,8e-05,0,-1.3578580821107455,-0.0012644447844330385,-0.00010862864656885965,0.0,-0.001373073431001898,0.2,0.02,0,0.027300098272929237,-0.00187971285481638,0.0005460019654585848,-0.0,-0.0013337108893577952,0.07985770388830137,0.0,-0.07985770388830137,-0.012507197672513425,0.0,0.012507197672513425,-0.6322223922165192,0.0,0.6322223922165192,-0.0093985642740819,0,0.0093985642740819,-0.00564616874264361,0.0004431822663635676,0.0013337108893577952,0.4,0.03342461585998535,1.9420385360717773,STABILIZE
0.17,0.004,0.1,0.1477559164116172,-0.0015328223083496632,0.0005910236656464688,-0.002863348178706081,-0.0038051468214092754,0.17,0.004,0.1,0.20524539860297228,0.016603621511923156,0.0008209815944118891,0.0075848996521335746,0.02500950275846862,0.002,8e-05,0,-1.3786913685417117,-0.0012459346756954178,-0.00011029530948333695,0.0,-0.0013562299851787548,0.2,0.02,0,0.026694913124835594,-0.0036193097220848405,0.0005338982624967119,-0.0,-0.0030854114595881285,0.0976683618348421,0.0,-0.0976683618348421,-0.009016601813821547,0.0,0.009016601813821547,-0.6229673378477089,0.0,0.6229673378477089,-0.0180965486104242,0,0.0180965486104242,-0.0037972475214392313,-0.025010703345153134,0.0030854114595881285,0.4,0.033442020416259766,1.975480079650879,STABILIZE
0.17,0.004,0.1,0.1472790417107717,-0.0024248136541444353,0.0005891161668430868,-0.008827906953443983,-0.010663604440745333,0.17,0.004,0.1,0.2083045331918828,0.015555095097105944,0.0008332181327675312,-0.0025743604224542963,0.01381395280741918,0.002,8e-05,0,-1.399350072297651,-0.0012358285620325652,-0.00011194800578381209,0.0,-0.0013477765678163774,0.2,0.02,0,0.02612308610483234,-0.00342073816542733,0.0005224617220966468,0.0,-0.002898276443330683,0.09150055939474085,0.0,-0.09150055939474085,-0.014263609730261383,0.0,0.014263609730261383,-0.6179142810162827,0.0,0.6179142810162827,-0.01710369082713665,0,0.01710369082713665,-0.010659480283623991,-0.013817135445428595,0.002898276443330683,0.4,0.033432960510253906,2.0089099407196045,STABILIZE
0.17,0.004,0.1,0.14676913577752637,-0.002592863397758344,0.0005870765431101055,-0.0057269369839080785,-0.007732723838556317,0.17,0.004,0.1,0.21159445614009723,0.016729204815443204,0.0008463778245603889,0.014070466589865022,0.03164604922986861,0.002,8e-05,0,-1.4198850341780695,-0.0012284699764644486,-0.00011359080273424557,0.0,-0.0013420607791986942,0.2,0.02,0,0.025699071301081,-0.002536598115050264,0.00051398142602162,0.0,-0.002022616689028644,0.0984070871496659,0.0,-0.0984070871496659,-0.015252137633872611,0.0,0.015252137633872611,-0.6142349882322243,0.0,0.6142349882322243,-0.01268299057525132,0,0.01268299057525132,-0.007725718481458567,-0.031647760169842894,0.002022616689028644,0.4,0.0334317684173584,2.042343854904175,STABILIZE
0.17,0.004,0.1,0.14623968193967168,-0.0026920721904828493,0.0005849587277586868,-0.003915484454014355,-0.006022597916738518,0.17,0.004,0.1,0.21466101989783062,0.015592314990079027,0.0008586440795913226,0.00864803366263946,0.02509899273230981,0.002,8e-05,0,-1.440197010371288,-0.0012150435774050466,-0.00011521576082970305,0.0,-0.0013302593382347495,0.2,0.02,0,0.025236141692816353,-0.002769201981934132,0.0005047228338563271,0.0,-0.002264479148077805,0.09171949994164133,0.0,-0.09171949994164133,-0.01583571876754617,0.0,0.01583571876754617,-0.6075217887025233,0.0,0.6075217887025233,-0.013846009909670658,0,0.013846009909670658,-0.006016532356980226,-0.02510044741116488,0.002264479148077805,0.4,0.033434152603149414,2.075838327407837,STABILIZE
0.17,0.004,0.1,0.14583537862082566,-0.0020548793198876744,0.0005833415144833027,0.00024947176384141126,-0.0012220660415629605,0.17,0.004,0.1,0.21771729243101767,0.015533563370966138,0.0008708691697240708,0.0068866249807988875,0.023291057521489095,0.002,8e-05,0,-1.4603947427702924,-0.0012077101138643802,-0.0001168315794216234,0.0,-0.0013245416932860037,0.2,0.02,0,0.024737637004134453,-0.002980775972453328,0.000494752740082689,-0.0,-0.002486023232370639,0.09137390218215374,0.0,-0.09137390218215374,-0.012087525411103967,0.0,0.012087525411103967,-0.6038550569321901,0.0,0.6038550569321901,-0.01490387986226664,0,0.01490387986226664,-0.0012160074890645379,-0.023291374619497967,0.002486023232370639,0.4,0.033447980880737305,2.1092400550842285,STABILIZE
0.17,0.004,0.1,0.14556171197733594,-0.0013897371025384396,0.0005822468479093438,0.000499452342791146,-0.0003080379118379498,0.17,0.004,0.1,0.22075526229810985,0.015427453586796666,0.0008830210491924394,-0.0041379439800376065,0.012172530655951497,0.002,8e-05,0,-1.4804099593074558,-0.0011957823913209952,-0.00011843279674459647,0.0,-0.0013142151880655916,0.2,0.02,0,0.024212236575934454,-0.0031389347163321268,0.0004842447315186891,0.0,-0.002654689984813438,0.09074972698115685,0.0,-0.09074972698115685,-0.008174924132579055,0.0,0.008174924132579055,-0.5978911956604975,0.0,0.5978911956604975,-0.015694673581660632,0,0.015694673581660632,-0.00030470355533399914,-0.012172614578165831,0.002654689984813438,0.4,0.03347635269165039,2.1427316665649414,STABILIZE
0.17,0.004,0.1,0.14489517473022026,-0.0027402424675876903,0.000579580698920881,-0.00020403988692108688,-0.0023647016555878963,0.17,0.004,0.1,0.22444521331834516,0.015169985672552155,0.0008977808532733807,-0.0011808108002125846,0.014886955725612952,0.002,8e-05,0,-1.504920426848009,-0.0011854882095874298,-0.00012039363414784072,0.0,-0.0013058818437352705,0.2,0.02,0,0.023337668464953977,-0.004229989421185515,0.0004667533692990795,-0.0,-0.003763236051886436,0.08923520983854208,0.0,-0.08923520983854208,-0.01611907333875112,0.0,0.01611907333875112,-0.5927441047937149,0.0,0.5927441047937149,-0.021149947105927575,0,0.021149947105927575,-0.002359206180134851,-0.01488782760834884,0.003763236051886436,0.4,0.0413508415222168,2.1840858459472656,STABILIZE
0.17,0.004,0.1,0.1443945934458206,-0.0025456655625596277,0.0005775783737832824,0.0010721091129898832,-0.0008959780757864624,0.17,0.004,0.1,0.22721366030114828,0.014078712819529392,0.0009088546412045932,-0.00915306584742223,0.005834501613311756,0.002,8e-05,0,-1.5247055948079744,-0.0011837161009500621,-0.00012197644758463796,0.0,-0.0013056925485347,0.2,0.02,0,0.022807777202579576,-0.003170257742034499,0.0004561555440515915,-0.0,-0.0027141021979829073,0.08281595776193759,0.0,-0.08281595776193759,-0.014974503309174278,0.0,0.014974503309174278,-0.591858050475031,0.0,0.591858050475031,-0.015851288710172495,0,0.015851288710172495,-0.0008943638847630098,-0.005834749268791172,0.0027141021979829073,0.4,0.03342890739440918,2.217503786087036,STABILIZE
0.17,0.004,0.1,0.14385808597849375,-0.0027156981561111894,0.0005754323439139751,0.000825580856301948,-0.0013146849558952666,0.17,0.004,0.1,0.230251384007264,0.015376376229350834,0.000921005536029056,-0.0006069219139087273,0.015690459851471165,0.002,8e-05,0,-1.54456388556197,-0.0011825749241138246,-0.00012356511084495763,0.0,-0.0013061400349587823,0.2,0.02,0,0.022220258300365055,-0.0034987156236594937,0.0004444051660073011,-0.0,-0.003054310457652193,0.09044927193735784,0.0,-0.09044927193735784,-0.015974695035948172,0.0,0.015974695035948172,-0.5912874620569123,0.0,0.5912874620569123,-0.017493578118297468,0,0.017493578118297468,-0.0013098942750780114,-0.01569086052044322,0.003054310457652193,0.4,0.0335848331451416,2.251096248626709,STABILIZE
0.17,0.004,0.1,0.14338264436257056,-0.002415666216392329,0.0005735305774502823,-0.00036065847426634297,-0.0022027941132083894,0.17,0.004,0.1,0.23316400214080624,0.014798690292997406,0.0009326560085632249,-0.0024315254198771195,0.013299820881683511,0.002,8e-05,0,-1.564502495820466,-0.0011918337812343326,-0.0001251601996656373,0.0,-0.00131699398089997,0.2,0.02,0,0.021175709321026262,-0.006243809089950723,0.00042351418642052523,-0.0,-0.005820294903530198,0.08705111937057297,0.0,-0.08705111937057297,-0.01420980127289605,0.0,0.01420980127289605,-0.5959168906171664,0.0,0.5959168906171664,-0.031219045449753617,0,0.031219045449753617,-0.0021955470449102304,-0.013301019155073654,0.005820294903530198,0.4,0.033458709716796875,2.2845447063446045,STABILIZE
0.17,0.004,0.1,0.14298321301889907,-0.002009647205918305,0.0005719328520755963,-0.0012844933061861945,-0.002722207660028903,0.17,0.004,0.1,0.23594381377148999,0.01398598473828658,0.00094377525508596,-0.004888337666079153,0.010041422327293386,0.002,8e-05,0,-1.5844205367861295,-0.0011789771224166782,-0.00012675364294289037,0.0,-0.0013057307653595686,0.2,0.02,0,0.019708800744589822,-0.008682840121057944,0.00039417601489179644,-0.0,-0.008288664106166148,0.08227049846050928,0.0,-0.08227049846050928,-0.011821454152460616,0.0,0.011821454152460616,-0.5894885612083391,0.0,0.5894885612083391,-0.043414200605289714,0,0.043414200605289714,-0.002714598285308433,-0.0100434821177113,0.008288664106166148,0.4,0.03378868103027344,2.318337917327881,STABILIZE
0.17,0.004,0.1,0.142563196165467,-0.002134545862063694,0.0005702527846618681,0.0021185551950128525,0.0005542621176110264,0.17,0.004,0.1,0.23840025672838272,0.012483761320970115,0.0009536010269135309,-0.009439119289984386,0.003998243057899259,0.002,8e-05,0,-1.6037573809241699,-0.0011561267350262147,-0.0001283005904739336,0.0,-0.0012844273255001484,0.2,0.02,0,0.018568462689859656,-0.00681794455511882,0.00037136925379719314,-0.0,-0.006446575301321627,0.0734338901233536,0.0,-0.0734338901233536,-0.012556152129786434,0.0,0.012556152129786434,-0.5780633675131074,0.0,0.5780633675131074,-0.0340897227755941,0,0.0340897227755941,0.0005566408856390177,-0.003997912576519562,0.006446575301321627,0.4,0.033451080322265625,2.351893901824951,STABILIZE
0.17,0.004,0.1,0.14200767753016244,-0.0025111411695502637,0.0005680307101206498,0.00025568365008416747,-0.0016874268093454465,0.17,0.004,0.1,0.24114316001720687,0.012398895257374963,0.0009645726400688275,-0.0058640639398576735,0.007499403957586118,0.002,8e-05,0,-1.6255564155244964,-0.0011592866401284171,-0.00013004451324195973,0.0,-0.0012893311533703768,0.2,0.02,0,0.017071492169782168,-0.007960985228978538,0.0003414298433956434,-0.0,-0.007619555385582895,0.0729346779845586,0.0,-0.0729346779845586,-0.014771418644413314,0.0,0.014771418644413314,-0.5796433200642085,0.0,0.5796433200642085,-0.039804926144892686,0,0.039804926144892686,-0.001682216363988682,-0.007500574448712897,0.007619555385582895,0.4,0.037607669830322266,2.3894505500793457,STABILIZE
0.17,0.004,0.1,0.1414008151185215,-0.0030865899016426185,0.000565603260474086,-0.0011741730493719114,-0.003695159690540444,0.17,0.004,0.1,0.2434195780918742,0.011578191211721196,0.0009736783123674968,-0.01329848834200175,-0.0007466188179130577,0.002,8e-05,0,-1.6449014693081632,-0.001157549863615341,-0.00013159211754465306,0.0,-0.0012891419811599941,0.2,0.02,0,0.01582551743604822,-0.007455538243680753,0.00031651034872096437,-0.0,-0.007139027894959789,0.06810700712777173,0.0,-0.06810700712777173,-0.018156411186133047,0.0,0.018156411186133047,-0.5787749318076705,0.0,0.5787749318076705,-0.03727769121840376,0,0.03727769121840376,-0.003695644672395116,0.000744214520991388,0.007139027894959789,0.4,0.03342413902282715,2.4228529930114746,STABILIZE
0.17,0.004,0.1,0.14068634036666872,-0.003628951743666877,0.0005627453614666749,-0.004135548101187825,-0.007201754483388027,0.17,0.004,0.1,0.24553501779794315,0.010744716436869445,0.0009821400711917726,-0.014196908389954617,-0.0024700518818933995,0.002,8e-05,0,-1.6641550991949663,-0.001150503648571951,-0.0001331324079355973,0.0,-0.001283636056507548,0.2,0.02,0,0.014678121002807104,-0.006856285233295976,0.0002935624200561421,-0.0,-0.006562722813239833,0.06320421433452614,0.0,-0.06320421433452614,-0.021346774962746333,0.0,0.021346774962746333,-0.5752518242859754,0.0,0.5752518242859754,-0.034281426166479875,0,0.034281426166479875,-0.007203231084943702,0.0024657424592088783,0.006562722813239833,0.4,0.03346991539001465,2.456334114074707,STABILIZE
0.17,0.004,0.1,0.13995088659827767,-0.003680865295389075,0.0005598035463931107,-0.0057290520199142535,-0.008850113768910218,0.17,0.004,0.1,0.24775497398634747,0.011110636782864261,0.0009910198959453898,-0.010099792302073633,0.002001864376736018,0.002,8e-05,0,-1.6835470023025072,-0.0011418158137894623,-0.00013468376018420058,0.0,-0.0012764995739736628,0.2,0.02,0,0.013479393735347784,-0.007058233236909176,0.0002695878747069557,0.0,-0.006788645362202221,0.06535668695802506,0.0,-0.06535668695802506,-0.021652148796406322,0.0,0.021652148796406322,-0.5709079068947311,0.0,0.5709079068947311,-0.03529116618454588,0,0.03529116618454588,-0.008848879047711602,-0.0020073151980866183,0.006788645362202221,0.4,0.033966779708862305,2.490283966064453,STABILIZE
0.17,0.004,0.1,0.13889490112413175,-0.00534004082726985,0.000555579604496527,-0.01109624065393868,-0.015880701876712002,0.17,0.004,0.1,0.24978334720129192,0.010257334069395588,0.0009991333888051677,-0.007802710864769475,0.003453756593431281,0.002,8e-05,0,-1.702871647008235,-0.0011496859538274642,-0.00013622973176065882,0.0,-0.001285915685588123,0.2,0.02,0,0.012240459032936588,-0.007370825424021232,0.00024480918065873176,-0.0,-0.007126016243362501,0.06033725923173875,0.0,-0.06033725923173875,-0.03141200486629323,0.0,0.03141200486629323,-0.5748429769137321,0.0,0.5748429769137321,-0.03685412712010616,0,0.03685412712010616,-0.015878477046069248,-0.0034639707563901647,0.007126016243362501,0.4,0.033617258071899414,2.5239129066467285,STABILIZE
0.17,0.004,0.1,0.13765244615158814,-0.006315296238930102,0.0005506097846063526,-0.01334869642737095,-0.019113382881694698,0.17,0.004,0.1,0.2518079885046034,0.01029108490089504,0.0010072319540184137,-0.0074185050594404185,0.003879811795473035,0.002,8e-05,0,-1.7221370150460649,-0.0011520503310884173,-0.0001377709612036852,0.0,-0.0012898212922921024,0.2,0.02,0,0.011076322305563865,-0.006961424767844771,0.0002215264461112773,0.0,-0.006739898321733494,0.0605357935346767,0.0,-0.0605357935346767,-0.03714880140547119,0.0,0.03714880140547119,-0.5760251655442086,0.0,0.5760251655442086,-0.03480712383922385,0,0.03480712383922385,-0.019111022373442855,-0.003891422438173261,0.006739898321733494,0.4,0.03344535827636719,2.557361364364624,STABILIZE
0.17,0.004,0.1,0.13639600542287114,-0.006384291176385728,0.0005455840216914845,-0.011565834995956129,-0.017404542150650373,0.17,0.004,0.1,0.25392484271512117,0.010756268361106098,0.0010156993708604848,-0.0028939836461558104,0.008877984085810772,0.002,8e-05,0,-1.7413467567188674,-0.0011483473673760064,-0.0001393077405375094,0.0,-0.0012876551079135158,0.2,0.02,0,0.009879067433348425,-0.007157121131583184,0.0001975813486669685,0.0,-0.006959539782916216,0.06327216683003586,0.0,-0.06327216683003586,-0.037554653978739576,0.0,0.037554653978739576,-0.5741736836880033,0.0,0.5741736836880033,-0.03578560565791592,0,0.03578560565791592,-0.017398993774788183,-0.0088888528239901,0.006959539782916216,0.4,0.03345632553100586,2.5907931327819824,STABILIZE
0.17,0.004,0.1,0.1348345030568111,-0.0071113367146062294,0.0005393380122272444,-0.011950835828578444,-0.01852283453095743,0.17,0.004,0.1,0.2562540057965474,0.010607388944945654,0.0010250160231861896,-0.0004335309882453203,0.011198873979886522,0.002,8e-05,0,-1.7628457629567391,-0.0011518821700553731,-0.00014102766103653915,-0.0,-0.0012929098310919124,0.2,0.02,0,0.008498589287779157,-0.0073963798346698365,0.00016997178575558315,-0.0,-0.007226408048914253,0.06239640555850384,0.0,-0.06239640555850384,-0.04183139243886017,0.0,0.04183139243886017,-0.5759410850276866,0.0,0.5759410850276866,-0.03698189917334918,0,0.03698189917334918,-0.018515602293698752,-0.01121082731916721,0.007226408048914253,0.4,0.037328481674194336,2.6281285285949707,STABILIZE
0.17,0.004,0.1,0.13344756736876984,-0.0070423001537882985,0.0005337902694750793,-0.011528440368877265,-0.018036950253190485,0.17,0.004,0.1,0.25808223720066803,0.00928302185127437,0.0010323289488026722,-0.0063546335379654345,0.0039607172621116075,0.002,8e-05,0,-1.7821453692468134,-0.001152889627505872,-0.0001425716295397451,-0.0,-0.0012954612570456171,0.2,0.02,0,0.0073529353892173195,-0.0068437276725323605,0.0001470587077843464,0.0,-0.006696668964748014,0.05460601088984923,0.0,-0.05460601088984923,-0.041425295022284106,0.0,0.041425295022284106,-0.576444813752936,0.0,0.576444813752936,-0.0342186383626618,0,0.0342186383626618,-0.018034581585738275,-0.003971488725126522,0.006696668964748014,0.4,0.03348040580749512,2.661630868911743,STABILIZE
0.17,0.004,0.1,0.1319737609637305,-0.007483074896783238,0.0005278950438549221,-0.007270760249221492,-0.014225940102149809,0.17,0.004,0.1,0.2598266586807754,0.008857090417416672,0.0010393066347231018,-0.004865032598982798,0.005031364453156976,0.002,8e-05,0,-1.8015156149277036,-0.0011570599352052602,-0.0001441212491942163,-0.0,-0.0013011811843994766,0.2,0.02,0,0.006392442471829324,-0.005737396887301615,0.00012784884943658649,0.0,-0.005609548037865028,0.05210053186715689,0.0,-0.05210053186715689,-0.04401808762813669,0.0,0.04401808762813669,-0.5785299676026301,0.0,0.5785299676026301,-0.02868698443650807,0,0.02868698443650807,-0.014223419203873933,-0.005038486499070526,0.005609548037865028,0.4,0.03348183631896973,2.6950926780700684,STABILIZE
0.17,0.004,0.1,0.13042106309708149,-0.007887006535367704,0.000521684252388326,-0.0052601360882450696,-0.012625458371224446,0.17,0.004,0.1,0.2614964416749483,0.008481746301429206,0.0010459857666997932,-0.006303186177234847,0.0032245458908941524,0.002,8e-05,0,-1.8208454117942654,-0.001155137302994277,-0.00014566763294354123,-0.0,-0.0013008049359378182,0.2,0.02,0,0.005601161702776613,-0.004728647381990637,0.00011202323405553227,0.0,-0.004616624147935105,0.049892625302524744,0.0,-0.049892625302524744,-0.04639415609039826,0.0,0.04639415609039826,-0.5775686514971384,0.0,0.5775686514971384,-0.023643236909953184,0,0.023643236909953184,-0.012624126679943646,-0.003229755541018362,0.004616624147935105,0.4,0.03346753120422363,2.7285611629486084,STABILIZE
