Mode,Time,Freq,time2delay,actualDelay,North-Desired,East-Desired,Down-Desired,Roll-UAV,Pitch-UAV,Yaw-UAV,Roll-Control,Pitch-Control,Yaw-Control,Thrust-Control,North-Pos,East-Pos,Down-Pos,Yaw-Ang,North-Vel,East-Vel,Down-Vel,Yaw-Vel,North-Acc,East-Acc,Down-Acc,North-Avg,East-Avg,Down-Avg,Yaw-Avg,North-Dif,East-Dif,Down-Dif,Yaw-Dif,North-One,East-One,Down-One,Yaw-One,North-Two,East-Two,Down-Two,Yaw-Two,Landing-State,Q-Size,Kalman-Time,Kalman-Dt
STABILIZE,0.03466153144836426,28.85955895001204,0.03276565869649251,0.03321218490600586,0.0,0.0,0.0,-0.29509928358575294,-1.433815081797056,73.51265667830857,0.124571287779557,-0.4601648479093339,0.001029419286968871,0.4,-0.13298131996929125,-0.03598661221531697,0.6521284361441775,0.005129996219137765,1.6415657475590706,0.4378050100058317,0.9371412917971611,-1.357837658295421,78.56544852256775,-1.5974810346961021,3.1460504978895187,0.0,0.0,0.0,0.0,0.0,0.0,0.0,0.0,0.0,0.0,0.0,0.0,0.0,0.0,0.0,0.0,False,0,3.4984843730926514,0.029931884765625
STABILIZE,0.06802678108215332,29.97001786352269,0.0323055108388265,0.03244924545288086,0.0,0.0,0.0,-0.2962080687479693,-1.4334656749323276,73.52314101868454,0.08686604862710422,-0.23378069651382044,0.001815999610744579,0.4,-0.1290852250331881,-0.04798623107200959,0.6427706193353325,0.009032686402586892,0.02164641919080168,-0.8254951797425747,0.8987830020487309,0.28558840524906887,-37.547171115875244,-17.298611998558044,12.828749418258667,0.0,0.0,0.0,0.0,0.0,0.0,0.0,0.0,0.0,0.0,0.0,0.0,0.0,0.0,0.0,0.0,False,0,3.5271847248077393,0.034920166015625
STABILIZE,0.10167527198791504,29.718383108371416,0.032451899846394856,0.03267621994018555,0.0,0.0,0.0,-0.29603123088148947,-1.4377264323139463,73.52721864161904,0.04807673345290495,-0.19867784050114506,0.0018213881528964392,0.4,-0.15767654086015306,-0.0380607271297651,0.6379827755732493,0.009029328804675508,-1.8550889566540718,0.4912749398499727,0.9936278685927391,0.05913152897605897,7.936355471611023,12.222038954496384,11.028390377759933,0.0,0.0,0.0,0.0,0.0,0.0,0.0,0.0,0.0,0.0,0.0,0.0,0.0,0.0,0.0,0.0,False,0,3.555825710296631,0.034835205078125
STABILIZE,0.14421963691711426,23.504612039496543,0.03234604199727376,0.041725873947143555,0.0,0.0,0.0,-0.2948054787297366,-1.4310740415057654,73.53147384947196,0.0398937276780234,-0.12834201061751496,-0.00015532886799939576,0.4,-0.12397459928352768,-0.040916870420374805,0.6203215494299016,-0.0008506265334418963,0.5123190581798553,-0.3850420704111457,0.8160128258168697,-0.24820976812935094,-49.95002746582031,20.157355070114136,17.697393894195557,0.0,0.0,0.0,0.0,0.0,0.0,0.0,0.0,0.0,0.0,0.0,0.0,0.0,0.0,0.0,0.0,False,0,3.6138813495635986,0.034919921875
STABILIZE,0.17786884307861328,29.72280567484445,0.03251221974690755,0.03264594078063965,0.0,0.0,0.0,-0.29475387878499126,-1.4325262037563335,73.52611898116267,0.024289980177066055,-0.13058152398200548,0.0010589538862737352,0.4,-0.153118046070232,-0.029924359856490737,0.618194718062064,0.0052033619529830875,-1.926516368985176,0.5619182717055082,1.1195197701454163,0.41214268586356084,-32.42670297622681,0.6436079274863005,14.46458250284195,0.0,0.0,0.0,0.0,0.0,0.0,0.0,0.0,0.0,0.0,0.0,0.0,0.0,0.0,0.0,0.0,False,0,3.642500162124634,0.0349208984375
STABILIZE,0.21121978759765625,29.981157700610446,0.032294543584187825,0.03241419792175293,0.0,0.0,0.0,-0.29594724089903945,-1.4382586534606783,73.5513496999567,-0.008533267209164905,-0.066992245118695,0.0023148316781222075,0.4,-0.1825403557519426,-0.0188266416848819,0.6162092893045245,0.011444514977768869,-1.926516368985176,0.5619182717055082,1.1195197701454163,0.41214268586356084,-32.42670297622681,0.6436079274863005,14.46458250284195,0.0,0.0,0.0,0.0,0.0,0.0,0.0,0.0,0.0,0.0,0.0,0.0,0.0,0.0,0.0,0.0,False,0,3.6713695526123047,0.0349208984375
STABILIZE,0.24481797218322754,29.76309048203629,0.03238943417867025,0.03262042999267578,0.0,0.0,0.0,-0.29357801903069125,-1.434598846004315,73.54177377474034,-0.014524298770458534,-0.06200228288358931,0.0031037194831569337,0.4,-0.1731702498779647,-0.0211415682456768,0.613856154133739,0.01533748390897402,0.378408026881516,-0.23527855519205332,1.0898690670728683,0.2646455511499288,51.25095248222351,-20.821136236190796,12.570621073246002,0.0,0.0,0.0,0.0,0.0,0.0,0.0,0.0,0.0,0.0,0.0,0.0,0.0,0.0,0.0,0.0,False,0,3.7000269889831543,0.03492041015625
STABILIZE,0.278261661529541,29.900367846245974,0.03234103520711263,0.032483577728271484,0.0,0.0,0.0,-0.29249020468366094,-1.433657453837617,73.53277158541427,-0.012730279758550579,-0.046525787213418116,0.0014007615486292559,0.4,-0.17706646625658118,-0.015372961553687036,0.6113634287451372,0.006799904695970588,-1.7497740685939789,0.42338473722338676,1.16013428196311,0.4146203103045565,-44.940364360809326,-5.158694088459015,16.089171171188354,0.0,0.0,0.0,0.0,0.0,0.0,0.0,0.0,0.0,0.0,0.0,0.0,0.0,0.0,0.0,0.0,False,0,3.7573418617248535,0.034920166015625
STABILIZE,0.3117356300354004,29.874811248183708,0.03229692776997884,0.03249192237854004,0.0,0.0,0.0,-0.2949401615224328,-1.4391120002201068,73.55977132320332,-0.021148756965420436,-0.08513774747756081,0.002700328100638273,0.4,-0.20291125702859927,-0.006856097437995143,0.6108292463150073,0.013253399610695583,-1.7497740685939789,0.42338473722338676,1.16013428196311,0.4146203103045565,-44.940364360809326,-5.158694088459015,16.089171171188354,0.0,0.0,0.0,0.0,0.0,0.0,0.0,0.0,0.0,0.0,0.0,0.0,0.0,0.0,0.0,0.0,False,0,3.7859814167022705,0.034920166015625
STABILIZE,0.3451497554779053,29.926181727373265,0.03240230878194173,0.03251838684082031,0.0,0.0,0.0,-0.29345160717019314,-1.4359070406737842,73.54782532234498,-0.017739461835703844,-0.04577547101093888,-0.0002928982291165082,0.4,-0.17809488001171073,-0.002220344595396284,0.6062389916608842,-0.001707024948309637,1.253129355609417,0.19411365501582623,0.9152975864708424,-0.8599253521771011,13.569845259189606,6.67383000254631,12.222989648580551,0.0,0.0,0.0,0.0,0.0,0.0,0.0,0.0,0.0,0.0,0.0,0.0,0.0,0.0,0.0,0.0,False,0,3.8146486282348633,0.06485205078125
STABILIZE,0.37856054306030273,29.931307134038864,0.03243115743001302,0.03255486488342285,0.0,0.0,0.0,-0.2944401703308467,-1.435405555378317,73.55796132307327,-0.012711097765463229,-0.046468865036161655,0.0020344359184509262,0.4,-0.20250413799745515,0.000577762305359284,0.618695389113465,0.009896549962888728,-1.198551058769226,-0.020605491590686142,1.0473180562257767,0.7238277498273674,-52.98717021942139,-7.295539230108261,8.457867801189423,0.0,0.0,0.0,0.0,0.0,0.0,0.0,0.0,0.0,0.0,0.0,0.0,0.0,0.0,0.0,0.0,False,0,3.8433291912078857,0.034919921875
STABILIZE,0.4120302200317383,29.87821627012395,0.03246191342671712,0.03258061408996582,0.0,0.0,0.0,-0.2947844545536977,-1.438349580354004,73.56511253113428,-0.017469104938005867,-0.057046929858279,0.002134917140708114,0.4,-0.2077978451798522,0.004539309547705721,0.609681012800885,0.010364301685817921,-0.5922950338572264,0.1661315094679594,0.7761003915220499,0.04207847427934781,16.996632516384125,8.555208146572113,8.579449355602264,0.0,0.0,0.0,0.0,0.0,0.0,0.0,0.0,0.0,0.0,0.0,0.0,0.0,0.0,0.0,0.0,False,0,3.8720529079437256,0.0349208984375
STABILIZE,0.44803380966186523,27.774824350544,0.0324275811513265,0.0351710319519043,0.0,0.0,0.0,-0.2929074331924135,-1.434598846004315,73.56174524787346,-0.015157364948607194,-0.03508878071275249,0.0007257936321035366,0.4,-0.18248242670841536,0.006439149684399299,0.6052196314822175,0.003306761270562901,1.0758274234831333,0.058788020396605134,1.0128441266715527,-0.36988174414775316,27.241432666778564,-4.974621534347534,16.802772879600525,0.0,0.0,0.0,0.0,0.0,0.0,0.0,0.0,0.0,0.0,0.0,0.0,0.0,0.0,0.0,0.0,False,1,3.9027512073516846,0.02993212890625
STABILIZE,0.4835793972015381,28.133641882147767,0.03249171574910482,0.03431963920593262,0.0,0.0,0.0,-0.294058640232678,-1.4346606378719626,73.56760555018133,-0.005020190330234614,-0.025162925761888163,0.002622619786613297,0.4,-0.19138494325285926,0.0006480167064111461,0.5981588324322589,0.012745865386143945,-0.8761481381952763,-0.3447399474680424,0.9882145561277866,0.5409089872737849,-41.77198112010956,-1.359111350029707,16.013750433921814,0.0,0.0,0.0,0.0,0.0,0.0,0.0,0.0,0.0,0.0,0.0,0.0,0.0,0.0,0.0,0.0,False,1,3.9302093982696533,0.034919921875
STABILIZE,0.5168709754943848,30.036981337458286,0.03208664258321126,0.03224062919616699,0.0,0.0,0.0,-0.294607509965512,-1.4370315672876033,73.56934724841969,-0.002107681794207066,-0.058529983416430946,0.003569288278756316,0.4,-0.21203004984649848,0.0008306167352860917,0.5909769333495931,0.01742114820738082,-0.9130852296948433,0.2923191525042057,1.0400936007499695,-0.2519294464626576,27.80410647392273,-1.2302719987928867,11.193597316741943,0.0,0.0,0.0,0.0,0.0,0.0,0.0,0.0,0.0,0.0,0.0,0.0,0.0,0.0,0.0,0.0,False,0,3.9927432537078857,0.034920166015625
STABILIZE,0.5505056381225586,29.730811761036605,0.032268555959065755,0.032724857330322266,0.0,0.0,0.0,-0.29480633250338284,-1.4349278690232392,73.57655992818322,0.001630103927856169,-0.020034637560300824,0.0028275960173108072,0.4,-0.18428023016730377,-0.0015210284209049097,0.5860268652076559,0.013666564772535621,1.2214511632919312,-0.15874997479841113,0.9232755750417709,-0.1911255816868967,39.86750841140747,-13.004213571548462,8.182992041110992,0.0,0.0,0.0,0.0,0.0,0.0,0.0,0.0,0.0,0.0,0.0,0.0,0.0,0.0,0.0,0.0,False,0,4.021485805511475,0.02993212890625
STABILIZE,0.5841896533966064,29.68767208612623,0.032416613896687825,0.032781362533569336,0.0,0.0,0.0,-0.2950441618247168,-1.43258852923251,73.57441524878384,0.00426511723007054,-0.016192832157926336,0.0024975068365082867,0.4,-0.18372561141805752,-0.0015567520886362938,0.5850096825349239,0.011975785610006956,-0.3613679436966777,-0.020289910025894642,1.269802637398243,-0.06987206814697014,-42.4197643995285,12.444853037595749,17.054064571857452,0.0,0.0,0.0,0.0,0.0,0.0,0.0,0.0,0.0,0.0,0.0,0.0,0.0,0.0,0.0,0.0,False,0,4.050253868103027,0.034919921875
STABILIZE,0.6176626682281494,29.875236833482912,0.03241589864095052,0.03252744674682617,0.0,0.0,0.0,-0.295399545104969,-1.4358947676776193,73.58233143803187,0.0027765666062740902,-0.042757417456228575,0.003689076923827566,0.4,-0.19719632310038576,0.0016912106027745085,0.588332420285816,0.017873876255968167,-1.0983742773532867,0.16178155783563852,1.3556311838328838,0.3551983582165331,2.9712364077568054,-8.835083246231079,21.641889214515686,0.0,0.0,0.0,0.0,0.0,0.0,0.0,0.0,0.0,0.0,0.0,0.0,0.0,0.0,0.0,0.0,False,0,4.079016208648682,0.0349208984375
STABILIZE,0.6512584686279297,29.764780186637335,0.03237512906392415,0.03272581100463867,0.0,0.0,0.0,-0.29527825588634843,-1.4350375789367826,73.58643638172306,-0.003445829555636271,-0.04830151118447281,0.004888582252811277,0.4,-0.21069310141970346,0.0049120498909968925,0.5917915883411675,0.023791309030301837,-1.0983742773532867,0.16178155783563852,1.3556311838328838,0.3551983582165331,2.9712364077568054,-8.835083246231079,21.641889214515686,0.0,0.0,0.0,0.0,0.0,0.0,0.0,0.0,0.0,0.0,0.0,0.0,0.0,0.0,0.0,0.0,False,0,4.107724189758301,0.0349208984375
STABILIZE,0.6854894161224365,29.21577286626777,0.032436402638753255,0.03308296203613281,0.0,0.0,0.0,-0.29408158539942103,-1.4335009998169412,73.58030970203755,0.0012525493521101834,-0.007866569030022029,0.0043189947095787174,0.4,-0.17739379503168967,-0.0007766465356385211,0.5865834606473249,0.020872472752826002,0.4271811805665493,0.035044661490246654,0.868685357272625,-0.31020349988329565,-21.014395356178284,8.615671843290329,14.62583839893341,0.0,0.0,0.0,0.0,0.0,0.0,0.0,0.0,0.0,0.0,0.0,0.0,0.0,0.0,0.0,0.0,False,0,4.16506552696228,0.02993212890625
STABILIZE,0.7220170497894287,27.374211106832615,0.03181651433308919,0.03530120849609375,0.0,0.0,0.0,-0.29521368925435065,-1.4370848214187881,73.59196883495076,-0.000977250137980639,-0.037891365021255494,0.0067100191586740255,0.4,-0.19299630591613942,0.00016717123929581832,0.5848307589481747,0.03270727774666583,-1.2943916022777557,0.04440670018084347,1.1967625468969345,0.7175944017969375,-10.779193043708801,-8.927076309919357,17.680494487285614,0.0,0.0,0.0,0.0,0.0,0.0,0.0,0.0,0.0,0.0,0.0,0.0,0.0,0.0,0.0,0.0,False,0,4.193660259246826,0.034919921875
STABILIZE,0.7578079700469971,27.94172234842681,0.032471450169881184,0.034798383712768555,0.0,0.0,0.0,-0.2954653390365833,-1.4374108562299506,73.59513121253649,-0.0017485837579433302,-0.051235622232715904,0.00915288507456909,0.4,-0.20956161061694556,0.0011528971863543928,0.5860266557638936,0.04476196787875937,-1.2943916022777557,0.04440670018084347,1.1967625468969345,0.7175944017969375,-10.779193043708801,-8.927076309919357,17.680494487285614,0.0,0.0,0.0,0.0,0.0,0.0,0.0,0.0,0.0,0.0,0.0,0.0,0.0,0.0,0.0,0.0,False,0,4.222326755523682,0.034919921875
STABILIZE,0.791184663772583,29.960170290579732,0.0323212464650472,0.03245997428894043,0.0,0.0,0.0,-0.2945480126145389,-1.4347304338675435,73.59213958968002,-0.0017153229812726634,-0.030663508506482626,0.0084360973325453,0.4,-0.19512003348589385,0.003702133142872102,0.5855447861263807,0.04104070736477784,0.4923937376588583,0.1355563523247838,1.0974625125527382,-0.18963832133533964,-13.14065009355545,0.9193003177642822,19.121089577674866,0.0,0.0,0.0,0.0,0.0,0.0,0.0,0.0,0.0,0.0,0.0,0.0,0.0,0.0,0.0,0.0,False,0,4.251158714294434,0.064851806640625
STABILIZE,0.8247904777526855,29.759078202381122,0.032412083943684895,0.03254532814025879,0.0,0.0,0.0,-0.2955923912273161,-1.4371223874592232,73.60117592995195,9.751895821574985e-05,-0.03815272426603763,0.010381944364337335,0.4,-0.21494766109772845,0.004071263397223076,0.5971341069071862,0.050600549134405454,-1.090425718575716,-0.022336009715218097,0.8974354714155197,0.4146308490730024,-21.123969554901123,-3.1725943088531494,11.070016771554947,0.0,0.0,0.0,0.0,0.0,0.0,0.0,0.0,0.0,0.0,0.0,0.0,0.0,0.0,0.0,0.0,False,0,4.279753684997559,0.03492138671875
STABILIZE,0.8580691814422607,30.0470947267374,0.032247336705525716,0.03236556053161621,0.0,0.0,0.0,-0.2947427263667371,-1.4375040242790977,73.60200921303068,-0.001792287411943892,-0.0404959365861329,0.008727611615448992,0.4,-0.1913410386436469,0.0018727063860751363,0.5882593804493779,0.04218793218588343,0.6000484339892864,-0.09756859508343041,1.0816598311066628,-0.07453666046326572,1.9650354981422424,-5.008081346750259,15.953435003757477,0.0,0.0,0.0,0.0,0.0,0.0,0.0,0.0,0.0,0.0,0.0,0.0,0.0,0.0,0.0,0.0,False,0,4.337573766708374,0.0349208984375
STABILIZE,0.8916049003601074,29.821072314769392,0.032414944966634114,0.032558441162109375,0.0,0.0,0.0,-0.29406461664820177,-1.436909050769366,73.60560189253411,-0.001993903524628265,-0.04145361229252155,0.008969783978757985,0.4,-0.2038039939964013,0.002810073707737344,0.5882739259774913,0.043254027264172955,-1.0679442435503006,0.04968342836946249,1.1825526133179665,0.11851185292872095,-27.069154381752014,4.783389717340469,14.973697066307068,0.0,0.0,0.0,0.0,0.0,0.0,0.0,0.0,0.0,0.0,0.0,0.0,0.0,0.0,0.0,0.0,False,0,4.366152763366699,0.034919921875
STABILIZE,0.925086259841919,29.864813483050064,0.032322200139363606,0.032456398010253906,0.0,0.0,0.0,-0.2930646876258825,-1.4376050897344728,73.60839543990464,-0.0021439611889789885,-0.04157204336443884,0.009204481394381389,0.4,-0.21631675794971522,0.0037362433683410723,0.5884475157001813,0.04427933921682326,-1.0679442435503006,0.04968342836946249,1.1825526133179665,0.11851185292872095,-27.069154381752014,4.783389717340469,14.973697066307068,0.0,0.0,0.0,0.0,0.0,0.0,0.0,0.0,0.0,0.0,0.0,0.0,0.0,0.0,0.0,0.0,False,0,4.394888162612915,0.034919921875
STABILIZE,0.9584221839904785,29.99745390568008,0.03231981595357259,0.03244805335998535,0.0,0.0,0.0,-0.2941619468438745,-1.4377911056676498,73.61465872337355,-0.0054291465235614,-0.047468346645629114,0.008509023042543147,0.4,-0.21178526053590266,0.009796177858032992,0.5872299860660064,0.04066611380837435,-0.13141933595761657,0.3327946411445737,1.0987408459186554,-0.13434907392221035,15.977257490158081,3.0471986159682274,22.425739467144012,0.0,0.0,0.0,0.0,0.0,0.0,0.0,0.0,0.0,0.0,0.0,0.0,0.0,0.0,0.0,0.0,False,0,4.423606634140015,0.02993212890625
STABILIZE,0.9918944835662842,29.87587523416743,0.03242972691853841,0.032556772232055664,0.0,0.0,0.0,-0.29456482128319944,-1.4368169499372767,73.61543736493893,-0.002384003368554757,-0.019883094956835205,0.008846280247241418,0.4,-0.1938696548320698,0.006341770067510312,0.5814740596697696,0.042211210848131904,0.5537924822419882,-0.18536248244345188,0.9885602630674839,0.16765955965881874,-11.030716449022293,0.7740519475191832,10.848736017942429,0.0,0.0,0.0,0.0,0.0,0.0,0.0,0.0,0.0,0.0,0.0,0.0,0.0,0.0,0.0,0.0,False,0,4.452389478683472,0.039908935546875
STABILIZE,1.0253627300262451,29.878003433513083,0.032402785619099934,0.03253316879272461,0.0,0.0,0.0,-0.29462613290317086,-1.4369424546632756,73.61531442153387,-0.004769520082032378,-0.03758480144110626,0.008004667458037481,0.4,-0.1963858134612697,0.0074965233376168465,0.583350642183532,0.03787645509838096,-0.4724078346043825,0.06047177012078464,1.0954773984849453,-0.1888515155594659,-24.920736253261566,6.622815132141113,8.383414149284363,0.0,0.0,0.0,0.0,0.0,0.0,0.0,0.0,0.0,0.0,0.0,0.0,0.0,0.0,0.0,0.0,False,0,4.48174524307251,0.029931884765625
STABILIZE,1.0588712692260742,29.84335154826958,0.03237751324971517,0.03266501426696777,0.0,0.0,0.0,-0.29536085848662325,-1.4380892861136032,73.6267891393395,-0.007021576413264819,-0.026063028016530463,0.008732350845116905,0.4,-0.1921796734565576,0.011001320345806882,0.57052912251839,0.04137591369098145,-0.2890776377171278,0.10438873432576656,0.8548662066459656,0.17334246381125445,18.50176453590393,-6.968574225902557,8.080743998289108,0.0,0.0,0.0,0.0,0.0,0.0,0.0,0.0,0.0,0.0,0.0,0.0,0.0,0.0,0.0,0.0,False,0,4.53914213180542,0.034919921875
STABILIZE,1.0924019813537598,29.824040957087497,0.032501967748006184,0.032624244689941406,0.0,0.0,0.0,-0.29535226738930787,-1.4373838556383878,73.62665253555609,-0.005163201151237221,-0.0034873396647801497,0.007832293819361815,0.4,-0.17451591505918265,0.009446291679698557,0.5665092436315732,0.03675260301462401,0.6189856678247452,-0.08319650660268962,0.8996594697237015,-0.19180205055920563,9.117630124092102,0.7391295395791531,6.872899830341339,0.0,0.0,0.0,0.0,0.0,0.0,0.0,0.0,0.0,0.0,0.0,0.0,0.0,0.0,0.0,0.0,False,0,4.5677266120910645,0.02993212890625
STABILIZE,1.1257870197296143,29.95268190614935,0.032402785619099934,0.03252911567687988,0.0,0.0,0.0,-0.2956698711857135,-1.4382733810560762,73.62909091308978,-0.0013955281577576028,-0.004694802021978619,0.007690034961001299,0.4,-0.17224341993675055,0.009711011198868044,0.5698882684714074,0.03592120835022599,-0.2841189503669739,0.027610862161964178,1.459976751357317,0.033193598788351264,-12.632220983505249,2.996699698269367,20.06727159023285,0.0,0.0,0.0,0.0,0.0,0.0,0.0,0.0,0.0,0.0,0.0,0.0,0.0,0.0,0.0,0.0,False,0,4.596389293670654,0.034920166015625
STABILIZE,1.1592543125152588,29.880344803020588,0.03247550328572591,0.03258681297302246,0.0,0.0,0.0,-0.29679583854256064,-1.4391722979838732,73.63679536647356,-0.003998052070140645,-0.013522306648701975,0.008082659384966513,0.4,-0.16852398695028045,0.010116076101649909,0.5654514308885925,0.03775808590853351,-0.1576639129780233,0.030313519528135657,0.8455163799226284,0.1751547851384086,12.988907098770142,-4.890360310673714,15.415003895759583,0.0,0.0,0.0,0.0,0.0,0.0,0.0,0.0,0.0,0.0,0.0,0.0,0.0,0.0,0.0,0.0,False,0,4.625357389450073,0.034919921875
STABILIZE,1.1928086280822754,29.804755340164576,0.03243449529012044,0.03255057334899902,0.0,0.0,0.0,-0.2960653818273395,-1.438512757842144,73.63321634734847,-0.0029764215379410198,-0.00424352457356198,0.0065833550303751685,0.4,-0.15910802941891383,0.009781487894980637,0.5646254416335388,0.030160727893115684,0.17324869986623526,-0.010884206130867824,1.0510150343179703,-0.3663671849329585,6.594982743263245,2.9427258297801018,16.601604223251343,0.0,0.0,0.0,0.0,0.0,0.0,0.0,0.0,0.0,0.0,0.0,0.0,0.0,0.0,0.0,0.0,False,0,4.6541430950164795,0.02993212890625
STABILIZE,1.2262489795684814,29.90335229784261,0.03231027921040853,0.032446861267089844,0.0,0.0,0.0,-0.29582520462847833,-1.4389128575171186,73.63915178173721,-7.160718445825098e-05,-0.003779565917169248,0.006314076836529777,0.4,-0.1550767521848062,0.009030649619285765,0.5578130729660703,0.028718245272495963,-0.15626703388988972,-0.028851829119957983,0.8491090498864651,-0.007984584521237464,-15.379582345485687,-1.070238370448351,13.267920911312103,0.0,0.0,0.0,0.0,0.0,0.0,0.0,0.0,0.0,0.0,0.0,0.0,0.0,0.0,0.0,0.0,False,0,4.682936191558838,0.0349208984375
STABILIZE,1.2598381042480469,29.864600837344423,0.03232768376668294,0.032624244689941406,0.0,0.0,0.0,-0.2967909293440947,-1.4396164737233357,73.64476619723496,-0.00032717642474673706,-0.0065506299946465705,0.005574895211016172,0.4,-0.1441414959273929,0.008086255229346336,0.5600873183398833,0.024938557039380256,0.4005966242402792,-0.016878338647074997,1.1856477707624435,-0.261139369589038,11.129596829414368,1.1408419348299503,19.990438222885132,0.0,0.0,0.0,0.0,0.0,0.0,0.0,0.0,0.0,0.0,0.0,0.0,0.0,0.0,0.0,0.0,False,0,4.740208625793457,0.02993212890625
STABILIZE,1.2934422492980957,29.668772237587625,0.032363208134969075,0.03249645233154297,0.0,0.0,0.0,-0.2950595297503493,-1.4386443457053724,73.64523065009853,-0.0010947098727475653,-0.004632414390180647,0.004924179120009526,0.4,-0.1398777829633606,0.009231692351860225,0.5539680836422518,0.021612620775215516,-0.11496231891214848,0.08245749631896615,0.8638774044811726,-0.12622832584460897,-13.559697568416595,0.9502680972218513,12.51300424337387,0.0,0.0,0.0,0.0,0.0,0.0,0.0,0.0,0.0,0.0,0.0,0.0,0.0,0.0,0.0,0.0,False,0,4.772659540176392,0.039908935546875
STABILIZE,1.326707363128662,30.05786113042045,0.032190593083699544,0.03231501579284668,0.0,0.0,0.0,-0.2956360937658336,-1.4387546959491504,73.64906238622291,-0.00044542568903018837,-0.015543872756423936,0.004891786061025969,0.4,-0.15013538209119076,0.00876326297147687,0.5605571175472446,0.021379157220198394,-0.9127700701355934,-0.019696248637046665,1.2904413975775242,0.054604374206490065,-14.613193273544312,3.1112227588891983,21.82065099477768,0.0,0.0,0.0,0.0,0.0,0.0,0.0,0.0,0.0,0.0,0.0,0.0,0.0,0.0,0.0,0.0,False,0,4.797966480255127,0.029930908203125
STABILIZE,1.3624598979949951,27.968552662287866,0.03237965901692708,0.034956932067871094,0.0,0.0,0.0,-0.2953052564779111,-1.440419661281047,73.65529834893512,-0.00019057130376822474,-0.029158614991364715,0.00487762061765424,0.4,-0.15961818344333675,0.008149772933241557,0.561732694639993,0.021232165510006167,-0.9127700701355934,-0.019696248637046665,1.2904413975775242,0.054604374206490065,-14.613193273544312,3.1112227588891983,21.82065099477768,0.0,0.0,0.0,0.0,0.0,0.0,0.0,0.0,0.0,0.0,0.0,0.0,0.0,0.0,0.0,0.0,False,0,4.826573610305786,0.029930908203125
STABILIZE,1.401104211807251,25.878465173960524,0.032553704579671223,0.03771257400512695,0.0,0.0,0.0,-0.29463387022684,-1.4410903004801774,73.65786650006305,-0.0014089594246054686,-0.02254688833882643,0.004435521298010529,0.4,-0.14683721954560192,0.009128895777612897,0.5558963726347406,0.018948707669858504,0.40395306423306465,0.074136967305094,0.8614636957645416,-0.07418572614412326,16.669806838035583,-2.8873566538095474,12.130770087242126,0.0,0.0,0.0,0.0,0.0,0.0,0.0,0.0,0.0,0.0,0.0,0.0,0.0,0.0,0.0,0.0,False,0,4.855215787887573,0.029931884765625
STABILIZE,1.4345111846923828,29.933443238344,0.032378466924031575,0.03251481056213379,0.0,0.0,0.0,-0.295029914476995,-1.441313242123555,73.6600863115433,-0.002833622405969009,-0.027841016046163597,0.004678244792232982,0.4,-0.14446469704447434,0.010111456450744792,0.5467056465826143,0.020095107709391845,-0.6406787782907486,0.14521947596222162,0.715978816151619,0.05687627921937878,-1.738825999200344,1.193090807646513,19.494368135929108,0.0,0.0,0.0,0.0,0.0,0.0,0.0,0.0,0.0,0.0,0.0,0.0,0.0,0.0,0.0,0.0,False,0,4.912375211715698,0.034921142578125
STABILIZE,1.4679584503173828,29.896957773786102,0.032436641057332356,0.03256726264953613,0.0,0.0,0.0,-0.2950218036273556,-1.4417357533567436,73.6656460855277,-0.000931920787614919,-0.02563319771431785,0.004716888570976457,0.4,-0.1382538908158578,0.008700033462657523,0.5431813115229738,0.020220685262224015,0.06861435831524432,-0.07176740909926593,0.8150930516421795,0.061963909707285415,16.299133002758026,-4.827975854277611,13.979136943817139,0.0,0.0,0.0,0.0,0.0,0.0,0.0,0.0,0.0,0.0,0.0,0.0,0.0,0.0,0.0,0.0,False,0,4.941037654876709,0.029931884765625
STABILIZE,1.5017962455749512,29.554835254657686,0.03243902524312337,0.03282332420349121,0.0,0.0,0.0,-0.2946133262984771,-1.4414886926078596,73.66807080268305,0.0002755438777399074,-0.012097035566223035,0.0041208974261030306,0.4,-0.12982084838234983,0.006824216847475175,0.5443405041728153,0.01718281323385722,0.17965369625017047,-0.096050591673702,1.2454841285943985,-0.1288437280077685,-7.060278952121735,3.0876539647579193,20.26548683643341,0.0,0.0,0.0,0.0,0.0,0.0,0.0,0.0,0.0,0.0,0.0,0.0,0.0,0.0,0.0,0.0,False,0,4.969702482223511,0.039908935546875
STABILIZE,1.5351848602294922,29.94968760041415,0.03228619893391927,0.03244614601135254,0.0,0.0,0.0,-0.2935295673762665,-1.4412688458939498,73.6699012933806,0.0014059005918364953,-3.808482558846533e-05,0.003516870792257636,0.4,-0.12210497055053948,0.004972796840881956,0.5508509774423831,0.01411541804336669,0.17965369625017047,-0.096050591673702,1.2454841285943985,-0.1288437280077685,-7.060278952121735,3.0876539647579193,20.26548683643341,0.0,0.0,0.0,0.0,0.0,0.0,0.0,0.0,0.0,0.0,0.0,0.0,0.0,0.0,0.0,0.0,False,0,4.998632431030273,0.039908935546875
STABILIZE,1.5685906410217285,29.935365992919948,0.03238943417867025,0.03250455856323242,0.0,0.0,0.0,-0.29378810070852207,-1.4425417156788052,73.67512638809568,0.0017104039314901499,-0.009777451393229292,0.0031387019004433343,0.4,-0.12500639314153583,0.005283630543005174,0.5513199912063277,0.012183854746578564,-0.4503898788243532,0.03400353016331792,0.9017277508974075,-0.058899069090547145,-11.173061281442642,-2.923372946679592,13.038195669651031,0.0,0.0,0.0,0.0,0.0,0.0,0.0,0.0,0.0,0.0,0.0,0.0,0.0,0.0,0.0,0.0,False,0,5.027185440063477,0.02993212890625
STABILIZE,1.6024463176727295,29.536312101686562,0.0323980172475179,0.032912492752075195,0.0,0.0,0.0,-0.2950051550412537,-1.4421847315729663,73.67732570900841,0.0024465890206616615,-0.0076074806454658975,0.002791436851031959,0.4,-0.120329487430507,0.005168577155926356,0.5451352501269756,0.010412323056603754,-0.03275989438407123,0.008020782843232155,0.8284568786621094,-0.05962793832039477,10.442345589399338,-0.9510484524071217,10.370385646820068,0.0,0.0,0.0,0.0,0.0,0.0,0.0,0.0,0.0,0.0,0.0,0.0,0.0,0.0,0.0,0.0,False,0,5.063576698303223,0.029930908203125
STABILIZE,1.635906457901001,29.885667462324985,0.03237584431966146,0.03251385688781738,0.0,0.0,0.0,-0.2948822116361935,-1.442465729824289,73.67929280348937,0.003967777741920749,-0.011526487849393427,0.0014408844411792948,0.4,-0.12005286766916241,0.0021696795067426052,0.5458363705817691,0.0036473542999156086,-0.7801088504493237,-0.12853315565735102,1.2597438879311085,-0.013152636484557034,-13.628719747066498,-1.0091480799019337,14.18222039937973,0.0,0.0,0.0,0.0,0.0,0.0,0.0,0.0,0.0,0.0,0.0,0.0,0.0,0.0,0.0,0.0,False,0,5.1134421825408936,0.0399091796875
STABILIZE,1.6701195240020752,29.229414060322238,0.03237107594807943,0.0333561897277832,0.0,0.0,0.0,-0.29433360870762393,-1.443006702150895,73.68710653989987,0.004738527935869675,-0.024464741414272632,0.0012220241220837263,0.4,-0.12924145006867171,-0.0003179312058311167,0.552658046247035,0.0025443312066499644,-0.7801088504493237,-0.12853315565735102,1.2597438879311085,-0.013152636484557034,-13.628719747066498,-1.0091480799019337,14.18222039937973,0.0,0.0,0.0,0.0,0.0,0.0,0.0,0.0,0.0,0.0,0.0,0.0,0.0,0.0,0.0,0.0,False,0,5.142121315002441,0.0399091796875
STABILIZE,1.704131841659546,29.399258412947635,0.03246787389119466,0.0330660343170166,0.0,0.0,0.0,-0.29395095803154453,-1.4423108766291999,73.68712703046738,0.003774204555151847,-0.026350729888379436,0.0008340802254643395,0.4,-0.1252217699508234,-0.0006306400614364805,0.5574713651401951,0.0006025658490187332,0.002126811887137592,-0.0001737272896207287,1.152735948562622,-0.06599268745106818,12.309153378009796,1.0468828491866589,15.683427453041077,0.0,0.0,0.0,0.0,0.0,0.0,0.0,0.0,0.0,0.0,0.0,0.0,0.0,0.0,0.0,0.0,False,0,5.1706862449646,0.029931884765625
STABILIZE,1.7375497817993164,29.924687147729056,0.0323827584584554,0.03252768516540527,0.0,0.0,0.0,-0.2939753973021685,-1.4418745982959653,73.68946295516352,0.0031480803450626813,-0.014666777501491021,0.0001305538015075933,0.4,-0.11319924156983388,0.0003838059744973952,0.5531552322776638,-0.002905348121578269,0.41023907251656055,0.06689964793622494,0.9464939124882221,-0.17954179429796663,7.016988098621368,-0.9436777792870998,13.565050065517426,0.0,0.0,0.0,0.0,0.0,0.0,0.0,0.0,0.0,0.0,0.0,0.0,0.0,0.0,0.0,0.0,False,0,5.1993567943573,0.02993115234375
STABILIZE,1.7710189819335938,29.877790599934464,0.032427104314168294,0.03256630897521973,0.0,0.0,0.0,-0.29348207621719374,-1.4421855853466126,73.69248872896584,0.004012169248827384,-0.01833599554328478,0.0010907671167026812,0.4,-0.11389565885280115,-0.0007626587551315042,0.5534857397975013,0.0018893963724999473,-0.3195021999999881,-0.05968137411400676,1.202274113893509,0.3030178207113249,-11.878367513418198,-0.8634514175355434,17.70697683095932,0.0,0.0,0.0,0.0,0.0,0.0,0.0,0.0,0.0,0.0,0.0,0.0,0.0,0.0,0.0,0.0,False,0,5.228089809417725,0.0349208984375
STABILIZE,1.8045141696929932,29.856947608200457,0.032418044408162434,0.032572031021118164,0.0,0.0,0.0,-0.29388345655263776,-1.44309410722793,73.69726303119569,0.0030142945209537626,-0.019502086415755453,0.0020367757345946666,0.4,-0.11502945364405028,-0.0019504484198133876,0.556722795082602,0.006597360041241939,-0.3195021999999881,-0.05968137411400676,1.202274113893509,0.3030178207113249,-11.878367513418198,-0.8634514175355434,17.70697683095932,0.0,0.0,0.0,0.0,0.0,0.0,0.0,0.0,0.0,0.0,0.0,0.0,0.0,0.0,0.0,0.0,False,1,5.256611585617065,0.0349208984375
STABILIZE,1.8401329517364502,28.07469979517798,0.03239110310872396,0.03470253944396973,0.0,0.0,0.0,-0.2928891837807249,-1.4429741520306316,73.70108110694171,0.002274573349633353,-0.007423074826661068,0.0018605989809060814,0.4,-0.10700606816400501,-0.0030522002444013036,0.5643517593552618,0.005696185524041271,-0.2755254739895463,0.037319285911507905,0.8109373971819878,0.04836332887303058,-10.48956885933876,2.741805650293827,10.136913508176804,0.0,0.0,0.0,0.0,0.0,0.0,0.0,0.0,0.0,0.0,0.0,0.0,0.0,0.0,0.0,0.0,False,0,5.314005136489868,0.034919921875
STABILIZE,1.8736131191253662,29.868216226224302,0.03241017659505208,0.0325322151184082,0.0,0.0,0.0,-0.2928744028244742,-1.4436178973599054,73.70362876750214,0.0015497758671496427,-0.010494228854992205,0.0019760518538214033,0.4,-0.10751072107372038,-0.002411460133248858,0.5586399908037608,0.006252528245143946,-0.2755254739895463,0.037319285911507905,0.8109373971819878,0.04836332887303058,-10.48956885933876,2.741805650293827,10.136913508176804,0.0,0.0,0.0,0.0,0.0,0.0,0.0,0.0,0.0,0.0,0.0,0.0,0.0,0.0,0.0,0.0,False,0,5.342800617218018,0.034919921875
STABILIZE,1.9070351123809814,29.919564007818185,0.03237584431966146,0.032517433166503906,0.0,0.0,0.0,-0.29238230903911594,-1.4437307022029164,73.70877873013633,0.0023979520586306672,-0.014704990847317571,0.0023931766146560117,0.4,-0.10292608707860648,-0.0026299861370151865,0.5592612448812897,0.008310347096470553,0.006775735528208315,-0.010403354099253193,1.1470620520412922,0.12891984726441713,7.420256733894348,-1.051856391131878,12.668193876743317,0.0,0.0,0.0,0.0,0.0,0.0,0.0,0.0,0.0,0.0,0.0,0.0,0.0,0.0,0.0,0.0,False,0,5.37148642539978,0.0349208984375
STABILIZE,1.940521001815796,29.864175555017585,0.032416613896687825,0.03254103660583496,0.0,0.0,0.0,-0.2912823817784794,-1.4436222729498425,73.71114197558914,0.00208047833061405,-0.012348945830522071,0.0026040302357881735,0.4,-0.10054340725216862,-0.003161696376983692,0.5620404628216903,0.009333400866219914,-0.10835282737389207,-0.028148660203441978,1.256570778787136,0.07190238856850271,4.408657923340797,-0.804580096155405,23.264944553375244,0.0,0.0,0.0,0.0,0.0,0.0,0.0,0.0,0.0,0.0,0.0,0.0,0.0,0.0,0.0,0.0,False,0,5.400217056274414,0.02993212890625
STABILIZE,1.9739892482757568,29.87970621130844,0.03236583073933919,0.03250288963317871,0.0,0.0,0.0,-0.2913493496488573,-1.4442552393868322,73.71497371171353,0.0006324573305892476,-0.006689382615190584,0.0025205300330933293,0.4,-0.09447579339057012,-0.0023455523721871365,0.5587873402943069,0.00888617865056306,0.08736490271985531,0.042690415284596384,1.063934899866581,-0.00566545515354046,-1.964392326772213,2.6772983372211456,7.803624123334885,0.0,0.0,0.0,0.0,0.0,0.0,0.0,0.0,0.0,0.0,0.0,0.0,0.0,0.0,0.0,0.0,False,0,5.42905068397522,0.034919921875
STABILIZE,2.0077035427093506,29.659541067072094,0.03233531316121419,0.03286242485046387,0.0,0.0,0.0,-0.2916955015015594,-1.4427931520176263,73.7187371459462,-0.0011757638699497577,-0.005991559693567323,0.0017805146539277062,0.4,-0.08744423134841932,-0.0009537632022431843,0.5524612297138464,0.005168615994638036,-0.14878284418955445,0.03334554785396904,0.7403257768601179,-0.1687504689353167,5.805960297584534,0.9102568961679935,11.665984988212585,0.0,0.0,0.0,0.0,0.0,0.0,0.0,0.0,0.0,0.0,0.0,0.0,0.0,0.0,0.0,0.0,False,0,5.486248970031738,0.064851806640625
STABILIZE,2.0413167476654053,29.75000177323829,0.03248432477315267,0.032621145248413086,0.0,0.0,0.0,-0.2918921362444617,-1.4425375535322797,73.71946114599822,-0.0012655288640186738,-0.0054082774957092995,0.0010515489428175018,0.4,-0.08708301508115901,-0.00032860716284646783,0.5610681602341087,0.0015187026523507722,-0.14878284418955445,0.03334554785396904,0.7403257768601179,-0.1687504689353167,5.805960297584534,0.9102568961679935,11.665984988212585,0.0,0.0,0.0,0.0,0.0,0.0,0.0,0.0,0.0,0.0,0.0,0.0,0.0,0.0,0.0,0.0,False,0,5.514875888824463,0.064851806640625
STABILIZE,2.074692487716675,29.962738598696994,0.03234389623006185,0.03246307373046875,0.0,0.0,0.0,-0.29216400978993995,-1.4434088295382794,73.72287624058323,-0.0019439914676451034,-0.005142678157228483,0.0009055275984265893,0.4,-0.08302245334798548,0.00032481339605646407,0.5759412696570502,0.0007859683180558915,0.031556226895190775,0.028657211805693805,1.173260435461998,-0.0022308438365893015,-2.278032898902893,-0.9606869891285896,20.164212584495544,0.0,0.0,0.0,0.0,0.0,0.0,0.0,0.0,0.0,0.0,0.0,0.0,0.0,0.0,0.0,0.0,False,0,5.543649196624756,0.034920166015625
STABILIZE,2.108156681060791,29.882686539516527,0.03240540822347005,0.0325465202331543,0.0,0.0,0.0,-0.2926753134823389,-1.4435492753030879,73.72742514657045,-0.00279419849033358,-0.002678661079165367,0.0008535322835287401,0.4,-0.07804284308576788,0.0009363760703046965,0.5747505566557332,0.0005242375000534188,0.031556226895190775,0.028657211805693805,1.173260435461998,-0.0022308438365893015,-2.278032898902893,-0.9606869891285896,20.164212584495544,0.0,0.0,0.0,0.0,0.0,0.0,0.0,0.0,0.0,0.0,0.0,0.0,0.0,0.0,0.0,0.0,False,0,5.572246551513672,0.034920166015625
STABILIZE,2.141571283340454,29.926181727373265,0.03240707715352376,0.032506465911865234,0.0,0.0,0.0,-0.29303331144438277,-1.4430873837604659,73.72882533535031,-0.0023811138935545375,-0.002562602644681796,0.0005448159281850398,0.4,-0.07297941981190464,0.001086840649115144,0.5701533274509859,-0.0010159492803300447,0.04599635431077331,0.006769959145458415,0.9897456504404545,-0.06619581887780994,5.169862136244774,0.8074721321463585,16.484440863132477,0.0,0.0,0.0,0.0,0.0,0.0,0.0,0.0,0.0,0.0,0.0,0.0,0.0,0.0,0.0,0.0,False,0,5.608050107955933,0.06485302734375
STABILIZE,2.1751060485839844,29.82064827125296,0.0323980172475179,0.03258967399597168,0.0,0.0,0.0,-0.2929816581387845,-1.444560036578544,73.7341119017679,-0.0028966581869868386,-0.0036961992671077277,-0.0009196703824992227,0.4,-0.0687278298012274,0.002823524889961371,0.5830903800961157,-0.008310548655907357,0.013728367048315704,0.07339312578551471,1.0930935852229595,-0.3074254004796723,-7.952786982059479,-0.9805942885577679,21.372108161449432,0.0,0.0,0.0,0.0,0.0,0.0,0.0,0.0,0.0,0.0,0.0,0.0,0.0,0.0,0.0,0.0,False,0,5.637666940689087,0.034919921875
STABILIZE,2.208498239517212,29.94541105915111,0.032388957341512044,0.032517194747924805,0.0,0.0,0.0,-0.29387059658709114,-1.444141047161646,73.73598337360049,-0.0012527598085152868,-0.0032369485229971342,-0.0011801673389138373,0.4,-0.06783360156202384,0.00131397246547324,0.5802117386865303,-0.009580966481088853,-0.14404301764443517,-0.06888923235237598,1.1373584158718586,-0.05996816044831942,1.5473784878849983,-1.0756367817521095,16.725505888462067,0.0,0.0,0.0,0.0,0.0,0.0,0.0,0.0,0.0,0.0,0.0,0.0,0.0,0.0,0.0,0.0,False,0,5.665624380111694,0.06485205078125
STABILIZE,2.242013692855835,29.837407165011523,0.032454522450764973,0.03263354301452637,0.0,0.0,0.0,-0.29372577523234566,-1.4432419167904373,73.73812805299987,0.0003860971366054812,-0.005524664735563926,-0.0016637632442465023,0.4,-0.06732123697343224,-0.00016668249740896235,0.593188970261034,-0.011958888630378977,-0.14404301764443517,-0.06888923235237598,1.1373584158718586,-0.05996816044831942,1.5473784878849983,-1.0756367817521095,16.725505888462067,0.0,0.0,0.0,0.0,0.0,0.0,0.0,0.0,0.0,0.0,0.0,0.0,0.0,0.0,0.0,0.0,False,1,5.6949357986450195,0.06485205078125
STABILIZE,2.275505542755127,29.858860547728714,0.03244212468465169,0.03257393836975098,0.0,0.0,0.0,-0.29360059067146405,-1.4426352038930697,73.74311409109397,0.002123833080306066,-0.009341334429959512,-0.0015066814619318733,0.4,-0.0679431377377828,-0.0018002226983415805,0.5876093529700205,-0.01113621804258222,-0.2837246283888817,0.012481602607294917,0.8380434475839138,0.12712001237683943,-2.5302493944764137,-1.0543625801801682,20.38465440273285,0.0,0.0,0.0,0.0,0.0,0.0,0.0,0.0,0.0,0.0,0.0,0.0,0.0,0.0,0.0,0.0,False,0,5.75187349319458,0.034920166015625
STABILIZE,2.309018850326538,29.8405913615117,0.03239396413167318,0.032535552978515625,0.0,0.0,0.0,-0.2932979279138679,-1.4422765122399384,73.74587348751867,0.0007369338198487487,-0.011507935984050153,0.0001483753832420213,0.4,-0.0664752445747802,1.9150665884515826e-05,0.5809085105227806,-0.002851391863849577,-0.10468277614563704,0.07885437807999551,1.0527437552809715,0.34932396864349907,-0.873980950564146,0.8580949157476425,17.5702303647995,0.0,0.0,0.0,0.0,0.0,0.0,0.0,0.0,0.0,0.0,0.0,0.0,0.0,0.0,0.0,0.0,False,0,5.782400846481323,0.029931884765625
STABILIZE,2.342350721359253,29.9989557629725,0.032326491673787434,0.032521724700927734,0.0,0.0,0.0,-0.29207612446522896,-1.440929897756388,73.74956861985964,0.00048277512073546423,-0.01311053159922653,0.0017045743959702509,0.4,-0.06497836037656386,0.001727746524149487,0.5724213443209831,0.004913149908942598,-0.10468277614563704,0.07885437807999551,1.0527437552809715,0.34932396864349907,-0.873980950564146,0.8580949157476425,17.5702303647995,0.0,0.0,0.0,0.0,0.0,0.0,0.0,0.0,0.0,0.0,0.0,0.0,0.0,0.0,0.0,0.0,False,0,5.811081647872925,0.029931884765625
STABILIZE,2.375844955444336,29.85673507449406,0.03253796895345052,0.03264927864074707,0.0,0.0,0.0,-0.29210141750949914,-1.4409250952796278,73.75224605401428,-0.00022896882063831833,-0.013455828657694117,0.0019244951054437215,0.4,-0.06464215715013573,0.0013842839047302903,0.5654787436299709,0.0059927141809629336,-0.15373611822724342,-0.013710670464206487,1.0813181288540363,0.05504689575951284,-3.592388704419136,2.780548483133316,17.287777364253998,0.0,0.0,0.0,0.0,0.0,0.0,0.0,0.0,0.0,0.0,0.0,0.0,0.0,0.0,0.0,0.0,False,0,5.83978271484375,0.034920166015625
STABILIZE,2.4094126224517822,29.7922648009376,0.03247526486714681,0.03259444236755371,0.0,0.0,0.0,-0.29143974293365416,-1.4418675546633837,73.75561333727511,-0.001731036334593673,-0.011441971225583138,0.002687625987481031,0.4,-0.061729199676086074,0.0020314284501294277,0.5630146659842689,0.009775663976870248,-0.015415705274790525,0.03274346236139536,1.1362356133759022,0.18251177932858503,0.3602882847189903,0.9236897341907024,20.968995988368988,0.0,0.0,0.0,0.0,0.0,0.0,0.0,0.0,0.0,0.0,0.0,0.0,0.0,0.0,0.0,0.0,False,0,5.868403196334839,0.0349208984375
STABILIZE,2.442876100540161,29.88162206833661,0.0323362668355306,0.03248929977416992,0.0,0.0,0.0,-0.2901814940224909,-1.4412825062722898,73.75911722431931,-0.003317524626990759,-0.008802856654484251,0.003426369943291578,0.4,-0.058963656072102646,0.002656905232748526,0.560960600145665,0.013424452227900473,-0.015415705274790525,0.03274346236139536,1.1362356133759022,0.18251177932858503,0.3602882847189903,0.9236897341907024,20.968995988368988,0.0,0.0,0.0,0.0,0.0,0.0,0.0,0.0,0.0,0.0,0.0,0.0,0.0,0.0,0.0,0.0,False,0,5.897017955780029,0.0349208984375
STABILIZE,2.476268768310547,29.94669389328783,0.032347949345906575,0.03248167037963867,0.0,0.0,0.0,-0.2893010933106468,-1.4413116412979683,73.76074963953096,-0.003188062769006114,-0.010638972263455723,0.004363291177997769,0.4,-0.05999176909333894,0.0039603498449357994,0.5704847126851237,0.01804869304028742,-0.2517836634069681,0.07331778178922832,1.0136115364730358,0.1205489835291037,-7.485261559486389,0.667516840621829,12.702509760856628,0.0,0.0,0.0,0.0,0.0,0.0,0.0,0.0,0.0,0.0,0.0,0.0,0.0,0.0,0.0,0.0,False,0,5.955159425735474,0.034919921875
STABILIZE,2.509815216064453,29.807932571014348,0.03241017659505208,0.03269529342651367,0.0,0.0,0.0,-0.28996356829928516,-1.4409949979969146,73.76624111162364,-0.00217215517053619,-0.010749922631846784,0.0042112658389002276,0.4,-0.05888517970776468,0.004088428702262578,0.5619667902753283,0.017230682186155186,-0.09175215382128954,0.010730058420449495,0.8638687431812286,-0.02070206325047064,2.0524144172668457,0.6190434098243713,13.815805315971375,0.0,0.0,0.0,0.0,0.0,0.0,0.0,0.0,0.0,0.0,0.0,0.0,0.0,0.0,0.0,0.0,False,0,5.983773708343506,0.02993212890625
STABILIZE,2.5433349609375,29.834223647990214,0.03246048291524251,0.032599687576293945,0.0,0.0,0.0,-0.2894985818271954,-1.4401140103156889,73.76775058343021,-0.0024581579902405327,-0.010018902475751906,0.004019982308272606,0.4,-0.05768460614589953,0.004158846868395884,0.5516119538606851,0.016219974867515346,-0.09175215382128954,0.010730058420449495,0.8638687431812286,-0.02070206325047064,2.0524144172668457,0.6190434098243713,13.815805315971375,0.0,0.0,0.0,0.0,0.0,0.0,0.0,0.0,0.0,0.0,0.0,0.0,0.0,0.0,0.0,0.0,False,0,6.016398668289185,0.02993212890625
STABILIZE,2.5767664909362793,29.91209590574878,0.03241160710652669,0.03252530097961426,0.0,0.0,0.0,-0.28924682532325696,-1.4402485863866792,73.77071488553,-0.00010208048377901502,-0.00963089428197139,0.002697287702540132,0.4,-0.05483632546330858,0.0017966895938601119,0.5435731733413831,0.009574498077181842,-0.0011944131983909756,-0.1145407441072166,0.9327405132353306,-0.3143493713486405,0.19738210830837488,-1.3604638166725636,11.525025963783264,0.0,0.0,0.0,0.0,0.0,0.0,0.0,0.0,0.0,0.0,0.0,0.0,0.0,0.0,0.0,0.0,False,0,6.044985294342041,0.039908935546875
STABILIZE,2.610224962234497,29.888010033206495,0.03241852124532064,0.03253746032714844,0.0,0.0,0.0,-0.2885921943799935,-1.4406433499763647,73.77457394241105,1.0231629846839043e-05,-0.012185205451846527,0.0030397056401359054,0.4,-0.0557027013901224,0.002161684805367833,0.542515165028132,0.011248969474869327,-0.16857602167874575,0.022116981563158333,0.9981423616409302,0.0983093139623736,-0.8533596992492676,0.7030496373772621,15.557010471820831,0.0,0.0,0.0,0.0,0.0,0.0,0.0,0.0,0.0,0.0,0.0,0.0,0.0,0.0,0.0,0.0,False,0,6.074455261230469,0.0348720703125
STABILIZE,2.643728017807007,29.848873453934726,0.03239563306172689,0.03252124786376953,0.0,0.0,0.0,-0.2875591282680291,-1.4406935091780821,73.77771582942927,0.000581436834773215,-0.012126193016305397,0.0033596960693539736,0.4,-0.056423233055757166,0.0025105716683140947,0.5390453272915122,0.012806075670715069,-0.16857602167874575,0.022116981563158333,0.9981423616409302,0.0983093139623736,-0.8533596992492676,0.7030496373772621,15.557010471820831,0.0,0.0,0.0,0.0,0.0,0.0,0.0,0.0,0.0,0.0,0.0,0.0,0.0,0.0,0.0,0.0,False,0,6.103829622268677,0.0348720703125
STABILIZE,2.6771812438964844,29.891205039944698,0.03233984311421712,0.03247499465942383,0.0,0.0,0.0,-0.2875407187737818,-1.440082740855895,73.77946435785678,0.0009300848231689129,-0.011081809802759817,0.003038933043510053,0.4,-0.054227074473478416,0.002184834788312505,0.5360055333261576,0.01116492490636941,-0.013029394904151559,-0.013084779493510723,1.0011873207986355,-0.06835655989391405,5.326153337955475,0.7337420247495174,15.892060101032257,0.0,0.0,0.0,0.0,0.0,0.0,0.0,0.0,0.0,0.0,0.0,0.0,0.0,0.0,0.0,0.0,False,0,6.132424831390381,0.0349208984375
STABILIZE,2.710597515106201,29.926395250938253,0.032349618275960286,0.03255581855773926,0.0,0.0,0.0,-0.2886482232755288,-1.4405777161273092,73.78334390530536,0.0012374845417473426,-0.010168704527830159,0.002720371456604692,0.4,-0.0521099482769547,0.0018632756402766988,0.5333268426997391,0.009540141617446762,-0.013029394904151559,-0.013084779493510723,1.0011873207986355,-0.06835655989391405,5.326153337955475,0.7337420247495174,15.892060101032257,0.0,0.0,0.0,0.0,0.0,0.0,0.0,0.0,0.0,0.0,0.0,0.0,0.0,0.0,0.0,0.0,False,1,6.162806749343872,0.0349208984375
STABILIZE,2.744086265563965,29.862261934427398,0.032439502080281575,0.03255629539489746,0.0,0.0,0.0,-0.2881069307838053,-1.4406122939599824,73.78675899989035,0.0006845588481201427,-0.009117687844880693,0.002935043290525512,0.4,-0.048502397094415665,0.0006378381806667223,0.5352365906550699,0.010578119868545231,0.05773466546088457,-0.023458831128664315,1.113392598927021,0.1602533934427035,1.2584738433361053,-1.2392018921673298,17.706021666526794,0.0,0.0,0.0,0.0,0.0,0.0,0.0,0.0,0.0,0.0,0.0,0.0,0.0,0.0,0.0,0.0,False,0,6.220154523849487,0.029931884765625
STABILIZE,2.777582883834839,29.850572912959933,0.03239873250325521,0.03255462646484375,0.0,0.0,0.0,-0.28756099589788026,-1.4394710120383556,73.79061805677142,0.0017160837491064077,-0.014299400040151202,0.002613656550559421,0.4,-0.055505939905127366,-0.00032961686271677033,0.5289719253672567,0.008941259210261317,-0.512756360694766,-0.050473102601245046,0.9013238362967968,-0.06877356161904184,-8.739419281482697,0.5961967166513205,12.01372817158699,0.0,0.0,0.0,0.0,0.0,0.0,0.0,0.0,0.0,0.0,0.0,0.0,0.0,0.0,0.0,0.0,False,0,6.2488930225372314,0.034919921875
STABILIZE,2.811030149459839,29.899088977915913,0.03237155278523763,0.03250241279602051,0.0,0.0,0.0,-0.2875721483161344,-1.4393562862046405,73.79291300033255,0.0027368302989993314,-0.019711237386160717,0.0023088883811464415,0.4,-0.06266712002345722,-0.001296435993528616,0.5258007711880244,0.007392682344405731,-0.512756360694766,-0.050473102601245046,0.9013238362967968,-0.06877356161904184,-8.739419281482697,0.5961967166513205,12.01372817158699,0.0,0.0,0.0,0.0,0.0,0.0,0.0,0.0,0.0,0.0,0.0,0.0,0.0,0.0,0.0,0.0,False,0,6.277586460113525,0.034919921875
STABILIZE,2.8444759845733643,29.899728398406033,0.032387526830037434,0.03251981735229492,0.0,0.0,0.0,-0.2865323587367058,-1.4391678156722305,73.7947913023543,0.003049238742691017,-0.021806485216545133,0.0018074901455858538,0.4,-0.06342345894260641,-0.001940182532428331,0.5264514287384987,0.004869404340561365,-0.15554185956716537,-0.033103907480835915,1.1045978404581547,-0.12380794425855181,-5.287860333919525,-1.216995157301426,17.59444773197174,0.0,0.0,0.0,0.0,0.0,0.0,0.0,0.0,0.0,0.0,0.0,0.0,0.0,0.0,0.0,0.0,False,0,6.30615234375,0.034921142578125
STABILIZE,2.877976894378662,29.85036046999879,0.03239110310872396,0.03253746032714844,0.0,0.0,0.0,-0.28530367173804394,-1.4392347301817554,73.79795367994001,0.0033543323684425293,-0.0238383095884716,0.0013077643822275147,0.4,-0.06416963219566814,-0.0025712366815171116,0.5272642477334235,0.0023628665786421307,-0.15554185956716537,-0.033103907480835915,1.1045978404581547,-0.12380794425855181,-5.287860333919525,-1.216995157301426,17.59444773197174,0.0,0.0,0.0,0.0,0.0,0.0,0.0,0.0,0.0,0.0,0.0,0.0,0.0,0.0,0.0,0.0,False,0,6.33489465713501,0.034921142578125
STABILIZE,2.9113523960113525,29.9605983113562,0.03235462506612142,0.032483577728271484,0.0,0.0,0.0,-0.2855456632059034,-1.4388058156462198,73.80104092544485,0.0012090907605154945,-0.025541699944637782,0.0012171112357516312,0.4,-0.06331242283997035,-0.0009339567854863922,0.5244463154341282,0.0019032388896176753,-0.06577615858986974,0.09405860910192132,0.8918371982872486,-0.009644830752706331,-5.423879623413086,0.7212487980723381,14.501689374446869,0.0,0.0,0.0,0.0,0.0,0.0,0.0,0.0,0.0,0.0,0.0,0.0,0.0,0.0,0.0,0.0,False,1,6.363570690155029,0.064851806640625
STABILIZE,2.9449164867401123,29.795016054328986,0.03242448170979818,0.03257870674133301,0.0,0.0,0.0,-0.2842690048004928,-1.4383460585377132,73.80627968053825,0.0019414281451519595,-0.02776795941248482,-1.4769734862599354e-05,0.4,-0.07162693052462081,-0.0026104874018527675,0.5372481064260687,-0.004241962890463958,-0.28418111614882946,-0.041055079782381654,1.0236035101115704,-0.14160972509249256,-5.615802481770515,0.7557169999927282,15.414007008075714,0.0,0.0,0.0,0.0,0.0,0.0,0.0,0.0,0.0,0.0,0.0,0.0,0.0,0.0,0.0,0.0,False,0,6.421091794967651,0.03492041015625
STABILIZE,2.978273868560791,29.97665792351289,0.03233793576558431,0.032460927963256836,0.0,0.0,0.0,-0.28436484089228453,-1.4375807571855546,73.80849266182933,0.002273111589454017,-0.022009900684046256,-0.0003190533793194435,0.4,-0.07030059914991629,-0.0037909523908744294,0.5310833123196922,-0.005744175537741914,-0.0584728317335248,-0.06351034389808774,0.7845950312912464,-0.07050919006037878,1.9043635576963425,-1.1595494113862514,13.933935761451721,0.0,0.0,0.0,0.0,0.0,0.0,0.0,0.0,0.0,0.0,0.0,0.0,0.0,0.0,0.0,0.0,False,0,6.449989080429077,0.029931884765625
STABILIZE,3.0116705894470215,29.943487014006884,0.03243115743001302,0.03254437446594238,0.0,0.0,0.0,-0.2838707193945164,-1.4372473585766934,73.81129303938904,0.0018963817224132969,-0.024115138072651664,-0.00018164047599430772,0.4,-0.0734369806670618,-0.003845567537922666,0.5279584211647086,-0.005040262335338734,-0.3227253910154104,-0.0071526730607729405,1.0665949434041977,0.03843120662341389,-0.9104432538151741,-1.173227746039629,15.965422987937927,0.0,0.0,0.0,0.0,0.0,0.0,0.0,0.0,0.0,0.0,0.0,0.0,0.0,0.0,0.0,0.0,False,0,6.478810787200928,0.034919921875
STABILIZE,3.045210599899292,29.816196542311193,0.03247264226277669,0.032592058181762695,0.0,0.0,0.0,-0.2836650133066227,-1.438246060299396,73.81574632272789,0.002338941423531269,-0.02335522470432706,0.0008354371167354925,0.4,-0.07306290174049114,-0.004888174662436493,0.5249534990500949,4.4975230630514736e-05,-0.10642881970852613,-0.05837318021804094,0.9090933948755264,0.28415705373112804,1.0600033216178417,0.7264144718647003,12.08903044462204,0.0,0.0,0.0,0.0,0.0,0.0,0.0,0.0,0.0,0.0,0.0,0.0,0.0,0.0,0.0,0.0,False,0,6.50744104385376,0.02993212890625
STABILIZE,3.078582286834717,29.964236981789867,0.03236201604207357,0.03249192237854004,0.0,0.0,0.0,-0.2828180164886882,-1.4384742313063568,73.81680500204925,0.0034325495721312803,-0.02106617996088624,0.0003131802953516721,0.4,-0.06953041959079279,-0.00490594351557171,0.5173868709925581,-0.002557752308680703,0.04327916249167174,-0.006629913696087897,0.7823511958122253,-0.14142603035641624,-2.0289329811930656,-1.1561037972569466,13.361665606498718,0.0,0.0,0.0,0.0,0.0,0.0,0.0,0.0,0.0,0.0,0.0,0.0,0.0,0.0,0.0,0.0,False,0,6.536215782165527,0.034919921875
STABILIZE,3.1170828342437744,25.975104351164894,0.032451899846394856,0.03745317459106445,0.0,0.0,0.0,-0.28239310401711937,-1.4385968545462997,73.81890870031361,0.0006719944370748424,-0.012636890083246621,0.0014683513149778746,0.4,-0.06543833836542057,-0.002641436404335444,0.5132971079858237,0.0032058155612519896,-0.01226975437020883,0.060491036856547,0.9222651831805706,0.16505034735459453,1.88998281955719,0.7348587270826101,11.010653525590897,0.0,0.0,0.0,0.0,0.0,0.0,0.0,0.0,0.0,0.0,0.0,0.0,0.0,0.0,0.0,0.0,False,0,6.593386650085449,0.034876708984375
STABILIZE,3.151156187057495,29.350090269127957,0.03217604955037435,0.03295493125915527,0.0,0.0,0.0,-0.28146510542449676,-1.4401897827267935,73.82381277613767,0.0003890641772843268,-0.014510362197079593,0.0024388222632272926,0.4,-0.06663891529725141,-0.003251013572527145,0.5104274688847267,0.008030786234058136,-0.19459236646071076,-0.03803358704317361,0.8644906803965569,0.2735830938027285,-0.46818722039461136,-1.1887184344232082,12.320253998041153,0.0,0.0,0.0,0.0,0.0,0.0,0.0,0.0,0.0,0.0,0.0,0.0,0.0,0.0,0.0,0.0,False,0,6.6220903396606445,0.02993212890625
STABILIZE,3.1844968795776367,29.989518014571818,0.03227356274922689,0.03240180015563965,0.0,0.0,0.0,-0.28177385131932253,-1.4392507384376227,73.82838217269241,0.0007721116438069841,-0.012404526002505292,0.0036030888382586066,0.4,-0.06654728136554457,-0.0037598184414254785,0.5069011165987428,0.013805952178189761,-0.1408698852173984,-0.034507428063079715,0.9535887278616428,0.33807371326556246,-1.0627062991261482,-1.2270855717360973,9.823326021432877,0.0,0.0,0.0,0.0,0.0,0.0,0.0,0.0,0.0,0.0,0.0,0.0,0.0,0.0,0.0,0.0,False,0,6.650808811187744,0.04489697265625
STABILIZE,3.2184882164001465,29.42214989197228,0.03240493138631185,0.032854318618774414,0.0,0.0,0.0,-0.282562738168459,-1.4387608858080858,73.83119621063047,0.0006231464214037544,-0.017073522052675573,0.002752585872076637,0.4,-0.07195259044993156,-0.004418939894966307,0.5131772417948096,0.009521285248684234,-0.38629614282399416,-0.03658615751191974,1.079894881695509,-0.25739698621282636,-0.1339253969490528,-1.3038473203778267,6.712605804204941,0.0,0.0,0.0,0.0,0.0,0.0,0.0,0.0,0.0,0.0,0.0,0.0,0.0,0.0,0.0,0.0,False,0,6.679499626159668,0.024944091796875
STABILIZE,3.2517311573028564,30.07920138839087,0.03217509587605794,0.03231954574584961,0.0,0.0,0.0,-0.28288445075053714,-1.4393142378525625,73.83352530513744,0.000999478246083621,-0.022428193427648867,0.001791723412116908,0.4,-0.07561480066780953,-0.00489183049572044,0.5093341210297597,0.004701241073207762,-0.38629614282399416,-0.03658615751191974,1.079894881695509,-0.25739698621282636,-0.1339253969490528,-1.3038473203778267,6.712605804204941,0.0,0.0,0.0,0.0,0.0,0.0,0.0,0.0,0.0,0.0,0.0,0.0,0.0,0.0,0.0,0.0,False,0,6.708075523376465,0.024944091796875
STABILIZE,3.2862935066223145,28.93261961260416,0.032395156224568684,0.03363466262817383,0.0,0.0,0.0,-0.2831137956962615,-1.4390226741523677,73.8378829658279,0.0026042211407311657,-0.026714506603304957,0.0023295659602462714,0.4,-0.077995924451197,-0.005269088590353507,0.5028479052304827,0.007365010022649128,-0.3196313511580229,-0.03225632244721055,0.8932433091104031,0.1691481673719113,-5.531969293951988,-1.1635779403150082,14.331986010074615,0.0,0.0,0.0,0.0,0.0,0.0,0.0,0.0,0.0,0.0,0.0,0.0,0.0,0.0,0.0,0.0,False,1,6.737473249435425,0.034919921875
STABILIZE,3.319953680038452,29.708489750818092,0.03240660031636556,0.03279447555541992,0.0,0.0,0.0,-0.2830954395628671,-1.4396466759660718,73.83948123009368,0.00205376004346627,-0.02551152581937251,0.002736268369716533,0.4,-0.07742070319463398,-0.005071650780217181,0.5047412755549626,0.009366953436992601,-0.18012222135439515,0.0476712710224092,1.083974540233612,0.037380264625731074,-3.2245993614196777,0.776574807241559,14.263318479061127,0.0,0.0,0.0,0.0,0.0,0.0,0.0,0.0,0.0,0.0,0.0,0.0,0.0,0.0,0.0,0.0,False,0,6.796048402786255,0.034919921875
STABILIZE,3.3536112308502197,29.715856518381546,0.0324590524037679,0.03260469436645508,0.0,0.0,0.0,-0.28151227641845217,-1.4406583977368799,73.84509564559144,0.0013495718773688938,-0.029484381462326348,0.003051850322940524,0.4,-0.08216461877503876,-0.004614299510513369,0.5094394903411682,0.010908282015305786,-0.40179952047765255,0.022121019719634205,1.2106788344681263,0.09951477564981474,-3.946246951818466,1.0464667342603207,24.36901181936264,0.0,0.0,0.0,0.0,0.0,0.0,0.0,0.0,0.0,0.0,0.0,0.0,0.0,0.0,0.0,0.0,False,0,6.824434757232666,0.0349208984375
STABILIZE,3.3936197757720947,24.991979788590562,0.03225138982137044,0.039092063903808594,0.0,0.0,0.0,-0.2827567048687168,-1.440144212558425,73.84701492874821,-0.0005112350747753925,-0.023691502399687592,0.002759002690347399,0.4,-0.07889139040387849,-0.0025942867569553356,0.505162967438235,0.009406317475219337,0.07399207097478211,0.11403696844354272,0.676276721060276,-0.08090072257295816,3.825833275914192,0.7859719917178154,8.997245132923126,0.0,0.0,0.0,0.0,0.0,0.0,0.0,0.0,0.0,0.0,0.0,0.0,0.0,0.0,0.0,0.0,False,0,6.853288173675537,0.029930908203125
STABILIZE,3.4271624088287354,29.813653293906913,0.03241446812947591,0.032553911209106445,0.0,0.0,0.0,-0.2818462619966952,-1.4397112425980696,73.85183704230224,-0.00247532691624203,-0.018209993270469273,0.0024444466924070834,0.4,-0.07508402827860179,-0.0005729217247114515,0.49837085533397374,0.007807406163148153,0.07399207097478211,0.11403696844354272,0.676276721060276,-0.08090072257295816,3.825833275914192,0.7859719917178154,8.997245132923126,0.0,0.0,0.0,0.0,0.0,0.0,0.0,0.0,0.0,0.0,0.0,0.0,0.0,0.0,0.0,0.0,False,0,6.881683588027954,0.029930908203125
STABILIZE,3.460562229156494,29.939853381016626,0.0323212464650472,0.03250527381896973,0.0,0.0,0.0,-0.2811586540463453,-1.440158833432117,73.85431640097096,-0.0038149450770214345,-0.019353542552843682,0.0019988293781165755,0.4,-0.07829065761232872,0.0007711156419841042,0.49185219402739244,0.0055607057029385615,-0.22274008952081203,0.04849099204875529,0.8328392170369625,0.030033302275898097,-3.850819915533066,0.8478842675685883,15.303350985050201,0.0,0.0,0.0,0.0,0.0,0.0,0.0,0.0,0.0,0.0,0.0,0.0,0.0,0.0,0.0,0.0,False,0,6.940216064453125,0.034919921875
STABILIZE,3.4942474365234375,29.686621462848407,0.032430442174275716,0.03277754783630371,0.0,0.0,0.0,-0.2814562475229169,-1.4396131653504565,73.85602394826346,-0.002978019448564847,-0.021301876098394828,0.0014823711606185078,0.4,-0.08017479117744232,-0.00010024066592825105,0.4925391186265861,0.0029684200312399323,-0.23930869065225124,-0.05951786879450083,0.953040923923254,-0.1433778236128135,-3.4313328564167023,-1.1384107172489166,13.050985336303711,0.0,0.0,0.0,0.0,0.0,0.0,0.0,0.0,0.0,0.0,0.0,0.0,0.0,0.0,0.0,0.0,False,0,6.968758583068848,0.029931884765625
STABILIZE,3.5277390480041504,29.85673507449406,0.03241589864095052,0.032566070556640625,0.0,0.0,0.0,-0.2814202289472157,-1.4403140067923232,73.86183643924714,-0.0022149244604114976,-0.013771460494498152,0.0020059327677270046,0.4,-0.07472139764040794,-0.0006662687019272337,0.48828537424855245,0.005567587028507642,0.17471681348979473,-0.03855922550428659,0.7962009869515896,0.17001640180929625,3.7076789885759354,-1.205962523818016,9.10264477133751,0.0,0.0,0.0,0.0,0.0,0.0,0.0,0.0,0.0,0.0,0.0,0.0,0.0,0.0,0.0,0.0,False,0,6.997354507446289,0.0349208984375
STABILIZE,3.5611791610717773,29.9054844137695,0.032396586736043294,0.032527923583984375,0.0,0.0,0.0,-0.2808032174052402,-1.4402248941679958,73.86387866580897,-0.0020753176170329574,-0.015327334991749616,0.0019366555490321837,0.4,-0.0743828932774642,0.0005175261400491559,0.49223502660652196,0.0052037993710984595,-0.1096427789889276,0.06666223052889109,1.138061285018921,-0.01071131076374027,0.17465883865952492,-0.8661911822855473,24.970674514770508,0.0,0.0,0.0,0.0,0.0,0.0,0.0,0.0,0.0,0.0,0.0,0.0,0.0,0.0,0.0,0.0,False,0,7.0261619091033936,0.03492041015625
STABILIZE,3.594630718231201,29.892696276868694,0.03240779240926107,0.03254389762878418,0.0,0.0,0.0,-0.28090764459434736,-1.4395278947075372,73.86721179812393,7.957924837267294e-05,-0.01551405595504457,0.0018395201535414151,0.4,-0.07150652565814303,-0.0004929456267668693,0.49008363273891553,0.004702389366135425,0.041392940329387784,-0.06577799213118851,0.7695188745856285,-0.01877537127277851,1.5412086620926857,-1.2876780703663826,7.813572883605957,0.0,0.0,0.0,0.0,0.0,0.0,0.0,0.0,0.0,0.0,0.0,0.0,0.0,0.0,0.0,0.0,False,0,7.055608034133911,0.029931884765625
STABILIZE,3.6281027793884277,29.87630084978168,0.03241446812947591,0.03256082534790039,0.0,0.0,0.0,-0.28057472623316215,-1.4386429583231972,73.86820900574276,0.0012005247823860584,-0.012585526113867979,0.002524982125863273,0.4,-0.07045892591621253,-0.0007825506408113434,0.48889001218351064,0.008102581693996254,-0.09041621233336627,-0.02069871552521363,0.9710907004773617,0.218335227731016,-0.5074965767562389,1.0182115249335766,13.787871599197388,0.0,0.0,0.0,0.0,0.0,0.0,0.0,0.0,0.0,0.0,0.0,0.0,0.0,0.0,0.0,0.0,False,0,7.083527088165283,0.0349375
