Mode,Time,Freq,time2delay,actualDelay,North-Desired,East-Desired,Down-Desired,Roll-UAV,Pitch-UAV,Yaw-UAV,Roll-Control,Pitch-Control,Yaw-Control,Thrust-Control,North-Pos,East-Pos,Down-Pos,Yaw-Ang,North-Vel,East-Vel,Down-Vel,Yaw-Vel,North-Acc,East-Acc,Down-Acc,North-Avg,East-Avg,Down-Avg,Yaw-Avg,North-Dif,East-Dif,Down-Dif,Yaw-Dif,North-One,East-One,Down-One,Yaw-One,North-Two,East-Two,Down-Two,Yaw-Two,Landing-State,Q-Size,Kalman-Time,Kalman-Dt
STABILIZE,0.034355878829956055,29.11477776775116,0.032746346791585286,0.03288602828979492,0.0,0.0,0.0,0.2194895697213878,-1.0509410371874692,-82.47710920922107,-0.04126648443057433,0.02576350704089887,-0.00035893239367668984,0.4,0.011343577445351286,0.018170744190571624,0.6512938425932308,-0.001788758342214378,0.17506408039480448,0.2814402338117361,1.355560589581728,-0.34435023022598105,-4.854096472263336,-1.704147830605507,16.340002417564392,0.0,0.0,0.0,0.0,0.0,0.0,0.0,0.0,0.0,0.0,0.0,0.0,0.0,0.0,0.0,0.0,False,0,3.5363056659698486,0.034921142578125
STABILIZE,0.06781172752380371,29.892270193993472,0.032317431767781575,0.03248763084411621,0.0,0.0,0.0,0.21882981613624689,-1.051566746548466,-82.46722592549206,-0.016665138115218966,0.004284213261196001,0.0012318667811011025,0.4,0.0034414653083663285,0.013708390712728967,0.6553819386270818,0.006144667426281076,-0.46097137965261936,-0.23074345663189888,1.43530098721385,0.46388819901557743,-7.9612210392951965,-9.356116503477097,21.4702770113945,0.0,0.0,0.0,0.0,0.0,0.0,0.0,0.0,0.0,0.0,0.0,0.0,0.0,0.0,0.0,0.0,False,0,3.565312623977661,0.034919921875
STABILIZE,0.10123300552368164,29.91913715867264,0.03236893018086751,0.03249931335449219,0.0,0.0,0.0,0.21687558162082987,-1.0526802808265896,-82.45272543388411,-0.007968204959621849,-0.0037759660305328167,0.0028459190769123885,0.4,-0.004585053094649328,0.00919138360209633,0.6594545334737819,0.014167542686768259,-0.46097137965261936,-0.23074345663189888,1.43530098721385,0.46388819901557743,-7.9612210392951965,-9.356116503477097,21.4702770113945,0.0,0.0,0.0,0.0,0.0,0.0,0.0,0.0,0.0,0.0,0.0,0.0,0.0,0.0,0.0,0.0,False,0,3.5941238403320312,0.034919921875
STABILIZE,0.1347818374633789,29.806449778990604,0.03240540822347005,0.03268909454345703,0.0,0.0,0.0,0.2174340563071842,-1.055067538663215,-82.45823739654432,-0.00869723826750495,0.001983354767523539,0.0022738073337888833,0.4,0.0028481433968273566,0.012727397532061892,0.6519672532199408,0.011269123106709219,0.389699824154377,0.3731585340574384,1.0344848968088627,-0.40707863420252527,4.760975390672684,4.269903898239136,18.168608844280243,0.0,0.0,0.0,0.0,0.0,0.0,0.0,0.0,0.0,0.0,0.0,0.0,0.0,0.0,0.0,0.0,False,0,3.6514368057250977,0.0349208984375
STABILIZE,0.16822218894958496,29.905271188495078,0.032471450169881184,0.03258776664733887,0.0,0.0,0.0,0.21784360085312052,-1.0543487679747767,-82.45649569830596,-0.00496755315112004,-0.0010638053287561837,0.002371635235897877,0.4,-0.001963194035876659,0.008553019849747344,0.6492834516941556,0.011719080863458435,-0.27672878932207823,-0.21695189643651247,1.0284966789186,0.022723612481809298,-11.05494424700737,-9.805075824260712,11.570341140031815,0.0,0.0,0.0,0.0,0.0,0.0,0.0,0.0,0.0,0.0,0.0,0.0,0.0,0.0,0.0,0.0,False,0,3.680107593536377,0.034921142578125
STABILIZE,0.20235157012939453,29.299448841449358,0.03243974049886068,0.033206939697265625,0.0,0.0,0.0,0.21686709724522024,-1.0541929542843358,-82.43259003621093,0.005689323628608439,-0.00999079907076705,0.003905612670429094,0.4,-0.009303904379485575,0.0032994365732703637,0.6517318216047556,0.019323118478794685,-0.42376662604510784,-0.27881318237632513,1.3397444039583206,0.45008427998127587,-3.4506939351558685,0.15663029626011848,17.61837601661682,0.0,0.0,0.0,0.0,0.0,0.0,0.0,0.0,0.0,0.0,0.0,0.0,0.0,0.0,0.0,0.0,False,0,3.708948850631714,0.0349208984375
STABILIZE,0.23591947555541992,29.7918415762819,0.03241566022237142,0.032562971115112305,0.0,0.0,0.0,0.21629106683826488,-1.0545066093776274,-82.43541090433814,-0.00034803125414522993,-0.0062969600157623705,0.0027560575204887594,0.4,-0.008613311976086759,0.010636687162807183,0.6539724089012804,0.013530031376903074,0.05449749296531081,0.46738162636756897,1.3290216214954853,-0.34469859655407814,5.749129876494408,8.169467747211456,20.52740752696991,0.0,0.0,0.0,0.0,0.0,0.0,0.0,0.0,0.0,0.0,0.0,0.0,0.0,0.0,0.0,0.0,False,0,3.7438340187072754,0.029930908203125
STABILIZE,0.26918983459472656,30.05419968758509,0.032305034001668294,0.03241252899169922,0.0,0.0,0.0,0.21700215356388666,-1.0553582485897635,-82.43813614981697,-0.006430038866357731,-0.0024230117723578032,0.0015591134028359313,0.4,-0.007706511569561941,0.017995203735838974,0.6530623308677397,0.007520189724873598,0.05449749296531081,0.46738162636756897,1.3290216214954853,-0.34469859655407814,5.749129876494408,8.169467747211456,20.52740752696991,0.0,0.0,0.0,0.0,0.0,0.0,0.0,0.0,0.0,0.0,0.0,0.0,0.0,0.0,0.0,0.0,False,0,3.7715206146240234,0.029930908203125
STABILIZE,0.3026273250579834,29.907616833758787,0.0324583371480306,0.03253769874572754,0.0,0.0,0.0,0.21755785348589068,-1.0534645786423775,-82.41562384631261,0.0005486638054138511,-0.006313418671940475,0.002868500111886963,0.4,-0.009099500549741475,0.008321544311617215,0.6476264036824864,0.014020286739044506,-0.08467348525300622,-0.5538912955671549,1.042164210230112,0.4052231172649561,-1.476278156042099,-11.590148508548737,14.797013998031616,0.0,0.0,0.0,0.0,0.0,0.0,0.0,0.0,0.0,0.0,0.0,0.0,0.0,0.0,0.0,0.0,False,0,3.800168752670288,0.06485302734375
STABILIZE,0.3361086845397949,29.868216226224302,0.032431634267171223,0.0325777530670166,0.0,0.0,0.0,0.2180266819393886,-1.053115171777649,-82.41188090264744,-0.0025429317754675656,-0.0051504685842207664,0.0018394036209709401,0.4,-0.010594670156513683,0.010681840335722736,0.6677467051108144,0.008845203680307445,-0.029817188624292612,0.16496884636580944,1.2808436527848244,-0.33185253150959154,-2.054128050804138,6.15781769156456,19.57399696111679,0.0,0.0,0.0,0.0,0.0,0.0,0.0,0.0,0.0,0.0,0.0,0.0,0.0,0.0,0.0,0.0,False,0,3.8290159702301025,0.0349208984375
STABILIZE,0.375591516494751,25.327157996437304,0.032413514455159505,0.03858613967895508,0.0,0.0,0.0,0.21681112171053787,-1.0525977849480206,-82.40759154384867,-0.006795683963855187,-0.002612760130107016,-0.0007488380731507086,0.4,-0.01154011294450044,0.014826085446356793,0.665777075733322,-0.0040798964953458,-0.030428593163378537,0.1122066518291831,1.1826001107692719,-0.3494369869299216,4.097824916243553,-5.666400119662285,13.830050826072693,0.0,0.0,0.0,0.0,0.0,0.0,0.0,0.0,0.0,0.0,0.0,0.0,0.0,0.0,0.0,0.0,False,0,3.886308193206787,0.03492138671875
STABILIZE,0.4090886116027832,29.852909985124448,0.032418044408162434,0.03256940841674805,0.0,0.0,0.0,0.21727669515200945,-1.0493236697363515,-82.39528354296431,-0.004887885769930541,-0.003834758637870421,-1.9063448029671187e-05,0.4,-0.013178848228837858,0.01686309398535848,0.6689689786891794,-0.00042958517284380493,-0.0977002433501184,0.13557979837059975,1.4565651305019855,0.22265613613405563,-2.036711946129799,8.248806744813919,19.698001444339752,0.0,0.0,0.0,0.0,0.0,0.0,0.0,0.0,0.0,0.0,0.0,0.0,0.0,0.0,0.0,0.0,False,0,3.9160919189453125,0.044897705078125
STABILIZE,0.4434053897857666,29.14006224988884,0.03239181836446126,0.03345799446105957,0.0,0.0,0.0,0.2175393372699376,-1.0530148533742145,-82.3948532410466,-0.003637347681191658,-0.004024731471042436,-0.00048748848159115357,0.4,-0.012834937962296266,0.020147103250281722,0.6673861325306145,-0.002762218061063247,0.026550522306934,0.18623959040269256,0.8485432714223862,-0.1013822787689645,-1.899372786283493,8.08226615190506,16.76296293735504,0.0,0.0,0.0,0.0,0.0,0.0,0.0,0.0,0.0,0.0,0.0,0.0,0.0,0.0,0.0,0.0,False,0,3.9448790550231934,0.019955078125
STABILIZE,0.4768493175506592,29.900581001603992,0.032468589146931966,0.03257441520690918,0.0,0.0,0.0,0.21855714217797528,-1.0507646262078125,-82.39543380712605,-0.009021476052868467,-0.002834299898467171,-0.0008273075108291231,0.4,-0.01176638020011741,0.02248049279671628,0.6500263653043981,-0.00444644614926272,0.026550522306934,0.18623959040269256,0.8485432714223862,-0.1013822787689645,-1.899372786283493,8.08226615190506,16.76296293735504,0.0,0.0,0.0,0.0,0.0,0.0,0.0,0.0,0.0,0.0,0.0,0.0,0.0,0.0,0.0,0.0,False,0,3.973583936691284,0.019955078125
STABILIZE,0.5104506015777588,29.762245701675337,0.03245499928792318,0.0325927734375,0.0,0.0,0.0,0.2148165997511884,-1.0509995206822376,-82.3836449006186,-0.00964607677193081,-0.0027956903797630066,-0.0019038692319382402,0.4,-0.012797688434977377,0.02531048908966945,0.6394728102115893,-0.009796469557577535,-0.09166375966742635,0.2261199988424778,1.156767550855875,-0.3257535994675933,-4.3590642511844635,-3.5924293100833893,13.579685986042023,0.0,0.0,0.0,0.0,0.0,0.0,0.0,0.0,0.0,0.0,0.0,0.0,0.0,0.0,0.0,0.0,False,0,4.002162218093872,0.034919921875
STABILIZE,0.5437684059143066,30.014412170913747,0.032303603490193684,0.03242635726928711,0.0,0.0,0.0,0.22164593514755487,-1.030490490317099,-82.38644527817831,-0.012522083875173914,-0.01476117919735425,1.7639681318006351e-06,0.4,-0.034413275801501345,0.032943515826252705,0.639731175408997,-0.0002674095979056058,-1.258912868797779,0.7856904529035091,1.395572256296873,0.0043940261117131636,-29.901620745658875,4.447968676686287,24.329599738121033,0.0,0.0,0.0,0.0,0.0,0.0,0.0,0.0,0.0,0.0,0.0,0.0,0.0,0.0,0.0,0.0,False,0,4.059436321258545,0.034921142578125
STABILIZE,0.5771796703338623,29.928103549155882,0.03243115743001302,0.032546043395996094,0.0,0.0,0.0,0.21682029977723508,-1.04416186099282,-82.38557101396455,-0.01098613472857661,-0.014909403977620505,0.0031847396188945834,0.4,-0.03586515377926135,0.03174031420739994,0.646203314778807,0.015595320701720525,-0.08693183772265911,-0.05078638205304742,1.5744982287287712,0.9344896202116311,26.713785529136658,-17.1006977558136,21.357697248458862,0.0,0.0,0.0,0.0,0.0,0.0,0.0,0.0,0.0,0.0,0.0,0.0,0.0,0.0,0.0,0.0,False,0,4.09331202507019,0.0349208984375
STABILIZE,0.61063551902771,29.890352971358936,0.03246000607808431,0.03255009651184082,0.0,0.0,0.0,0.20842114144967636,-1.068477120994654,-82.38129531554412,-0.00890395927964647,-0.015815684334635035,0.006417213343973293,0.4,-0.03719955046853706,0.030433323948369898,0.6527434809654146,0.031651930941221526,-0.08693183772265911,-0.05078638205304742,1.5744982287287712,0.9344896202116311,26.713785529136658,-17.1006977558136,21.357697248458862,0.0,0.0,0.0,0.0,0.0,0.0,0.0,0.0,0.0,0.0,0.0,0.0,0.0,0.0,0.0,0.0,False,0,4.122173547744751,0.029931884765625
STABILIZE,0.64406418800354,29.91465597786162,0.03240040143330892,0.03254985809326172,0.0,0.0,0.0,0.21923685272209734,-1.0425032989632705,-82.3805508249246,-0.0038489944176890983,-0.0023500831758381494,0.008003629414472918,0.4,-0.012723903816333992,0.023241155040385042,0.638765407623918,0.039452008083878984,1.4024294912815094,-0.37823382299393415,0.5552344955503941,0.4810325074408383,43.15219819545746,-17.615142464637756,13.373708724975586,0.0,0.0,0.0,0.0,0.0,0.0,0.0,0.0,0.0,0.0,0.0,0.0,0.0,0.0,0.0,0.0,False,0,4.1507909297943115,0.029931884765625
STABILIZE,0.6775848865509033,29.83316262660749,0.03244212468465169,0.03256511688232422,0.0,0.0,0.0,0.2207489392104618,-1.0314222775302768,-82.36001244609037,0.002732109232234011,-0.0025058147023378483,0.009457334052189677,0.4,-0.01376207444036712,0.01374466506682847,0.6216442272261778,0.04656475492465269,-0.09433839004486799,-0.5222271662205458,0.3402788657695055,0.45108468925127115,-25.80541968345642,-1.2415427714586258,3.987725079059601,0.0,0.0,0.0,0.0,0.0,0.0,0.0,0.0,0.0,0.0,0.0,0.0,0.0,0.0,0.0,0.0,False,0,4.179897785186768,0.034920166015625
STABILIZE,0.7112059593200684,29.74536015942471,0.03236869176228841,0.03258323669433594,0.0,0.0,0.0,0.19286511881070786,-1.089376966246364,-82.34072399187424,-0.003899598336895854,-0.0026399251251082406,0.008999115612067203,0.4,-0.02993454208563183,0.031057372982942925,0.6424705667301543,0.04412567882762724,-0.989092793315649,1.0673572309315205,2.4094445630908012,-0.14769931898523495,15.537956357002258,34.650009870529175,14.913234114646912,0.0,0.0,0.0,0.0,0.0,0.0,0.0,0.0,0.0,0.0,0.0,0.0,0.0,0.0,0.0,0.0,False,0,4.2085490226745605,0.0348603515625
STABILIZE,0.7445449829101562,29.99316371333362,0.03227260907491048,0.03239870071411133,0.0,0.0,0.0,0.13276527044756076,-1.1461676413174928,-82.36109161597922,-0.015688607188222087,0.0029187402192791334,0.0041945325913750175,0.4,-0.02121951925369137,0.05088447411100998,0.626641900481903,0.020035768188015366,0.49442071467638016,1.201923657208681,0.2284799236804247,-1.4145157419669503,28.887048363685608,11.814361810684204,-32.82072842121124,0.0,0.0,0.0,0.0,0.0,0.0,0.0,0.0,0.0,0.0,0.0,0.0,0.0,0.0,0.0,0.0,False,0,4.237435817718506,0.02993212890625
STABILIZE,0.7787766456604004,29.211093003496163,0.032387765248616536,0.0333714485168457,0.0,0.0,0.0,0.09026297759412835,-1.1711650664626818,-82.26336526933468,-0.01853077546650078,0.02189240716288045,-0.0010804441624177776,0.4,0.011742938769698891,0.05498643932546772,0.6013275055593676,-0.006317457940556484,1.4164959080517292,-0.8431242778897285,0.9246007539331913,-0.09473664477878092,27.995645999908447,-49.92167055606842,40.29192924499512,0.0,0.0,0.0,0.0,0.0,0.0,0.0,0.0,0.0,0.0,0.0,0.0,0.0,0.0,0.0,0.0,False,0,4.295075178146362,0.0349208984375
STABILIZE,0.8123090267181396,29.822980659840727,0.03247073491414388,0.032595157623291016,0.0,0.0,0.0,0.0836905213435778,-1.1666259788723852,-82.28371240287215,-0.0004628712968184879,0.03600136012078495,-0.0017930003518970743,0.4,0.054569876160129704,0.017910010177852632,0.6076755163981147,-0.009847292526405723,2.524510771036148,-2.19295434653759,1.5316277742385864,-0.17137947811596338,21.014294028282166,-9.788452088832855,78.3245861530304,0.0,0.0,0.0,0.0,0.0,0.0,0.0,0.0,0.0,0.0,0.0,0.0,0.0,0.0,0.0,0.0,False,0,4.323829174041748,0.034921142578125
STABILIZE,0.8457353115081787,29.916362936070357,0.032381327946980794,0.03250598907470703,0.0,0.0,0.0,0.08569149996612709,-1.1624750381260156,-82.34903633209416,-0.0176669693750294,0.047229363961318334,-0.019233923380922172,0.4,0.0734848251586301,0.041299622713716365,0.6153575479785686,-0.09672835471234102,1.0679911822080612,1.4611062593758106,1.6034701839089394,-5.1571915356524265,-25.243085622787476,63.353532552719116,-12.18339204788208,0.0,0.0,0.0,0.0,0.0,0.0,0.0,0.0,0.0,0.0,0.0,0.0,0.0,0.0,0.0,0.0,False,0,4.357227802276611,0.029931884765625
STABILIZE,0.879086971282959,29.982229275231784,0.03236058553059896,0.03246808052062988,0.0,0.0,0.0,0.05617649165435659,-1.1913060136645799,-82.25710198586579,-0.0020037697053730793,0.060405615969632,-0.01783410063841453,0.4,0.08480418455303122,0.02649228376356216,0.612616896934214,-0.08943040858198117,0.700737489387393,-0.8277681656181812,1.1440551839768887,0.4229773935996109,-0.641946867108345,-63.010454177856445,22.624750435352325,0.0,0.0,0.0,0.0,0.0,0.0,0.0,0.0,0.0,0.0,0.0,0.0,0.0,0.0,0.0,0.0,False,0,4.385859489440918,0.034921142578125
STABILIZE,0.9125888347625732,29.849935593147965,0.03248170216878255,0.03262019157409668,0.0,0.0,0.0,0.04669453489993928,-1.1980553077816103,-82.20907209562225,0.017409590510845133,0.07889798572995106,-0.012509440407928656,0.4,0.12376749248886346,0.0069268543111598024,0.6243563087058785,-0.06259765182386445,2.2944824770092964,-1.118364930152893,1.8293751403689384,1.6653256243751076,33.929431438446045,-9.995172172784805,28.857937455177307,0.0,0.0,0.0,0.0,0.0,0.0,0.0,0.0,0.0,0.0,0.0,0.0,0.0,0.0,0.0,0.0,False,0,4.414741516113281,0.034919921875
STABILIZE,0.9460234642028809,29.90889643172937,0.03243592580159505,0.03255653381347656,0.0,0.0,0.0,0.0449305851859306,-1.1973265052528288,-82.28868478058791,0.009442785778428232,0.07395040387422327,-0.02779493418537197,0.4,0.13870912105765004,0.024035956249312214,0.6320760910485146,-0.13856190687787323,0.8511330001056194,1.0896709747612476,1.5825020149350166,-4.530136200502474,11.520005762577057,54.71763014793396,28.559622168540955,0.0,0.0,0.0,0.0,0.0,0.0,0.0,0.0,0.0,0.0,0.0,0.0,0.0,0.0,0.0,0.0,False,0,4.443264961242676,0.02993212890625
STABILIZE,0.9853525161743164,25.425879899613243,0.03243997891743978,0.03847384452819824,0.0,0.0,0.0,0.05065268288481456,-1.1851450763115225,-82.22576507795377,0.002266912550777229,0.056725718062876185,-0.0299255582430351,0.4,0.14000835615660084,0.007481730375307524,0.6144226349757579,-0.14863002931221816,0.17253427067771554,-0.943292211741209,0.24416479282081127,-0.6863993270319025,-31.0351699590683,-79.22433614730835,17.354272305965424,0.0,0.0,0.0,0.0,0.0,0.0,0.0,0.0,0.0,0.0,0.0,0.0,0.0,0.0,0.0,0.0,False,0,4.471975803375244,0.0349208984375
STABILIZE,1.0188651084899902,29.840379060601318,0.032470019658406575,0.03262829780578613,0.0,0.0,0.0,0.029550546639795713,-1.207170408672404,-82.27003836415379,0.0414385510717493,0.04258287486662889,-0.02536992678885042,0.4,0.12916974393531133,-0.04431301082173944,0.6022311832011513,-0.1254319715494549,-0.7842725142836571,-2.034364640712738,1.2762553058564663,2.082731931489515,-24.052947759628296,7.193434238433838,34.07686948776245,0.0,0.0,0.0,0.0,0.0,0.0,0.0,0.0,0.0,0.0,0.0,0.0,0.0,0.0,0.0,0.0,False,0,4.53331732749939,0.0349208984375
STABILIZE,1.0523931980133057,29.826798082803545,0.03234747250874837,0.03248286247253418,0.0,0.0,0.0,0.029292760359480623,-1.2013668823120087,-82.20586873690152,0.005426906856565876,0.040481462352340916,-0.0326534157026541,0.4,0.13365314865050373,0.008176798260004343,0.5943327096106158,-0.1613094685410963,0.3369756042957306,3.1961146742105484,0.6609042175114155,-2.1998353113659723,42.13038086891174,95.17078399658203,11.170295625925064,0.0,0.0,0.0,0.0,0.0,0.0,0.0,0.0,0.0,0.0,0.0,0.0,0.0,0.0,0.0,0.0,False,0,4.562607765197754,0.02993212890625
STABILIZE,1.0858142375946045,29.920631183969295,0.032349618275960286,0.03246736526489258,0.0,0.0,0.0,0.028145021774654028,-1.1975416562116843,-82.15285963875304,0.025480361576254728,0.035071705254932306,-0.025790736076036366,0.4,0.15283506297165297,-0.04151366818213518,0.5953250276907174,-0.1265730862084481,1.320559997111559,-2.9612014070153236,1.3487296178936958,1.9146864394621645,21.407099068164825,-139.781653881073,23.059318959712982,0.0,0.0,0.0,0.0,0.0,0.0,0.0,0.0,0.0,0.0,0.0,0.0,0.0,0.0,0.0,0.0,False,0,4.592100143432617,0.0349208984375
STABILIZE,1.1191742420196533,29.975586747091278,0.03236273129781087,0.03247952461242676,0.0,0.0,0.0,0.018630088013150248,-1.206255270045328,-82.24896723056429,0.03066437349340879,0.027451657167100102,-0.025338377791921152,0.4,0.15042155507368732,-0.038053759767881584,0.5894686627010045,-0.12389712025193841,-0.05664462805725634,0.25966321118175983,0.7653793320059776,0.058282591157100605,0.4742780700325966,-112.51511573791504,27.126923203468323,0.0,0.0,0.0,0.0,0.0,0.0,0.0,0.0,0.0,0.0,0.0,0.0,0.0,0.0,0.0,0.0,False,0,4.621109247207642,0.06984130859375
STABILIZE,1.1526505947113037,29.873109028232815,0.03244784673055013,0.03256845474243164,0.0,0.0,0.0,0.01708609173475713,-1.2121030859136226,-82.13799031692993,0.07152235997719424,0.032737595126672805,-0.011730461640737575,0.4,0.16049640040148766,-0.12026849248570798,0.6106265047241829,-0.05567140421897225,0.13181960675865412,-4.2197853326797485,1.3151610270142555,4.004895933988963,11.485546827316284,-104.48375940322876,36.4520400762558,0.0,0.0,0.0,0.0,0.0,0.0,0.0,0.0,0.0,0.0,0.0,0.0,0.0,0.0,0.0,0.0,False,0,4.649950265884399,0.029931640625
STABILIZE,1.186164379119873,29.837831685281355,0.032407553990681966,0.032517194747924805,0.0,0.0,0.0,0.06313335948913193,-1.1808773820190284,-82.19927760435246,0.092222726346148,0.03589183310475418,0.0034409212601564368,0.4,0.15785615859440652,-0.19478855283306076,0.6096033876879111,0.020118241374058307,0.13181960675865412,-4.2197853326797485,1.3151610270142555,4.004895933988963,11.485546827316284,-104.48375940322876,36.4520400762558,0.0,0.0,0.0,0.0,0.0,0.0,0.0,0.0,0.0,0.0,0.0,0.0,0.0,0.0,0.0,0.0,False,0,4.678532123565674,0.029931640625
STABILIZE,1.2195580005645752,29.94690770966314,0.032322200139363606,0.03244209289550781,0.0,0.0,0.0,0.040553287701598675,-1.2066198313922774,-82.23401594647113,0.08556639992425961,0.002594108590936694,-0.0031408739111330785,0.4,0.10266864116036295,-0.14442286493692627,0.6146660346017685,-0.012748108311319423,-1.9649561494588852,-1.4024687930941582,1.701381802558899,3.2165407723906934,-25.21280348300934,-175.50746202468872,10.60512661933899,0.0,0.0,0.0,0.0,0.0,0.0,0.0,0.0,0.0,0.0,0.0,0.0,0.0,0.0,0.0,0.0,False,0,4.735880136489868,0.034906494140625
STABILIZE,1.2529654502868652,29.93258876003568,0.03236583073933919,0.0325007438659668,0.0,0.0,0.0,0.022104573227424,-1.2013923887996905,-82.05809759420829,0.07858768184200587,-0.027702086142313086,0.009053812282466349,0.4,0.06335257466586702,-0.16868231658885421,0.6242367399680788,0.048064557562387276,-1.9649561494588852,-1.4024687930941582,1.701381802558899,3.2165407723906934,-25.21280348300934,-175.50746202468872,10.60512661933899,0.0,0.0,0.0,0.0,0.0,0.0,0.0,0.0,0.0,0.0,0.0,0.0,0.0,0.0,0.0,0.0,False,0,4.764619588851929,0.034906494140625
STABILIZE,1.286449909210205,29.865238783546115,0.032410653432210286,0.032523393630981445,0.0,0.0,0.0,-0.01785470145979513,-1.2478493078217074,-82.14258703424134,0.11080360164870041,-0.01626717036683704,0.017262724737405696,0.4,0.08147395923514496,-0.22271729027676032,0.6195780163320073,0.08881223025501542,1.2572137638926506,-3.088557720184326,0.9000429883599281,2.093517013632377,97.58949875831604,43.76065135002136,-20.02628743648529,0.0,0.0,0.0,0.0,0.0,0.0,0.0,0.0,0.0,0.0,0.0,0.0,0.0,0.0,0.0,0.0,False,0,4.794029235839844,0.0349208984375
STABILIZE,1.3198261260986328,29.959528282344873,0.032350810368855794,0.0324854850769043,0.0,0.0,0.0,0.022627509585753103,-1.2099493351692472,-82.17912854630092,0.029848509801991965,0.01663734051420452,-0.015360924126409048,0.4,0.14709863866591233,-0.14085816160392303,0.6042274119505233,-0.07405832334828524,3.8955405354499817,4.501123353838921,0.30402156990021467,-9.27930205353527,37.82183825969696,94.89718675613403,2.7927249670028687,0.0,0.0,0.0,0.0,0.0,0.0,0.0,0.0,0.0,0.0,0.0,0.0,0.0,0.0,0.0,0.0,False,0,4.8259453773498535,0.02993212890625
STABILIZE,1.3533365726470947,29.844413294530344,0.032434733708699544,0.03268074989318848,0.0,0.0,0.0,-0.014799685910095364,-1.2256561022176318,-81.98104623018138,0.03928726014040533,-0.002643851546331772,0.002795338238843134,0.4,0.11104713538985664,-0.2124842854934863,0.6264574499258817,0.01666707041667244,-1.7866596579551697,-4.281526431441307,2.585776709020138,5.03180804551121,-122.59801626205444,-174.43493604660034,39.10678029060364,0.0,0.0,0.0,0.0,0.0,0.0,0.0,0.0,0.0,0.0,0.0,0.0,0.0,0.0,0.0,0.0,False,0,4.855113983154297,0.034919921875
STABILIZE,1.3868732452392578,29.819376213057296,0.03249171574910482,0.03259921073913574,0.0,0.0,0.0,-0.021851696145574858,-1.2334007896844859,-82.09060246446838,0.10205761403782032,0.0006447360831001012,0.020997313798619098,0.4,0.07585906442796475,-0.28572720525954654,0.6519194860228238,0.10731802690559863,-1.7866596579551697,-4.281526431441307,2.585776709020138,5.03180804551121,-122.59801626205444,-174.43493604660034,39.10678029060364,0.0,0.0,0.0,0.0,0.0,0.0,0.0,0.0,0.0,0.0,0.0,0.0,0.0,0.0,0.0,0.0,False,0,4.883535385131836,0.034919921875
STABILIZE,1.4203379154205322,29.880131936083664,0.032387526830037434,0.03253531455993652,0.0,0.0,0.0,-0.018254107443682204,-1.2329301469619898,-82.08153880343977,0.04061894879343835,0.037241031595980585,-0.00042156748514934325,0.4,0.11160769919636744,-0.19543820844437287,0.6443896575203603,0.0002228745593744197,2.249247208237648,4.987535625696182,0.7110992912203074,-6.199706787446744,75.23065209388733,19.159969687461853,21.62199765443802,0.0,0.0,0.0,0.0,0.0,0.0,0.0,0.0,0.0,0.0,0.0,0.0,0.0,0.0,0.0,0.0,False,0,4.9125587940216064,0.06485302734375
STABILIZE,1.4539034366607666,29.79565103112191,0.03238943417867025,0.032533884048461914,0.0,0.0,0.0,-0.02627845914053648,-1.243553759164004,-81.91893248986928,0.09565242858324839,0.022411380098059902,0.01777048552793658,0.4,0.09857561064983453,-0.33209795841519574,0.6804045198106995,0.09087892745580887,-0.6620917469263077,-6.8721383810043335,2.0031683146953583,4.634478866018643,-68.26454401016235,-205.98750114440918,13.255000114440918,0.0,0.0,0.0,0.0,0.0,0.0,0.0,0.0,0.0,0.0,0.0,0.0,0.0,0.0,0.0,0.0,False,0,4.941110849380493,0.0349208984375
STABILIZE,1.4873311519622803,29.91209590574878,0.03226641019185384,0.03240704536437988,0.0,0.0,0.0,-0.022505633397750687,-1.252048059892267,-82.05738042434544,0.06294212863579161,-0.021473063479803337,-0.009104985607480432,0.4,0.07004044482648272,-0.21421765056382192,0.6749709723033415,-0.04335342493656788,2.2687995806336403,4.55181859433651,2.1888479590415955,-4.325397865036757,86.29533648490906,53.35262417793274,60.19335389137268,0.0,0.0,0.0,0.0,0.0,0.0,0.0,0.0,0.0,0.0,0.0,0.0,0.0,0.0,0.0,0.0,False,0,5.003434419631958,0.02993212890625
STABILIZE,1.5207290649414062,29.942204454597373,0.03231361707051595,0.03246784210205078,0.0,0.0,0.0,-0.0003698440713856123,-1.2259898209916105,-82.07674401064243,-0.019230085673271446,0.015382585737148308,-0.025027519060622838,0.4,0.10823863283144985,-0.12210470530992353,0.6883115326716644,-0.12255592485637963,2.2687995806336403,4.55181859433651,2.1888479590415955,-4.325397865036757,86.29533648490906,53.35262417793274,60.19335389137268,0.0,0.0,0.0,0.0,0.0,0.0,0.0,0.0,0.0,0.0,0.0,0.0,0.0,0.0,0.0,0.0,False,0,5.03201150894165,0.02993212890625
STABILIZE,1.5541412830352783,29.928103549155882,0.03239038785298665,0.03251218795776367,0.0,0.0,0.0,-0.02488718162311662,-1.2265405049934428,-81.92643886776712,-0.07019742413108167,0.02037475337075698,-0.03414823187961684,0.4,0.09080822955592073,-0.08633386479481095,0.6614953205179722,-0.16759919518270222,-0.7329591084271669,1.6132473945617676,-0.015815350343473256,-2.5849544605000836,-12.741218507289886,149.12039041519165,-0.3444718196988106,0.0,0.0,0.0,0.0,0.0,0.0,0.0,0.0,0.0,0.0,0.0,0.0,0.0,0.0,0.0,0.0,False,0,5.060753107070923,0.02993212890625
STABILIZE,1.5876803398132324,29.816620459230823,0.032431634267171223,0.03255343437194824,0.0,0.0,0.0,-0.01257256399299519,-1.2339790078864097,-82.10129171051945,-0.05640066335553321,0.020194686319238916,-0.04169946519177335,0.4,0.11677328596029263,-0.04413759210313053,0.6581046684379546,-0.20467073067752517,1.6669511795043945,2.0405299961566925,1.2379642575979233,-2.219555348160269,26.430106163024902,-16.68005883693695,30.238664150238037,0.0,0.0,0.0,0.0,0.0,0.0,0.0,0.0,0.0,0.0,0.0,0.0,0.0,0.0,0.0,0.0,False,0,5.089658498764038,0.0349208984375
STABILIZE,1.6210095882415771,30.001316128293897,0.03232625325520833,0.03245067596435547,0.0,0.0,0.0,0.04366876109762363,-1.1736026969444358,-81.97588943735802,-0.07530724062769467,0.0031176468202062783,-0.021205366784481282,0.4,0.0772628905506472,-0.11148268769659953,0.6458526766708251,-0.10185966249141529,-2.0321710035204887,-4.123577103018761,0.5340441130101681,5.750542021682482,-60.77601909637451,35.32273769378662,17.855103313922882,0.0,0.0,0.0,0.0,0.0,0.0,0.0,0.0,0.0,0.0,0.0,0.0,0.0,0.0,0.0,0.0,False,0,5.11887526512146,0.034920166015625
STABILIZE,1.6587579250335693,26.492906681489156,0.032450230916341145,0.03685355186462402,0.0,0.0,0.0,0.01560500790192218,-1.2065650831572114,-82.01391993065664,0.009501527318197317,-0.005736211307168456,-0.00045131880957877433,0.4,0.03760289415367588,-0.17949181320135604,0.6335301055947528,0.0019033982706718189,-2.0321710035204887,-4.123577103018761,0.5340441130101681,5.750542021682482,-60.77601909637451,35.32273769378662,17.855103313922882,0.0,0.0,0.0,0.0,0.0,0.0,0.0,0.0,0.0,0.0,0.0,0.0,0.0,0.0,0.0,0.0,False,1,5.1477882862091064,0.034920166015625
STABILIZE,1.6922707557678223,29.839317601360243,0.03241422971089681,0.03256583213806152,0.0,0.0,0.0,0.003706017954966606,-1.2119497268224146,-81.98075936223624,-0.005617285791503914,-0.01976419722852274,-0.011243863418054037,0.4,0.04101915896794234,-0.0850533697893649,0.6241338956586843,-0.05188555909532524,1.2513610534369946,-0.5233564414083958,1.8248256295919418,0.11030904919958687,-36.868712306022644,-221.6728925704956,54.603296518325806,0.0,0.0,0.0,0.0,0.0,0.0,0.0,0.0,0.0,0.0,0.0,0.0,0.0,0.0,0.0,0.0,False,0,5.205127477645874,0.034921142578125
STABILIZE,1.725691318511963,29.92105807574601,0.032378466924031575,0.03251361846923828,0.0,0.0,0.0,-0.035569971010986794,-1.2319256822671747,-81.88495229874847,0.011703292046748606,-0.0017236931133634335,-0.01058323112575182,0.4,0.05992974794985814,-0.08912149287739839,0.6350157024368429,-0.048420362795575815,1.2513610534369946,-0.5233564414083958,1.8248256295919418,0.11030904919958687,-36.868712306022644,-221.6728925704956,54.603296518325806,0.0,0.0,0.0,0.0,0.0,0.0,0.0,0.0,0.0,0.0,0.0,0.0,0.0,0.0,0.0,0.0,False,0,5.233810186386108,0.034921142578125
STABILIZE,1.7591092586517334,29.923406198276354,0.032377036412556966,0.03249025344848633,0.0,0.0,0.0,-0.038800597127549935,-1.2344522119298447,-81.99199502342091,0.045528971400411386,-0.01908026575882209,-0.006518168722851188,0.4,0.048535915128357546,-0.11751573621021494,0.636072150245806,-0.02800149824053329,-0.4967695567756891,-1.8985498696565628,1.257919892668724,1.0778432313374455,-3.250567987561226,112.2342586517334,5.061031132936478,0.0,0.0,0.0,0.0,0.0,0.0,0.0,0.0,0.0,0.0,0.0,0.0,0.0,0.0,0.0,0.0,False,0,5.262622833251953,0.0348828125
STABILIZE,1.7926287651062012,29.834011437676047,0.0324127991994222,0.0325474739074707,0.0,0.0,0.0,0.03493615080035077,-1.18544517774818,-82.09222121930168,-0.02729660723815529,0.012204017465317293,-0.024853681384281005,0.4,0.07431592687169068,-0.03892286762786759,0.6196213863977004,-0.11927988114025048,1.6279444098472595,4.2413827031850815,0.2578180283308029,-5.317830754741957,57.52209424972534,46.05794548988342,3.111777640879154,0.0,0.0,0.0,0.0,0.0,0.0,0.0,0.0,0.0,0.0,0.0,0.0,0.0,0.0,0.0,0.0,False,0,5.291520833969116,0.0349208984375
STABILIZE,1.8260796070098877,29.895466111661523,0.032357009251912434,0.03249859809875488,0.0,0.0,0.0,0.10229857132448418,-1.1344334830451168,-82.00514996776235,-0.00786708905613988,0.036656731783404596,-0.007850975748470332,0.4,0.09150159558013292,-0.1174702985541261,0.6288244476072496,-0.034152128315953975,1.1228300631046295,-4.767436161637306,1.7292553558945656,4.805570835859231,-46.274739503860474,-160.92045307159424,21.92874699831009,0.0,0.0,0.0,0.0,0.0,0.0,0.0,0.0,0.0,0.0,0.0,0.0,0.0,0.0,0.0,0.0,False,0,5.3200013637542725,0.02993212890625
STABILIZE,1.8594386577606201,29.97494407798352,0.032366069157918294,0.032479047775268555,0.0,0.0,0.0,0.13607487062640217,-1.0775519878023678,-81.97509030522512,0.018702162055043894,-0.015778190864534764,0.006931344391684892,0.4,0.0018342777312617825,-0.09477743456800007,0.6178444116592395,0.03962704789814698,-5.034404620528221,1.0581498965620995,0.7315730676054955,4.177798330846428,-129.65601682662964,158.11591148376465,-3.3493753522634506,0.0,0.0,0.0,0.0,0.0,0.0,0.0,0.0,0.0,0.0,0.0,0.0,0.0,0.0,0.0,0.0,False,1,5.348737001419067,0.0349208984375
STABILIZE,1.8929274082183838,29.861624115393926,0.032447131474812825,0.03258109092712402,0.0,0.0,0.0,0.16262589700350447,-1.0319444668366655,-82.02150144063536,-0.05077589595540722,-0.09736531402270449,0.006321564009377294,0.4,-0.12771643086929188,0.024584423019482035,0.6103644098528652,0.036456108577664695,-2.1408749744296074,5.39759062230587,1.1959918774664402,-4.61307945646217,50.80302953720093,58.166807889938354,11.184883117675781,0.0,0.0,0.0,0.0,0.0,0.0,0.0,0.0,0.0,0.0,0.0,0.0,0.0,0.0,0.0,0.0,False,0,5.40613317489624,0.034919921875
STABILIZE,1.9264130592346191,29.863325026699894,0.032407553990681966,0.03252720832824707,0.0,0.0,0.0,0.18209577811944894,-1.0603621092087383,-82.07262540657291,-0.07008083179902207,-0.11767431061011781,-0.005477623939778819,0.4,-0.17187246048494426,0.03740495968270641,0.6124164069659485,-0.022464751632765602,-2.410450577735901,0.4895684774965048,1.2966768816113472,-3.4748600209044564,-32.717618346214294,-43.523937463760376,41.57758951187134,0.0,0.0,0.0,0.0,0.0,0.0,0.0,0.0,0.0,0.0,0.0,0.0,0.0,0.0,0.0,0.0,False,0,5.434731483459473,0.0349208984375
STABILIZE,1.9597632884979248,29.983943953962182,0.03235915501912435,0.03247833251953125,0.0,0.0,0.0,0.2179402907185585,-1.036740006685955,-82.06252355679045,-0.014901379258214636,-0.1435363001564872,0.011518724500672628,0.4,-0.1982570699035447,-0.0014480423537086631,0.5899298033758066,0.06230868903105863,-1.4112750999629498,-2.4707674980163574,-0.1273556612432003,4.8793074237045735,52.830350399017334,-58.036601543426514,38.49462866783142,0.0,0.0,0.0,0.0,0.0,0.0,0.0,0.0,0.0,0.0,0.0,0.0,0.0,0.0,0.0,0.0,False,0,5.463483572006226,0.0349208984375
STABILIZE,1.9932761192321777,29.842926870917708,0.03245380719502767,0.032570600509643555,0.0,0.0,0.0,0.20858005006958494,-1.0197538598286622,-81.97442094668646,-0.05002257083346231,-0.1459834931724955,0.004908517942226213,0.4,-0.18984940985375187,0.0023505955119926315,0.5534558800274101,0.029160144386291963,0.5588003899902105,0.04485032695811242,-0.930173322558403,-1.9739118635289912,23.107704520225525,46.17336988449097,8.729064464569092,0.0,0.0,0.0,0.0,0.0,0.0,0.0,0.0,0.0,0.0,0.0,0.0,0.0,0.0,0.0,0.0,False,0,5.49219012260437,0.02993212890625
STABILIZE,2.0266878604888916,29.926395250938253,0.03236392339070638,0.03248953819274902,0.0,0.0,0.0,0.21857336387725407,-1.0346147506370231,-82.03951947966586,-0.04211554636640696,-0.1016538531813561,-0.0018469880496459175,0.4,-0.1779623612363304,0.0050180169889906395,0.5154182018080504,-0.004601995570087648,0.5588003899902105,0.04485032695811242,-0.930173322558403,-1.9739118635289912,23.107704520225525,46.17336988449097,8.729064464569092,0.0,0.0,0.0,0.0,0.0,0.0,0.0,0.0,0.0,0.0,0.0,0.0,0.0,0.0,0.0,0.0,False,0,5.521601915359497,0.02993212890625
STABILIZE,2.0607059001922607,29.39678579188248,0.032404216130574544,0.03312802314758301,0.0,0.0,0.0,0.23400329482084178,-1.0230894467428613,-82.12706201425792,-0.01883795709582507,-0.058970855096794166,-0.007834462778687065,0.4,-0.19841049512968625,0.05241679102277785,0.5297315859358125,-0.03442221741391225,-1.359697338193655,2.7096066623926163,2.10866741836071,-1.7777706017942045,-32.63549208641052,72.93591499328613,31.862032413482666,0.0,0.0,0.0,0.0,0.0,0.0,0.0,0.0,0.0,0.0,0.0,0.0,0.0,0.0,0.0,0.0,False,1,5.55016303062439,0.0349208984375
STABILIZE,2.0942091941833496,29.848661035162504,0.03243378003438314,0.032555341720581055,0.0,0.0,0.0,0.24042735453950323,-1.0037824229499395,-82.12836658038938,0.009663774261570862,-0.06650726031124221,0.004366720781678587,0.4,-0.2441307291953452,0.011845056734433305,0.5228972868282068,0.026495075288903575,-0.43830391950905323,-1.7714157700538635,1.413978450000286,3.852743651829997,8.549053966999054,-1.3363046571612358,18.346118927001953,0.0,0.0,0.0,0.0,0.0,0.0,0.0,0.0,0.0,0.0,0.0,0.0,0.0,0.0,0.0,0.0,False,0,5.607740163803101,0.029931884765625
STABILIZE,2.1276683807373047,29.88651926379319,0.03236511548360189,0.03248858451843262,0.0,0.0,0.0,0.2581231473793898,-0.9658374137376393,-82.05529038645942,0.009841436950672867,-0.05720237804807523,0.017360688485878555,0.4,-0.24716028333689655,-0.016975107151699916,0.5262324199736921,0.091159999843295,-0.43830391950905323,-1.7714157700538635,1.413978450000286,3.852743651829997,8.549053966999054,-1.3363046571612358,18.346118927001953,0.0,0.0,0.0,0.0,0.0,0.0,0.0,0.0,0.0,0.0,0.0,0.0,0.0,0.0,0.0,0.0,False,0,5.636230945587158,0.029931884765625
STABILIZE,2.1610894203186035,29.922552292897297,0.03234103520711263,0.03249216079711914,0.0,0.0,0.0,0.2791128523073679,-0.9589912163117593,-82.09871672920235,0.0007248481402325372,-0.06951917094564349,0.02440448837125816,0.4,-0.26255096328570965,0.0019712316502861864,0.5264369595371614,0.1259575016605047,-1.2016938999295235,1.0852031409740448,1.2098681181669235,2.1228825581952004,37.975311279296875,61.31325364112854,4.355961456894875,0.0,0.0,0.0,0.0,0.0,0.0,0.0,0.0,0.0,0.0,0.0,0.0,0.0,0.0,0.0,0.0,False,0,5.664834260940552,0.034920166015625
STABILIZE,2.1945180892944336,29.912949214431915,0.032404216130574544,0.03252387046813965,0.0,0.0,0.0,0.21438507053386108,-1.023694238649525,-81.98823158918823,-0.010020191165565172,-0.06882987916422913,0.01096780142800894,0.4,-0.2525047117221484,0.022686393329352045,0.5430663491894578,0.058578098719779315,0.4789132159203291,1.176559366285801,2.050730213522911,-4.113380255463098,7.962826639413834,-27.87836790084839,11.734627187252045,0.0,0.0,0.0,0.0,0.0,0.0,0.0,0.0,0.0,0.0,0.0,0.0,0.0,0.0,0.0,0.0,False,0,5.6936986446380615,0.0349208984375
STABILIZE,2.2280898094177246,29.786129220105956,0.03240469296773275,0.03254270553588867,0.0,0.0,0.0,0.11938172821233232,-1.0723165410818474,-82.00999257188388,-0.012190557624830076,-0.03912745554829229,-0.0002705504031314029,0.4,-0.21503342544533366,0.06065238870549276,0.5321488434379992,0.0023783870049136277,2.0666074007749557,2.201572433114052,0.3819348756223917,-3.355184861362078,79.95169162750244,134.41520929336548,-33.6689293384552,0.0,0.0,0.0,0.0,0.0,0.0,0.0,0.0,0.0,0.0,0.0,0.0,0.0,0.0,0.0,0.0,False,0,5.722246408462524,0.0648388671875
STABILIZE,2.2613446712493896,30.07165339088165,0.032302172978719075,0.03241872787475586,0.0,0.0,0.0,0.027901536202913652,-1.175528490125262,-82.10735008831325,-0.0563561658861589,-0.002190390698340012,-0.012837193973919449,0.4,-0.18379746744843029,0.10841539781592563,0.5335534096434204,-0.060253397395875624,2.0666074007749557,2.201572433114052,0.3819348756223917,-3.355184861362078,79.95169162750244,134.41520929336548,-33.6689293384552,0.0,0.0,0.0,0.0,0.0,0.0,0.0,0.0,0.0,0.0,0.0,0.0,0.0,0.0,0.0,0.0,False,1,5.751022577285767,0.0648388671875
STABILIZE,2.2948098182678223,29.883964005044422,0.03248766263326009,0.03259611129760742,0.0,0.0,0.0,-0.0201658133593453,-1.2492596351636092,-81.80783263282986,0.04394797683489327,0.06364178155266567,-0.0038290136348617457,0.4,-0.07017367299777992,-0.08903461100969295,0.48590303755198183,-0.015161827634271804,2.943500131368637,-10.756831616163254,0.3328354563564062,4.640121882933543,34.85479652881622,-181.21650218963623,32.418811321258545,0.0,0.0,0.0,0.0,0.0,0.0,0.0,0.0,0.0,0.0,0.0,0.0,0.0,0.0,0.0,0.0,False,0,5.808279275894165,0.029931884765625
STABILIZE,2.3283963203430176,29.77428835096188,0.03244164784749349,0.032582998275756836,0.0,0.0,0.0,-0.021383081135488514,-1.2679350799017166,-81.90909701746446,-0.022295435967143874,0.1319963773714939,-0.05143988270824444,0.4,0.03859207541238843,0.0424863135774913,0.4503554340633164,-0.2523712898682949,5.38567416369915,6.86701312661171,-0.6501806899905205,-12.450817578587005,8.225686848163605,356.3303232192993,-115.97089767456055,0.0,0.0,0.0,0.0,0.0,0.0,0.0,0.0,0.0,0.0,0.0,0.0,0.0,0.0,0.0,0.0,False,0,5.837043762207031,0.0399091796875
STABILIZE,2.362224817276001,29.559209274463512,0.032289775212605794,0.032846689224243164,0.0,0.0,0.0,0.0919039839030768,-1.1907677093806184,-81.94492135966118,-0.01870381092169622,0.10570673397077078,-0.034047523202155164,0.4,-0.0005209153762403551,0.050992587981621054,0.5136753275188592,-0.16485134942714272,-2.499883435666561,0.5058154463768005,4.343833401799202,4.703674231839573,-135.56963205337524,-203.10015678405762,83.48020911216736,0.0,0.0,0.0,0.0,0.0,0.0,0.0,0.0,0.0,0.0,0.0,0.0,0.0,0.0,0.0,0.0,False,0,5.865837097167969,0.034922119140625
STABILIZE,2.3966896533966064,29.0170879858315,0.0323517640431722,0.03345894813537598,0.0,0.0,0.0,0.10994165972743423,-1.213428676221134,-81.86024750452053,0.04702767597627689,0.05546549559975934,-0.014186492311081773,0.4,-0.06238431667289393,-0.0389589905217958,0.508044897418954,-0.06532130289377967,-3.5040996968746185,-4.612838476896286,0.793800875544548,5.08891440338804,-74.68522191047668,-91.34827256202698,-13.344025611877441,0.0,0.0,0.0,0.0,0.0,0.0,0.0,0.0,0.0,0.0,0.0,0.0,0.0,0.0,0.0,0.0,False,0,5.89491605758667,0.024942626953125
STABILIZE,2.4300811290740967,29.946480079965728,0.032273324330647786,0.03239154815673828,0.0,0.0,0.0,-0.02491242130653393,-1.109256338547392,-81.89798429968485,0.018689241244843512,0.041995498111121764,-0.035385747333102596,0.4,-0.06305045489065793,0.04612964384081919,0.505881678990051,-0.17074675362412556,-0.24123764596879482,4.561813175678253,1.1812575161457062,-5.861218833880192,-5.135052651166916,144.7139859199524,35.05358099937439,0.0,0.0,0.0,0.0,0.0,0.0,0.0,0.0,0.0,0.0,0.0,0.0,0.0,0.0,0.0,0.0,False,0,5.923513174057007,0.034921142578125
STABILIZE,2.46345591545105,29.961454389599258,0.03235581715901693,0.03247809410095215,0.0,0.0,0.0,0.1709121971271993,-1.1327233744316747,-81.865650184154,-0.1112540915578912,-0.004957758120949926,-0.05676731741683249,0.4,-0.06293933179409274,0.1288638407489271,0.5084829834036572,-0.27672947486197,-0.24123764596879482,4.561813175678253,1.1812575161457062,-5.861218833880192,-5.135052651166916,144.7139859199524,35.05358099937439,0.0,0.0,0.0,0.0,0.0,0.0,0.0,0.0,0.0,0.0,0.0,0.0,0.0,0.0,0.0,0.0,False,1,5.953643083572388,0.034921142578125
STABILIZE,2.4969260692596436,29.87693929594119,0.032430203755696614,0.032541513442993164,0.0,0.0,0.0,0.24390712247821314,-1.0323082811316746,-81.86347818399794,-0.07267803605146962,-0.04965523076461709,-0.020670487261325744,0.4,-0.0608102434258724,0.15760475126699744,0.45264575338521545,-0.09592459232945899,2.3101886734366417,2.2196702659130096,-2.4387622252106667,7.312941817907375,156.96446895599365,-6.313932687044144,197.18891382217407,0.0,0.0,0.0,0.0,0.0,0.0,0.0,0.0,0.0,0.0,0.0,0.0,0.0,0.0,0.0,0.0,False,0,6.011251211166382,0.029932861328125
STABILIZE,2.5306906700134277,29.61744435656988,0.03237894376118978,0.03286910057067871,0.0,0.0,0.0,0.25168361301339004,-1.0110785590873939,-81.83750297458438,-0.06807174207449049,-0.03658864346614924,-0.03369723592190889,0.4,-0.06642275410389503,0.15560276359429062,0.364918672770458,-0.16051579406701608,-0.5187799222767353,0.09053413523361087,-3.7863705307245255,-3.826599822121304,-162.63471841812134,-48.202866315841675,-175.61572790145874,0.0,0.0,0.0,0.0,0.0,0.0,0.0,0.0,0.0,0.0,0.0,0.0,0.0,0.0,0.0,0.0,False,0,6.039805889129639,0.034920166015625
STABILIZE,2.564113140106201,29.91913715867264,0.03243425687154134,0.03253746032714844,0.0,0.0,0.0,0.2570984589213292,-1.0075692292361826,-81.85551418342571,-0.10078213306267834,-0.09429281435505012,-0.03700299807109067,0.4,-0.21223393369617988,0.14843913975927842,0.41600630336551614,-0.1764548700861668,-8.354713767766953,-0.2915140241384506,3.860839456319809,-1.0862384943227432,-245.41499614715576,47.595974802970886,8.681723475456238,0.0,0.0,0.0,0.0,0.0,0.0,0.0,0.0,0.0,0.0,0.0,0.0,0.0,0.0,0.0,0.0,False,0,6.068525314331055,0.0349208984375
STABILIZE,2.602736234664917,25.892044051558102,0.032442363103230794,0.03766179084777832,0.0,0.0,0.0,0.25673859332943416,-1.031246933767678,-81.85825308928288,-0.06999720874022428,-0.07325727751645045,-0.05049009670094889,0.4,-0.17169867890759938,0.15780091165340365,0.39274196695862873,-0.24295349610549766,2.089104987680912,0.6546920165419579,-0.3378638066351414,-3.929915824827855,-10.226704180240631,-25.260943174362183,58.94430875778198,0.0,0.0,0.0,0.0,0.0,0.0,0.0,0.0,0.0,0.0,0.0,0.0,0.0,0.0,0.0,0.0,False,0,6.097186326980591,0.0349208984375
STABILIZE,2.6361007690429688,29.972159496927254,0.032352479298909505,0.03246283531188965,0.0,0.0,0.0,0.20854429829814816,-1.0891487952394032,-81.84119810692536,-0.026427786127523483,-0.027394259186492718,-0.02689440336415542,0.4,-0.09058714278435423,0.1425315221318843,0.39130532341457025,-0.12455893946792204,4.341874271631241,-0.711154518648982,0.8678139187395573,6.435169448233295,120.95727920532227,2.36922986805439,-34.629639983177185,0.0,0.0,0.0,0.0,0.0,0.0,0.0,0.0,0.0,0.0,0.0,0.0,0.0,0.0,0.0,0.0,False,0,6.125823497772217,0.02993212890625
STABILIZE,2.669614315032959,29.83889303880767,0.03240540822347005,0.03254389762878418,0.0,0.0,0.0,0.12887345000282863,-1.1456272025994156,-81.83007172876742,0.0073353490819611285,-0.0248307279933197,-0.03247072592115147,0.4,-0.08435391416942162,0.10427054767744781,0.3564940959445419,-0.15193222474420054,-0.2746082842350006,-0.12148463865742087,-1.3070759363472462,1.6702817803915981,-0.9247556328773499,42.411211133003235,-23.284968733787537,0.0,0.0,0.0,0.0,0.0,0.0,0.0,0.0,0.0,0.0,0.0,0.0,0.0,0.0,0.0,0.0,False,0,6.183243036270142,0.0349208984375
STABILIZE,2.703084945678711,29.87736494187372,0.03235486348470052,0.0324864387512207,0.0,0.0,0.0,0.12416264718792969,-1.151369043813869,-81.82901987963524,0.009511831925044158,-0.023041341930174097,-0.02580138920276115,0.4,-0.08527524043917445,0.0989925073875899,0.318032332729566,-0.11819017660740244,-0.2746082842350006,-0.12148463865742087,-1.3070759363472462,1.6702817803915981,-0.9247556328773499,42.411211133003235,-23.284968733787537,0.0,0.0,0.0,0.0,0.0,0.0,0.0,0.0,0.0,0.0,0.0,0.0,0.0,0.0,0.0,0.0,False,0,6.211961030960083,0.0349208984375
STABILIZE,2.736537218093872,29.893761537200568,0.03233483632405599,0.03249096870422363,0.0,0.0,0.0,0.16864014537196514,-1.119249652355061,-81.8312806722505,-0.0011806647903685027,0.045329103162996445,-0.011303954024521362,0.4,-0.07246254507820474,0.11265030438118342,0.2843123764800828,-0.04555050663161424,0.5183386616408825,0.9646558202803135,-1.0534393601119518,3.885677543347329,30.042877793312073,33.75328779220581,-66.24395251274109,0.0,0.0,0.0,0.0,0.0,0.0,0.0,0.0,0.0,0.0,0.0,0.0,0.0,0.0,0.0,0.0,False,0,6.240518569946289,0.02991748046875
STABILIZE,2.7702138423919678,29.69334673708355,0.03235915501912435,0.03262019157409668,0.0,0.0,0.0,0.24427888754030283,-1.0442198108790595,-81.8051142175402,0.011209595245093688,0.022146056319152653,-0.022346315396725276,0.4,-0.08733341365872051,0.09677900597917566,0.2641785174914128,-0.10042528585557371,-1.0744360275566578,-0.6998973898589611,-0.32335342839360237,-3.425326848713289,-53.463906049728394,-17.69292652606964,-133.44130516052246,0.0,0.0,0.0,0.0,0.0,0.0,0.0,0.0,0.0,0.0,0.0,0.0,0.0,0.0,0.0,0.0,False,0,6.269529581069946,0.0349208984375
STABILIZE,2.803642988204956,29.912735882696943,0.03227260907491048,0.032547950744628906,0.0,0.0,0.0,0.24520720629804277,-1.0266551256547254,-81.80141908519921,0.013341476675609325,-0.02042646447774397,-0.03339953770114696,0.4,-0.10241780278348037,0.08153961069322362,0.24435829646529034,-0.15517007997556542,-1.0744360275566578,-0.6998973898589611,-0.32335342839360237,-3.425326848713289,-53.463906049728394,-17.69292652606964,-133.44130516052246,0.0,0.0,0.0,0.0,0.0,0.0,0.0,0.0,0.0,0.0,0.0,0.0,0.0,0.0,0.0,0.0,False,0,6.298097372055054,0.0349208984375
STABILIZE,2.8373048305511475,29.707648067088805,0.0324437936147054,0.03280377388000488,0.0,0.0,0.0,0.24409906146606108,-1.0395997215140746,-81.79896021709801,-0.004034488567304752,-0.03711017154991137,-0.0268669746302975,0.4,-0.12734967543997508,0.08389239026020688,0.2744144300991813,-0.12209603109564021,-1.636301726102829,0.3252355381846428,2.5372734293341637,1.6926273845915296,-69.9044406414032,36.41979694366455,21.180614829063416,0.0,0.0,0.0,0.0,0.0,0.0,0.0,0.0,0.0,0.0,0.0,0.0,0.0,0.0,0.0,0.0,False,1,6.326737403869629,0.034921142578125
STABILIZE,2.8707516193389893,29.8978102189781,0.032465489705403645,0.03257584571838379,0.0,0.0,0.0,0.23315021486567775,-1.0628302620983459,-81.80174693427938,-0.023426391886817586,-0.0415316852265727,-0.029914540270622708,0.4,-0.13585422573396327,0.11404622023397425,0.2790899863643834,-0.1368761536818733,-0.46032052487134933,1.074911467730999,0.8805824443697929,-0.6915007312899616,-30.58410882949829,20.070189237594604,41.07223451137543,0.0,0.0,0.0,0.0,0.0,0.0,0.0,0.0,0.0,0.0,0.0,0.0,0.0,0.0,0.0,0.0,False,0,6.385432481765747,0.029931884765625
STABILIZE,2.904229164123535,29.87140700225052,0.03243401845296224,0.03256416320800781,0.0,0.0,0.0,0.2412851836105745,-1.0596324529063106,-81.7961393489708,-0.002632973139272116,-0.03904747727539833,-0.03453792611932473,0.4,-0.12194531204839087,0.08747991928297658,0.2872404058734087,-0.15945965035727128,0.5830162670463324,-1.3665099628269672,1.2114722281694412,-1.6206070952185647,-0.9249728173017502,-4.022523388266563,38.97766172885895,0.0,0.0,0.0,0.0,0.0,0.0,0.0,0.0,0.0,0.0,0.0,0.0,0.0,0.0,0.0,0.0,False,0,6.414143085479736,0.06984130859375
STABILIZE,2.937943696975708,29.659750802607945,0.0324125607808431,0.03283572196960449,0.0,0.0,0.0,0.22506038940232656,-1.0658193236338727,-81.78980776361018,-0.011410116367169838,-0.04101877363639147,-0.03465119589647692,0.4,-0.13642111615302963,0.09126370079935404,0.29263526792476213,-0.15948815169776515,-0.7110373117029667,0.2590693300589919,0.6770801264792681,0.18988619583723026,-11.433462798595428,24.105317890644073,-21.348267793655396,0.0,0.0,0.0,0.0,0.0,0.0,0.0,0.0,0.0,0.0,0.0,0.0,0.0,0.0,0.0,0.0,False,0,6.442695379257202,0.029931640625
STABILIZE,2.971431255340576,29.861836718711064,0.03244927724202474,0.03258681297302246,0.0,0.0,0.0,0.2347291625027143,-1.0629921589260163,-81.77507504557047,-0.018243951044091735,-0.03919438899095446,-0.03285288660803841,0.4,-0.14426604261295373,0.09211301381302531,0.2917542814650278,-0.1499945711189919,-0.7110373117029667,0.2590693300589919,0.6770801264792681,0.18988619583723026,-11.433462798595428,24.105317890644073,-21.348267793655396,0.0,0.0,0.0,0.0,0.0,0.0,0.0,0.0,0.0,0.0,0.0,0.0,0.0,0.0,0.0,0.0,False,0,6.471381425857544,0.029931640625
STABILIZE,3.0049078464508057,29.87183249056335,0.032413514455159505,0.032553672790527344,0.0,0.0,0.0,0.2606060812252481,-1.0660893295494998,-81.76431066743854,-0.01208379306341939,-0.02251580285483653,-0.037161803833121884,0.4,-0.13310290284284867,0.0830381904731784,0.30800389534007583,-0.1709670501829902,0.34757601097226143,-0.30051961075514555,1.6225103288888931,-1.5031269877206992,-23.871345818042755,-16.310247778892517,25.53461194038391,0.0,0.0,0.0,0.0,0.0,0.0,0.0,0.0,0.0,0.0,0.0,0.0,0.0,0.0,0.0,0.0,False,0,6.500019788742065,0.034921142578125
STABILIZE,3.0392932891845703,29.081872642556025,0.0323975404103597,0.03351140022277832,0.0,0.0,0.0,0.24778533590545812,-1.0393975906033246,-81.76945379988355,0.005371068893277994,-0.013328359968485661,-0.04169258147908622,0.4,-0.12286887083169104,0.07438404504685592,0.3256598391462691,-0.19295681300648868,0.34757601097226143,-0.30051961075514555,1.6225103288888931,-1.5031269877206992,-23.871345818042755,-16.310247778892517,25.53461194038391,0.0,0.0,0.0,0.0,0.0,0.0,0.0,0.0,0.0,0.0,0.0,0.0,0.0,0.0,0.0,0.0,False,1,6.5286571979522705,0.034921142578125
STABILIZE,3.0746076107025146,28.318461704655935,0.03244903882344564,0.03436470031738281,0.0,0.0,0.0,0.24269663153038706,-1.0513410301407382,-81.76355251644065,0.001907525661967867,-0.01334423495461067,-0.036463053812328686,0.4,-0.112248857131014,0.06038402293875223,0.3221448678268852,-0.16622288318986558,-0.058235053438693285,-0.6003092043101788,0.026802695356309414,0.8878353727556243,22.18976616859436,-18.442995846271515,-5.130042880773544,0.0,0.0,0.0,0.0,0.0,0.0,0.0,0.0,0.0,0.0,0.0,0.0,0.0,0.0,0.0,0.0,False,0,6.586003541946411,0.0349208984375
STABILIZE,3.1080269813537598,29.92212535848303,0.032366307576497395,0.03249812126159668,0.0,0.0,0.0,0.24760534974865772,-1.055014711418853,-81.75026096831581,0.0112817957833073,-0.005655316094254996,-0.03242149234408737,0.4,-0.1092304999106177,0.04669866100330276,0.3118845865727132,-0.1455286830429945,-0.058235053438693285,-0.6003092043101788,0.026802695356309414,0.8878353727556243,22.18976616859436,-18.442995846271515,-5.130042880773544,0.0,0.0,0.0,0.0,0.0,0.0,0.0,0.0,0.0,0.0,0.0,0.0,0.0,0.0,0.0,0.0,False,0,6.614820957183838,0.0349208984375
STABILIZE,3.1415328979492188,29.848023796985526,0.032398255666097005,0.03251361846923828,0.0,0.0,0.0,0.2423588039707359,-1.0486537775891613,-81.74797968513303,0.014995723941240236,0.0037347527471550514,-0.03346400901159104,0.4,-0.09844941252645331,0.04082689463442419,0.30939018529106155,-0.15023905512629798,0.38399575278162956,-0.15979919116944075,0.47049070708453655,-0.5646006189878848,15.115849673748016,6.905248761177063,-10.28035283088684,0.0,0.0,0.0,0.0,0.0,0.0,0.0,0.0,0.0,0.0,0.0,0.0,0.0,0.0,0.0,0.0,False,0,6.643518924713135,0.0349208984375
STABILIZE,3.179776430130005,26.145441398311952,0.03230884869893392,0.03741025924682617,0.0,0.0,0.0,0.2462959277795722,-1.0585552040081525,-81.74676391146077,0.01263137824389896,7.368599874309171e-05,-0.03168367679580461,0.4,-0.09647481082902291,0.03801268594606827,0.32024518129648205,-0.1407965415488866,-0.11651103850454092,0.005298650648910552,1.226144377142191,0.24330433160353307,-7.062824070453644,-6.731107085943222,2.0017109811306,0.0,0.0,0.0,0.0,0.0,0.0,0.0,0.0,0.0,0.0,0.0,0.0,0.0,0.0,0.0,0.0,False,0,6.672773122787476,0.02993212890625
STABILIZE,3.21337628364563,29.76372409877945,0.03251794179280599,0.032657623291015625,0.0,0.0,0.0,0.24814338722835488,-1.058019247601718,-81.73712651454188,0.015232882009088814,-0.0018260388004924404,-0.024775314482906572,0.4,-0.09247677620809744,0.027230389591861925,0.3196529661668961,-0.10590039587422706,-0.11382815428078175,-0.16410901444032788,0.626286119222641,0.694931407244012,-11.184702068567276,-5.569056421518326,-22.485534846782684,0.0,0.0,0.0,0.0,0.0,0.0,0.0,0.0,0.0,0.0,0.0,0.0,0.0,0.0,0.0,0.0,False,0,6.729520320892334,0.0349208984375
STABILIZE,3.2469630241394043,29.7772476855796,0.032364638646443684,0.03249478340148926,0.0,0.0,0.0,0.24909224991445775,-1.048545988666322,-81.72955183475234,0.012649836686716954,-0.0035194649547151476,-0.026197739575594937,0.4,-0.08802473612702622,0.021986659357319638,0.34516287159192177,-0.11263560343292398,0.041695465915836394,-0.1605149358510971,2.061442844569683,-0.679052871610172,10.839425772428513,-2.2865114733576775,11.12138256430626,0.0,0.0,0.0,0.0,0.0,0.0,0.0,0.0,0.0,0.0,0.0,0.0,0.0,0.0,0.0,0.0,False,0,6.758257865905762,0.03491357421875
STABILIZE,3.2801671028137207,30.11137673824241,0.0321688969930013,0.0322880744934082,0.0,0.0,0.0,0.24633109258162722,-1.0554794844475313,-81.72886881583534,0.006738242870838944,-0.003061621277508207,-0.028042937917169164,0.4,-0.08499647903169102,0.022296893891129543,0.35076991372038907,-0.12145573536151352,-0.03696027270052582,0.14984046574681997,0.9098648093640804,-0.7856294358717585,8.840125054121017,1.7298003658652306,8.41846838593483,0.0,0.0,0.0,0.0,0.0,0.0,0.0,0.0,0.0,0.0,0.0,0.0,0.0,0.0,0.0,0.0,False,0,6.786913871765137,0.029931884765625
STABILIZE,3.313681125640869,29.839529887167227,0.032468350728352864,0.032605886459350586,0.0,0.0,0.0,0.2469847630295386,-1.0581188189532122,-81.72466141930661,0.005800128036597069,-0.005671277896493452,-0.028528100435965126,0.4,-0.08162723248930094,0.019605716313488064,0.35220121375111846,-0.12346832993700334,-0.021196791203692555,-0.05105790332891047,0.7925029844045639,-0.4083017183116336,0.6953458767384291,-9.79945957660675,12.877154350280762,0.0,0.0,0.0,0.0,0.0,0.0,0.0,0.0,0.0,0.0,0.0,0.0,0.0,0.0,0.0,0.0,False,0,6.815499782562256,0.034921142578125
STABILIZE,3.347102642059326,29.920631183969295,0.0323674996693929,0.0324864387512207,0.0,0.0,0.0,0.24660792868642428,-1.0520236221709163,-81.70586473871073,0.00640380059863939,-0.004637559698796575,-0.02911975424935643,0.4,-0.07852333201935888,0.01674077623529429,0.3557334658585731,-0.12600536182578287,-0.021196791203692555,-0.05105790332891047,0.7925029844045639,-0.4083017183116336,0.6953458767384291,-9.79945957660675,12.877154350280762,0.0,0.0,0.0,0.0,0.0,0.0,0.0,0.0,0.0,0.0,0.0,0.0,0.0,0.0,0.0,0.0,False,0,6.844375371932983,0.034921142578125
STABILIZE,3.38051700592041,29.926395250938253,0.03242662747701009,0.032546281814575195,0.0,0.0,0.0,0.2467827922013472,-1.0534318150787025,-81.70586473871073,0.005158397875111887,-0.007808475362789521,-0.026973035022792746,0.4,-0.08114512795042056,0.01098514267253561,0.35936302281894794,-0.11488759124536772,-0.3494459204375744,-0.22707965690642595,0.8058077655732632,0.3892892197462419,4.1291844099760056,3.916487842798233,19.208163022994995,0.0,0.0,0.0,0.0,0.0,0.0,0.0,0.0,0.0,0.0,0.0,0.0,0.0,0.0,0.0,0.0,False,0,6.87291693687439,0.034921142578125
STABILIZE,3.4140050411224365,29.863325026699894,0.03245237668355306,0.032572031021118164,0.0,0.0,0.0,0.24667244195756918,-1.05674872569439,-81.70749715392236,0.007085361938685722,-0.012618856323738615,-0.02606715334986015,0.4,-0.08630169601726008,0.003724382648652718,0.366806141381069,-0.10999048621340518,-0.2899959683418274,-0.054200098384171724,0.4903579130768776,-0.06717648463223569,-4.872944205999374,-8.236297219991684,6.188489869236946,0.0,0.0,0.0,0.0,0.0,0.0,0.0,0.0,0.0,0.0,0.0,0.0,0.0,0.0,0.0,0.0,False,0,6.9304726123809814,0.06485302734375
STABILIZE,3.4475412368774414,29.818316247458448,0.032401116689046223,0.0325474739074707,0.0,0.0,0.0,0.24458032299828253,-1.05845787381248,-81.69152817164287,0.010959090218397607,-0.013148914803228995,-0.023422985086667635,0.4,-0.08497291355496245,-0.0028612652778485168,0.3851825054557172,-0.09644669147115187,-0.0328268448356539,-0.16898148460313678,1.0504732839763165,0.5009202573957701,3.8386303931474686,-2.314194478094578,1.2576551176607609,0.0,0.0,0.0,0.0,0.0,0.0,0.0,0.0,0.0,0.0,0.0,0.0,0.0,0.0,0.0,0.0,False,0,6.959091424942017,0.0349208984375
STABILIZE,3.4810006618499756,29.88779705704208,0.03232267697652181,0.03245210647583008,0.0,0.0,0.0,0.2452379955101607,-1.0541553882439008,-81.68681534111556,0.009971641108768607,-0.013700843391993683,-0.021227750790418675,0.4,-0.08345202745809817,-0.0031006281107117347,0.39380693720330806,-0.08518572498491911,-0.11819546343758702,0.03252966271247715,1.1946246027946472,0.3076991149745753,6.596878170967102,3.755404055118561,10.71702092885971,0.0,0.0,0.0,0.0,0.0,0.0,0.0,0.0,0.0,0.0,0.0,0.0,0.0,0.0,0.0,0.0,False,0,6.987804651260376,0.02993212890625
STABILIZE,3.5144059658050537,29.93258876003568,0.032292874654134114,0.032428741455078125,0.0,0.0,0.0,0.245863864953716,-1.0556116059192886,-81.68780571854522,0.009076959003431702,-0.013934281358216498,-0.022662796220404777,0.4,-0.08155727293330713,-0.0036400441626481543,0.39260793698804436,-0.09205298326158208,-0.10703623993322253,-0.003985690636909567,0.8086856454610825,-0.5966363939902132,-5.376935005187988,-0.41469354182481766,2.9152587056159973,0.0,0.0,0.0,0.0,0.0,0.0,0.0,0.0,0.0,0.0,0.0,0.0,0.0,0.0,0.0,0.0,False,0,7.01946234703064,0.0349208984375
STABILIZE,3.5477590560913086,29.98244359934807,0.03236344655354818,0.032483577728271484,0.0,0.0,0.0,0.246603179570517,-1.0578761337942653,-81.67956168021702,0.008348164698573891,-0.014235615045461562,-0.021004460055469118,0.4,-0.08400149711666725,-0.006590988026423316,0.3981975274055203,-0.08348220864065037,-0.31180211808532476,-0.11597378179430962,1.0336813516914845,0.20378225572426087,-6.922655552625656,-5.879763513803482,14.678718149662018,0.0,0.0,0.0,0.0,0.0,0.0,0.0,0.0,0.0,0.0,0.0,0.0,0.0,0.0,0.0,0.0,False,0,7.048919677734375,0.0349208984375
STABILIZE,3.5812737941741943,29.837619423636454,0.03246048291524251,0.03259468078613281,0.0,0.0,0.0,0.2452598734598459,-1.0586245731169106,-81.67006088708153,0.006987027580371516,-0.0109385780463144,-0.02053482536318868,0.4,-0.08198475657528033,-0.009534631671677245,0.4040698099983597,-0.08086342261867917,-0.07714014500379562,-0.12177664320915937,1.0506547056138515,-0.094887495909903,-0.4814579617232084,-1.8028054386377335,18.931420147418976,0.0,0.0,0.0,0.0,0.0,0.0,0.0,0.0,0.0,0.0,0.0,0.0,0.0,0.0,0.0,0.0,False,0,7.0773069858551025,0.0349208984375
STABILIZE,3.614677667617798,29.93707531547993,0.03239491780598958,0.032501935958862305,0.0,0.0,0.0,0.24552134163901046,-1.054921436648,-81.6706346229718,0.005844503966036283,-0.01039396021002657,-0.020098280524938155,0.4,-0.08003568348482396,-0.012360750870491,0.40987062576443506,-0.07841867489237836,-0.07714014500379562,-0.12177664320915937,1.0506547056138515,-0.094887495909903,-0.4814579617232084,-1.8028054386377335,18.931420147418976,0.0,0.0,0.0,0.0,0.0,0.0,0.0,0.0,0.0,0.0,0.0,0.0,0.0,0.0,0.0,0.0,False,0,7.106003046035767,0.0349208984375
STABILIZE,3.64811635017395,29.905271188495078,0.03238561948140462,0.03252005577087402,0.0,0.0,0.0,0.24572288558037872,-1.0562970794355229,-81.66685069817161,0.010928548389002105,-0.010634119850086124,-0.018858795726950085,0.4,-0.07930908275724341,-0.021473571576139806,0.42120573314426546,-0.07198044964454459,-0.23542894050478935,-0.3243854735046625,1.0519050993025303,0.012963607330718295,-10.500136762857437,-3.7926293909549713,21.60775363445282,0.0,0.0,0.0,0.0,0.0,0.0,0.0,0.0,0.0,0.0,0.0,0.0,0.0,0.0,0.0,0.0,False,0,7.163387060165405,0.06485302734375
