E-kp,E-ki,E-kd,E-I-Tot,E-P,E-I,E-D,E-PID,N-kp,N-ki,N-kd,N-I-Tot,N-P,N-I,N-D,N-PID,D-kp,D-ki,D-kd,D-I-Tot,D-P,D-I,D-D,D-PID,Y-kp,Y-ki,Y-kd,Y-I-Tot,Y-P,Y-I,Y-D,Y-PID,errorN,desiredN,actualN,errorE,desiredE,actualE,errorD,desiredD,actualD,errorY,desiredY,actualY,roll,pitch,yaw-rate,thrust,dt,Time,Mode
0.16,0.015,0.11,1.3186708426133291,6.399521433415771,0.019780062639199937,13.75,20.16930149605497,0.17,0.015,0.08,-0.33132800835502774,-1.7084339103753858,-0.004969920125325416,-10.0,-11.713403830500711,0.002,8e-05,0,0.30781305919176316,0.018672744233495787,2.4625044735341054e-05,0.0,0.018697369278231128,0.2,0.02,0.0,0.0033300768773591146,0.020201116213872775,6.66015375471823e-05,0.0,0.02026771775141996,-10.049611237502269,-10.0,0.04961123750226969,39.99700895884857,40.0,0.0029910411514333475,9.336372116747894,10.0,0.6636278832521055,0.10100558106936387,0,-0.10100558106936387,4.007045300667969,3.9929422683523415,-0.02026771775141996,0.5186973692782312,0.03296923637390137,0.03327465057373047,STABILIZE
0.16,0.015,0.11,2.65626034834684,6.401890826808644,0.0398439052252026,6.899363815844925,13.341098547878772,0.17,0.015,0.08,-0.6671705778945138,-1.7078514536551483,-0.010007558668417708,-4.995900412515202,-6.713759424838768,0.002,8e-05,0,0.6202511192942533,0.018692154266520912,4.962008954354026e-05,0.0,0.01874177435606445,0.2,0.02,0.0,0.005163682132220346,0.010969864643419723,0.00010327364264440693,0.0,0.01107313828606413,-10.046185021500872,-10.0,0.046185021500870824,40.01181766755402,40.0,-0.011817667554016914,9.346077133260456,10.0,0.6539228667395446,0.054849323217098615,0,-0.054849323217098615,4.0038273716943005,3.9961689626029964,-0.01107313828606413,0.5187417743560645,0.033429861068725586,0.06663632392883301,STABILIZE
0.16,0.015,0.11,3.996672838106691,6.400429724653325,0.05995009257160036,4.589583180338982,11.049962997563908,0.17,0.015,0.08,-1.0044701292142237,-1.711257520764029,-0.015067051938213356,-3.346545244638769,-5.072869817341012,0.002,8e-05,0,0.9329867872877932,0.018666293777818553,7.463894298302345e-05,0.0,0.018740932720801576,0.2,0.02,0.0,0.007880200013819519,0.0162141149923695,0.0001576040002763904,0.0,0.01637171899264589,-10.06622071037664,-10.0,0.06622071037664115,40.00268577908328,40.0,-0.0026857790832804564,9.333146888909276,10.0,0.6668531110907242,0.0810705749618475,0,-0.0810705749618475,4.005655787792099,3.994336203892664,-0.01637171899264589,0.5187409327208016,0.0335080623626709,0.10013961791992188,STABILIZE
0.16,0.015,0.11,5.33187790843948,6.398967033762546,0.0799781686265922,3.4346571735666696,9.913602375955808,0.17,0.015,0.08,-1.3413817215022115,-1.7155634808545293,-0.020120725822533173,-2.5250826858332536,-4.260766892510316,0.002,8e-05,0,1.2433085454284374,0.0185902033358281,9.9464683634275e-05,0.0,0.018689668019462376,0.2,0.02,0.0,0.011702075153003874,0.022895409070666076,0.0002340415030600775,0.0,0.023129450573726153,-10.091549887379584,-10.0,0.09154988737958457,39.99354396101592,40.0,0.0064560389840860495,9.29510166791405,10.0,0.70489833208595,0.11447704535333036,0,-0.11447704535333036,4.007984016103915,3.992000015863669,-0.023129450573726153,0.5186896680194624,0.033385515213012695,0.13351702690124512,STABILIZE
0.16,0.015,0.11,6.669917075285767,6.401942697867604,0.1000487561292865,2.759960896741441,9.261952350738332,0.17,0.015,0.08,-1.6779744515184831,-1.711104867064178,-0.025169616772777247,-2.0075175887136574,-3.7437920725506126,0.002,8e-05,0,1.553763410391696,0.018567414775808748,0.0001243010728313357,0.0,0.018691715848640083,0.2,0.02,0.0,0.01569171139205841,0.02386086971576046,0.0003138342278411682,0.0,0.02417470394360163,-10.06532274743634,-10.0,0.06532274743633971,40.012141861672525,40.0,-0.01214186167252303,9.283707387904373,10.0,0.7162926120956274,0.1193043485788023,0,-0.1193043485788023,4.007786847684015,3.7354549476635155,-0.02417470394360163,0.51869171584864,0.03344082832336426,0.16697072982788086,STABILIZE
0.16,0.015,0.11,8.012117411283722,6.399313687559312,0.12018176116925582,-0.0008109721951168467,6.518684476533451,0.17,0.015,0.08,-2.017089245158426,-1.717875677751709,-0.03025633867737639,-0.02650683843623597,-1.7746388548653214,0.002,8e-05,0,1.8654430043163366,0.018575240204845248,0.00014923544034530693,-0.0,0.018724475645190555,0.2,0.02,0.0,0.020203716779512496,0.026890301935448432,0.00040407433559024996,0.0,0.027294376271038683,-10.105151045598287,-10.0,0.10515104559828733,39.9957105472457,40.0,0.0042894527543030705,9.287620102422624,10.0,0.7123798975773769,0.13445150967724215,0,-0.13445150967724215,4.004153388659396,1.7652474912275542,-0.027294376271038683,0.5187244756451905,0.03355860710144043,0.20053911209106445,STABILIZE
0.16,0.015,0.11,9.351302721434386,6.400809427638332,0.1402695408215158,-0.0044127551602690974,6.536666213299578,0.17,0.015,0.08,-2.354585327678182,-1.7139253216563415,-0.03531877991517273,-0.017040062854791073,-1.7662841644263052,0.002,8e-05,0,2.176371595123397,0.018576542770770716,0.00017410972760987175,-0.0,0.018750652498380586,0.2,0.02,0.0,0.02383285288521023,0.021682406855365755,0.0004766570577042046,0.0,0.02215906391306996,-10.081913656802008,-10.0,0.0819136568020079,40.00505892273957,40.0,-0.005058922739568599,9.288271385385357,10.0,0.7117286146146419,0.10841203427682877,0,-0.10841203427682877,4.00333490675688,1.7587124193127806,-0.02215906391306996,0.5187506524983806,0.033475399017333984,0.2340259552001953,STABILIZE
0.16,0.015,0.11,10.690688274993775,6.401903303873975,0.1603603241249066,0.006076049033129269,6.56833967703201,0.17,0.015,0.08,-2.6918228961427793,-1.7126490887048484,-0.04037734344214169,-0.003884815887447147,-1.7569112480344373,0.002,8e-05,0,2.4873658376172214,0.01858086216489418,0.00019898926700937772,-0.0,0.018779851431903558,0.2,0.02,0.0,0.02655365341789173,0.016255869970624778,0.0005310730683578347,0.0,0.01678694303898261,-10.074406404146167,-10.0,0.0744064041461676,40.01189564921234,40.0,-0.011895649212341139,9.29043108244709,10.0,0.7095689175529096,0.08127934985312388,0,-0.08127934985312388,4.002488315070152,1.7512351130550177,-0.01678694303898261,0.5187798514319035,0.03347468376159668,0.2675001621246338,STABILIZE
0.16,0.015,0.11,12.02908903867065,6.398745793379419,0.18043633558005973,-0.0008726556017181802,6.578309473357761,0.17,0.015,0.08,-3.0287608897599747,-1.7115421755850526,-0.04543141334639962,0.01136714423731081,-1.7456064446941413,0.002,8e-05,0,2.7992197320021854,0.018636736553433193,0.00022393757856017485,0.0,0.01886067413199337,0.2,0.02,0.0,0.02939615632666968,0.016987114420276533,0.0005879231265333936,-0.0,0.017575037546809925,-10.06789515050031,-10.0,0.06789515050030862,39.99216120862137,40.0,0.007838791378629799,9.318368276716596,10.0,0.6816317232834044,0.08493557210138267,0,-0.08493557210138267,4.002583300395711,1.73967490731777,-0.017575037546809925,0.5188606741319933,0.03346657752990723,0.3010063171386719,STABILIZE
0.16,0.015,0.11,13.366164783280585,6.39870173518886,0.20049247174920876,-0.013289008080699828,6.585905198857369,0.17,0.015,0.08,-3.3651854024096135,-1.710615594609988,-0.0504777810361442,0.00142696099391239,-1.7596664146522198,0.002,8e-05,0,3.11153837196911,0.018682877835683013,0.0002489230697575288,0.0,0.01893180090544054,0.2,0.02,0.0,0.03241383679788754,0.01805174215565882,0.0006482767359577508,-0.0,0.01870001889161657,-10.0624446741764,-10.0,0.06244467417639973,39.99188584493037,40.0,0.00811415506962733,9.341438917841506,10.0,0.6585610821584946,0.0902587107782941,0,-0.0902587107782941,4.0027670586995985,1.7533629871319747,-0.01870001889161657,0.5189318009054406,0.03343367576599121,0.3344089984893799,STABILIZE
0.16,0.015,0.11,14.733596058585714,6.398641677623037,0.22100394087878572,-0.0027586478124693643,6.616886970689354,0.17,0.015,0.08,-3.7090764018681632,-1.7097477065376874,-0.05563614602802245,0.022805105819311527,-1.7425787467463982,0.002,8e-05,0,3.4316120233226037,0.018721567972423785,0.0002745289618658083,0.0,0.018996096934289594,0.2,0.02,0.0,0.03569557955860122,0.019195385156792005,0.0007139115911720244,-0.0,0.01990929674796403,-10.05733945022169,-10.0,0.05733945022169072,39.99151048514398,40.0,0.008489514856016279,9.360783986211892,10.0,0.6392160137881086,0.09597692578396003,0,-0.09597692578396003,4.002913403567686,1.7358758515949249,-0.01990929674796403,0.5189960969342896,0.03419303894042969,0.36859583854675293,STABILIZE
0.16,0.015,0.11,16.072077579884994,6.399815778630207,0.2410811636982749,-0.004077991626090388,6.636818950702391,0.17,0.015,0.08,-4.045414225353798,-1.708676085665572,-0.060681213380306964,0.014712523611140947,-1.754644775434738,0.002,8e-05,0,3.7451339105253396,0.0187384200746966,0.00029961071284202717,0.0,0.019038030787538626,0.2,0.02,0.0,0.03817401401118121,0.014812983653040266,0.0007634802802236242,-0.0,0.01557646393326389,-10.051035798032776,-10.0,0.05103579803277678,39.99884861643879,40.0,0.0011513835612089792,9.3692100373483,10.0,0.6307899626517004,0.07406491826520133,0,-0.07406491826520133,4.002264845732568,1.749472604122079,-0.01557646393326389,0.5190380307875386,0.0334630012512207,0.4020650386810303,STABILIZE
0.16,0.015,0.11,17.409617804972534,6.39741176981563,0.261144267074588,-0.018452526365773114,6.640103510524445,0.17,0.015,0.08,-4.381579374490466,-1.7083587610568793,-0.06572369061735699,0.012017054522018261,-1.7620653971522182,0.002,8e-05,0,4.058698479457902,0.01874711528540243,0.0003246958783566322,0.0,0.019071811163759063,0.2,0.02,0.0,0.04104879295700825,0.017187468756732525,0.0008209758591401651,0.0,0.01800844461587269,-10.049169182687525,-10.0,0.049169182687523946,39.983823561347684,40.0,0.016176438652319446,9.373557642701215,10.0,0.6264423572987856,0.08593734378366262,0,-0.08593734378366262,4.002638403235007,1.756063858972537,-0.01800844461587269,0.5190718111637591,0.03345203399658203,0.43552398681640625,STABILIZE
0.16,0.015,0.11,18.80921554471335,6.395008910485508,0.28213823317070025,-0.014914806178492201,6.662232337477716,0.17,0.015,0.08,-4.733413580375837,-1.7080670708973877,-0.07100120370563755,0.009688086740685449,-1.7693801878623399,0.002,8e-05,0,4.386977924336578,0.018749583501016652,0.00035095823394692624,0.0,0.019100541734963578,0.2,0.02,0.0,0.04448373487447066,0.019618569273018537,0.0008896746974894133,0.0,0.02050824397050795,-10.047453358219927,-10.0,0.04745335821992833,39.968805690534424,40.0,0.031194309465576477,9.374791750508326,10.0,0.625208249491674,0.09809284636509268,0,-0.09809284636509268,4.003023391553888,1.762529425533706,-0.02050824397050795,0.5191005417349636,0.03501725196838379,0.470538854598999,STABILIZE
0.16,0.015,0.11,20.151707482656075,6.397476949178054,0.3022756122398411,-0.00462639149302334,6.695126169924872,0.17,0.015,0.08,-5.070326169628279,-1.7058593550041803,-0.07605489254442419,0.013268294259313985,-1.7686459532892904,0.002,8e-05,0,4.701671118667511,0.018745386842699607,0.00037613368949340086,0.0,0.019121520532193008,0.2,0.02,0.0,0.04728235369727457,0.016670583731642916,0.0009456470739454914,-0.0,0.01761623080558841,-10.034466794142237,-10.0,0.03446679414223723,39.984230932362834,40.0,0.01576906763716253,9.372693421349803,10.0,0.6273065786501962,0.08335291865821458,0,-0.08335291865821458,4.002568762145765,1.7628249522801462,-0.01761623080558841,0.519121520532193,0.03357553482055664,0.5041782855987549,STABILIZE
0.16,0.015,0.11,21.487561940417,6.397054005642361,0.322313429106255,-0.006125430727029473,6.713242004021587,0.17,0.015,0.08,-5.405714032268647,-1.706464090296567,-0.0810857104840297,0.009175918264085758,-1.778373882516511,0.002,8e-05,0,5.014862432206012,0.018747380517055108,0.00040118899457648104,0.0,0.01914856951163159,0.2,0.02,0.0,0.049545838360124564,0.013549037420461674,0.0009909167672024913,-0.0,0.014539954187664166,-10.038024060568041,-10.0,0.038024060568040786,39.98158753526476,40.0,0.01841246473524371,9.373690258527553,10.0,0.6263097414724463,0.06774518710230837,0,-0.06774518710230837,4.002099911088308,1.7736431342532815,-0.014539954187664166,0.5191485695116316,0.03341174125671387,0.5375244617462158,STABILIZE
0.16,0.015,0.11,22.824097534454772,6.394931120118073,0.3423614630168216,-0.01967883309060647,6.717613750044289,0.17,0.015,0.08,-5.741545669717219,-1.7072844610044855,-0.08612318504575828,0.003852929066279337,-1.7895547169839643,0.002,8e-05,0,5.328105271385249,0.018734689795743987,0.00042624842171081997,-0.0,0.019160938217454807,0.2,0.02,0.0,0.052205305017919555,0.01590596068738983,0.001044106100358391,0.0,0.01695006678774822,-10.04284977061462,-10.0,0.04284977061462021,39.968319500737955,40.0,0.03168049926204608,9.367344897871993,10.0,0.6326551021280072,0.07952980343694914,0,-0.07952980343694914,4.0024801496136995,1.7840007671040545,-0.01695006678774822,0.5191609382174548,0.03343987464904785,0.5709781646728516,STABILIZE
0.16,0.015,0.11,24.16078620800846,6.394341445607895,0.3624117931201269,-0.012221640751438929,6.744531597976583,0.17,0.015,0.08,-6.077158968742071,-1.7058217814609664,-0.09115738453113106,0.00707604250472585,-1.7899031234873717,0.002,8e-05,0,5.641692897872385,0.01875143401516189,0.00045133543182979087,0.0,0.01920276944699168,0.2,0.02,0.0,0.0549116230301287,0.016182827172890907,0.001098232460602574,-0.0,0.01728105963349348,-10.034245773299801,-10.0,0.03424577329980177,39.96463403504934,40.0,0.03536596495066001,9.375717007580946,10.0,0.6242829924190553,0.08091413586445453,0,-0.08091413586445453,4.002523743997085,1.7842524681808347,-0.01728105963349348,0.5192027694469917,0.0334467887878418,0.6044578552246094,STABILIZE
0.16,0.015,0.11,25.496749976663345,6.39224067844428,0.38245124964995014,-0.011424603798340715,6.763267324295889,0.17,0.015,0.08,-6.412777840858191,-1.70621497992715,-0.09619166761287287,0.005185373903490038,-1.797221273636533,0.002,8e-05,0,5.955739547128497,0.018782898659044978,0.00047645916377027977,0.0,0.019259357822815258,0.2,0.02,0.0,0.057690219102963194,0.016618578346272544,0.0011538043820592638,-0.0,0.017772382728331808,-10.036558705453823,-10.0,0.0365587054538227,39.95150424027675,40.0,0.04849575972325148,9.391449329522489,10.0,0.6085506704775113,0.08309289173136272,0,-0.08309289173136272,4.00260220301815,1.7914184075212507,-0.017772382728331808,0.5192593578228153,0.03343963623046875,0.6378622055053711,STABILIZE
0.16,0.015,0.11,26.836701749899312,6.393362340323587,0.4025505262484897,-0.016932597090828946,6.778980269481248,0.17,0.015,0.08,-6.749137024480101,-1.7051884378340458,-0.10123705536720151,0.001877953754543138,-1.804547539446704,0.002,8e-05,0,6.270650479127606,0.01878182981482534,0.0005016520383302085,0.0,0.019283481853155548,0.2,0.02,0.0,0.05992574035894843,0.013333033410684545,0.0011985148071789688,-0.0,0.014531548217863514,-10.03052022255321,-10.0,0.030520222553211136,39.95851462702242,40.0,0.04148537297758052,9.39091490741267,10.0,0.6090850925873303,0.06666516705342272,0,-0.06666516705342272,4.002096931112019,1.7998922123579826,-0.014531548217863514,0.5192834818531555,0.033533573150634766,0.6713991165161133,STABILIZE
0.16,0.015,0.11,28.195161991912624,6.392231249258743,0.42292742987868936,-0.019765940418389673,6.795392738719043,0.17,0.015,0.08,-7.090088301923435,-1.704616963872492,-0.10635132452885153,0.0051632401102273216,-1.805805048291116,0.002,8e-05,0,6.58956050327446,0.01875787894822881,0.0005271648402619568,0.0,0.019285043788490767,0.2,0.02,0.0,0.06257293567302709,0.015570463608550604,0.0012514587134605417,0.0,0.016821922322011146,-10.027158611014658,-10.0,0.02715861101465699,39.95144530786715,40.0,0.04855469213285475,9.378939474114405,10.0,0.6210605258855938,0.07785231804275301,0,-0.07785231804275301,4.002449997166889,1.8003682658313136,-0.016821922322011146,0.5192850437884907,0.03400278091430664,0.7054262161254883,STABILIZE
0.16,0.015,0.11,29.532190143631954,6.390407982301859,0.4429828521544793,-0.018525888990853324,6.814864945465485,0.17,0.015,0.08,-7.425771024037143,-1.7046921492771816,-0.11138656536055715,0.007260816676741676,-1.8088178979609972,0.002,8e-05,0,6.903553748676734,0.01875937446817478,0.0005522842998941388,0.0,0.019311658768068916,0.2,0.02,0.0,0.06436484616513005,0.01070568250337505,0.001287296923302601,-0.0,0.01199297942667765,-10.027600878101067,-10.0,0.027600878101066185,39.94004988938662,40.0,0.05995011061338038,9.37968723408739,10.0,0.6203127659126103,0.05352841251687524,0,-0.05352841251687524,4.001688136889529,1.8050801209535423,-0.01199297942667765,0.519311658768069,0.03347587585449219,0.738893985748291,STABILIZE
0.16,0.015,0.11,30.867871497889332,6.391527384820111,0.46301807246834,-0.011498416679348731,6.843047040609102,0.17,0.015,0.08,-7.760338796254058,-1.7010412051859223,-0.11640508194381087,0.013421710616111701,-1.8040245765136216,0.002,8e-05,0,7.217717571457765,0.01879178246952794,0.0005774174057166212,0.0,0.01936919987524456,0.2,0.02,0.0,0.06547012894249457,0.006611274759674148,0.0013094025788498915,-0.0,0.00792067733852404,-10.006124736387777,-10.0,0.006124736387777625,39.94704615512569,40.0,0.052953844874308424,9.39589123476397,10.0,0.6041087652360299,0.03305637379837074,0,-0.03305637379837074,4.001040152777114,1.801716506149189,-0.00792067733852404,0.5193691998752445,0.03343629837036133,0.7723267078399658,STABILIZE
0.16,0.015,0.11,32.20469119669746,6.391505632566914,0.4830703679504619,-0.0029496750920640098,6.871626325425312,0.17,0.015,0.08,-8.0961855597842,-1.7060841397419533,-0.121442783396763,0.0003454982446823414,-1.827181424894034,0.002,8e-05,0,7.532272238512824,0.01879907522331829,0.000602581779081026,0.0,0.019401657002399316,0.2,0.02,0.0,0.06732222471086909,0.011068882873820957,0.0013464444942173817,-0.0,0.012415327368038338,-10.035789057305607,-10.0,0.035789057305606914,39.94691020354321,40.0,0.05308979645678866,9.399537611659145,10.0,0.6004623883408549,0.05534441436910478,0,-0.05534441436910478,4.001763085379611,1.8233168040608974,-0.012415327368038338,0.5194016570023993,0.033464908599853516,0.805854082107544,STABILIZE
0.16,0.015,0.11,33.542486312299665,6.3934817778546424,0.503137294684495,0.0005672359105331576,6.897186308449671,0.17,0.015,0.08,-8.433877091983023,-1.7147346944224906,-0.12650815637974533,-0.026854506094350597,-1.8680973568965866,0.002,8e-05,0,7.847135314485594,0.018809600544147865,0.0006277708251588475,0.0,0.019437371369306712,0.2,0.02,0.0,0.06990430979517748,0.015425114188696912,0.0013980861959035497,0.0,0.016823200384600463,-10.086674673073473,-10.0,0.08667467307347353,39.959261111591516,40.0,0.040738888408483526,9.404800272073933,10.0,0.5951997279260678,0.07712557094348456,0,-0.07712557094348456,4.002511012089506,1.862711285450927,-0.016823200384600463,0.5194373713693067,0.03347897529602051,0.8393356800079346,STABILIZE
0.16,0.015,0.11,34.879825848279175,6.395768123676933,0.5231973877241876,0.0145378336413179,6.933503345042438,0.17,0.015,0.08,-8.771748847810652,-1.716848026925914,-0.1315762327171598,-0.03438155903745558,-1.8828058186805294,0.002,8e-05,0,8.162029532055124,0.018824598623586306,0.00065296236256441,0.0,0.019477560986150715,0.2,0.02,0.0,0.07290592241867133,0.01794385215990357,0.0014581184483734267,0.0,0.019401970608276996,-10.09910604074067,-10.0,0.09910604074067084,39.97355077298083,40.0,0.026449227019171878,9.412299311793152,10.0,0.5877006882068472,0.08971926079951784,0,-0.08971926079951784,4.002943373780471,1.8765399268771983,-0.019401970608276996,0.5194775609861507,0.033455610275268555,0.8727383613586426,STABILIZE
0.16,0.015,0.11,36.45672473194553,6.396627884071716,0.546850870979183,0.025023927517396446,6.968502682568295,0.17,0.015,0.08,-9.170145964128292,-1.7170872607404712,-0.13755218946192438,-0.03474102330056671,-1.8893804735029622,0.002,8e-05,0,8.532763373298192,0.01879833934683495,0.0006826210698638554,0.0,0.019480960416698806,0.2,0.02,0.0,0.07707378939382634,0.02113348419683691,0.0015414757878765267,0.0,0.022674959984713437,-10.10051329847336,-10.0,0.10051329847336007,39.97892427544822,40.0,0.02107572455177546,9.399169673417475,10.0,0.6008303265825256,0.10566742098418454,0,-0.10566742098418454,4.00347767492514,1.882000286936821,-0.022674959984713437,0.5194809604166988,0.039443254470825195,0.91219162940979,STABILIZE
0.16,0.015,0.11,37.79403540453092,6.3974537222815115,0.5669105310679639,0.023815711236584654,6.98817996458606,0.17,0.015,0.08,-9.508056290644213,-1.7175336128040888,-0.14262084435966318,-0.046273866773093746,-1.9064283239368458,0.002,8e-05,0,8.847115538832943,0.018797552737125297,0.0007077692431066355,0.0,0.019505321980231933,0.2,0.02,0.0,0.08017405729566704,0.018538905015949268,0.0016034811459133408,0.0,0.02014238616186261,-10.10313889884758,-10.0,0.10313889884758091,39.98408576425945,40.0,0.015914235740551105,9.398776368562649,10.0,0.6012236314373506,0.09269452507974633,0,-0.09269452507974633,4.0030790306997375,1.899954533214072,-0.02014238616186261,0.5195053219802319,0.03344607353210449,0.945662260055542,STABILIZE
0.16,0.015,0.11,39.132474901742874,6.396196952953111,0.5869871235261431,0.018743759521377686,7.001927836000632,0.17,0.015,0.08,-9.846430374408172,-1.7181026811746616,-0.14769645561612257,-0.0336906765020603,-1.8994898132928446,0.002,8e-05,0,9.16176163261038,0.01879556743571603,0.0007329409306088305,0.0,0.01952850836632486,0.2,0.02,0.0,0.0832130709841054,0.018153725041795857,0.0016642614196821079,0.0,0.019817986461477966,-10.10648635985095,-10.0,0.1064863598509486,39.97623095595694,40.0,0.02376904404305679,9.397783717858013,10.0,0.6022162821419872,0.09076862520897928,0,-0.09076862520897928,4.003004172645518,1.8931505868751857,-0.019817986461477966,0.5195285083663248,0.03348088264465332,0.9791831970214844,STABILIZE
0.16,0.015,0.11,40.505703927857354,6.399311150995348,0.6075855589178603,0.023099136201776914,7.029995846114986,0.17,0.015,0.08,-10.193936799952041,-1.7206083676460502,-0.15290905199928062,-0.016240433614849285,-1.8897578532601802,0.002,8e-05,0,9.484450011628924,0.01879678574076615,0.000758756000930314,-0.0,0.019555541741696464,0.2,0.02,0.0,0.08559798754696181,0.013892277676054863,0.0017119597509392362,-0.0,0.0156042374269941,-10.121225692035589,-10.0,0.12122569203558903,39.99569469372092,40.0,0.004305306279076458,9.398392870383075,10.0,0.6016071296169245,0.06946138838027431,0,-0.06946138838027431,4.002288069957859,1.8849071459972566,-0.0156042374269941,0.5195555417416965,0.034334421157836914,1.0134565830230713,STABILIZE
0.16,0.015,0.11,41.8609372518618,6.400203292626574,0.6279140587779269,0.01732316035005052,7.045440511754552,0.17,0.015,0.08,-10.536737875468507,-1.7200885756802342,-0.1580510681320276,-0.00885120892800046,-1.8869908527402621,0.002,8e-05,0,9.802837234254133,0.018795130278332493,0.0007842269787403307,-0.0,0.019579357257072823,0.2,0.02,0.0,0.08891636009063641,0.01958911659712678,0.0017783272018127283,0.0,0.021367443798939508,-10.11816809223667,-10.0,0.11816809223667145,40.001270578916085,40.0,-0.0012705789160811815,9.397565139166247,10.0,0.6024348608337537,0.09794558298563388,0,-0.09794558298563388,4.0032199135808995,1.8801502072533358,-0.021367443798939508,0.5195793572570728,0.033879756927490234,1.0473294258117676,STABILIZE
0.16,0.015,0.11,43.33487149840128,6.394009805941912,0.6500230724760191,-0.008763406845176626,7.035269471572755,0.17,0.015,0.08,-10.909404345877864,-1.717688654511716,-0.16364106518816796,-0.0021562467269839285,-1.883485966426868,0.002,8e-05,0,10.149600504617709,0.01880348255231523,0.0008119680403694167,0.0,0.019615450592684647,0.2,0.02,0.0,0.09338044774705002,0.02420682971162685,0.0018676089549410006,0.0,0.02607443866656785,-10.104050908892447,-10.0,0.1040509088924472,39.96256128713695,40.0,0.03743871286304712,9.401741276157615,10.0,0.598258723842384,0.12103414855813424,0,-0.12103414855813424,4.003969831583154,1.8750319926601042,-0.02607443866656785,0.5196154505926847,0.036882877349853516,1.084242582321167,STABILIZE
0.16,0.015,0.11,44.81256350601581,6.399018653353918,0.6721884525902372,0.006481667763860297,7.077688773708016,0.17,0.015,0.08,-11.28216626309087,-1.7151018969382092,-0.16923249394636306,0.005689047430802241,-1.87864534345377,0.002,8e-05,0,10.496845664481139,0.018796442727940336,0.0008397476531584912,-0.0,0.019636190381098827,0.2,0.02,0.0,0.09522719950081258,0.009996500335951012,0.0019045439900162518,-0.0,0.011901044325967263,-10.088834687871818,-10.0,0.08883468787181883,39.99386658346199,40.0,0.006133416538014171,9.398221363970167,10.0,0.6017786360298333,0.049982501679755056,0,-0.049982501679755056,4.001637331362541,1.8751551921710943,-0.011901044325967263,0.5196361903810989,0.03694796562194824,1.1211566925048828,STABILIZE
0.16,0.015,0.11,46.15001532329659,6.4007296872512,0.6922502298494488,0.01868007768762434,7.1116599947882735,0.17,0.015,0.08,-11.620923595168211,-1.722538684719123,-0.17431385392752316,-0.01364696785687519,-1.9104995065035213,0.002,8e-05,0,10.811232169155327,0.018807247929784297,0.0008648985735324262,0.0,0.019672146503316723,0.2,0.02,0.0,0.09949059359443357,0.02550450116305232,0.0019898118718886717,0.0,0.027494313034940994,-10.132580498347782,-10.0,0.132580498347781,40.00456054532,40.0,-0.004560545319996738,9.403623964892148,10.0,0.5963760351078512,0.1275225058152616,0,-0.1275225058152616,4.004242264178328,1.90159203146159,-0.027494313034940994,0.5196721465033167,0.0334324836730957,1.1545913219451904,STABILIZE
0.16,0.015,0.11,47.490856650717014,6.405713472253289,0.7123628497607551,0.026669811980169062,7.1447461339942135,0.17,0.015,0.08,-11.9593968565672,-1.7180801740588874,-0.17939095284850798,0.005751050725065131,-1.8917200761823303,0.002,8e-05,0,11.126756203515209,0.01884224214664544,0.0008901404962812167,0.0,0.019732382642926656,0.2,0.02,0.0,0.10183384266269012,0.013993249814887941,0.0020366768532538025,0.0,0.016029926668141743,-10.106353965052278,-10.0,0.10635396505227837,40.03570920158306,40.0,-0.03570920158305788,9.42112107332272,10.0,0.5788789266772801,0.0699662490744397,0,-0.0699662490744397,4.002307074777773,1.886834101296419,-0.016029926668141743,0.5197323826429266,0.03349113464355469,1.1881134510040283,STABILIZE
0.16,0.015,0.11,48.82811372808545,6.3958295623467425,0.7324217059212816,-0.01757592770445205,7.1106753405635725,0.17,0.015,0.08,-12.297413592178675,-1.7177071323481543,-0.1844612038826801,0.005356592867092961,-1.8968117433637415,0.002,8e-05,0,11.441613989718459,0.01882376219029504,0.0009153291191774768,0.0,0.019739091309472517,0.2,0.02,0.0,0.10693093306823125,0.030472937897875176,0.002138618661364625,0.0,0.0326115565592398,-10.104159602047966,-10.0,0.10415960204796688,39.97393476466714,40.0,0.02606523533285874,9.411881095147521,10.0,0.5881189048524796,0.15236468948937587,0,-0.15236468948937587,4.005029976697639,1.8861679870880816,-0.0326115565592398,0.5197390913094725,0.03345322608947754,1.2215394973754883,STABILIZE
0.16,0.015,0.11,50.16361221272418,6.385780174980006,0.7524541831908627,-0.03578106530747812,7.102453292863391,0.17,0.015,0.08,-12.635440271116105,-1.7173170508345321,-0.18953160406674158,0.00032965699528581373,-1.906518997905988,0.002,8e-05,0,11.756238336785284,0.01880498125957111,0.0009404990669428228,0.0,0.019745480326513933,0.2,0.02,0.0,0.11482329225040844,0.04717233993436718,0.0022964658450081686,0.0,0.04946880577937535,-10.101865004909012,-10.0,0.10186500490901214,39.911126093625036,40.0,0.0888739063749667,9.402490629785554,10.0,0.5975093702144467,0.2358616996718359,0,-0.2358616996718359,4.0078143917162485,1.890036637456684,-0.04946880577937535,0.5197454803265139,0.033461809158325195,1.2550206184387207,STABILIZE
0.16,0.015,0.11,51.49887378762966,6.386877222719731,0.7724831068144449,-0.04991171813793251,7.1094486113962425,0.17,0.015,0.08,-12.971380848198867,-1.7073148542943075,-0.194570712722983,0.021883291905808046,-1.8800022751114824,0.002,8e-05,0,12.07116446558589,0.01882959261201559,0.0009656931572468712,0.0,0.019795285769262462,0.2,0.02,0.0,0.12077261954659296,0.03557132897462,0.002415452390931859,0.0,0.037986781365551864,-10.043028554672397,-10.0,0.04302855467239605,39.917982641998314,40.0,0.0820173580016837,9.414796306007794,10.0,0.5852036939922064,0.1778566448731,0,-0.1778566448731,4.005816591801467,1.867576501049537,-0.037986781365551864,0.5197952857692625,0.03345012664794922,1.288466453552246,STABILIZE
0.16,0.015,0.11,52.833243304928466,6.386616157115742,0.7924986495739269,-0.05802261017636468,7.121092196513304,0.17,0.015,0.08,-13.307068451372137,-1.7070999318589664,-0.19960602677058206,0.043424107966995196,-1.8632818506625533,0.002,8e-05,0,12.385635462679199,0.01881418082606992,0.000990850837014336,0.0,0.019805031663084255,0.2,0.02,0.0,0.12712356485950183,0.0379964558378954,0.0025424712971900366,0.0,0.04053892713508543,-10.041764305052743,-10.0,0.04176430505274335,39.91635098197339,40.0,0.0836490180266145,9.40709041303496,10.0,0.5929095869650406,0.18998227918947697,0,-0.18998227918947697,4.006156299740995,1.8500083667524334,-0.04053892713508543,0.5198050316630842,0.03342914581298828,1.3218860626220703,STABILIZE
0.16,0.015,0.11,54.16873656489128,6.386710817211207,0.8125310484733692,-0.07809482706198445,7.121147038622592,0.17,0.015,0.08,-13.64261723074535,-1.7049833951772322,-0.20463925846118022,0.03684873610780544,-1.872773917530607,0.002,8e-05,0,12.70119582565692,0.01886374911177968,0.0010160956660525537,0.0,0.019879844777832233,0.2,0.02,0.0,0.13459139716275215,0.04464163802071158,0.002691827943255043,0.0,0.04733346596396663,-10.029314089277836,-10.0,0.029314089277835846,39.91694260757004,40.0,0.08305739242995976,9.43187455588984,10.0,0.5681254441101607,0.22320819010355789,0,-0.22320819010355789,4.0072654271001795,1.8571768744388755,-0.04733346596396663,0.5198798447778322,0.03345680236816406,1.3553569316864014,STABILIZE
0.16,0.015,0.11,55.50578774521238,6.389061935432066,0.8325868161781856,-0.027814952057037243,7.1938337995532144,0.17,0.015,0.08,-13.978256890007195,-1.7040850905589648,-0.2096738533501079,0.03832423068381118,-1.8754347132252616,0.002,8e-05,0,13.016580368053816,0.01883820347071297,0.0010413264294443054,0.0,0.019879529900157275,0.2,0.02,0.0,0.1423229945965534,0.04618152953999197,0.002846459891931068,0.0,0.04902798943192303,-10.024029944464498,-10.0,0.02402994446449889,39.93163709645041,40.0,0.0683629035495889,9.419101735356485,10.0,0.5808982646435162,0.2309076476999598,0,-0.2309076476999598,4.007525683230923,1.859299131881378,-0.04902798943192303,0.5198795299001573,0.03348350524902344,1.3888683319091797,STABILIZE
0.16,0.015,0.11,56.8434815254939,6.3833148438185825,0.8526522228824085,-0.010088262993757487,7.225878803707234,0.17,0.015,0.08,-14.3141085063759,-1.702809009557386,-0.2147116275956385,0.04080899760390357,-1.8767116395491208,0.002,8e-05,0,13.332132738603276,0.0188222274841799,0.0010665706190882622,0.0,0.019888798103268164,0.2,0.02,0.0,0.1491625222443986,0.04079676062896271,0.002983250444887972,-0.0,0.04378001107385068,-10.016523585631681,-10.0,0.016523585631681464,39.89571777386614,40.0,0.10428222613386406,9.41111374208995,10.0,0.5888862579100487,0.20398380314481354,0,-0.20398380314481354,4.006656084129361,1.8624590200936826,-0.04378001107385068,0.5198887981032682,0.03352975845336914,1.4223744869232178,STABILIZE
0.16,0.015,0.11,58.36258581568855,6.3886348700901285,0.8754387872353282,0.004629456533331771,7.2687031138587885,0.17,0.015,0.08,-14.693904990824123,-1.6970723453479608,-0.22040857486236184,0.026857696234983495,-1.890623223975339,0.002,8e-05,0,13.689806371230421,0.01880257873227388,0.0010951845096984338,-0.0,0.019897763241972316,0.2,0.02,0.0,0.15405739076204855,0.025731880209124636,0.0030811478152409713,-0.0,0.028813028024365608,-9.982778502046827,-10.0,-0.01722149795317371,39.9289679380633,40.0,0.07103206193669892,9.40128936613694,10.0,0.5987106338630607,0.12865940104562318,0,-0.12865940104562318,4.004235363099148,1.8816363442336952,-0.028813028024365608,0.5198977632419723,0.03804516792297363,1.4604220390319824,STABILIZE
0.16,0.015,0.11,59.695153709401936,6.3731296225014615,0.895427305641029,-0.05802393292389889,7.210532995218592,0.17,0.015,0.08,-15.021689727462274,-1.6656397312085924,-0.2253253459119341,0.11468165115538145,-1.776283425965145,0.002,8e-05,0,14.004778566384399,0.018829796934458007,0.001120382285310752,0.0,0.019950179219768757,0.2,0.02,0.0,0.16231512145010926,0.04936670423229331,0.0032463024290021853,0.0,0.052613006661295494,-9.79788077181525,-10.0,-0.20211922818475006,39.832060140634134,40.0,0.16793985936586292,9.414898467229003,10.0,0.5851015327709966,0.2468335211614665,0,-0.2468335211614665,4.007615189064865,1.7590347653571443,-0.052613006661295494,0.5199501792197687,0.03345465660095215,1.4938693046569824,STABILIZE
0.16,0.015,0.11,61.02530455152398,6.3642458265687845,0.9153795682728597,-0.09494108660507691,7.184684308236567,0.17,0.015,0.08,-15.350657809744282,-1.6723560842429723,-0.23025986714616423,0.08982460558978449,-1.812791345799352,0.002,8e-05,0,14.321326586223249,0.01893196386428304,0.00114570612689786,0.0,0.0200776699911809,0.2,0.02,0.0,0.16610074184839377,0.022640870924007326,0.0033220148369678755,-0.0,0.0259628857609752,-9.837388730841013,-10.0,-0.16261126915898758,39.7765364160549,40.0,0.2234635839450954,9.46598193214152,10.0,0.5340180678584803,0.11320435462003663,0,-0.11320435462003663,4.003573882875084,1.804884657745626,-0.0259628857609752,0.5200776699911809,0.033440589904785156,1.527303695678711,STABILIZE
0.16,0.015,0.11,62.362696432328406,6.396155205502306,0.9354404464849261,0.026551958689172452,7.358147610676404,0.17,0.015,0.08,-15.683096875688706,-1.6892786893385392,-0.23524645313533057,0.039691737185720256,-1.8848334052881497,0.002,8e-05,0,14.635074167523614,0.01875645289678515,0.0011708059334018892,-0.0,0.01992725883018704,0.2,0.02,0.0,0.16746101855337506,0.008132004026239878,0.0033492203710675014,-0.0,0.01148122439730738,-9.936933466697289,-10.0,-0.06306653330271167,39.97597003438941,40.0,0.024029965610587872,9.378226448392574,10.0,0.6217735516074252,0.04066002013119939,0,-0.04066002013119939,4.0013365670134435,1.8819943260199261,-0.01148122439730738,0.5199272588301871,0.03345489501953125,1.560781478881836,STABILIZE
0.16,0.015,0.11,63.697710288936044,6.38724019656921,0.9554656543340406,0.013464937482446994,7.356170788385698,0.17,0.015,0.08,-16.013392417439082,-1.6790325883020922,-0.24020088626158623,0.06494593660426438,-1.8542875379594141,0.002,8e-05,0,14.948131961595235,0.018722421084308036,0.0011958505569276189,-0.0,0.019918271641235656,0.2,0.02,0.0,0.16634325351891532,-0.006684793684990881,0.0033268650703783065,-0.0,-0.003357928614612575,-9.876662284129953,-10.0,-0.12333771587004616,39.92025122855756,40.0,0.07974877144243597,9.361210542154017,10.0,0.6387894578459824,-0.0334239684249544,0,0.0334239684249544,3.9989176054252353,1.8566206555060427,0.003357928614612575,0.5199182716412356,0.033442020416259766,1.5942208766937256,STABILIZE
0.16,0.015,0.11,65.02954023769006,6.37200710807038,0.9754431035653508,-0.0683945740065785,7.279055637629153,0.17,0.015,0.08,-16.33797065951561,-1.649969124657951,-0.24506955989273413,0.13254919201861792,-1.7624894925320673,0.002,8e-05,0,15.261713417429375,0.018753738675530093,0.0012209370733943501,-0.0,0.019974675748924444,0.2,0.02,0.0,0.17391615415958256,0.04528973157964597,0.0034783230831916512,0.0,0.04876805466283762,-9.705700733282065,-10.0,-0.2942992667179358,39.82504442543988,40.0,0.17495557456012517,9.376869337765045,10.0,0.6231306622349554,0.22644865789822982,0,-0.22644865789822982,4.006934583527901,1.7466666695778068,-0.04876805466283762,0.5199746757489244,0.033442020416259766,1.627669095993042,STABILIZE
0.16,0.015,0.11,66.35852839936284,6.356552830529397,0.9953779259904425,-0.06819051749896796,7.283740239020872,0.17,0.015,0.08,-16.656866355412028,-1.6206086210224135,-0.2498529953311804,0.1267268089702935,-1.7437348073833003,0.002,8e-05,0,15.575929756962255,0.018786216650175942,0.0012460743805569805,-0.0,0.020032291030732924,0.2,0.02,0.0,0.19033229438129337,0.09814803622981391,0.0038066458876258673,0.0,0.10195468211743978,-9.532991888367137,-10.0,-0.46700811163286204,39.72845519080873,40.0,0.2715448091912679,9.39310832508797,10.0,0.6068916749120289,0.49074018114906953,0,-0.49074018114906953,4.014788243054844,1.7094111389331328,-0.10195468211743978,0.5200322910307329,0.03345179557800293,1.66111421585083,STABILIZE
0.16,0.015,0.11,67.69041427000467,6.365694123425115,1.01535621405007,0.005884072776847849,7.3869344102520325,0.17,0.015,0.08,-16.97519243488727,-1.6165156521643238,-0.25462788652330903,0.15713696841928973,-1.714006570268343,0.002,8e-05,0,15.886852117169175,0.01857550902857077,0.0012709481693735341,-0.0,0.019846457197944305,0.2,0.02,0.0,0.20120224535881318,0.06494060844921722,0.004024044907176264,0.0,0.06896465335639348,-9.50891560096661,-10.0,-0.4910843990333904,39.785588271406965,40.0,0.21441172859303842,9.287754514285385,10.0,0.7122454857146148,0.3247030422460861,0,-0.3247030422460861,4.009649225648946,1.6913106190690854,-0.06896465335639348,0.5198464571979443,0.03347659111022949,1.6945931911468506,STABILIZE
0.16,0.015,0.11,69.02051193803908,6.359276132828804,1.0353076790705862,-0.1516335842844901,7.2429502276149,0.17,0.015,0.08,-17.29426259373951,-1.6208367630181557,-0.25941393890609266,0.19259218276186738,-1.687658519162381,0.002,8e-05,0,16.1947190983788,0.01839912955965139,0.0012955775278703041,-0.0,0.019694707087521697,0.2,0.02,0.0,0.21757195255018774,0.09783068073239738,0.0043514390510037545,0.0,0.10218211978340114,-9.534333900106798,-10.0,-0.4656660998932014,39.74547583018003,40.0,0.2545241698199758,9.199564779825696,10.0,0.8004352201743045,0.4891534036619869,0,-0.4891534036619869,4.0142621638632985,1.6534480811555317,-0.10218211978340114,0.5196947070875217,0.03346538543701172,1.7280704975128174,STABILIZE
0.16,0.015,0.11,70.35000326271215,6.366628073517891,1.0552500489406822,-0.0847228869334664,7.337155235525106,0.17,0.015,0.08,-17.613063964987965,-1.6220830704561884,-0.2641959594748195,0.16024528592783072,-1.7260337440031772,0.002,8e-05,0,16.502987047914885,0.018452803576631642,0.001320238963833191,-0.0,0.019773042540464834,0.2,0.02,0.0,0.22562415966405053,0.04820020908890254,0.00451248319328101,0.0,0.052712692282183546,-9.541665120330519,-10.0,-0.45833487966948155,39.79142545948682,40.0,0.20857454051318608,9.22640178831582,10.0,0.7735982116841792,0.24100104544451267,0,-0.24100104544451267,4.007224743073775,1.709193477618888,-0.052712692282183546,0.5197730425404649,0.033411502838134766,1.7614712715148926,STABILIZE
0.16,0.015,0.11,71.68309031856724,6.374295175673318,1.0752463547785085,0.009414974095499842,7.458956504547326,0.17,0.015,0.08,-17.932791807988746,-1.6243628768320415,-0.2689918771198312,0.07203801185782292,-1.8213167420940497,0.002,8e-05,0,16.812812117073637,0.0185182621323116,0.0013450249693658912,-0.0,0.01986328710167749,0.2,0.02,0.0,0.22531561214948645,-0.0018441902621002316,0.004506312242989729,-0.0,0.0026621219808894976,-9.555075746070832,-10.0,-0.4449242539291682,39.83934484795824,40.0,0.16065515204176056,9.259131066155799,10.0,0.7408689338442018,-0.009220951310501158,0,0.009220951310501158,3.9997068328411722,1.8219604623470071,-0.0026621219808894976,0.5198632871016775,0.033461570739746094,1.7949602603912354,STABILIZE
0.16,0.015,0.11,73.01607026395196,6.377009051344875,1.0952410539592794,0.08409559521218152,7.556345700516336,0.17,0.015,0.08,-18.25162460827877,-1.6206355085288449,-0.27377436912418157,-7.935335874684313e-05,-1.8944892310117734,0.002,8e-05,0,17.12165721468396,0.018469032390019353,0.001369732577174717,-0.0,0.01983876496719407,0.2,0.02,0.0,0.22603659523655512,0.004311501167011712,0.004520731904731103,-0.0,0.008832233071742815,-9.533150050169676,-10.0,-0.46684994983032496,39.85630657090547,40.0,0.14369342909453175,9.234516195009677,10.0,0.7654838049903236,0.02155750583505856,0,-0.02155750583505856,4.000712517397195,1.8929840991305174,-0.008832233071742815,0.5198387649671941,0.03344464302062988,1.828385353088379,STABILIZE
0.16,0.015,0.11,74.34738519337323,6.367954080134946,1.1152107779005984,0.009328051891537266,7.492492909927082,0.17,0.015,0.08,-18.571880912837415,-1.6275927532237306,-0.2785782136925612,-0.031161773824708,-1.937332740741,0.002,8e-05,0,17.430069842893975,0.018440015682736142,0.0013944055874315182,-0.0,0.01983442127016766,0.2,0.02,0.0,0.22633542775478926,0.0017867220141831062,0.004526708555095785,-0.0,0.0063134305692788915,-9.574075018963121,-10.0,-0.42592498103687937,39.79971300084341,40.0,0.20028699915659012,9.220007841368071,10.0,0.7799921586319286,0.00893361007091553,0,-0.00893361007091553,4.00030202205969,1.936709033554652,-0.0063134305692788915,0.5198344212701677,0.03345036506652832,1.8618407249450684,STABILIZE
0.16,0.015,0.11,75.67802712894112,6.366459343285318,1.1351704069341169,0.029551915647830555,7.531181665867266,0.17,0.015,0.08,-18.892311904957584,-1.628921730146299,-0.2833846785743637,-0.02274942373817649,-1.9350558324588392,0.002,8e-05,0,17.73834162151338,0.018436587755152757,0.0014190673297210705,0.0,0.019855655084873827,0.2,0.02,0.0,0.2292826255877959,0.017626093352874416,0.004585652511755918,-0.0,0.022211745864630334,-9.581892530272347,-10.0,-0.4181074697276532,39.790370895533236,40.0,0.20962910446676133,9.218293877576379,10.0,0.7817061224236204,0.08813046676437208,0,-0.08813046676437208,4.002971705582223,1.9289008784904211,-0.022211745864630334,0.5198556550848739,0.03344130516052246,1.8952960968017578,STABILIZE
0.16,0.015,0.11,77.10768373154777,6.369127804658269,1.1566152559732163,0.009512371055166403,7.535255431686651,0.17,0.015,0.08,-19.236412764377135,-1.628781865553391,-0.288546191465657,-0.018872143098400726,-1.9362002001174488,0.002,8e-05,0,18.07024178378359,0.018482712457239366,0.0014456193427026874,0.0,0.019928331799942054,0.2,0.02,0.0,0.2291842273737435,-0.0005479557118010336,0.00458368454747487,-0.0,0.004035728835673836,-9.581069797372887,-10.0,-0.4189302026271126,39.807048779114176,40.0,0.1929512208858209,9.241356228619683,10.0,0.758643771380318,-0.002739778559005168,0,0.002739778559005168,3.9999074099024465,1.9363914705302623,-0.004035728835673836,0.519928331799942,0.03591465950012207,1.9311883449554443,STABILIZE
0.16,0.015,0.11,78.44030358522679,6.370336395669427,1.1766045537784018,-0.017028231941763505,7.529912717506066,0.17,0.015,0.08,-19.55670508596997,-1.6267902223614858,-0.2933505762895495,-0.006859316596114502,-1.92700011524715,0.002,8e-05,0,18.379245046266963,0.018464143430926908,0.0014703396037013571,-0.0,0.019934483034628265,0.2,0.02,0.0,0.2294805390311135,0.0017705770799847137,0.00458961078062227,0.0,0.006360187860606984,-9.56935424918521,-10.0,-0.4306457508147901,39.81460247293392,40.0,0.18539752706607698,9.232071715463453,10.0,0.7679282845365467,0.008852885399923568,0,-0.008852885399923568,4.000297696889875,1.926382044252928,-0.006360187860606984,0.5199344830346283,0.03347063064575195,1.9646790027618408,STABILIZE
0.16,0.015,0.11,79.77242126251694,6.371930037296419,1.1965863189377541,-0.021634798681798226,7.546881557552375,0.17,0.015,0.08,-19.8766291408892,-1.6259389752631643,-0.29814943711333797,-0.014953460473564592,-1.939041872850067,0.002,8e-05,0,18.68805071996141,0.018463910710050237,0.001495044057596913,-0.0,0.01995895476764715,0.2,0.02,0.0,0.23028937080476802,0.00483611504592538,0.0046057874160953605,0.0,0.00944190246202074,-9.56434691331273,-10.0,-0.4356530866872688,39.82456273310262,40.0,0.17543726689738642,9.231955355025118,10.0,0.7680446449748819,0.024180575229626897,0,-0.024180575229626897,4.000817978863342,1.9373535776077988,-0.00944190246202074,0.5199589547676472,0.033449649810791016,1.9981248378753662,STABILIZE
0.16,0.015,0.11,81.10582506534709,6.377627395530603,1.2165873759802064,0.039004486156405796,7.633219257667216,0.17,0.015,0.08,-20.196453786369357,-1.6253179025580893,-0.30294680679554037,0.006369191301728089,-1.9218955180519015,0.002,8e-05,0,18.997265175478454,0.018487034632850084,0.0015197812140382765,0.0,0.020006815846888362,0.2,0.02,0.0,0.23033744255708374,0.0002874070516646128,0.004606748851141675,-0.0,0.004894155902806288,-9.560693544459347,-10.0,-0.43930645554065273,39.86017122206627,40.0,0.13982877793372722,9.243517316425041,10.0,0.7564826835749582,0.001437035258323064,0,-0.001437035258323064,4.000048201797076,1.9217951934605217,-0.004894155902806288,0.5200068158468883,0.03345203399658203,2.0315849781036377,STABILIZE
0.16,0.015,0.11,82.43779815084339,6.374327935978865,1.2365669722626509,0.03158084844867146,7.642475756690187,0.17,0.015,0.08,-20.516738584329826,-1.6285617026899672,-0.3077510787649474,0.000977939393527017,-1.9353348420613876,0.002,8e-05,0,19.306806626022667,0.018516878616321595,0.0015445445300818134,0.0,0.02006142314640341,0.2,0.02,0.0,0.23100665184616234,0.004003233542065941,0.004620133036923247,-0.0,0.008623366578989187,-9.57977472170569,-10.0,-0.42022527829431083,39.83954959986791,40.0,0.1604504001320949,9.258439308160797,10.0,0.7415606918392019,0.020016167710329703,0,-0.020016167710329703,4.000675861312964,1.9339373318710589,-0.008623366578989187,0.5200614231464034,0.03343343734741211,2.065013885498047,STABILIZE
0.16,0.015,0.11,83.76925662010461,6.373592311636883,1.2565388493015692,0.018338405211308844,7.648469566149761,0.17,0.015,0.08,-20.837336334694367,-1.6305948452597099,-0.3125600450204155,-0.005113589568491687,-1.9482684798486172,0.002,8e-05,0,19.615720154420824,0.01848432503729901,0.0015692576123536662,0.0,0.020053582649652676,0.2,0.02,0.0,0.23222773191934726,0.007306523960396896,0.004644554638386945,0.0,0.011951078598783842,-9.591734383880645,-10.0,-0.40826561611935547,39.83495194773052,40.0,0.16504805226948593,9.242162518649504,10.0,0.7578374813504953,0.03653261980198448,0,-0.03653261980198448,4.00124143104385,1.9457176259852833,-0.011951078598783842,0.5200535826496526,0.03342437744140625,2.098421812057495,STABILIZE
0.16,0.015,0.11,85.10337245083623,6.378714428345566,1.2765505867625435,0.03441952627698443,7.689684541385094,0.17,0.015,0.08,-21.15903640169575,-1.634254584530441,-0.3173855460254362,-0.021006958433183023,-1.9726470889890604,0.002,8e-05,0,19.925473471281023,0.018512522544617726,0.001594037877702482,0.0,0.02010656042232021,0.2,0.02,0.0,0.23261863146046652,0.0023362256911414977,0.004652372629209331,0.0,0.006988598320350828,-9.61326226194377,-10.0,-0.38673773805622885,39.866965177159784,40.0,0.13303482284021562,9.256261272308862,10.0,0.7437387276911388,0.011681128455707488,0,-0.011681128455707488,4.000402088620141,1.9718315513908953,-0.006988598320350828,0.5201065604223202,0.03346419334411621,2.1319594383239746,STABILIZE
0.16,0.015,0.11,86.43631494231701,6.377057173249457,1.2965447241347552,0.021054945807924587,7.694656843192138,0.17,0.015,0.08,-21.48090933584023,-1.636146907291328,-0.32221364003760344,-0.02872755798826069,-1.987088105317192,0.002,8e-05,0,20.235220258411346,0.0185236139535738,0.0016188176206729079,0.0,0.020142431574246708,0.2,0.02,0.0,0.23355369068102413,0.005591882384255791,0.004671073813620483,0.0,0.010262956197876275,-9.624393572301928,-10.0,-0.3756064276980719,39.856607332809105,40.0,0.14339266719089647,9.2618069767869,10.0,0.7381930232130998,0.027959411921278952,0,-0.027959411921278952,4.000969190499685,1.9851359336240333,-0.010262956197876275,0.5201424315742467,0.033443450927734375,2.1653473377227783,STABILIZE
0.16,0.015,0.11,87.77039404258873,6.379584205433928,1.316555910638831,0.008021682751919121,7.704161798824678,0.17,0.015,0.08,-21.80301094458144,-1.6365626155188056,-0.3270451641687216,-0.031644318611441846,-1.995252098298969,0.002,8e-05,0,20.545171946063828,0.01852741425332856,0.0016436137556851064,0.0,0.020171028009013665,0.2,0.02,0.0,0.23500027699758227,0.00864699403415391,0.004700005539951645,0.0,0.013346999574105557,-9.626838914816503,-10.0,-0.3731610851834964,39.87240128396205,40.0,0.12759871603795322,9.26370712666428,10.0,0.7362928733357215,0.04323497017076955,0,-0.04323497017076955,4.0015044634688035,1.9922331602013057,-0.013346999574105557,0.5201710280090137,0.033458709716796875,2.198812484741211,STABILIZE
0.16,0.015,0.11,89.10454306161718,6.3821469611377655,1.3365681459242575,0.03212663535431599,7.7508417424163385,0.17,0.015,0.08,-22.12514046676152,-1.637276115232758,-0.33187710700142276,-0.024520516050921995,-1.9936737382851029,0.002,8e-05,0,20.855203064666984,0.0185386352389273,0.0016684162451733589,0.0,0.02020705148410066,0.2,0.02,0.0,0.2369646663995908,0.011746272037183772,0.004739293327991816,0.0,0.01648556536517559,-9.631035971957399,-10.0,-0.3689640280426008,39.888418507111034,40.0,0.11158149288896696,9.26931761946365,10.0,0.73068238053635,0.05873136018591886,0,-0.05873136018591886,4.002041524613073,1.9895724691501853,-0.01648556536517559,0.5202070514841006,0.0334470272064209,2.23225474357605,STABILIZE
0.16,0.015,0.11,90.43797974137841,6.384018148883022,1.3565696961206761,0.04285159825870004,7.783439443262398,0.17,0.015,0.08,-22.44725121961723,-1.6385355833572746,-0.33670876829425844,-0.02234250512261826,-1.9975868567741513,0.002,8e-05,0,21.16535231733354,0.018561046879259503,0.0016932281853866832,0.0,0.020254275064646186,0.2,0.02,0.0,0.2378406027874427,0.005242087871689408,0.004756812055748854,-0.0,0.009998899927438262,-9.638444607983967,-10.0,-0.3615553920160334,39.900113430518886,40.0,0.09988656948111303,9.280523439629752,10.0,0.7194765603702474,0.026210439358447038,0,-0.026210439358447038,4.000913394449243,1.995756813961429,-0.009998899927438262,0.5202542750646462,0.03341937065124512,2.2656726837158203,STABILIZE
0.16,0.015,0.11,91.77308968241957,6.3828308476971385,1.3765963452362935,0.016927510695297313,7.776354703628729,0.17,0.015,0.08,-22.770771245207115,-1.6433361640771407,-0.3415615686781067,-0.02554976160352646,-2.0104474943587736,0.002,8e-05,0,21.47616385081438,0.018573914614987527,0.0017180931080651505,0.0,0.020292007723052678,0.2,0.02,0.0,0.23954532039671242,0.010187292267644678,0.004790906407934248,0.0,0.014978198675578926,-9.666683318100826,-10.0,-0.333316681899174,39.89269279810711,40.0,0.1073072018928837,9.286957307493763,10.0,0.7130426925062371,0.05093646133822338,0,-0.05093646133822338,4.001785724926239,2.006890664523119,-0.014978198675578926,0.5202920077230527,0.03346753120422363,2.2991738319396973,STABILIZE
0.16,0.015,0.11,93.10783036746254,6.386889451161568,1.396617455511938,0.04043100593039907,7.823937912603904,0.17,0.015,0.08,-23.09427544653496,-1.6447555646180065,-0.34641413169802443,-0.024219617540779396,-2.0153893138568106,0.002,8e-05,0,21.787017748066226,0.018593400758087762,0.0017429614198452982,0.0,0.02033636217793306,0.2,0.02,0.0,0.24114332320342924,0.009558286661518948,0.004822866464068585,0.0,0.014381153125587534,-9.675032733047097,-10.0,-0.3249672669529033,39.9180590697598,40.0,0.08194093024020288,9.29670037904388,10.0,0.70329962095612,0.047791433307594736,0,-0.047791433307594736,4.001679680532473,2.012052141675694,-0.014381153125587534,0.5203363621779331,0.03343701362609863,2.3325891494750977,STABILIZE
0.16,0.015,0.11,94.44311539969488,6.386443185851191,1.4166467309954232,0.028211798892156217,7.831301715738771,0.17,0.015,0.08,-23.41830587814461,-1.6466443570168932,-0.35127458817216917,-0.02836423710848412,-2.0262831822975467,0.002,8e-05,0,22.098134044768145,0.01860020992818912,0.0017678507235814518,0.0,0.020368060651770572,0.2,0.02,0.0,0.24278031928979843,0.009786845363251343,0.004855606385795969,0.0,0.014642451749047311,-9.68614327656996,-10.0,-0.3138567234300415,39.91526991156994,40.0,0.0847300884300557,9.30010496409456,10.0,0.6998950359054404,0.04893422681625671,0,-0.04893422681625671,4.001729115194303,2.022866190203419,-0.014642451749047311,0.5203680606517705,0.03345298767089844,2.366051435470581,STABILIZE
0.16,0.015,0.11,95.77766507833529,6.3870229268676235,1.4366649761750292,0.02006077350571327,7.843748676548366,0.17,0.015,0.08,-23.74223074861881,-1.647164457702787,-0.35613346122928213,-0.02782070388967381,-2.031118622821743,0.002,8e-05,0,22.409055818992343,0.018600511208164996,0.0017927244655193877,0.0,0.02039323567368438,0.2,0.02,0.0,0.24468557149623787,0.011397936059217267,0.0048937114299247575,-0.0,0.016291647489142025,-9.689202692369335,-10.0,-0.3107973076306657,39.91889329292265,40.0,0.08110670707735158,9.300255604082498,10.0,0.6997443959175024,0.05698968029608634,0,-0.05698968029608634,4.0020182884748365,2.0271389884973927,-0.016291647489142025,0.5203932356736843,0.0334315299987793,2.399503707885742,STABILIZE
0.16,0.015,0.11,97.11303403443112,6.3892579916053664,1.4566955105164667,0.021552132222357304,7.867505634344191,0.17,0.015,0.08,-24.066585080001975,-1.648913180768553,-0.3609987762000296,-0.029195483251297047,-2.0391074402198797,0.002,8e-05,0,22.720624253260574,0.018634279869740592,0.0018176499402608461,0.0,0.020451929810001438,0.2,0.02,0.0,0.24583768850096335,0.006890579515593506,0.004916753770019267,0.0,0.011807333285612773,-9.699489298638547,-10.0,-0.300510701361453,39.93286244753354,40.0,0.06713755246646563,9.317139934870296,10.0,0.6828600651297049,0.03445289757796753,0,-0.03445289757796753,4.001225425711301,2.0367018057146926,-0.011807333285612773,0.5204519298100014,0.033440351486206055,2.4329121112823486,STABILIZE
0.16,0.015,0.11,98.44883361644949,6.389678354961134,1.4767325042467423,0.028158117236618013,7.894568976444495,0.17,0.015,0.08,-24.391467065566207,-1.651171802049969,-0.3658720059834931,-0.02205049685911928,-2.0390943048925814,0.002,8e-05,0,23.032132003571455,0.018625869819450927,0.0018425705602857164,0.0,0.020468440379736642,0.2,0.02,0.0,0.24692094791570196,0.006477093690118438,0.004938418958314039,-0.0,0.011415512648432477,-9.712775306176288,-10.0,-0.2872246938237114,39.935489718507085,40.0,0.06451028149291152,9.312934909725463,10.0,0.6870650902745359,0.03238546845059219,0,-0.03238546845059219,4.00115192446372,2.036833047062432,-0.011415512648432477,0.5204684403797366,0.03344893455505371,2.4663782119750977,STABILIZE
0.16,0.015,0.11,99.78452336901915,6.390337277045622,1.4967678505352873,0.014177452069614689,7.901282579650524,0.17,0.015,0.08,-24.71673974994606,-1.6534639057915574,-0.3707510962491909,-0.024505855517358663,-2.048720857558107,0.002,8e-05,0,23.34391548162895,0.018645811820865173,0.0018675132385303163,0.0,0.020513325059395487,0.2,0.02,0.0,0.24793267306104746,0.00605049273042977,0.00495865346122095,-0.0,0.01100914619165072,-9.726258269362102,-10.0,-0.2737417306378974,39.93960798153513,40.0,0.060392018464866595,9.322905910432587,10.0,0.6770940895674127,0.030252463652148846,0,-0.030252463652148846,4.001081177427273,2.046608551685157,-0.01100914619165072,0.5205133250593955,0.03344273567199707,2.499882698059082,STABILIZE
0.16,0.015,0.11,101.22816744208212,6.390925231119616,1.5184225116312318,0.018248525395832604,7.92759626814668,0.17,0.015,0.08,-25.068771068444683,-1.6558227508159133,-0.3760315660266702,-0.025334496126860402,-2.057188812969444,0.002,8e-05,0,23.681330246994104,0.018671435168480164,0.0018945064197595286,0.0,0.020565941588239694,0.2,0.02,0.0,0.24895500993433606,0.005657279588608644,0.004979100198686721,-0.0,0.010636379787295366,-9.7401338283289,-10.0,-0.2598661716710985,39.9432826944976,40.0,0.056717305502402504,9.335717584240081,10.0,0.6642824157599195,0.028286397943043218,0,-0.028286397943043218,4.001015127642404,2.05521379923921,-0.010636379787295366,0.5205659415882397,0.03614234924316406,2.536020040512085,STABILIZE
0.16,0.015,0.11,102.56500532763191,6.393004528679221,1.5384750799144786,0.024409384725445276,7.955888993319145,0.17,0.015,0.08,-25.39479384919087,-1.656544677040177,-0.380921907737863,-0.025901104019280256,-2.0633676887973205,0.002,8e-05,0,23.993883738768606,0.018683603206187623,0.0019195106991014886,0.0,0.02060311390528911,0.2,0.02,0.0,0.2504345414086042,0.008844239377826496,0.005008690828172084,-0.0,0.01385293020599858,-9.744380453177511,-10.0,-0.2556195468224896,39.95627830424513,40.0,0.04372169575487023,9.341801603093812,10.0,0.6581983969061891,0.04422119688913248,0,-0.04422119688913248,4.001591326974094,2.060279852607044,-0.01385293020599858,0.5206031139052891,0.03345751762390137,2.5694475173950195,STABILIZE
0.16,0.015,0.11,103.90082973707423,6.394674196161233,1.5585124460561135,0.022088061956390657,7.975274704173737,0.17,0.015,0.08,-25.72132456992242,-1.6608179614148832,-0.38581986854883626,-0.0330125563420678,-2.0796503863057874,0.002,8e-05,0,24.306382017090083,0.01869935770189859,0.0019445105613672068,0.0,0.020643868263265797,0.2,0.02,0.0,0.2511568190061563,0.004321984501559294,0.005023136380123126,-0.0,0.00934512088168242,-9.769517420087547,-10.0,-0.23048257991245188,39.966713726007704,40.0,0.033286273992292406,9.349678850949296,10.0,0.6503211490507039,0.02160992250779647,0,-0.02160992250779647,4.000784085355419,2.0781415812279525,-0.00934512088168242,0.5206438682632658,0.033423423767089844,2.602858543395996,STABILIZE
0.16,0.015,0.11,105.23772690360792,6.394974135094521,1.5785659035541189,0.021593036798019837,7.99513307544666,0.17,0.015,0.08,-26.048432611231647,-1.6624973002140273,-0.3907264891684747,-0.03138262168681856,-2.0846064110693208,0.002,8e-05,0,24.619215637448104,0.018705280414018047,0.0019695372509958486,0.0,0.020674817665013896,0.2,0.02,0.0,0.2521314137983093,0.005827400794198658,0.005042628275966186,-0.0,0.010870029070164844,-9.779395883611924,-10.0,-0.22060411638807578,39.96858834434075,40.0,0.031411655659249194,9.352640207009022,10.0,0.6473597929909782,0.029137003970993287,0,-0.029137003970993287,4.001059581503331,2.08257199499362,-0.010870029070164844,0.5206748176650139,0.03344869613647461,2.636323928833008,STABILIZE
0.16,0.015,0.11,106.57410875624171,6.396475782269696,1.5986116313436256,0.025060636030736372,8.020148049644057,0.17,0.015,0.08,-26.375569683815524,-1.6636765386518846,-0.3956335452572328,-0.02825216053007771,-2.0875622444391952,0.002,8e-05,0,24.932075073582727,0.018718431810354597,0.001994566005886618,0.0,0.020712997816241214,0.2,0.02,0.0,0.2525701491472416,0.0026249608492700557,0.005051402982944831,-0.0,0.0076763638322148876,-9.786332580305203,-10.0,-0.2136674196947979,39.9779736391856,40.0,0.022026360814403557,9.359215905177297,10.0,0.6407840948227027,0.013124804246350277,0,-0.013124804246350277,4.000478095119365,2.086645905485199,-0.0076763638322148876,0.5207129978162413,0.03342795372009277,2.669745683670044,STABILIZE
0.16,0.015,0.11,107.91983482671966,6.397216697831627,1.6187975224007949,0.025850637451571276,8.041864857683994,0.17,0.015,0.08,-26.705250123999612,-1.6651620951016877,-0.40057875185999414,-0.026263612149518993,-2.092004459111201,0.002,8e-05,0,25.247237845995674,0.018727479113737466,0.002019779027679654,0.0,0.02074725814141712,0.2,0.02,0.0,0.25306084640489,0.0029158020706007647,0.0050612169280978,-0.0,0.007977018998698565,-9.795071147656985,-10.0,-0.20492885234301456,39.98260436144767,40.0,0.017395638552328525,9.363739556868733,10.0,0.6362604431312661,0.014579010353003822,0,-0.014579010353003822,4.000532184661577,2.0909865844686855,-0.007977018998698565,0.5207472581414171,0.03365778923034668,2.703413248062134,STABILIZE
0.16,0.015,0.11,109.25914894917996,6.398007509732052,1.6388872342376992,0.02055189159819304,8.057446635567945,0.17,0.015,0.08,-27.033602995180555,-1.6666025965858036,-0.4055040449277083,-0.028280673013448682,-2.1003873145269605,0.002,8e-05,0,25.560928375268098,0.018731550055729098,0.002044874270021448,0.0,0.020776424325750546,0.2,0.02,0.0,0.2535986270682216,0.003211274958655405,0.0050719725413644326,-0.0,0.008283247500019839,-9.803544685798844,-10.0,-0.1964553142011554,39.98754693582532,40.0,0.01245306417468114,9.365775027864549,10.0,0.6342249721354515,0.016056374793277026,0,-0.016056374793277026,4.0005884483396565,2.099266285642934,-0.008283247500019839,0.5207764243257506,0.0334932804107666,2.7368996143341064,STABILIZE
0.16,0.015,0.11,110.60451568057977,6.399134814242905,1.6590677352086964,0.018290993481770407,8.076493542933372,0.17,0.015,0.08,-27.363748650526006,-1.6684573167364904,-0.4104562297578901,-0.02143676637083729,-2.100350312865218,0.002,8e-05,0,25.875983030737626,0.01873166965510851,0.0020700786424590104,0.0,0.020801748297567518,0.2,0.02,0.0,0.2546860365663737,0.0064652259998685575,0.005093720731327474,0.0,0.011558946731196031,-9.814454804332296,-10.0,-0.18554519566770283,39.994592589018154,40.0,0.005407410981844295,9.365834827554254,10.0,0.6341651724457461,0.032326129999342784,0,-0.032326129999342784,4.001184375491462,2.098093189082891,-0.011558946731196031,0.5208017482975675,0.033638715744018555,2.7705719470977783,STABILIZE
