E-kp,E-ki,E-kd,E-I-Tot,E-P,E-I,E-D,E-PID,N-kp,N-ki,N-kd,N-I-Tot,N-P,N-I,N-D,N-PID,D-kp,D-ki,D-kd,D-I-Tot,D-P,D-I,D-D,D-PID,Y-kp,Y-ki,Y-kd,Y-I-Tot,Y-P,Y-I,Y-D,Y-PID,errorN,desiredN,actualN,errorE,desiredE,actualE,errorD,desiredD,actualD,errorY,desiredY,actualY,roll,pitch,yaw-rate,thrust,dt,Time,Mode
0.035,0.005,0.05,-0.0029531618372858177,-0.003133817517508811,-1.4765809186429088e-05,-0.13573569651306713,-0.13888427983976237,0.04,0.006,0.04,-0.0029708296156522335,-0.0036029326837885836,-1.7824977693913402e-05,-0.10923820618590113,-0.11285896384738363,0.002,8e-05,0,-0.004222549311806625,-0.00025604903162844303,-3.3780394494453e-07,-0.0,-0.00025638683557338755,0.1,0.02,0,-0.0031681660242465553,-0.00960564084211238,-6.336332048493111e-05,-0.0,-0.00966900416259731,-0.09007331709471458,0.0,0.09007331709471458,-0.0895376433573946,0.0,0.0895376433573946,-0.1280245158142215,0.0,0.1280245158142215,-0.0960564084211238,0,0.0960564084211238,-0.13907329269332458,0.11262596577499942,0.00966900416259731,0.4,0.03298234939575195,0.03329586982727051,STABILIZE
0.035,0.005,0.05,-0.006429307623295353,-0.00357914674362798,-3.2146538116476766e-05,-0.07722549487722576,-0.08083678815897022,0.04,0.006,0.04,-0.006565220603838221,-0.004229595022812378,-3.9391323623029324e-05,-0.06383668654043421,-0.06810567288686963,0.002,8e-05,0,-0.00948680751727583,-0.0003097281344438378,-7.589446013820664e-07,-0.0,-0.00031048707904521983,0.1,0.02,0,-0.007030505553966091,-0.011362239183916488,-0.00014061011107932182,-0.0,-0.01150284929499581,-0.10573987557030944,0.0,0.10573987557030944,-0.10226133553222799,0.0,0.10226133553222799,-0.1548640672219189,0.0,0.1548640672219189,-0.11362239183916487,0,0.11362239183916487,-0.08097168844762045,0.06794523286569121,0.01150284929499581,0.4,0.033992767333984375,0.06722235679626465,STABILIZE
0.035,0.005,0.05,-0.010676667216106973,-0.004445486935040321,-5.338333608053487e-05,-0.06382043219294324,-0.06831930246406409,0.04,0.006,0.04,-0.011226100356748404,-0.005575196164539691,-6.735660214049043e-05,-0.05597083520542591,-0.06161338797210609,0.002,8e-05,0,-0.01684110640997403,-0.00043984892502159774,-1.3472885127979224e-06,-0.0,-0.00044119621353439566,0.1,0.02,0,-0.011959358753371278,-0.014739343702090416,-0.00023918717506742556,-0.0,-0.014978530877157841,-0.13937990411349227,0.0,0.13937990411349227,-0.12701391242972343,0.0,0.12701391242972343,-0.21992446251079886,0.0,0.21992446251079886,-0.14739343702090416,0,0.14739343702090416,-0.06847757671710228,0.06143743283643052,0.014978530877157841,0.4,0.03344011306762695,0.10065960884094238,STABILIZE
0.035,0.005,0.05,-0.01530518588630591,-0.0047500402183729105,-7.652592943152955e-05,-0.05105460287940883,-0.05588116902721327,0.04,0.006,0.04,-0.01623563552130021,-0.0058754974669007086,-9.741381312780125e-05,-0.044179452828792466,-0.05015236410882098,0.002,8e-05,0,-0.025358807014271116,-0.0004995047113202936,-2.0287045611416896e-06,-0.0,-0.0005015334158814353,0.1,0.02,0,-0.01723979305473391,-0.015483062471210108,-0.00034479586109467826,-0.0,-0.015827858332304785,-0.14688743667251772,0.0,0.14688743667251772,-0.13571543481065457,0.0,0.13571543481065457,-0.24975235566014678,0.0,0.24975235566014678,-0.15483062471210107,0,0.15483062471210107,-0.05601649177110435,0.05000117325832997,0.015827858332304785,0.4,0.03410458564758301,0.134779691696167,STABILIZE
0.035,0.005,0.05,-0.020149869786760435,-0.005068000863555145,-0.00010074934893380217,-0.04355892412991109,-0.04872767434240004,0.04,0.006,0.04,-0.021507749110873463,-0.0063030091831375494,-0.00012904649466524077,-0.03789909357657478,-0.044331149254377575,0.002,8e-05,0,-0.03476835134560288,-0.0005624731269714984,-2.781468107648231e-06,-0.0,-0.0005652545950791466,0.1,0.02,0,-0.022582754203545344,-0.01596927523181056,-0.0004516550840709069,-0.0,-0.016420930315881464,-0.15757522957843872,0.0,0.15757522957843872,-0.14480002467300415,0.0,0.14480002467300415,-0.2812365634857492,0.0,0.2812365634857492,-0.15969275231810556,0,0.15969275231810556,-0.04885104311476583,0.044195165206526624,0.016420930315881464,0.4,0.03345775604248047,0.16823220252990723,STABILIZE
0.035,0.005,0.05,-0.025166884464152214,-0.00524797609755242,-0.00012583442232076106,-0.017948605291589894,-0.023322415811463076,0.04,0.006,0.04,-0.02699618529283301,-0.006561256899454939,-0.00016197711175699808,-0.017595088408285674,-0.024318322419497614,0.002,8e-05,0,-0.0450181249791319,-0.0006126644798376127,-3.6014499983305523e-06,-0.0,-0.0006162659298359433,0.1,0.02,0,-0.02791116117057527,-0.015924867219211547,-0.0005582232234115054,-0.0,-0.01648309044262305,-0.16403142248637348,0.0,0.16403142248637348,-0.1499421742157834,0.0,0.1499421742157834,-0.30633223991880637,0.0,0.30633223991880637,-0.15924867219211547,0,0.15924867219211547,-0.023389916317530648,0.024253405930721082,0.01648309044262305,0.4,0.03345966339111328,0.20172572135925293,STABILIZE
0.035,0.005,0.05,-0.030351997064217807,-0.005402831019354036,-0.00015175998532108902,-0.01552274784172146,-0.021077338846396586,0.04,0.006,0.04,-0.03269867951887651,-0.0067907852055992205,-0.0001961920771132591,-0.015274717899823763,-0.02226169518253624,0.002,8e-05,0,-0.0561443492044936,-0.0006624802750233377,-4.491547936359488e-06,-0.0,-0.0006669718229596972,0.1,0.02,0,-0.033196162493105565,-0.015734039952510277,-0.0006639232498621113,-0.0,-0.016397963202372388,-0.1697696301399805,0.0,0.1697696301399805,-0.15436660055297244,0.0,0.15436660055297244,-0.3312401375116688,0.0,0.3312401375116688,-0.15734039952510276,0,0.15734039952510276,-0.021138392315991614,0.022203730667192,0.016397963202372388,0.4,0.03358960151672363,0.2353518009185791,STABILIZE
0.035,0.005,0.05,-0.035355822423896704,-0.0052398921815082185,-0.00017677911211948352,-0.0067278224160208155,-0.012144493709648516,0.04,0.006,0.04,-0.03880287781400158,-0.00730534595248811,-0.00023281726688400948,-0.01030595606909428,-0.0178441192884664,0.002,8e-05,0,-0.06791470613157954,-0.0007043228707469918,-5.433176490526364e-06,-0.0,-0.0007097560472375182,0.1,0.02,0,-0.03873744506946548,-0.01657915760745054,-0.0007747489013893096,-0.0,-0.017353906508839848,-0.18263364881220273,0.0,0.18263364881220273,-0.14971120518594908,0.0,0.14971120518594908,-0.3521614353734959,0.0,0.3521614353734959,-0.16579157607450537,0,0.16579157607450537,-0.012196076696806326,0.01780890321862435,0.017353906508839848,0.4,0.03342318534851074,0.2687723636627197,STABILIZE
0.035,0.005,0.05,-0.04115178387196436,-0.0058097591701831205,-0.0002057589193598218,-0.00883944922335023,-0.014854967312893173,0.04,0.006,0.04,-0.04628460108131935,-0.008570896082540075,-0.0002777076064879161,-0.015793825599675397,-0.024642429288703388,0.002,8e-05,0,-0.0823389181607915,-0.0008262028543273136,-6.587113452863321e-06,-0.0,-0.0008327899677801769,0.1,0.02,0,-0.044467001791230684,-0.016409132464102028,-0.0008893400358246137,-0.0,-0.01729847249992664,-0.21427240206350187,0.0,0.21427240206350187,-0.16599311914808915,0.0,0.16599311914808915,-0.4131014271636568,0.0,0.4131014271636568,-0.16409132464102028,0,0.16409132464102028,-0.014925480583711919,0.024599784642575832,0.01729847249992664,0.4,0.03491687774658203,0.3036327362060547,STABILIZE
0.035,0.005,0.05,-0.047484073262030996,-0.006616115920136877,-0.000237420366310155,-0.013001753157062913,-0.019855289443509946,0.04,0.006,0.04,-0.05291862670910741,-0.007921573269391823,-0.0003175117602546445,-0.009361569557866904,-0.01760065458751337,0.002,8e-05,0,-0.09919613658499757,-0.001006445394981192,-7.935690926799805e-06,-0.0,-0.0010143810859079918,0.1,0.02,0,-0.05072711628757859,-0.018687731416759785,-0.0010145423257515718,-0.0,-0.019702273742511357,-0.19803933173479554,0.0,0.19803933173479554,-0.18903188343248217,0.0,0.18903188343248217,-0.503222697490596,0.0,0.503222697490596,-0.18687731416759784,0,0.18687731416759784,-0.01991259045458791,0.017535800585726544,0.019702273742511357,0.4,0.033498525619506836,0.3371553421020508,STABILIZE
0.035,0.005,0.05,-0.05409082861384466,-0.006911295456272782,-0.00027045414306922335,-0.01398563402783523,-0.021167383627177235,0.04,0.006,0.04,-0.059949880291838606,-0.008406126906782148,-0.00035969928175103163,-0.010714443564398064,-0.019480269752931243,0.002,8e-05,0,-0.11690070970224553,-0.0010583240008546248,-9.352056776179644e-06,-0.0,-0.0010676760576308045,0.1,0.02,0,-0.05590147609924693,-0.01546535220442933,-0.0011180295219849385,0.0,-0.016583381726414267,-0.2101531726695537,0.0,0.2101531726695537,-0.19746558446493662,0.0,0.19746558446493662,-0.5291620004273124,0.0,0.5291620004273124,-0.15465352204429328,0,0.15465352204429328,-0.021219887853691794,0.019423063577710963,0.016583381726414267,0.4,0.03345775604248047,0.3706088066101074,STABILIZE
0.035,0.005,0.05,-0.0600601891929915,-0.006235810325412201,-0.0003003009459649575,-0.006908136993499712,-0.01344424826487687,0.04,0.006,0.04,-0.06789082699205234,-0.009480457847117527,-0.00040734496195231405,-0.01576083796412219,-0.02564864077319203,0.002,8e-05,0,-0.13425628445567023,-0.0010360149807951181,-1.074050275645362e-05,-0.0,-0.0010467554835515717,0.1,0.02,0,-0.06085543529258732,-0.014785957859262486,-0.0012171087058517464,0.0,-0.016003066565114233,-0.23701144617793818,0.0,0.23701144617793818,-0.17816600929749143,0.0,0.17816600929749143,-0.518007490397559,0.0,0.518007490397559,-0.14785957859262486,0,0.14785957859262486,-0.013510393242173895,0.02561386068834051,0.016003066565114233,0.4,0.033504486083984375,0.40412139892578125,STABILIZE
0.035,0.005,0.05,-0.06577001256158525,-0.005981373271654102,-0.0003288500628079263,-0.006125183374507955,-0.012435406708969983,0.04,0.006,0.04,-0.07606933581896604,-0.009791389018313466,-0.00045641601491379623,-0.014543022153260213,-0.024790827186487476,0.002,8e-05,0,-0.15233649920483996,-0.0010822903043229669,-1.2186919936387199e-05,-0.0,-0.001094477224259354,0.1,0.02,0,-0.06626299406981123,-0.016184952766987337,-0.0013252598813962247,0.0,-0.017510212648383563,-0.24478472545783667,0.0,0.24478472545783667,-0.1708963791901172,0.0,0.1708963791901172,-0.5411451521614834,0.0,0.5411451521614834,-0.16184952766987337,0,0.16184952766987337,-0.012505386307391791,0.024755600697835632,0.017510212648383563,0.4,0.03341102600097656,0.43755483627319336,STABILIZE
0.035,0.005,0.05,-0.07148789517112795,-0.005978893573178951,-0.00035743947585563975,-0.0014409671123962586,-0.00777730016143085,0.04,0.006,0.04,-0.08436121961966841,-0.009909020853843856,-0.0005061673177180105,-0.007996957284787465,-0.01841214545634933,0.002,8e-05,0,-0.1709801728435111,-0.0011139842002019056,-1.3678413827480889e-05,-0.0,-0.0011276626140293863,0.1,0.02,0,-0.0713066294453901,-0.015068194790537878,-0.001426132588907802,0.0,-0.01649432737944568,-0.2477255213460964,0.0,0.2477255213460964,-0.17082553066225573,0.0,0.17082553066225573,-0.5569921001009528,0.0,0.5569921001009528,-0.15068194790537878,0,0.15068194790537878,-0.007825695240141161,0.01839162831603525,0.01649432737944568,0.4,0.03347206115722656,0.470991849899292,STABILIZE
0.035,0.005,0.05,-0.07728886287468849,-0.006012495209565486,-0.00038644431437344243,0.005152277485561303,-0.0012466620383776257,0.04,0.006,0.04,-0.0923818842979653,-0.009500721834234045,-0.0005542913057877918,-0.009455468831172695,-0.01951048197119453,0.002,8e-05,0,-0.19021501149327322,-0.0011392126392732326,-1.521720091946186e-05,-0.0,-0.0011544298401926945,0.1,0.02,0,-0.0755041711641309,-0.012430290336553856,-0.001510083423282618,0.0,-0.013940373759836474,-0.2375180458558511,0.0,0.2375180458558511,-0.17178557741615674,0.0,0.17178557741615674,-0.5696063196366162,0.0,0.5696063196366162,-0.12430290336553855,0,0.12430290336553855,-0.0012889869631243316,0.01950773143128473,0.013940373759836474,0.4,0.033768653869628906,0.5047664642333984,STABILIZE
0.035,0.005,0.05,-0.08267774029262619,-0.005633906775828984,-0.00041338870146313096,0.010904020830439037,0.004856725353146922,0.04,0.006,0.04,-0.10032725359290874,-0.009493303958312004,-0.0006019635215574525,-0.006514643540032387,-0.016609911019901842,0.002,8e-05,0,-0.20983647678978337,-0.0011722081583154867,-1.6786918143182672e-05,-0.0,-0.0011889950764586695,0.1,0.02,0,-0.07925761679920713,-0.011211750826816587,-0.0015851523359841427,0.0,-0.01279690316280073,-0.2373325989578001,0.0,0.2373325989578001,-0.16096876502368523,0.0,0.16096876502368523,-0.5861040791577433,0.0,0.5861040791577433,-0.11211750826816586,0,0.11211750826816586,0.004824213474769964,0.016619382948677867,0.01279690316280073,0.4,0.033477783203125,0.5382685661315918,STABILIZE
0.035,0.005,0.05,-0.08784343831961178,-0.005406740363394231,-0.0004392171915980589,0.00708467581167229,0.00123871825668,0.04,0.006,0.04,-0.10860173990330392,-0.009897818568798688,-0.0006516104394198235,-0.002520958344871885,-0.013070387353090396,0.002,8e-05,0,-0.2310434054866879,-0.0012683707771666297,-1.848347243893503e-05,-0.0,-0.0012868542496055648,0.1,0.02,0,-0.08260496183741654,-0.010010111997448858,-0.001652099236748331,0.0,-0.01166221123419719,-0.2474454642199672,0.0,0.2474454642199672,-0.154478296096978,0.0,0.154478296096978,-0.6341853885833149,0.0,0.6341853885833149,-0.10010111997448858,0,0.10010111997448858,0.0012158811808022742,0.013072531561768309,0.01166221123419719,0.4,0.03343963623046875,0.5717484951019287,STABILIZE
0.035,0.005,0.05,-0.09360775462799137,-0.006032947322424583,-0.00046803877313995683,-0.00044126195412284603,-0.006942248049687386,0.04,0.006,0.04,-0.11771939477722747,-0.010905782327130853,-0.0007063163686633648,-0.006687922596685475,-0.018300021292479693,0.002,8e-05,0,-0.25433950632043384,-0.001393243154499856,-2.034716050563471e-05,-0.0,-0.0014135903150054908,0.1,0.02,0,-0.08460944159657666,-0.00599398097285425,-0.001692188831931533,0.0,-0.007686169804785783,-0.2726445581782713,0.0,0.2726445581782713,-0.17236992349784522,0.0,0.17236992349784522,-0.696621577249928,0.0,0.696621577249928,-0.059939809728542494,0,0.059939809728542494,-0.0069613887602905725,0.018292748667619596,0.007686169804785783,0.4,0.03344154357910156,0.6051440238952637,STABILIZE
0.035,0.005,0.05,-0.09885377869186723,-0.005494457810066689,-0.0004942688934593362,0.0041415759281610695,-0.001847150775364956,0.04,0.006,0.04,-0.12225963996061126,-0.005434577893922758,-0.0007335578397636676,0.02675952578266105,0.020591390048974624,0.002,8e-05,0,-0.27705041753259335,-0.0013592241282050965,-2.216403340260747e-05,-0.0,-0.0013813881616077039,0.1,0.02,0,-0.09188947289283181,-0.021785110468531762,-0.0018377894578566361,-0.0,-0.0236228999263884,-0.13586444734806896,0.0,0.13586444734806896,-0.15698450885904824,0.0,0.15698450885904824,-0.6796120641025483,0.0,0.6796120641025483,-0.2178511046853176,0,0.2178511046853176,-0.001768844636386074,-0.020598264460586737,0.0236228999263884,0.4,0.033417463302612305,0.6385672092437744,STABILIZE
0.035,0.005,0.05,-0.10369464042504979,-0.005059964117959536,-0.0005184732021252489,0.00813330014204997,0.002554862821965185,0.04,0.006,0.04,-0.12172775691427155,0.0006353789948434441,-0.0007303665414856293,0.060596680517356935,0.06050169297071475,0.002,8e-05,0,-0.3001556013799702,-0.0013800541857507363,-2.4012448110397618e-05,-0.0,-0.001404066633861134,0.1,0.02,0,-0.10539259867532007,-0.040326546155046605,-0.0021078519735064014,-0.0,-0.04243439812855301,0.0158844748710861,0.0,-0.0158844748710861,-0.14457040337027247,0.0,0.14457040337027247,-0.6900270928753681,0.0,0.6900270928753681,-0.403265461550466,0,0.403265461550466,0.002980625699806751,-0.06048221264801202,0.04243439812855301,0.4,0.033484458923339844,0.6720871925354004,STABILIZE
0.035,0.005,0.05,-0.11249614835480742,-0.00914329889715381,-0.0005624807417740371,-0.029725528407902897,-0.039431308046830746,0.04,0.006,0.04,-0.12526362089639323,-0.004197911994981047,-0.0007515817253783593,0.031861032258274434,0.026911538537915027,0.002,8e-05,0,-0.325785472407452,-0.0015214378092610135,-2.606283779259616e-05,-0.0,-0.0015475006470536097,0.1,0.02,0,-0.11711030312185568,-0.03477925925493204,-0.0023422060624371135,-0.0,-0.03712146531736915,-0.10494779987452615,0.0,0.10494779987452615,-0.2612371113472517,0.0,0.2612371113472517,-0.7607189046305067,0.0,0.7607189046305067,-0.3477925925493204,0,0.3477925925493204,-0.039267226174968,-0.027150394274957645,0.03712146531736915,0.4,0.0336916446685791,0.7057440280914307,STABILIZE
0.035,0.005,0.05,-0.1214295538130562,-0.009335081850249245,-0.000607147769065281,-0.033302447952157706,-0.04324467757147223,0.04,0.006,0.04,-0.13297506080597032,-0.009209340069616153,-0.0007978503648358219,0.0043560672997510754,-0.0056511231347009,0.002,8e-05,0,-0.3525298612294941,-0.00159696616004451,-2.820238889835953e-05,-0.0,-0.0016251685489428694,0.1,0.02,0,-0.13000432542284165,-0.03849651868761903,-0.002600086508456833,-0.0,-0.041096605196075865,-0.2302335017404038,0.0,0.2302335017404038,-0.26671662429283555,0.0,0.26671662429283555,-0.798483080022255,0.0,0.798483080022255,-0.3849651868761903,0,0.3849651868761903,-0.04328167056380365,0.005360440667568075,0.041096605196075865,0.4,0.033493995666503906,0.7392544746398926,STABILIZE
0.035,0.005,0.05,-0.12643076139813517,-0.005236179771222683,-0.0006321538069906759,0.0070801714347198536,0.0012118378565064954,0.04,0.006,0.04,-0.1402817939932156,-0.00874288696032341,-0.0008416907639592937,0.013174957661132275,0.0035903799368495713,0.002,8e-05,0,-0.3787803593410508,-0.001570504435841111,-3.0302428747284067e-05,-0.0,-0.001600806864588395,0.1,0.02,0,-0.14753891142955708,-0.05245261439831581,-0.0029507782285911415,-0.0,-0.05540339262690695,-0.21857217400808523,0.0,0.21857217400808523,-0.14960513632064806,0.0,0.14960513632064806,-0.7852522179205554,0.0,0.7852522179205554,-0.5245261439831581,0,0.5245261439831581,0.0012446554972194318,-0.0035791356183631317,0.05540339262690695,0.4,0.03342938423156738,0.7726812362670898,STABILIZE
0.035,0.005,0.05,-0.12961471594391122,-0.0033348309066905104,-0.0006480735797195561,0.018732877877959058,0.01474997339154899,0.04,0.006,0.04,-0.14584065241359642,-0.0066540263866143295,-0.0008750439144815785,-0.0070676574939710045,-0.014596727795066912,0.002,8e-05,0,-0.40726415196999666,-0.0017047736550454562,-3.2581132157599736e-05,-0.0,-0.001737354787203056,0.1,0.02,0,-0.16578044372564288,-0.05458838310461819,-0.003315608874512858,-0.0,-0.05790399197913105,-0.16635065966535822,0.0,0.16635065966535822,-0.09528088304830029,0.0,0.09528088304830029,-0.8523868275227281,0.0,0.8523868275227281,-0.5458838310461819,0,0.5458838310461819,0.014610236164325696,0.014736593113651194,0.05790399197913105,0.4,0.0334165096282959,0.8060886859893799,STABILIZE
0.035,0.005,0.05,-0.13692843252663917,-0.007649209010437829,-0.0006846421626331958,-0.021809531725013945,-0.03014338289808497,0.04,0.006,0.04,-0.1531416944966032,-0.008726803554501554,-0.0009188501669796192,-0.055710790712237925,-0.0653564444337191,0.002,8e-05,0,-0.4332302738446007,-0.0015518417925526754,-3.465842190756806e-05,-0.0,-0.0015865002144602434,0.1,0.02,0,-0.18697504878776763,-0.06333382025796878,-0.0037395009757553526,-0.0,-0.06707332123372414,-0.21817008886253886,0.0,0.21817008886253886,-0.21854882886965224,0.0,0.21854882886965224,-0.7759208962763376,0.0,0.7759208962763376,-0.6333382025796879,0,0.6333382025796879,-0.030863966113355165,0.0650192583571363,0.06707332123372414,0.4,0.033464908599853516,0.8395736217498779,STABILIZE
0.035,0.005,0.05,-0.14824264213374705,-0.011831946910231636,-0.0007412132106687353,-0.022889007575348813,-0.035462167696249186,0.04,0.006,0.04,-0.1622077666057697,-0.010835354085573982,-0.0009732465996346181,-0.03961967269936877,-0.05142827338457737,0.002,8e-05,0,-0.45715025596204867,-0.0014294033449231782,-3.6572020476963896e-05,0.0,-0.0014659753654001422,0.1,0.02,0,-0.2114253147992087,-0.07305459479320071,-0.004228506295984174,-0.0,-0.07728310108918489,-0.27088385213934957,0.0,0.27088385213934957,-0.33805562600661815,0.0,0.33805562600661815,-0.7147016724615891,0.0,0.7147016724615891,-0.7305459479320071,0,0.7305459479320071,-0.036115000072555685,0.05097194729255526,0.07728310108918489,0.4,0.03346848487854004,0.8730483055114746,STABILIZE
0.035,0.005,0.05,-0.15766557352182245,-0.009868957938769435,-0.0007883278676091123,-0.004470137563940833,-0.01512742337031938,0.04,0.006,0.04,-0.17178143167349075,-0.011459230252187471,-0.0010306885900409446,-0.013429088931351916,-0.025919007773580333,0.002,8e-05,0,-0.48269035873416605,-0.001528515548956282,-3.8615228698733286e-05,0.0,-0.0015671307776550152,0.1,0.02,0,-0.23626496169366995,-0.07432974496527432,-0.0047252992338733995,-0.0,-0.07905504419914772,-0.2864807563046868,0.0,0.2864807563046868,-0.2819702268219838,0.0,0.2819702268219838,-0.7642577744781409,0.0,0.7642577744781409,-0.7432974496527431,0,0.7432974496527431,-0.015462387968045001,0.02572058436578492,0.07905504419914772,0.4,0.03341817855834961,0.9065155982971191,STABILIZE
0.035,0.005,0.05,-0.16821968948927607,-0.010966993067771914,-0.0008410984474463804,-0.048816843166506335,-0.060624934681724627,0.04,0.006,0.04,-0.182199155689524,-0.012371731956720772,-0.001093194934137144,-0.02163804490942242,-0.03510297180028034,0.002,8e-05,0,-0.5100343893229118,-0.0016236416732661166,-4.0802751145832945e-05,-0.0,-0.0016644444244119495,0.1,0.02,0,-0.2643799596371129,-0.08347101967394897,-0.005287599192742258,-0.0,-0.08875861886669123,-0.3092932989180193,0.0,0.3092932989180193,-0.3133426590791975,0.0,0.3133426590791975,-0.8118208366330583,0.0,0.8118208366330583,-0.8347101967394897,0,0.8347101967394897,-0.06112987878545451,0.03421606719145688,0.08875861886669123,0.4,0.03368234634399414,0.9401428699493408,STABILIZE
0.035,0.005,0.05,-0.17859107300295105,-0.01085363162785993,-0.0008929553650147553,-0.06410512526568335,-0.07585171225855804,0.04,0.006,0.04,-0.19277938364124392,-0.012653927891418662,-0.0011566763018474636,-0.035827540722099656,-0.04963814491536578,0.002,8e-05,0,-0.5363440813300334,-0.0015733165061412122,-4.290752650640268e-05,0.0,-0.001616224032647615,0.1,0.02,0,-0.2937449521074971,-0.08780115583234896,-0.005874899042149943,-0.0,-0.0936760548744989,-0.31634819728546654,0.0,0.31634819728546654,-0.31010376079599794,0.0,0.31010376079599794,-0.7866582530706061,0.0,0.7866582530706061,-0.8780115583234895,0,0.8780115583234895,-0.07660344099102695,0.048469995992657035,0.0936760548744989,0.4,0.033444881439208984,0.9736237525939941,STABILIZE
0.035,0.005,0.05,-0.18956665458486374,-0.011475779551551938,-0.0009478332729243187,-0.032580355143882335,-0.045003967968358594,0.04,0.006,0.04,-0.2038719326590041,-0.013254945859856029,-0.0012232315959540246,-0.027030681631275203,-0.04150885908708526,0.002,8e-05,0,-0.5638147754398981,-0.0016412934600330779,-4.5105182035191855e-05,-0.0,-0.0016863986420682696,0.1,0.02,0,-0.3235531846893145,-0.08904772663555144,-0.00647106369378629,-0.0,-0.09551879032933773,-0.3313736464964007,0.0,0.3313736464964007,-0.3278794157586268,0.0,0.3278794157586268,-0.8206467300165389,0.0,0.8206467300165389,-0.8904772663555143,0,0.8904772663555143,-0.045643627570386,0.04080443331090932,0.09551879032933773,0.4,0.03347444534301758,1.007063627243042,STABILIZE
0.035,0.005,0.05,-0.19999783691169123,-0.01090625928760143,-0.0009999891845584561,0.00798779255912195,-0.003918455913037936,0.04,0.006,0.04,-0.2146126335105858,-0.012834142285826087,-0.0012876758010635148,-0.011916360203947719,-0.02603817829083732,0.002,8e-05,0,-0.5915974886369467,-0.0016598883964108896,-4.732779909095574e-05,-0.0,-0.0017072161955018453,0.1,0.02,0,-0.3522208645607558,-0.08563805275807712,-0.007044417291215116,-0.0,-0.09268247004929224,-0.32085355714565217,0.0,0.32085355714565217,-0.3116074082171837,0.0,0.3116074082171837,-0.8299441982054447,0.0,0.8299441982054447,-0.8563805275807711,0,0.8563805275807711,-0.004307187528057079,0.025976704199070434,0.09268247004929224,0.4,0.033475399017333984,1.040574550628662,STABILIZE
0.035,0.005,0.05,-0.20988772934859187,-0.010357948299301355,-0.0010494386467429593,-0.004107266016196541,-0.015514652962240855,0.04,0.006,0.04,-0.2249966444523475,-0.012429087767898249,-0.001349979866714085,-0.005758467469337212,-0.019537535103949545,0.002,8e-05,0,-0.619647116442296,-0.0016786927893510995,-4.957176931538368e-05,-0.0,-0.0017282645586664833,0.1,0.02,0,-0.379739701648478,-0.08234632151104146,-0.00759479403296956,-0.0,-0.08994111554401102,-0.3107271941974562,0.0,0.3107271941974562,-0.29594137998003867,0.0,0.29594137998003867,-0.8393463946755497,0.0,0.8393463946755497,-0.8234632151104145,0,0.8234632151104145,-0.015793837256327443,0.019312546160397206,0.08994111554401102,0.4,0.03341841697692871,1.0739574432373047,STABILIZE
0.035,0.005,0.05,-0.2189016730242746,-0.00943287188225189,-0.0010945083651213731,0.013109551506287238,0.0025821712589139748,0.04,0.006,0.04,-0.234903732726983,-0.011848601016148125,-0.001409422396361898,0.0031310410175271848,-0.010126982394982838,0.002,8e-05,0,-0.6477576850479676,-0.0016809727667331,-5.182061480383741e-05,-0.0,-0.0017327933815369373,0.1,0.02,0,-0.40674535520485894,-0.08074501944963536,-0.008134907104097179,0.0,-0.08887992655373253,-0.2962150254037031,0.0,0.2962150254037031,-0.2695106252071968,0.0,0.2695106252071968,-0.8404863833665499,0.0,0.8404863833665499,-0.8074501944963535,0,0.8074501944963535,0.002439203408685264,0.010162365254689082,0.08887992655373253,0.4,0.03344559669494629,1.1074135303497314,STABILIZE
0.035,0.005,0.05,-0.22815937662419689,-0.00969362701159706,-0.0011407968831209845,0.009912278135949675,-0.0009221457587683685,0.04,0.006,0.04,-0.2441567860302038,-0.011072865992457066,-0.001464940716181223,0.009460069722126239,-0.00307773698651205,0.002,8e-05,0,-0.675833407607001,-0.0016798709752886087,-5.406667260856008e-05,-0.0,-0.001733937647897169,0.1,0.02,0,-0.43181226328947625,-0.07499214177486489,-0.008636245265789525,0.0,-0.08362838704065442,-0.27682164981142665,0.0,0.27682164981142665,-0.27696077175991596,0.0,0.27696077175991596,-0.8399354876443044,0.0,0.8399354876443044,-0.7499214177486488,0,0.7499214177486488,-0.0009623488844733664,0.003065404114160421,0.08362838704065442,0.4,0.03342604637145996,1.1408336162567139,STABILIZE
0.035,0.005,0.05,-0.23595125518041296,-0.008155231419184335,-0.0011797562759020648,0.028366449234942817,0.019031461539856416,0.04,0.006,0.04,-0.25349837711554685,-0.011173954899648873,-0.001520990262693281,0.012446387871119236,-0.00024855729122291725,0.002,8e-05,0,-0.7041968622017233,-0.0016963489385493002,-5.6335748976137866e-05,-0.0,-0.001752684687525438,0.1,0.02,0,-0.4571577215905428,-0.07579249760016864,-0.009143154431810857,0.0,-0.08493565203197949,-0.2793488724912218,0.0,0.2793488724912218,-0.23300661197669528,0.0,0.23300661197669528,-0.8481744692746501,0.0,0.8481744692746501,-0.7579249760016863,0,0.7579249760016863,0.01902650853851815,0.0005002818243248597,0.08493565203197949,0.4,0.033440589904785156,1.1742866039276123,STABILIZE
0.035,0.005,0.05,-0.24307171064765953,-0.0074456504404425885,-0.0012153585532382978,0.029562608150461935,0.02090159915678105,0.04,0.006,0.04,-0.2625645339609509,-0.010834529178583999,-0.0015753872037657056,0.011960438466024726,-0.0004494779163249779,0.002,8e-05,0,-0.7325044978057698,-0.0016914548753049659,-5.860035982446158e-05,-0.0,-0.0017500552351294276,0.1,0.02,0,-0.4813514211146426,-0.07228182456512242,-0.009627028422292851,0.0,-0.08190885298741526,-0.27086322946459995,0.0,0.27086322946459995,-0.2127328697269311,0.0,0.2127328697269311,-0.8457274376524829,0.0,0.8457274376524829,-0.7228182456512241,0,0.7228182456512241,0.02089426564549832,0.0007131204970849787,0.08190885298741526,0.4,0.03347134590148926,1.2078120708465576,STABILIZE
0.035,0.005,0.05,-0.24947485990102578,-0.006701408088928157,-0.001247374299505129,0.031233207701944418,0.02328442531351113,0.04,0.006,0.04,-0.2710957591051416,-0.010204125488441192,-0.0016265745546308497,0.013306401329254744,0.001475701286182702,0.002,8e-05,0,-0.7605372595242261,-0.0016764873363908591,-6.08429807619381e-05,0.0,-0.0017373303171527971,0.1,0.02,0,-0.5055107771546808,-0.07224199824346199,-0.010110215543093617,0.0,-0.0823522137865556,-0.2551031372110298,0.0,0.2551031372110298,-0.19146880254080448,0.0,0.19146880254080448,-0.8382436681954295,0.0,0.8382436681954295,-0.7224199824346199,0,0.7224199824346199,0.02330118053922809,-0.001182007590845904,0.0823522137865556,0.4,0.03344225883483887,1.2412147521972656,STABILIZE
0.035,0.005,0.05,-0.2554380071201714,-0.006245496904945637,-0.001277190035600857,0.027228540731377912,0.019705853790831417,0.04,0.006,0.04,-0.279388549383495,-0.009926224547147238,-0.00167633129630097,0.011498367589158672,-0.00010418825428953546,0.002,8e-05,0,-0.7894534544497687,-0.001730591479138478,-6.31562763559815e-05,-0.0,-0.0017937477554944596,0.1,0.02,0,-0.5295553959701566,-0.07195174286994149,-0.01059110791940313,0.0,-0.08254285078934462,-0.24815561367868094,0.0,0.24815561367868094,-0.17844276871273249,0.0,0.17844276871273249,-0.865295739569239,0.0,0.865295739569239,-0.7195174286994149,0,0.7195174286994149,0.019702991628057515,0.00035163862508568453,0.08254285078934462,0.4,0.033417701721191406,1.2746191024780273,STABILIZE
0.035,0.005,0.05,-0.2609262864793082,-0.005735336905116698,-0.001304631432396541,0.0338094270296457,0.02676945869213246,0.04,0.006,0.04,-0.28715976730279186,-0.009281192053867474,-0.0017229586038167513,0.010708689803398648,-0.00029546085428557717,0.002,8e-05,0,-0.817955090750875,-0.0017019800699655575,-6.543640726007e-05,-0.0,-0.0017674164772256275,0.1,0.02,0,-0.5525068631093258,-0.06852753862033388,-0.011050137262186517,0.0,-0.0795776758825204,-0.23202980134668683,0.0,0.23202980134668683,-0.16386676871761993,0.0,0.16386676871761993,-0.8509900349827787,0.0,0.8509900349827787,-0.6852753862033387,0,0.6852753862033387,0.02676401032235326,0.0006156031604609054,0.0795776758825204,0.4,0.033492326736450195,1.308115005493164,STABILIZE
0.035,0.005,0.05,-0.26649675010109525,-0.005834636362679989,-0.0013324837505054763,0.019816422412862557,0.012649302299677092,0.04,0.006,0.04,-0.2944502146845737,-0.008727072396134874,-0.0017667012881074423,0.014629838643993854,0.004136064959751537,0.002,8e-05,0,-0.8461618749639247,-0.0016882547462353026,-6.769294999711398e-05,0.0,-0.0017559476962324167,0.1,0.02,0,-0.5737531340023099,-0.0635824300351944,-0.011475062680046198,0.0,-0.07505749271524059,-0.21817680990337185,0.0,0.21817680990337185,-0.1667038960765711,0.0,0.1667038960765711,-0.8441273731176513,0.0,0.8441273731176513,-0.6358243003519439,0,0.6358243003519439,0.01269442134841051,-0.003995440983035551,0.07505749271524059,0.4,0.03341531753540039,1.3415415287017822,STABILIZE
0.035,0.005,0.05,-0.2715570892961994,-0.005295634614539551,-0.0013577854464809972,0.018363984116774187,0.01171056405575364,0.04,0.006,0.04,-0.3012341474719533,-0.008113567751418596,-0.00180740488483172,0.016270432255133433,0.006349459618883117,0.002,8e-05,0,-0.8742267121927747,-0.0016782739852052992,-6.993813697542198e-05,0.0,-0.0017482121221807211,0.1,0.02,0,-0.5947094931925246,-0.0626593914776048,-0.011894189863850492,0.0,-0.07455358134145529,-0.20283919378546492,0.0,0.20283919378546492,-0.15130384612970144,0.0,0.15130384612970144,-0.8391369926026495,0.0,0.8391369926026495,-0.626593914776048,0,0.626593914776048,0.011779300889540637,-0.006221014266934584,0.07455358134145529,0.4,0.033444881439208984,1.374983787536621,STABILIZE
0.035,0.005,0.05,-0.27614769426574703,-0.004809819053006684,-0.0013807384713287352,0.01616076306616149,0.009970205541826073,0.04,0.006,0.04,-0.3079900926932972,-0.008089783189112418,-0.0018479405561597831,0.012642731871105357,0.0027050081258331565,0.002,8e-05,0,-0.9018251885308578,-0.0016523645663939401,-7.214601508246864e-05,0.0,-0.0017245105814764088,0.1,0.02,0,-0.613740016631621,-0.05696938161636983,-0.01227480033263242,0.0,-0.06924418194900225,-0.20224457972781043,0.0,0.20224457972781043,-0.13742340151447668,0.0,0.13742340151447668,-0.8261822831969701,0.0,0.8261822831969701,-0.5696938161636983,0,0.5696938161636983,0.009996608240579205,-0.0026057419656341017,0.06924418194900225,0.4,0.03340482711791992,1.4083750247955322,STABILIZE
0.035,0.005,0.05,-0.28030415907262607,-0.004343848376764219,-0.0014015207953631305,0.016238147556257035,0.010492778384129686,0.04,0.006,0.04,-0.3144174294056883,-0.00767668197230081,-0.0018865045764341298,0.013446534870315684,0.0038833483215807447,0.002,8e-05,0,-0.929384807876533,-0.001645832811174686,-7.435078463012265e-05,0.0,-0.0017201835958048088,0.1,0.02,0,-0.6322702046792692,-0.055330211755704295,-0.012645404093585385,0.0,-0.06797561584928968,-0.19191704930752024,0.0,0.19191704930752024,-0.1241099536218348,0.0,0.1241099536218348,-0.822916405587343,0.0,0.822916405587343,-0.553302117557043,0,0.553302117557043,0.01052978982098968,-0.003781840653830527,0.06797561584928968,0.4,0.03349018096923828,1.4419162273406982,STABILIZE
0.035,0.005,0.05,-0.2841952483130459,-0.004076957709700684,-0.0014209762415652294,0.014168876761601968,0.008670942810336054,0.04,0.006,0.04,-0.32050888811037975,-0.007294210069638324,-0.0019230533286622785,0.011884664994358137,0.0026674015960575347,0.002,8e-05,0,-0.9579612413247632,-0.0017109408330380287,-7.663689930598106e-05,-0.0,-0.0017875777323440097,0.1,0.02,0,-0.6503586849741557,-0.05415007369655115,-0.013007173699483114,0.0,-0.06715724739603426,-0.1823552517409581,0.0,0.1823552517409581,-0.11648450599144809,0.0,0.11648450599144809,-0.8554704165190143,0.0,0.8554704165190143,-0.5415007369655115,0,0.5415007369655115,0.008695764724441696,-0.0025853348626288684,0.06715724739603426,0.4,0.03340435028076172,1.4752914905548096,STABILIZE
0.035,0.005,0.05,-0.28789842763167445,-0.0038740163618508046,-0.0014394921381583722,0.016751016882993363,0.011437508382984185,0.04,0.006,0.04,-0.32618084700614136,-0.006781280832435207,-0.001957085082036848,0.011634344000305552,0.002895978085833497,0.002,8e-05,0,-0.9864245695446392,-0.001701509351813105,-7.891396556357114e-05,-0.0,-0.001780423317376676,0.1,0.02,0,-0.667679520867721,-0.05177111409188841,-0.01335359041735442,0.0,-0.06512470450924282,-0.16953202081088017,0.0,0.16953202081088017,-0.11068618176716584,0.0,0.11068618176716584,-0.8507546759065525,0.0,0.8507546759065525,-0.517711140918884,0,0.517711140918884,0.011463208496712163,-0.002792514645506341,0.06512470450924282,0.4,0.03345656394958496,1.5088062286376953,STABILIZE
0.035,0.005,0.05,-0.29130679982553714,-0.003566752822295424,-0.0014565339991276858,0.014771239496414516,0.009747952674991405,0.04,0.006,0.04,-0.33154325247416416,-0.006413241528963058,-0.001989259514844985,0.010166401373805114,0.0017639003299970701,0.002,8e-05,0,-1.0145001883343143,-0.0016788708486050945,-8.116001506674515e-05,-0.0,-0.0017600308636718397,0.1,0.02,0,-0.6838366596933693,-0.04830837313765979,-0.013676733193867386,0.0,-0.06198510633152717,-0.16033103822407646,0.0,0.16033103822407646,-0.10190722349415496,0.0,0.10190722349415496,-0.8394354243025473,0.0,0.8394354243025473,-0.4830837313765979,0,0.4830837313765979,0.009762478169201892,-0.0016816497030869347,0.06198510633152717,0.4,0.03344583511352539,1.5421972274780273,STABILIZE
0.035,0.005,0.05,-0.2944220778257167,-0.0032613177505350613,-0.0014721103891285837,0.013226250355622977,0.008492822215959333,0.04,0.006,0.04,-0.33623422798343705,-0.00561243621911484,-0.002017405367900622,0.014814547485978746,0.007184705898963284,0.002,8e-05,0,-1.0426436767479579,-0.0016835894089911147,-8.341149413983664e-05,-0.0,-0.0017670009031309514,0.1,0.02,0,-0.6992914472743321,-0.046226530817875935,-0.013985828945486643,0.0,-0.060212359763362575,-0.140310905477871,0.0,0.140310905477871,-0.0931805071581446,0.0,0.0931805071581446,-0.8417947044955574,0.0,0.8417947044955574,-0.4622653081787593,0,0.4622653081787593,0.008550511753256558,-0.007115952276674688,0.060212359763362575,0.4,0.033432722091674805,1.575624704360962,STABILIZE
0.035,0.005,0.05,-0.29757017840281025,-0.0032251397790674877,-0.0014878508920140514,0.009553479215013129,0.0048404885439315894,0.04,0.006,0.04,-0.3408259279166658,-0.005376075871073777,-0.002044955567499995,0.013731231186779727,0.006310199748205955,0.002,8e-05,0,-1.071222082000678,-0.001673015192054164,-8.569776656005425e-05,-0.0,-0.0017587129586142181,0.1,0.02,0,-0.7144376477063973,-0.044333865379577946,-0.014288752954127945,0.0,-0.05862261833370589,-0.13440189677684442,0.0,0.13440189677684442,-0.09214685083049964,0.0,0.09214685083049964,-0.8365075960270819,0.0,0.8365075960270819,-0.4433386537957794,0,0.4433386537957794,0.004889169705653257,-0.006272556878619269,0.05862261833370589,0.4,0.0341639518737793,1.6097888946533203,STABILIZE
0.035,0.005,0.05,-0.30040661167374205,-0.002966481811634545,-0.0015020330583687103,0.00947901254933038,0.005010497679327125,0.04,0.006,0.04,-0.3449447897094511,-0.004923095783970754,-0.0020696687382567064,0.014148415201132507,0.007155650678905046,0.002,8e-05,0,-1.098680384964967,-0.0016409855727044407,-8.789443079719736e-05,0.0,-0.0017288800035016381,0.1,0.02,0,-0.7277801617350519,-0.03986931212228277,-0.014555603234701038,0.0,-0.05442491535698381,-0.12307739459926886,0.0,0.12307739459926886,-0.08475662318955843,0.0,0.08475662318955843,-0.8204927863522203,0.0,0.8204927863522203,-0.3986931212228277,0,0.3986931212228277,0.005060168621894146,-0.00712061213317048,0.05442491535698381,0.4,0.03346562385559082,1.6432559490203857,STABILIZE
0.035,0.005,0.05,-0.30328084393107857,-0.0030055213756563916,-0.001516404219655393,0.007412674927190491,0.0028907493318787066,0.04,0.006,0.04,-0.34869588231121507,-0.0044827827745816205,-0.0020921752938672902,0.01371317894458718,0.00713822087613827,0.002,8e-05,0,-1.1270676864283178,-0.0016962272000019688,-9.016541491426544e-05,0.0,-0.0017863926149162342,0.1,0.02,0,-0.7404178117908845,-0.03775689245503806,-0.01480835623581769,0.0,-0.052565248690855756,-0.11206956936454052,0.0,0.11206956936454052,-0.08587203930446832,0.0,0.08587203930446832,-0.8481136000009843,0.0,0.8481136000009843,-0.3775689245503806,0,0.3775689245503806,0.002937725822211116,-0.007119016502987433,0.052565248690855756,0.4,0.033471107482910156,1.6767451763153076,STABILIZE
0.035,0.005,0.05,-0.3062373133483957,-0.0030949761650603848,-0.0015311865667419786,0.004023392259648532,-0.0006027704721538315,0.04,0.006,0.04,-0.3521234252400029,-0.004100707266263971,-0.0021127405514400175,0.013797943819917573,0.007584496002213585,0.002,8e-05,0,-1.1551352606656646,-0.0016790002052898617,-9.241082085325317e-05,-0.0,-0.0017714110261431149,0.1,0.02,0,-0.7522916423332034,-0.03551458303725321,-0.015045832846664069,0.0,-0.05056041588391728,-0.10251768165659927,0.0,0.10251768165659927,-0.0884278904302967,0.0,0.0884278904302967,-0.8395001026449308,0.0,0.8395001026449308,-0.3551458303725321,0,0.3551458303725321,-0.0005557469678048447,-0.007588086528069519,0.05056041588391728,0.4,0.03343367576599121,1.7101714611053467,STABILIZE
0.035,0.005,0.05,-0.3089158249257712,-0.0027803428965814127,-0.001544579124628856,0.0040792414710094415,-0.00024568055020082746,0.04,0.006,0.04,-0.355352453711509,-0.003830616312408621,-0.002132114722269054,0.010609448548478909,0.004646717513801234,0.002,8e-05,0,-1.183096771548221,-0.001658545606696885,-9.464774172385768e-05,0.0,-0.0017531933484207427,0.1,0.02,0,-0.7638276099030493,-0.03421297299049303,-0.015276552198060987,0.0,-0.04948952518855401,-0.09576540781021552,0.0,0.09576540781021552,-0.07943836847375464,0.0,0.07943836847375464,-0.8292728033484424,0.0,0.8292728033484424,-0.3421297299049303,0,0.3421297299049303,-0.0002179294360633248,-0.004648101692810865,0.04948952518855401,0.4,0.033718109130859375,1.7439663410186768,STABILIZE
0.035,0.005,0.05,-0.3115774328836481,-0.0027843153091292607,-0.0015578871644182405,0.0037427610014881952,-0.0005994414720593062,0.04,0.006,0.04,-0.35823543519892287,-0.003446736867715915,-0.0021494126111935375,0.01152049343029732,0.005924343951387868,0.002,8e-05,0,-1.2106675053066889,-0.0016481039668509042,-9.685340042453511e-05,0.0,-0.0017449573672754393,0.1,0.02,0,-0.7746796825024732,-0.032435378862870096,-0.015493593650049464,0.0,-0.04792897251291956,-0.08616842169289787,0.0,0.08616842169289787,-0.07955186597512173,0.0,0.07955186597512173,-0.824051983425452,0.0,0.824051983425452,-0.32435378862870096,0,0.32435378862870096,-0.0005658940886685107,-0.00592764246671311,0.04792897251291956,0.4,0.03345751762390137,1.7773611545562744,STABILIZE
0.035,0.005,0.05,-0.3143155558828749,-0.0028057559484386484,-0.0015715777794143746,0.0013551079967160558,-0.0030222257311369677,0.04,0.006,0.04,-0.3607632488953294,-0.002960287891581241,-0.0021645794933719763,0.011661725327828798,0.0065368579428755815,0.002,8e-05,0,-1.2395849745549887,-0.0016932425477519627,-9.916679796439911e-05,-0.0,-0.0017924093457163618,0.1,0.02,0,-0.7851287278102375,-0.03059183351519375,-0.01570257455620475,0.0,-0.0462944080713985,-0.07400719728953102,0.0,0.07400719728953102,-0.08016445566967566,0.0,0.08016445566967566,-0.8466212738759813,0.0,0.8466212738759813,-0.3059183351519375,0,0.3059183351519375,-0.0029872806891670174,-0.0065529012062911325,0.0462944080713985,0.4,0.03415632247924805,1.8120524883270264,STABILIZE
0.035,0.005,0.05,-0.31665517546928296,-0.0024472382531706667,-0.0015832758773464148,0.004749652764716228,0.0007191386341991466,0.04,0.006,0.04,-0.36255985511534206,-0.002147711042081681,-0.002175359130692052,0.01388760210204814,0.009564531929274407,0.002,8e-05,0,-1.268201342605774,-0.0017104385190905408,-0.00010145610740846194,-0.0,-0.0018118946264990027,0.1,0.02,0,-0.7941488312570293,-0.026957181208659267,-0.015882976625140585,0.0,-0.04284015783379985,-0.05369277605204203,0.0,0.05369277605204203,-0.06992109294773333,0.0,0.06992109294773333,-0.8552192595452704,0.0,0.8552192595452704,-0.26957181208659264,0,0.26957181208659264,0.0007641308250370961,-0.009561042593960952,0.04284015783379985,0.4,0.03346085548400879,1.8449773788452148,STABILIZE
0.035,0.005,0.05,-0.31945066621041623,-0.0024472382531706667,-0.0015972533310520812,0.005514106886876553,0.0014696153026538044,0.04,0.006,0.04,-0.36470652719942154,-0.002147711042081681,-0.0021882391631965294,0.011602029250340954,0.007266079045062743,0.002,8e-05,0,-1.302393564450544,-0.0017104385190905408,-0.00010419148515604353,-0.0,-0.0018146300042465844,0.1,0.02,0,-0.8049264875119437,-0.026957181208659267,-0.016098529750238875,0.0,-0.04305571095889814,-0.05369277605204203,0.0,0.05369277605204203,-0.06992109294773333,0.0,0.06992109294773333,-0.8552192595452704,0.0,0.8552192595452704,-0.26957181208659264,0,0.26957181208659264,0.0015037852000002534,-0.0072590842328185134,0.04305571095889814,0.4,0.03998064994812012,1.8849685192108154,STABILIZE
0.035,0.005,0.05,-0.3217091455447482,-0.0023633423746085755,-0.0016085457277237411,0.003564688730785426,-0.0004071993715468909,0.04,0.006,0.04,-0.3661401661165901,-0.0017145187921435007,-0.002196840996699541,0.012590294861082586,0.008678935072239543,0.002,8e-05,0,-1.3306992731511507,-0.0016925694786514697,-0.00010645594185209206,-0.0,-0.0017990254205035618,0.1,0.02,0,-0.81314039276713,-0.024557953101462717,-0.0162628078553426,0.0,-0.04082076095680531,-0.04286296980358752,0.0,0.04286296980358752,-0.0675240678459593,0.0,0.0675240678459593,-0.8462847393257348,0.0,0.8462847393257348,-0.24557953101462715,0,0.24557953101462715,-0.0003699963418515767,-0.008680600671805738,0.04082076095680531,0.4,0.0334470272064209,1.9184114933013916,STABILIZE
0.035,0.005,0.05,-0.32350182560455054,-0.0018759958946273747,-0.0016175091280227528,0.007761845783329856,0.004268340760679728,0.04,0.006,0.04,-0.3671728745235919,-0.0012350904263075358,-0.0022030372471415513,0.013162481977007777,0.00972435430355869,0.002,8e-05,0,-1.3581118053074888,-0.0016392311613612303,-0.0001086489444245991,0.0,-0.0017478801057858294,0.1,0.02,0,-0.8209871699043001,-0.02346131602536418,-0.016419743398086002,0.0,-0.03988105942345018,-0.030877260657688393,0.0,0.030877260657688393,-0.05359988270363927,0.0,0.05359988270363927,-0.8196155806806151,0.0,0.8196155806806151,-0.2346131602536418,0,0.2346131602536418,0.00430812388031909,-0.009706794944895293,0.03988105942345018,0.4,0.03344559669494629,1.951904535293579,STABILIZE
0.035,0.005,0.05,-0.32527909684717476,-0.0018598046552816012,-0.001626395484235874,0.008079505913581538,0.004593305774064063,0.04,0.006,0.04,-0.36797661074839655,-0.0009612118280208139,-0.0022078596644903793,0.011951810831134009,0.008782739338622815,0.002,8e-05,0,-1.3851887382010528,-0.0016191050845160166,-0.00011081509905608423,0.0,-0.001729920183572101,0.1,0.02,0,-0.828162055940332,-0.021451643927742334,-0.01656324111880664,0.0,-0.03801488504654897,-0.024030295700520347,0.0,0.024030295700520347,-0.0531372758651886,0.0,0.0531372758651886,-0.8095525422580083,0.0,0.8095525422580083,-0.2145164392774233,0,0.2145164392774233,0.004626156239174238,-0.008765480401837212,0.03801488504654897,0.4,0.0334467887878418,1.9853031635284424,STABILIZE
0.035,0.005,0.05,-0.3268911842010736,-0.0016866613590496439,-0.001634455921005368,0.006497006805580504,0.003175889525525492,0.04,0.006,0.04,-0.3685605844982477,-0.0006982719506508612,-0.002211363506989486,0.008666949314922493,0.0057573138572821455,0.002,8e-05,0,-1.4125333237800022,-0.0016348300858403514,-0.00011300266590240018,0.0,-0.0017478327517427515,0.1,0.02,0,-0.8349747271723429,-0.020365201481796207,-0.01669949454344686,0.0,-0.037064696025243066,-0.017456798766271528,0.0,0.017456798766271528,-0.048190324544275534,0.0,0.048190324544275534,-0.8174150429201756,0.0,0.8174150429201756,-0.20365201481796205,0,0.20365201481796205,0.003196333206701752,-0.005745989136896383,0.037064696025243066,0.4,0.033452510833740234,2.018765687942505,STABILIZE
0.035,0.005,0.05,-0.3284104066077015,-0.0015321500226385646,-0.0016420520330385074,0.007769056842882891,0.0045948547872058185,0.04,0.006,0.04,-0.3690460903955973,-0.0005595854212712522,-0.002214276542373584,0.009466187392062146,0.006692325428417309,0.002,8e-05,0,-1.4405989902095948,-0.0016173992795964105,-0.0001152479192167676,0.0,-0.001732647198813178,0.1,0.02,0,-0.8417427664954351,-0.01950180294651293,-0.016834855329908704,0.0,-0.03633665827642163,-0.013989635531781303,0.0,0.013989635531781303,-0.043775714932530414,0.0,0.043775714932530414,-0.8086996397982052,0.0,0.8086996397982052,-0.19501802946512928,0,0.19501802946512928,0.004617606840047516,-0.006676647154530151,0.03633665827642163,0.4,0.03470468521118164,2.053462028503418,STABILIZE
0.035,0.005,0.05,-0.32990184769468456,-0.001559811536208282,-0.0016495092384734228,0.006816233970836358,0.003606913196154653,0.04,0.006,0.04,-0.36937905734659565,-0.00039797803298237644,-0.002216274344079574,0.007841673411008327,0.005227421033946376,0.002,8e-05,0,-1.4676263519947395,-0.001615219806005429,-0.00011741010815957917,0.0,-0.0017326299141650083,0.1,0.02,0,-0.8478337763381214,-0.01820066607812323,-0.01695667552676243,0.0,-0.035157341604885664,-0.00994945082455941,0.0,0.00994945082455941,-0.04456604389166519,0.0,0.04456604389166519,-0.8076099030027145,0.0,0.8076099030027145,-0.1820066607812323,0,0.1820066607812323,0.0036235004764031144,-0.005215936902249296,0.035157341604885664,0.4,0.03346586227416992,2.086930990219116,STABILIZE
0.035,0.005,0.05,-0.33125994540209514,-0.0014216721286289201,-0.0016562997270104757,0.003833456140771246,0.0007554842851318503,0.04,0.006,0.04,-0.3696409544696564,-0.00031332215717568517,-0.0022178457268179383,0.005481151464846322,0.0029499835808526986,0.002,8e-05,0,-1.4943598892085932,-0.0015991411915658642,-0.00011954879113668747,0.0,-0.0017186899827025517,0.1,0.02,0,-0.8535083203972159,-0.01697193505607424,-0.01707016640794432,0.0,-0.03404210146401856,-0.007833053929392129,0.0,0.007833053929392129,-0.040619203675112,0.0,0.040619203675112,-0.7995705957829321,0.0,0.7995705957829321,-0.1697193505607424,0,0.1697193505607424,0.0007642192855996189,-0.0029477327755241486,0.03404210146401856,0.4,0.03343486785888672,2.1203691959381104,STABILIZE
0.035,0.005,0.05,-0.33238830123604834,-0.0011815127291225351,-0.0016619415061802417,0.005747988281670967,0.00290453404636819,0.04,0.006,0.04,-0.3696097787048171,3.730795034624328e-05,-0.0022176586722289027,0.005941444377667831,0.0037610936557851715,0.002,8e-05,0,-1.5218980799261559,-0.001647743779843021,-0.00012175184639409247,-0.0,-0.0017694956262371134,0.1,0.02,0,-0.8584238610544681,-0.014706034295468837,-0.017168477221089364,0.0,-0.0318745115165582,0.000932698758656082,0.0,-0.000932698758656082,-0.033757506546358146,0.0,0.033757506546358146,-0.8238718899215105,0.0,0.8238718899215105,-0.14706034295468837,0,0.14706034295468837,0.0029141780192915496,-0.003753626244843434,0.0318745115165582,0.4,0.033425331115722656,2.15378999710083,STABILIZE
0.035,0.005,0.05,-0.33341757635386704,-0.0010765970732170163,-0.0016670878817693353,0.005165020750159616,0.002421335795173264,0.04,0.006,0.04,-0.36937730917758893,0.0002778943391943161,-0.0022162638550655336,0.005807411815906151,0.0038690423000349336,0.002,8e-05,0,-1.5494378997162095,-0.0016460566065024198,-0.00012395503197729676,-0.0,-0.0017700116384797165,0.1,0.02,0,-0.8630751999204821,-0.013900539523953252,-0.01726150399840964,0.0,-0.031162043522362893,0.0069473584798579015,0.0,-0.0069473584798579015,-0.030759916377629037,0.0,0.030759916377629037,-0.8230283032512099,0.0,0.8230283032512099,-0.1390053952395325,0,0.1390053952395325,0.0024307153505984465,-0.0038631565120781767,0.031162043522362893,0.4,0.033461570739746094,2.1872708797454834,STABILIZE
0.035,0.005,0.05,-0.3344144152246886,-0.0010434799464734215,-0.0016720720761234432,0.004175963720038168,0.0014604116974413035,0.04,0.006,0.04,-0.3690291509199695,0.0004165122605170343,-0.0022141749055198173,0.005837337811350532,0.0040396751663477485,0.002,8e-05,0,-1.5764521289624212,-0.0016158970013234924,-0.0001261161703169937,0.0,-0.001742013171640486,0.1,0.02,0,-0.8672509453573138,-0.012488926610062304,-0.01734501890714628,0.0,-0.029833945517208582,0.010412806512925856,0.0,-0.010412806512925856,-0.02981371275638347,0.0,0.02981371275638347,-0.8079485006617462,0.0,0.8079485006617462,-0.12488926610062302,0,0.12488926610062302,0.0014692136177846204,-0.004036482270609686,0.029833945517208582,0.4,0.03343558311462402,2.2206919193267822,STABILIZE
0.035,0.005,0.05,-0.3354221090189805,-0.0010542789310124445,-0.0016771105450949025,0.004319893135267022,0.0015885036591596754,0.04,0.006,0.04,-0.36870496902689004,0.0003876213095972988,-0.0022122298141613404,0.004698810170506155,0.002874201665942113,0.002,8e-05,0,-1.6030752300216997,-0.0015916498605318963,-0.000128246018401736,0.0,-0.0017198958789336322,0.1,0.02,0,-0.8712082622804618,-0.011829318671000247,-0.017424165245609236,0.0,-0.029253483916609483,0.00969053273993247,0.0,-0.00969053273993247,-0.030122255171784126,0.0,0.030122255171784126,-0.7958249302659481,0.0,0.7958249302659481,-0.11829318671000247,0,0.11829318671000247,0.0015944343621987316,-0.0028709159089579796,0.029253483916609483,0.4,0.03345346450805664,2.254150867462158,STABILIZE
0.035,0.005,0.05,-0.33640602862298274,-0.0010294203459153372,-0.0016820301431149137,0.0033517482494810043,0.0006402977604507533,0.04,0.006,0.04,-0.3685008280691839,0.00024409294585516926,-0.0022110049684151032,0.003334327449246337,0.001367415426686403,0.002,8e-05,0,-1.6294889204617218,-0.0015791528517496239,-0.00013035911363693775,0.0,-0.0017095119653865616,0.1,0.02,0,-0.8748251230117563,-0.010811771931631964,-0.017496502460235125,0.0,-0.02830827439186709,0.006102323646379231,0.0,-0.006102323646379231,-0.02941200988329535,0.0,0.02941200988329535,-0.7895764258748119,0.0,0.7895764258748119,-0.10811771931631962,0,0.10811771931631962,0.0006428769457641711,-0.0013662047444593136,0.02830827439186709,0.4,0.03345298767089844,2.287614107131958,STABILIZE
0.035,0.005,0.05,-0.33732994485505186,-0.000967152228170195,-0.0016866497242752593,0.0018310031434263477,-0.0008227988090191063,0.04,0.006,0.04,-0.36815415016345976,0.00041474422815224366,-0.0022089249009807584,0.002257120865402445,0.00046294019257393034,0.002,8e-05,0,-1.6558698315436018,-0.0015780253693631304,-0.00013246958652348817,0.0,-0.0017104949558866185,0.1,0.02,0,-0.8781530161165734,-0.009953219071226614,-0.01756306032233147,0.0,-0.027516279393558083,0.010368605703806091,0.0,-0.010368605703806091,-0.02763292080486271,0.0,0.02763292080486271,-0.7890126846815652,0.0,0.7890126846815652,-0.09953219071226613,0,0.09953219071226613,-0.0008219933646871143,-0.00046436883017059193,0.027516279393558083,0.4,0.03343534469604492,2.321045160293579,STABILIZE
0.035,0.005,0.05,-0.3380185933571327,-0.0007206435622314275,-0.0016900929667856635,0.0030409816049939637,0.0006302450759768726,0.04,0.006,0.04,-0.36782034191038704,0.0003992196605707003,-0.0022069220514623223,0.0007263012173001897,-0.0010814011735914323,0.002,8e-05,0,-1.681857004860694,-0.0015539745370796683,-0.00013454856038885553,0.0,-0.0016885230974685239,0.1,0.02,0,-0.8811470355354821,-0.008951781487997029,-0.017622940710709644,0.0,-0.02657472219870667,0.009980491514267508,0.0,-0.009980491514267508,-0.02058981606375507,0.0,0.02058981606375507,-0.7769872685398341,0.0,0.7769872685398341,-0.08951781487997029,0,0.08951781487997029,0.000628554747215838,0.001082384536008555,0.02657472219870667,0.4,0.03344607353210449,2.354489326477051,STABILIZE
0.035,0.005,0.05,-0.33849235361507135,-0.0004949000859030782,-0.0016924617680753567,0.004683020905582389,0.002495659051603954,0.04,0.006,0.04,-0.3673594434237944,0.0005502450340594717,-0.0022041566605427664,0.0007986476095641556,-0.0008552640169191389,0.002,8e-05,0,-1.707827890983983,-0.0015502709962350494,-0.00013662623127871866,0.0,-0.001686897227513768,0.1,0.02,0,-0.883872754143156,-0.008135268240974283,-0.01767745508286312,0.0,-0.025812723323837404,0.013756125851486792,0.0,-0.013756125851486792,-0.014140002454373662,0.0,0.014140002454373662,-0.7751354981175247,0.0,0.7751354981175247,-0.08135268240974283,0,0.08135268240974283,0.0024944421707720032,0.0008588066704233639,0.025812723323837404,0.4,0.03350496292114258,2.388010263442993,STABILIZE
0.035,0.005,0.05,-0.33889904164002577,-0.0004255648150863081,-0.0016944952082001289,0.005367524950032943,0.003247464926746506,0.04,0.006,0.04,-0.36681646081184305,0.000649355014644893,-0.002200898764871058,0.001564000885463234,1.2457135237068945e-05,0.002,8e-05,0,-1.7337018855905542,-0.0015471405323912752,-0.00013869615084724434,0.0,-0.0016858366832385196,0.1,0.02,0,-0.8862108097615392,-0.006990224488311263,-0.017724216195230784,0.0,-0.024714440683542047,0.016233875366122325,0.0,-0.016233875366122325,-0.012158994716751659,0.0,0.012158994716751659,-0.7735702661956376,0.0,0.7735702661956376,-0.06990224488311263,0,0.06990224488311263,0.0032474777078912954,-8.495140734844601e-06,0.024714440683542047,0.4,0.0334475040435791,2.4214630126953125,STABILIZE
0.035,0.005,0.05,-0.3393286804411561,-0.000449737956180596,-0.0016966434022057805,0.004948650239736691,0.002802268881350315,0.04,0.006,0.04,-0.3662545473018392,0.0006722293447413137,-0.0021975272838110353,0.0025589161335997507,0.001033618194530029,0.002,8e-05,0,-1.759642783149599,-0.0015516829776881457,-0.00014077142265196793,0.0,-0.0016924544003401136,0.1,0.02,0,-0.8883212068703025,-0.006311784822357682,-0.01776642413740605,0.0,-0.024078208959763734,0.016805733618532843,0.0,-0.016805733618532843,-0.01284965589087417,0.0,0.01284965589087417,-0.7758414888440728,0.0,0.7758414888440728,-0.06311784822357681,0,0.06311784822357681,0.0028034058293189288,-0.0010305305485954848,0.024078208959763734,0.4,0.033435821533203125,2.454932451248169,STABILIZE
0.035,0.005,0.05,-0.339798495923413,-0.0004918537863062327,-0.001698992479617065,0.004056621980813745,0.0018657757148904477,0.04,0.006,0.04,-0.36570778853230673,0.0006541786993817307,-0.0021942467311938402,0.0014301473992309774,-0.00010992063258113212,0.002,8e-05,0,-1.7852773427609665,-0.0015335449379373872,-0.00014282218742087734,0.0,-0.0016763671253582646,0.1,0.02,0,-0.8902691849792601,-0.005826727693968469,-0.017805383699585203,0.0,-0.023632111393553673,0.016354467484543268,0.0,-0.016354467484543268,-0.014052965323035219,0.0,0.014052965323035219,-0.7667724689686936,0.0,0.7667724689686936,-0.058267276939684684,0,0.058267276939684684,0.001865662965689957,0.00011181798690260723,0.023632111393553673,0.4,0.0334317684173584,2.4883430004119873,STABILIZE
0.035,0.005,0.05,-0.34026885247747496,-0.000492595886258375,-0.0017013442623873749,0.0019444684483735258,-0.00024947170027222413,0.04,0.006,0.04,-0.36509875768382966,0.0007289450961000779,-0.002190592546102978,0.0019704179140146182,0.0005087704640117183,0.002,8e-05,0,-1.8106097776835093,-0.0015160114019869874,-0.00014484878221468074,0.0,-0.0016608601842016681,0.1,0.02,0,-0.8921363321784597,-0.005586941112904433,-0.017842726643569194,0.0,-0.023429667756473628,0.018223627402501948,0.0,-0.018223627402501948,-0.014074168178810714,0.0,0.014074168178810714,-0.7580057009934936,0.0,0.7580057009934936,-0.055869411129044325,0,0.055869411129044325,-0.0002489754770357267,-0.0005090134832420905,0.023429667756473628,0.4,0.03341984748840332,2.5217456817626953,STABILIZE
0.035,0.005,0.05,-0.34069722343042574,-0.00039083119465129065,-0.0017034861171521289,0.0007773681308454725,-0.001316949180957947,0.04,0.006,0.04,-0.3642402770661411,0.0008951414071245181,-0.0021854416623968468,0.0019353754662890146,0.0006450752110166858,0.002,8e-05,0,-1.8397606178902923,-0.0015197852801744026,-0.0001471808494312234,0.0,-0.001666966129605626,0.1,0.02,0,-0.8940787698786697,-0.00506347021817263,-0.017881575397573395,0.0,-0.022945045615746024,0.022378535178112953,0.0,-0.022378535178112953,-0.011166605561465447,0.0,0.011166605561465447,-0.7598926400872013,0.0,0.7598926400872013,-0.05063470218172629,0,0.05063470218172629,-0.0013163785865327139,-0.0006462388026203343,0.022945045615746024,0.4,0.03836178779602051,2.560115337371826,STABILIZE
0.035,0.005,0.05,-0.34097837236255163,-0.0002937819825991751,-0.0017048918618127581,0.0010129310583121462,-0.0009857427860997868,0.04,0.006,0.04,-0.3632202203850604,0.0012181617839768298,-0.0021793213223103625,0.0032715160673373366,0.002310356529003804,0.002,8e-05,0,-1.8666973025557005,-0.0016084027708965943,-0.00014933578420445604,-0.0,-0.0017577385551010502,0.1,0.02,0,-0.895347999816467,-0.0037893173829954075,-0.01790695999632934,0.0,-0.021696277379324745,0.030454044599420745,0.0,-0.030454044599420745,-0.008393770931405002,0.0,0.008393770931405002,-0.8042013854482971,0.0,0.8042013854482971,-0.03789317382995407,0,0.03789317382995407,-0.0009842145917406068,-0.0023110079551708915,0.021696277379324745,0.4,0.03349494934082031,2.5936222076416016,STABILIZE
0.035,0.005,0.05,-0.34114315579303217,-0.00017252300435713897,-0.0017057157789651608,0.0022558558433657615,0.00037761706004346175,0.04,0.006,0.04,-0.3621684270658529,0.0012585075565168871,-0.0021730105623951174,0.003376066427981377,0.0024615634221031467,0.002,8e-05,0,-1.8935443484091845,-0.001606171548143221,-0.00015148354787273478,-0.0,-0.0017576550960159557,0.1,0.02,0,-0.8964720289591748,-0.0033623506253797337,-0.017929440579183494,0.0,-0.02129179120456323,0.03146268891292218,0.0,-0.03146268891292218,-0.004929228695918256,0.0,0.004929228695918256,-0.8030857740716104,0.0,0.8030857740716104,-0.033623506253797335,0,0.033623506253797335,0.0003790615410081435,-0.002461341397124859,0.02129179120456323,0.4,0.033429861068725586,2.6270740032196045,STABILIZE
0.035,0.005,0.05,-0.3411955404355477,-5.486305136973071e-05,-0.0017059777021777385,0.003621717623392451,0.0018608768698449817,0.04,0.006,0.04,-0.36108504569629646,0.001296729180305512,-0.002166510274177779,0.0037127940177208536,0.002843012923848587,0.002,8e-05,0,-1.9203636998095721,-0.00160504124101693,-0.00015362909598476578,-0.0,-0.0017586703370016956,0.1,0.02,0,-0.8974617281056876,-0.0029614958293311747,-0.017949234562113753,0.0,-0.020910730391444927,0.0324182295076378,0.0,-0.0324182295076378,-0.0015675157534208771,0.0,0.0015675157534208771,-0.802520620508465,0.0,0.802520620508465,-0.029614958293311747,0,0.029614958293311747,0.0018623461135414629,-0.0028420506968157965,0.020910730391444927,0.4,0.033418893814086914,2.6604666709899902,STABILIZE
