Mode,Time,Freq,North-Vision,East-Vision,Down-Vision,Yaw-Vision,North-Desired,East-Desired,Down-Desired,Roll-UAV,Pitch-UAV,Yaw-UAV,Roll-Control,Pitch-Control,Yaw-Control,Thrust-Control,northVraw,eastVraw,downVraw,yawVraw,zGyro
GUIDED_NOGPS,0.004167079925537109,241.4126856221941,295.4994914624297,-66.32754391264194,7.957256797176132,0.6846037874451384,297.24342835791674,-52.51301857178813,8.20809385554396,1.110427289103226,-0.6526269230722456,2.7682701210774674,-2.680000613023723,0.33832157339189856,-0.03423018937225692,0.5001254185291839,295.4994914624297,-66.32754391264194,7.957256797176132,4.688208953745502,11.229972784564136
GUIDED_NOGPS,0.009769439697265625,179.10598684772398,295.16243451600405,-67.40216420105662,7.976946844254641,5.010708649825617,297.2434366074255,-52.513040977851446,8.208061022315894,1.1607987602933063,-0.8428532409858013,2.8128268601280455,-0.640146977880389,0.11015020531830827,-0.25053543249128085,0.5001155570890307,294.8253775695784,-68.47678448947129,7.996636891333151,5.136743522985753,11.229972784564136
GUIDED_NOGPS,0.025377273559570312,64.0948669753511,294.9866649603575,-68.49719164802906,8.010671462995486,5.049035265299984,297.2434936882636,-52.513196012158645,8.207832508760855,1.1607987602933063,-0.8428532409858013,2.8128268601280455,-0.592362127774984,0.08426791778354624,-0.2524517632649992,0.5000985805228827,294.6351258490643,-70.68724654197392,8.078120700477175,5.366109880132001,11.229972784564136
GUIDED_NOGPS,0.04033946990966797,66.89373375225276,294.7820069918022,-70.64510665007634,8.086854893468795,5.105951689023864,297.2436466131833,-52.513611363610515,8.20721624995672,1.1388883672095518,-0.7448262592960725,3.01683009648434,-0.7070424791378459,0.09309373596094538,-0.2552975844511932,0.500060180678244,294.16803308613623,-72.77128891878382,8.18580708859606,6.0301907765270215,10.771606548459477
GUIDED_NOGPS,0.08790183067321777,21.026925949877928,294.4340510272151,-72.7237785493587,8.179763603626617,5.277228925090349,297.24394043560295,-52.51440939946262,8.20602410089963,1.2375731814937174,-0.8708778273154809,3.652719427552058,-0.7307251483393166,0.10222055215946724,-0.26386144625451746,0.5000131302486365,293.0422271688667,-74.71280018731838,8.27536302180662,6.44784013046845,9.281916281119337
GUIDED_NOGPS,0.14464163780212402,17.8972242964733,293.7966032123066,-75.30124154282402,8.24431194954354,5.739579344273794,297.2444182766324,-52.51570723872734,8.204071809928292,1.001237003545346,-0.7439577580544231,4.259941174012763,-0.8236486339058807,0.1268525967811997,-0.2869789672136897,0.4999798799301924,292.31225238788716,-78.41963552236993,8.271765738227943,6.519322782669164,4.8128454790989155
GUIDED_NOGPS,0.1827220916748047,26.246880514636864,293.19201416045826,-78.11691988619523,8.30980484824946,6.094374906114925,297.2451213520981,-52.51761682557583,8.201178992148245,0.7370616148702374,-0.632859715283994,4.4016833941029825,-0.9355870528091484,0.1501185399595487,-0.3047187453057463,0.4999456870719494,291.8024323103367,-81.21832394889748,8.382285784713817,7.159934726385956,3.151267873219528
GUIDED_NOGPS,0.235612154006958,18.91063860484409,292.62547545271275,-80.28542780672161,8.345445769218527,6.229498871394085,297.2460889995687,-52.52024500274006,8.197169102856149,0.2505367282022097,-0.5357869323656571,4.546316064872588,-0.9975726063919865,0.16789516321152959,-0.3114749435697043,0.4999258616668188,291.8024323103367,-81.21832394889748,8.382285784713817,7.159934726385956,0.6302535746439055
GUIDED_NOGPS,0.28763675689697266,19.225463412845382,291.92415184049815,-81.85835791183443,8.354685502971813,6.309278659837481,297.24735870538,-52.52369358491483,8.191869410964069,0.12356064338582975,-0.2856101231161954,4.490212891030104,-1.0487145239113989,0.1941779511381429,-0.31546393299187403,0.4999185919539961,290.6614150250631,-83.13842583770843,8.299484939487803,7.136238187960259,-1.604281826366305
GUIDED_NOGPS,0.3341968059539795,21.482700867133442,291.33328030006317,-82.90868822380139,8.508228414051368,6.2482092846265775,297.24896613166044,-52.5280594321597,8.185110972423757,0.06590733676686947,-0.11896930218033991,4.33994019155336,-1.0828349919673697,0.21477538124249138,-0.3124104642313289,0.4998384412791862,290.08786946669187,-84.36931488479834,8.84291451795248,7.027977286333851,-4.354479242994256
GUIDED_NOGPS,0.38187527656555176,20.977813344003202,290.88796042834315,-84.03098582473949,8.808540183112756,6.080532115579755,297.25094514335643,-52.53343452330108,8.176728603650934,-0.023187244922256968,0.07245187195114494,4.107324865877059,-1.1239131060174528,0.22906564037668,-0.30402660577898777,0.4996840942102691,290.08565302928685,-84.58521675171178,9.283221091897977,6.67908070284679,-5.844169510334397
GUIDED_NOGPS,0.43092918395996094,20.38761860320423,290.4911691350456,-84.41243349024923,9.395774261248095,5.831847197733698,297.2533278352575,-52.539906029334176,8.166560854949575,-0.022235680842976512,0.18207192581820678,3.785644727197438,-1.1307164937671499,0.2427446820674781,-0.2915923598866849,0.4993853932968507,289.81847584384906,-84.2827688342377,10.061187173893817,6.755263566722462,-7.677634454753031
GUIDED_NOGPS,0.47942376136779785,20.626135363340858,290.3471213184449,-84.30231222340076,9.976043705020274,5.489479762610297,297.2561445590217,-52.547556386825015,8.154449983936187,-0.15399611306975203,0.21717184107607918,3.3148858914853565,-1.1230952101768827,0.24567559055239885,-0.2744739881305149,0.499089203139458,291.0821932273335,-84.03895108425291,10.583722849269012,6.09382356374374,-9.11002894258009
GUIDED_NOGPS,0.5308618545532227,19.443819130886265,290.4111170425578,-83.88246204092688,10.562720763562359,5.072822084651144,297.25942395020087,-52.55646337131244,8.1402419289641,-0.3482107812109192,0.5071590482331949,2.7883205682728627,-1.106756457337786,0.24179448724265504,-0.2536411042325572,0.4987887605827009,290.9813936456278,-83.32566620429016,11.043252267524231,5.639558793664435,-10.714310768946394
GUIDED_NOGPS,0.5809791088104248,19.95824014770121,290.7887997705062,-82.87621806345214,11.298074650669207,4.568323423532663,297.263192955266,-52.56670017071012,8.123786282547742,-0.35933806650336914,0.7287314521254664,2.223581744675991,-1.066700384072062,0.22588399080447974,-0.22841617117663315,0.49841285581593925,291.97628310643387,-81.26403690181344,12.267248835214362,5.348162234631033,-11.688339020668794
GUIDED_NOGPS,0.6231589317321777,23.71311137117884,291.46060718642474,-81.05853670980093,12.229945802646142,4.035212561199381,297.26747685863234,-52.578335458708544,8.104936264786925,-0.4040709497293396,0.8441082882457911,1.7676108021255164,-0.9923611092039263,0.1985937831068805,-0.20176062805996905,0.4979374952310704,293.4446901088795,-78.58590702329927,13.379336305199818,4.008722939132269,-11.115381225537972
GUIDED_NOGPS,0.6718580722808838,20.53886873019837,292.1858500394309,-79.47861698280398,13.008640481871337,3.5842714996841853,297.27229930968485,-52.591433468177044,8.08354869679113,-0.4671013227723924,1.0278504087594775,1.2016381688881053,-0.9431146311470453,0.17408772969606007,-0.17921357498420928,0.4975374541074599,293.4446901088795,-78.58590702329927,13.379336305199818,4.008722939132269,-11.516451682129548
GUIDED_NOGPS,0.7153759002685547,22.981480263878844,292.7629278126178,-77.43338536230452,13.876735751614186,3.0895330692948555,297.27768234980346,-52.60605406456576,8.059483974103788,-0.5277198919864903,0.9894043411385336,0.6976236757157607,-0.8651740413325703,0.15522786673214264,-0.1544766534647428,0.4970913741112448,293.96758209326816,-75.12834204031505,14.871534644442912,3.973787257426139,-10.714310768946394
GUIDED_NOGPS,0.7629382610321045,21.029772469741182,293.4877186907319,-75.7370092432086,14.534279994150063,2.654502166610019,297.2836464393884,-52.62225281930768,8.032606040126561,-0.5708230280434722,0.8134388178817298,0.18488122798055798,-0.8117266650028292,0.12918548315326164,-0.13272510833050097,0.49674916302298827,294.6053480361984,-73.49677866601155,15.351969032807446,3.1261053981940137,-10.026761414789407
GUIDED_NOGPS,0.8027100563049316,25.150683288660225,294.2255611841958,-72.93666722542014,15.303770525170123,2.172117196187751,297.2902104848854,-52.640081083220636,8.002782359543627,-0.60104645503822,0.8404110214706986,-0.20038330279725394,-0.6963740479568422,0.10205173819123896,-0.10860585980938756,0.49634950591718674,295.66549557375316,-70.18488096993387,15.687807898259987,2.3793086711543197,-10.59971920992023
GUIDED_NOGPS,0.8464303016662598,22.876566036706755,294.8795044392588,-70.74563500607053,15.558932356302323,1.7698687559317683,297.2973918658111,-52.65958605990928,7.9698838917459645,-0.7992929625021045,0.9867608444863272,-0.7019545492580777,-0.6300968756921894,0.08135849634922689,-0.08849343779658841,0.49620547576772184,296.71440638419483,-68.55524538226621,15.637020137839514,1.5484222769837572,-10.313240312354818
GUIDED_NOGPS,0.8919222354888916,21.98721960987833,295.4695834204047,-68.54305039199119,15.640006297941914,1.3288647024414548,297.30520646177814,-52.68081087916712,7.933785064255632,-0.9506430175987113,0.8616644357336627,-1.1466023188251406,-0.5537031944490745,0.06202693618989467,-0.06644323512207274,0.4961468893831569,296.3950850146089,-66.88902482377354,15.595190857726216,1.8308474367512702,-10.943493886998723
GUIDED_NOGPS,0.9429442882537842,19.609906165405096,296.0379159283392,-66.38123400095223,15.467667943207141,0.8824558214386033,297.31366867952084,-52.70379467037851,7.894363746150054,-1.235010259729376,0.6246316852116558,-1.6476885818342537,-0.4810263082807419,0.04342593859687153,-0.04412279107193017,0.4962133479014715,296.8092446329409,-63.69943179681699,15.17079283405567,1.191759049061801,-9.568395178684748
GUIDED_NOGPS,0.9902658462524414,21.130633671546747,296.60208148391365,-64.25549187101649,15.17806606142773,0.4230688583164646,297.32279147992,-52.72857263592063,7.851501221486299,-1.5665893702287554,0.4439526910973085,-2.139655154919225,-0.40508066895440803,0.023678136016521953,-0.02115344291582323,0.4963367175800293,297.42617581407046,-62.178018992459,14.768214492501277,0.8653853098755206,-9.224620501606255
GUIDED_NOGPS,1.0284209251403809,26.21620236391252,296.9045453474231,-61.61325353858073,14.439827964996867,0.014691267766770266,297.3325864050286,-52.75517612456554,7.805082162725371,-1.7016534795797014,0.29122475205735743,-2.3879451244104706,-0.29961538173942026,0.015453066900388522,-0.0007345633883385134,0.49668262709886424,297.17781489130044,-58.96230982646628,13.380476568433625,0.6202400926327698,-8.36518380891002
GUIDED_NOGPS,1.0758702754974365,21.080400267381023,297.0924328782693,-59.5379766788331,13.497567088461373,-0.2708228274845972,297.343063605097,-52.78363270488214,7.75499460415648,-1.8925890699498806,-0.014773912618149143,-2.806052806575274,-0.23912099836666686,0.0112238907406573,0.01354114137422986,0.49712871375784756,297.65384403842575,-57.473601217574064,12.344010204449187,0.3264544177698241,-7.39115555718762
GUIDED_NOGPS,1.1249151229858398,20.393566330202074,297.45737065106727,-57.484723249739,12.332143694345449,-0.5792919531121112,297.35423186559797,-52.81396623863818,7.701129915321341,-1.9297527695541548,-0.34514418635614214,-3.066840528143762,-0.1674654432820677,-0.0028853696824692543,0.028964597655605565,0.49768449311048796,298.21977387859874,-56.018258705176684,11.271944310153506,-0.44754300157705984,-4.640958140559668
GUIDED_NOGPS,1.1699192523956299,22.224421777718902,297.8146430552793,-55.65658065642296,10.845109936649735,-0.8354501381278711,297.3660986342523,-52.84619695420229,7.64338277443844,-1.8944477351777704,-0.578108812175466,-3.2170801438917125,-0.1029611292780767,-0.015241403653761216,0.04177250690639356,0.49839913641889433,298.5956066540009,-53.47788204651816,8.919375295346473,-0.6194900225519859,-4.297183463481175
GUIDED_NOGPS,1.2179782390594482,20.81220258917983,298.1699719630001,-53.93773437159717,9.366339537175175,-0.9865228854409427,297.37867004805406,-52.880341519945944,7.581651141827329,-1.7370290570036073,-0.5311031301423209,-3.3328324269729768,-0.04410952306653297,-0.027000572868737565,0.04932614427204714,0.4991076558023261,299.2028203526742,-52.31706236309671,7.907699006025508,-0.8837698127384499,-1.7188733853924698
GUIDED_NOGPS,1.2623319625854492,22.552082717237596,298.6445682241903,-52.1476870134195,7.721292108018801,-1.0779694147885543,297.3919509602958,-52.91641311764548,7.515836233332905,-1.5513434275059348,-0.3963648421591256,-3.370899205651573,0.022155830544812915,-0.04482924560144656,0.05389847073942772,0.49989727206265705,299.55079619725177,-50.64811663064368,6.336802022684387,-0.9400187817687424,-0.2864788975654116
GUIDED_NOGPS,1.3102302551269531,20.880377153723995,299.1148137466448,-51.00862619914219,6.846244678802026,-1.1014594019162134,297.40594496759365,-52.954421515884114,7.44584249374969,-1.4130838568404807,-0.5086919988150397,-3.3486656592427124,0.055166264081086644,-0.06044619508230136,0.05507297009581067,0.5002997989074738,300.00507165069814,-50.06069960368623,6.294233007696147,-1.3936948299237457,0.8594366926962349
GUIDED_NOGPS,1.3542070388793945,22.743709873329863,299.35578824033496,-50.01591482890692,6.506145523807798,-1.0564392572286279,297.4206544369132,-52.99437314345393,7.371577570246118,-1.348323845111828,-0.3253720693694246,-3.265341193349965,0.09089702306469313,-0.06626189946380596,0.0528219628614314,0.5004327160232191,299.4246463470496,-49.3389282523909,6.887401541042823,-1.0403160532426057,2.635605857601787
GUIDED_NOGPS,1.415071725845337,16.43284921191511,299.5215961789447,-49.57951870282267,6.689678696593943,-0.9374010219624873,297.4360805325941,-53.03627116275788,7.292952285788818,-1.1355187360712082,-0.1375871171973253,-3.014037616330863,0.1000476558652348,-0.07031834318389943,0.046870051098124366,0.5003016367945974,299.4246463470496,-49.3389282523909,6.887401541042823,-1.0403160532426057,4.5263665815335035
GUIDED_NOGPS,1.4680860042572021,18.866660968994164,299.4095763376222,-49.373080764650815,7.372964552270236,-0.7041223141225571,297.45222324337584,-53.0801155432118,7.209880612566892,-0.8368274133122633,-0.16701242591538648,-2.755656469227746,0.10742240541220671,-0.06349113123941545,0.035206115706127854,0.49991845803014834,298.64272114606166,-49.441385789170695,8.344090574725028,-0.6767233117916192,5.614986392282068
GUIDED_NOGPS,1.5134296417236328,22.05694212181449,298.9661597418875,-49.548013830779865,8.043648567617712,-0.4264954563594032,297.46908140942287,-53.12590313464639,7.122279645416205,-0.6036556940228706,0.11862053564584614,-2.428603959879087,0.09927311300576248,-0.0435474886232242,0.021324772817970163,0.49953931553889924,297.3337132185786,-49.86372745077806,8.89945358708525,-0.5050311427409895,6.64631042351755
GUIDED_NOGPS,1.5574133396148682,22.743833202288318,298.2950269622964,-50.1456020512746,9.121015949252948,-0.15525546483762231,297.4866527493499,-53.173627740709264,7.030069575243661,-0.40333718464123924,0.11487695165044445,-2.149075479888553,0.07537536521560458,-0.01679682952861332,0.007762773241881116,0.49895452681299535,296.64940775274255,-51.13169291387509,10.119503685948533,-0.185105211205979,6.474423084978302
GUIDED_NOGPS,1.6056344509124756,20.741701942477352,297.59173560057934,-50.97318275890891,9.912064070296191,0.12559907392244044,297.5049338872472,-53.223280192266884,6.93317366245149,-0.29984882637985055,0.20747382622830732,-1.8051976532932137,0.046410720226727695,0.00814493071042903,-0.0062799536961220224,0.49851055479607764,295.9081895384645,-51.924127912073665,10.717234937854759,0.3392057930876149,6.818197762056797
GUIDED_NOGPS,1.6447217464447021,25.591252989700784,296.7379579895311,-51.95624228045841,10.685709888062297,0.43595283466323353,297.5239203797059,-53.27484842080662,6.831518210361532,-0.232253058846026,0.1270908239903082,-1.5730632156231639,0.010009049642684398,0.0424064031593085,-0.021797641733161677,0.49807290416114963,295.1557582918082,-52.81290601542654,11.220391040383564,0.2172351370824117,6.875493541569879
GUIDED_NOGPS,1.6914734840393066,21.392743111872775,295.96376305375713,-52.78460333237657,11.249004441333478,0.6809993636257737,297.5436067428433,-53.32831753183873,6.725032538639515,-0.17776554490736662,0.06309728755257779,-1.2078175690962627,-0.01344525537552096,0.06757883442399025,-0.034049968181288685,0.49773801404865303,294.7717464671918,-53.61677606962957,11.80938734576208,0.7851659003311653,6.245239966925974
GUIDED_NOGPS,1.7473154067993164,17.922001786088167,295.1544578306021,-53.959712072910015,11.66060224091187,0.9769562021381252,297.56398647932804,-53.38366987829836,6.613648956719342,-0.10343466390316737,0.024964127972985042,-0.8689214050050954,-0.05441632788220627,0.09570076680969265,-0.04884781010690626,0.4974765233579037,293.2871871028034,-55.449454133673996,11.95202833658994,1.1314552848363206,6.359831525952138
GUIDED_NOGPS,1.7955968379974365,20.716295242611032,294.48264207416116,-55.12401340574308,11.861583216795827,1.3244256390283649,297.5850521054057,-53.44088513394757,6.497302737227374,-0.06753756418353399,-0.15516973166823061,-0.5849824370797317,-0.09472759971924315,0.11987510257467207,-0.06622128195141824,0.49731785976021575,293.29032897053787,-56.30581001392572,11.823333968035433,1.2519370568727766,6.359831525952138
GUIDED_NOGPS,1.8408780097961426,22.088537332926073,293.68548112559625,-56.54496383647113,11.639636454810704,1.6093181461245947,297.60679517792374,-53.49994036677728,6.375932089406708,-0.004563360108255267,-0.07774633577496264,-0.3244267818604654,-0.1460396947825734,0.15054115902731421,-0.08046590730622974,0.497368147817298,291.9223847956397,-57.87962736181373,11.14354705980671,1.7201196170034194,5.614986392282068
GUIDED_NOGPS,1.888826608657837,20.859919431043917,292.88183091006624,-57.592276011486604,11.282001457512294,1.874200952713994,297.62920632135706,-53.560810112409364,6.249478132541468,0.06299927700603075,-0.24472781239567248,-0.0603100501028969,-0.17602644120502392,0.17926295466990783,-0.0937100476356997,0.4974837383375146,291.13750721415806,-58.591390658720414,10.879123344694714,2.2610726985423355,5.901465289847479
GUIDED_NOGPS,1.9351019859313965,21.615778271378435,291.9642540996912,-58.864624028919,10.80059190048754,2.15177841144194,297.6522752548331,-53.62346644749855,6.117884869381079,0.15618226719204534,-0.2621110707201781,0.18886708358829676,-0.22142175244243317,0.21402144999605766,-0.107588920572097,0.49765864648444674,290.1838624153167,-60.122854066222935,10.379105296961171,2.2780975644397046,5.958761069360562
GUIDED_NOGPS,1.9845027923583984,20.245711251629096,291.33813726259166,-59.82734636941772,10.519159771711603,2.4071545535722523,297.6759908191573,-53.68787906313452,5.9810991595645575,0.2659168201091974,-0.02841550793795711,0.4505846980596851,-0.24914688922978276,0.23346188005310092,-0.12035772767861262,0.4977309696939265,290.1566029173058,-60.76779438330988,10.299250673478902,2.1885444284544207,5.557690612768986
GUIDED_NOGPS,2.045069456100464,16.513593001326818,290.47232415594254,-60.9720589191708,10.351242196730324,2.671331144485571,297.70034100383816,-53.75401533824382,5.839070693044789,0.3286208381759706,0.24906711695274622,0.806643793513772,-0.28717271259625815,0.2658468513811045,-0.13356655722427854,0.4977439142481572,288.9612634372919,-62.02552830797967,10.375370619750875,2.5125029087481607,5.213915935690491
GUIDED_NOGPS,2.087484836578369,23.582053300348587,289.4632347306512,-62.023665474608926,10.481094573742148,3.0075291571798806,297.7253129741129,-53.82184041299195,5.691751963512814,0.37352015390210724,0.30286040619529725,1.0817414550845244,-0.3246305164502092,0.3072164717820423,-0.15037645785899403,0.49760532869488533,286.87693766918323,-63.27767373253733,10.768662427996647,3.2736359484069766,6.245239966925974
GUIDED_NOGPS,2.139406442642212,19.26325458353235,288.5378442947202,-63.08112798141091,10.70463266960141,3.235483655930218,297.75089309797244,-53.89131726218531,5.539098241822112,0.45478777235932877,0.3226952755450143,1.3379384357571178,-0.3576186868443076,0.3379611491876033,-0.1617741827965109,0.49741723278611033,286.5105550345028,-63.94018190371581,10.969864961056688,3.333960681804939,4.984732817638163
GUIDED_NOGPS,2.1899352073669434,19.79472367737977,287.37672264956916,-64.16270994711633,11.136044694167198,3.5040742555732742,297.7770669731868,-53.962406768673205,5.381067549412877,0.49282157403083904,0.3989408906932782,1.6290385368621225,-0.3940125067108725,0.3826658715985093,-0.17520371277866373,0.4971225114276228,284.37825418956163,-65.27027420509593,11.669606693448245,3.8620781898123937,4.92743703812508
GUIDED_NOGPS,2.2300970554351807,24.906053858258364,286.0135135448817,-65.01626842928101,11.566955890174503,3.7395707465986723,297.8038194543304,-54.03506779674989,5.21762063173631,0.5767775122566953,0.48896107640675374,1.7747751369563307,-0.4214237603685031,0.4372151421423937,-0.18697853732993364,0.4968253323707809,283.3405573938686,-65.83834917903137,12.061396016018552,4.251150500681533,4.1252961249419275
GUIDED_NOGPS,2.2709169387817383,24.503160526715504,284.7341506193278,-65.87692106562751,11.943356513365986,3.9098076571543747,297.8311346798074,-54.10925726555652,5.048720931678899,0.5272405514449728,0.5703895244745879,1.9781143508592531,-0.4493906827293569,0.48227149987440887,-0.19549038285771875,0.49655268220915644,282.5644488095227,-66.52213981275533,12.09906683063114,4.166494610823349,4.068000345428845
GUIDED_NOGPS,2.3171308040618896,21.64422243322462,284.05368384772976,-66.53825911081701,12.163271353345076,4.057721098481228,297.85899609887684,-54.18493022248319,4.8743345629866965,0.5374857818391391,0.5036205833563052,2.112439198954251,-0.4671675381036133,0.49936495564412925,-0.20288605492406142,0.4963555316048208,283.47460381119305,-67.25428834066437,12.329351213385515,3.984811163969937,3.20856365273261
GUIDED_NOGPS,2.3634486198425293,21.592632061241616,283.0004100990732,-67.29715561001787,12.32808674706792,4.206392454542836,297.88738649867815,-54.26203991657093,4.694430283689608,0.44477023272444727,0.738515484668098,2.2409748213974288,-0.49264223879778274,0.5419031103049003,-0.21031962272714183,0.49618317176831084,281.24418629121965,-68.11503867663394,12.555842197187072,4.587405908441298,2.521014298575622
GUIDED_NOGPS,2.4145543575286865,19.571565891762248,282.1840741289132,-67.93767421934774,12.503199795528426,4.321070162794443,297.9162880312563,-54.340537871913675,4.508979469525675,0.37422190247847315,0.7430342951342962,2.341191625768087,-0.5111599735890903,0.5689045664097606,-0.21605350813972213,0.49600288983699864,280.29657433876173,-68.44369564074495,12.624405976012659,4.756643295876827,1.5469860468532228
GUIDED_NOGPS,2.463674306869507,20.36346687899326,281.5499276750638,-68.60379794136786,12.554163984112522,4.434871330520498,297.9456822405871,-54.42037396106034,4.317956087365353,0.35150768150677264,0.9718981394089679,2.4777066167091317,-0.5328713456906539,0.591446418027599,-0.22174356652602492,0.4958818960516264,280.16982512462187,-69.25265950672475,12.482243779137802,4.650780112139586,2.3491269600363753
GUIDED_NOGPS,2.5113940238952637,20.961144233604365,280.8961588025046,-69.03846418562016,12.494758191778795,4.549046250806492,297.9755500896025,-54.50149647841675,4.121336668635802,0.5139637309155259,0.9357239634606994,2.5931600790142078,-0.5436349661148485,0.6165421919555394,-0.2274523125403246,0.4958132892384285,279.29560444672654,-69.41903740939081,12.377624820185885,4.835848665365603,2.4064227395494577
GUIDED_NOGPS,2.560230016708374,20.478600095696585,279.93588080595373,-69.5137305366504,12.544614801806269,4.655885001372478,298.005871987216,-54.58385221364767,3.91910028274516,0.8304204290665269,0.7910927867949753,2.699565248216309,-0.5584385867630937,0.6550763134090106,-0.2327942500686239,0.49568724274046944,278.67321382843863,-69.8694946938357,12.773975806095079,5.009881085280583,2.0053522829578814
GUIDED_NOGPS,2.6074607372283936,21.17864716931591,279.4074387852644,-69.81853359361496,12.653011874042358,4.733431204343698,298.0366278153478,-54.66738652507881,3.7112285105068343,1.0318131991385544,0.9058798787691518,2.7822532258557757,-0.5652312542151454,0.6713407784901263,-0.2366715602171849,0.4955291083182322,278.60197618777283,-70.16706867761837,12.807434995846075,4.862748736664216,0.7448451336700702
GUIDED_NOGPS,2.650657892227173,23.152995208549537,278.630554158921,-70.16418858758031,12.796894906893042,4.802421144582373,298.06779695595014,-54.75204341309886,3.4977054175637816,1.118150525507218,0.7237101958684492,2.8024272567864665,-0.5756928007842577,0.7038372738182491,-0.24012105722911864,0.49535040525533536,276.4121512070448,-70.45600239128687,12.809273918737938,5.135836933720725,1.604281826366305
GUIDED_NOGPS,2.690680742263794,24.989001823099745,277.83459287623464,-70.41185842418922,12.790180393792435,4.860426923736969,298.0993583180326,-54.837765593561414,3.2785175278127845,1.176294111642538,0.7339209017907952,2.832583822632542,-0.5810023498783883,0.7346460446527926,-0.24302134618684845,0.4952441685670102,276.19001871119013,-70.61250420366238,12.753832266793262,5.143580581980231,1.088619810748564
GUIDED_NOGPS,2.751227855682373,16.519902006349106,277.1570011541868,-70.607980192534,12.70786436370171,4.911838942378744,298.13129036468746,-54.92449457118705,3.053653796828753,1.09241917519137,0.8803511929725829,2.9432845404923467,-0.5846604989711113,0.7563030300799944,-0.24559194711893723,0.4951728947165635,275.90764583648695,-70.75543398265273,12.5604869055739,5.045988939965525,1.3178029288008934
GUIDED_NOGPS,2.797877550125122,21.438778170219944,276.37708158371987,-70.78827817741232,12.562799240115567,4.985354118418056,298.16357114011487,-55.01217071296528,2.823105585288979,1.0775623398078287,1.1196904129999383,2.9966116693240448,-0.588719292547199,0.7884952039937534,-0.2492677059209028,0.4951301531725867,274.77361597610445,-70.99689634592181,12.374078547979508,5.318707531871098,0.9740282517223995
GUIDED_NOGPS,2.848301649093628,19.843515368857307,275.41100037004463,-70.97036691823077,12.465058060514515,5.0315731095726255,298.19617829664816,-55.100733321556596,2.586866632397447,0.9379587159797629,1.4030111420837101,3.061530696394312,-0.5927358057061028,0.8259304876027076,-0.2515786554786313,0.49506090428594146,273.7715701193964,-71.15877042611771,12.460608727990108,5.522799509800905,0.6302535746439055
GUIDED_NOGPS,2.898852825164795,19.780627331506643,274.7304753787969,-71.31061597930312,12.606586131803217,5.072346722939455,298.22908912177934,-55.19012070869444,2.3449330293090966,0.8050608971736216,1.6095991781540315,3.1145163157675086,-0.6038664166793205,0.849123019304399,-0.2536173361469728,0.4948691734487529,273.00952625080606,-71.77618116586979,12.985071119440002,5.581976554535387,0.6302535746439055
GUIDED_NOGPS,2.9439942836761475,22.16405709182568,274.0629423098677,-71.67979091103071,12.960155560807948,5.104398759357814,298.2622805651841,-55.28027026858722,2.0973031925541212,0.7340579858218714,1.6848320043144294,3.122071358763189,-0.6150031106746587,0.875505899271744,-0.2552199379678907,0.4945685738158731,272.8523533665444,-72.10442114110458,13.4347868349937,5.6033219866426975,0.2864788975654116
GUIDED_NOGPS,2.995762825012207,19.316216801219497,273.43774187459684,-72.12014280621798,13.4645504142497,5.097666593155945,298.2957292657472,-55.371118551320315,1.8439778374622353,0.6988998005126423,2.0571895853146063,3.0876369600625697,-0.6283801497370286,0.8984265298803527,-0.25488332965779725,0.49418971371160625,272.7816436601325,-72.47982611167954,13.97379328831536,5.494505244221756,-1.1459155902616465
GUIDED_NOGPS,3.0421011447906494,21.58285434944812,273.1210676350855,-72.65519730595678,14.101493956977341,5.044176266264715,298.329411578588,-55.46260133625807,1.5849599515869741,0.7235071044623471,2.0937199983167734,3.008727571138001,-0.6460981373514518,0.9092681072899114,-0.2522088133132358,0.49374173299730484,273.19024477854776,-73.38134466508615,14.89590174762292,4.821002744060934,-1.948056503444799
GUIDED_NOGPS,3.0847971439361572,23.427939451488577,272.768404894759,-73.11932824854209,14.840853782167102,4.970160059774704,298.36330360208535,-55.554653705445794,1.320254768129959,0.7538303162520005,2.0314909985624334,2.929982320196924,-0.6594670414378628,0.9246576646085629,-0.2485080029887352,0.49323970049298144,272.00825641776345,-73.4968139688605,15.652866310562986,5.307879665192871,-2.177239621497128
GUIDED_NOGPS,3.1242623329162598,25.34429855039186,272.4415203189395,-73.45008136020903,15.459086490544598,4.888614927438496,298.3973812049033,-55.647210117011795,1.0498697393651941,0.8098307170918176,1.8037289491782496,2.808144978895413,-0.6671596892821303,0.9383547406181536,-0.24443074637192483,0.4927953916244103,271.3751033717087,-73.47208544668037,15.828491413447841,4.981568458255424,-2.2345354010102105
GUIDED_NOGPS,3.172151803970337,20.885783857265924,272.1285682134282,-73.48883480269843,15.714244515859404,4.796642232362562,298.431620053016,-55.74020447856934,0.773814510063346,0.6580747993481241,1.7026109867239725,2.675760331411522,-0.6625168413105512,0.9508323455933927,-0.23983211161812812,0.492529784997102,271.2875928389876,-73.49760499255436,15.66137582356734,5.064863107915301,-3.0366763141933633
GUIDED_NOGPS,3.218815326690674,21.43538165910299,271.7443743437545,-73.42140542802197,15.539314622025152,4.655076452238096,298.4659956367333,-55.83357022061869,0.4921008909160225,0.6581338698122741,1.3637157831281574,2.459822833584511,-0.6565740473751619,0.9675433432542059,-0.2327538226119048,0.4924763931344454,270.86067431176383,-73.29452584483107,15.12807662906023,5.364208707222289,-4.239887683968092
GUIDED_NOGPS,3.2677061557769775,20.457923822437703,271.32270872362494,-73.30189904705149,14.55434434818642,4.47461859374227,298.50048329772585,-55.927240369949075,0.20474283196005594,0.6809110565903856,1.4324087031582682,2.248058581340378,-0.6494892846321686,0.9850523555389381,-0.2237309296871135,0.49282519924188684,271.08191667790004,-73.11356630376893,12.873580591931649,5.264314225914546,-4.984732817638163
GUIDED_NOGPS,3.302647352218628,28.62888891922515,271.1684712511361,-73.14358637765068,13.157909459233494,4.2580711901048724,298.5350582560506,-56.02114762304073,-0.08824360399821174,0.6806765890027838,1.4302290190393878,2.0681166073261577,-0.6398498115179254,0.9906407072554643,-0.21290355950524364,0.49337692346838413,271.2370690553192,-73.02266698435191,11.472071156708559,4.9179763451886345,-5.385803274229739
GUIDED_NOGPS,3.352198839187622,20.185593901447156,271.1656882705447,-72.95808391312808,11.651819633495293,4.101175986090494,298.5696956371758,-56.11522441946687,-0.3868402679586378,0.7303462048947926,1.2964580565973955,1.8122099096932898,-0.6316667440012775,0.9909924889321706,-0.20505879930452472,0.49398067004927304,271.3611884687518,-72.73801845126329,10.609807151845628,4.677775022866697,-4.698253920072751
GUIDED_NOGPS,3.397216796875,22.21841759545705,271.40928534134935,-72.61500135989907,10.653732624094319,3.86156983526421,298.6043704990066,-56.2094030152957,-0.6910269513030176,0.7081595093147698,1.438316389903506,1.6110473917014858,-0.6150695266933591,0.9822048336011673,-0.1930784917632105,0.4943276202123013,272.50557819301065,-72.08431864408195,9.879319563728728,4.156685050202739,-5.385803274229739
GUIDED_NOGPS,3.4380862712860107,24.4748500338445,271.67984142311514,-72.16466590803095,10.083896956552591,3.6516979962292604,298.6390578589101,-56.303615556492424,-1.0007814123707774,0.5656653814464663,1.1587072283034017,1.4107668218862597,-0.5948450566174704,0.9744815848128544,-0.18258489981146303,0.4944576608155383,272.21345472059306,-71.6716606287476,9.762564154083375,4.027564850110764,-4.583662361046586
GUIDED_NOGPS,3.4852137565612793,21.223334868211328,271.972321122755,-71.70975442158782,9.678196537082817,3.4836321563124812,298.67373272074093,-56.397794152321254,-1.316079403034708,0.37677345838114895,0.938391792661824,1.2024030433534407,-0.5771938816777696,0.9668711750679782,-0.17418160781562408,0.49450286202994126,272.544315176099,-71.37328399193386,9.39270589343631,3.763379554029484,-3.7815214478634336
GUIDED_NOGPS,3.5236968994140625,25.988301774561318,272.28378032966134,-71.3361647353192,8.943184652793972,3.335989409313526,298.70837010186614,-56.49187094874739,-1.6368946952766716,0.2823992938760547,0.91242810919249,1.1467070128185124,-0.5611636813473478,0.9573501053092187,-0.1667994704656763,0.4947099603259647,272.79436508985106,-70.96354958527606,7.6742839108621945,3.6567721188877726,-1.8334649444186344
GUIDED_NOGPS,3.5696167945861816,21.782481797314,272.77049313203656,-71.09527167307395,7.8442154680911464,3.2774034688223566,298.74294506019083,-56.58577820183905,-1.9631991077633284,0.37514819352380324,0.5710065893774163,1.080239133632239,-0.5524672677302943,0.9412980747896393,-0.16387017344111784,0.4950962927120728,273.79475248062784,-70.94898144201181,6.465656599974902,3.7419009533216467,-0.5156620156177409
GUIDED_NOGPS,3.614999294281006,22.039093698768337,273.21184958771113,-71.04741569489512,6.396937055255154,3.2444089772303104,298.7774327211834,-56.679448351169434,-2.2949625324218523,0.4270271621688995,0.7062797665499883,1.0983225930683767,-0.5503332774826311,0.9288052287909491,-0.16222044886151554,0.4956540502061615,274.71236047138353,-71.22971605739743,5.050870654928331,3.280696579527117,0.4583662361046586
GUIDED_NOGPS,3.6720032691955566,17.545131307046827,273.69636409276217,-71.34085115002328,4.932894776662813,3.275756952161696,298.8118083049007,-56.772814093218784,-2.6321529610156276,0.6225200895410641,0.9731032409106519,1.1914743137945973,-0.5614593962323748,0.9149479569782759,-0.16378784760808482,0.4962174761311608,274.6360272458483,-71.8438559506605,3.2821570750851743,3.505266329368311,2.2345354010102105
GUIDED_NOGPS,3.7171316146850586,22.165111240289594,273.95619842994006,-71.84580373949605,3.780281415706677,3.3698762414794627,298.84604715301344,-56.86580845477633,-2.974736511720007,0.7252652912042435,1.1572067211201145,1.2964103519949113,-0.5793644467066762,0.9096255927317468,-0.16849381207397315,0.49662249103628664,273.8434868619883,-72.46383921043012,3.0078165171064932,3.6418971510790357,2.807493196141034
GUIDED_NOGPS,3.7646031379699707,21.068223144232025,273.9639165036443,-72.7686440139027,3.409236997686795,3.4936412150409466,298.88012475583133,-56.95836486634233,-3.322677455697983,0.693004493485275,1.5482431619529837,1.4698396339138189,-0.6133415097740881,0.914511196200486,-0.17468206075204734,0.49663404277330764,272.83295545837217,-73.99823688061734,3.9377374008686843,4.323703115066223,3.2658594322456924
GUIDED_NOGPS,3.8103439807891846,21.866744520676495,273.84749550921634,-73.83717194855082,3.957906018772365,3.6465015797479565,298.91401677932873,-57.05041723553006,-3.675938243675942,0.6245770436982957,1.834557434883925,1.6553955965389668,-0.6502453474497268,0.9222854866608294,-0.18232507898739783,0.49618307786877586,273.2126475084881,-75.04943975460488,4.9281641383418835,4.114694362115131,3.7815214478634336
GUIDED_NOGPS,3.8626270294189453,19.129624139708195,273.50788166230393,-75.088175153257,4.8361993336572775,3.809848908252347,298.94769909216956,-57.14190002046781,-4.034479532519359,0.5596908335525563,1.742682425923968,1.8162572236633454,-0.6921537936145226,0.9386029601274968,-0.19049244541261734,0.4955646605669117,273.0142912368216,-76.21684882454866,5.642696461761229,4.439435452094159,3.7815214478634336
GUIDED_NOGPS,3.907140016555786,22.47269609944278,273.0884801508969,-76.70470763734629,5.858487832184179,3.9928150268206135,298.98114779273266,-57.23274830320091,-4.398260211808527,0.36944877418739785,1.7188339666632222,1.97294752619555,-0.752483702748817,0.957126495663532,-0.19964075134103068,0.49487162597800366,272.5390196888131,-78.84783433288523,7.004602896449391,4.813271413649829,3.380450991271857
GUIDED_NOGPS,3.9578745365142822,19.71387344366161,272.8245851077223,-78.47105990739782,6.63452622509427,4.153313806889245,299.0143392361374,-57.32289786309369,-4.76723743041426,0.012180615188299595,1.6224198701129684,2.1755695702356213,-0.8117705479833559,0.966710189830988,-0.20766569034446225,0.49429911817224575,272.52401164611547,-80.34849656475942,7.256279317072158,4.911081985786282,3.666929888837269
GUIDED_NOGPS,4.005162715911865,21.150346176925908,272.8608501608079,-80.84362680721627,6.996673688575199,4.337362775708681,299.0472500612685,-57.41228525023153,-5.141366623073623,-0.2597119934546375,1.4343924462253337,2.356311743599791,-0.89997913161627,0.9648490282236654,-0.21686813878543407,0.4939309798441756,273.0142807238001,-83.33454952400403,6.729138852204018,5.2356106901200405,3.7815214478634336
GUIDED_NOGPS,4.05162787437439,21.530671539890967,272.92401329741534,-82.86751053849501,6.618432054424711,4.523082340670809,299.0798572178019,-57.50084785882285,-5.52060153696565,-0.47585052829491425,1.3805039612212255,2.5835689993156286,-0.9658712692780286,0.9646986380458419,-0.2261541170335405,0.4939304832043048,273.52846319152536,-84.91948552672143,5.869877993997927,5.474387956122101,4.010704565915763
GUIDED_NOGPS,4.099855899810791,20.739548153898642,273.1452122645286,-85.4693614966532,5.329081846723043,4.720725418333866,299.1121379932292,-57.58852400060108,-5.904894258287051,-0.6009375988983229,1.1197638375335162,2.79186138102728,-1.06042902585284,0.9577081125328919,-0.23603627091669332,0.49438301194749495,274.12028607238796,-88.15404943923406,3.3882286939671533,5.453886730873876,4.755549699585833
GUIDED_NOGPS,4.1423468589782715,23.539437204655915,273.5576904909901,-87.64052730913313,3.84510573442148,4.918835115814893,299.1440700398841,-57.675252978226716,-6.294195238827937,-0.6452018137533541,0.8844700104855121,2.920437771162066,-1.133042648769803,0.9429733852187457,-0.24594175579074468,0.4949303495133753,274.6014108211208,-89.84804696144387,2.2772105152993305,4.991005788201861,4.010704565915763
GUIDED_NOGPS,4.193812131881714,19.43534994068802,273.7984888206504,-89.75800972395348,2.3357415877064716,5.083214188862807,299.1756314019666,-57.76097515868927,-6.688453322547533,-0.897968065111044,0.767069303936748,3.124959675008458,-1.2013950865473602,0.9393312405135961,-0.25416070944314034,0.495487902544873,273.72800329441674,-91.27193277118243,1.3417855538529024,5.875893268508278,3.380450991271857
GUIDED_NOGPS,4.236105918884277,23.649200755546786,274.0813304499741,-91.91435903380928,1.1039638423112952,5.23332952091059,299.20680054256894,-57.84563204670931,-7.087615772149897,-1.0890529591476115,0.42283331929680595,3.226948700025323,-1.2793363076108837,0.9307520091559448,-0.2616664760455295,0.4959042101927694,274.4284888704186,-94.62309736880152,-0.30710454221837613,5.4996116938893636,2.0053522829578814
GUIDED_NOGPS,4.281651258468628,21.960166705061887,274.2622745350736,-93.97198189723865,-0.06913821931117366,5.3284975764090765,299.23755637070076,-57.92916635814046,-7.491628295659638,-1.3590504437599213,0.41420145428979077,3.3064775017302477,-1.3476821284314786,0.9279073304726655,-0.26642487882045385,0.4962887549618258,274.4331836170229,-96.02091555173192,-1.242095669568076,6.029428845898494,1.4896902673401404
GUIDED_NOGPS,4.333464622497559,19.304214954389387,274.2880914227504,-96.45019274434573,-1.7012922712736138,5.391405431025207,299.26787826831423,-58.01152209337138,-7.900435072997627,-1.538963176026758,0.19248262821718715,3.350454528475021,-1.4349851220162042,0.9310507908008921,-0.2695702715512604,0.49690042859913797,274.2493705107721,-98.70656531250368,-3.5546766020344176,6.201782482561185,0.2291831180523293
GUIDED_NOGPS,4.379842758178711,21.56454498714653,274.0721578639059,-98.10454477736342,-3.100937163655195,5.420865130378871,299.29774611732967,-58.09264461072779,-8.313978782556724,-1.5998606090580627,-0.061700940754133314,3.3662542501291415,-1.485730849958268,0.9434280317104378,-0.27104325651894356,0.4973934791905492,273.5217430268983,-99.5861534678546,-4.506039219363118,6.444550966375203,-0.5729577951308232
GUIDED_NOGPS,4.430254936218262,19.840793195772903,274.0940711293865,-99.65814170656438,-4.523848443742572,5.4202902471533525,299.3271403266604,-58.17248069987444,-8.732200627777491,-1.5199312807913405,-0.3044014676267814,3.317047432914254,-1.537102015463131,0.9423886062722923,-0.27101451235766766,0.49789582390798254,273.83756962181985,-100.68170633933485,-5.510829509830208,6.198442211208558,-0.40107045659157625
GUIDED_NOGPS,4.4756011962890625,22.0577541006884,274.07176830778945,-100.8744187121631,-5.724753192817637,5.3849573529339745,299.3560418592386,-58.2509786552172,-9.155040363723902,-1.5211060733285826,-0.1712159804627062,3.262598872398205,-1.5767849819577735,0.9458165936994456,-0.2692478676466987,0.4982848564145469,274.3169747624333,-102.35539632929986,-7.157390849259612,6.233088977867638,-1.8907607239317168
GUIDED_NOGPS,4.523467063903809,20.89556462259686,274.22828473924284,-102.04811942689203,-6.8306963601212045,5.304030543017215,299.3844322590399,-58.328088349304934,-9.58243632365907,-1.4925841638499615,-0.09654429703130711,3.0823853983644764,-1.6161286087026467,0.9406370338835658,-0.26520152715086076,0.4986241300182311,275.2157657742898,-103.10725561204141,-7.82386872127382,6.166971243665074,-2.979380534680281
GUIDED_NOGPS,4.568957328796387,21.987680661784363,274.5039896920437,-103.17976975110219,-7.722730700108268,5.16212394718368,299.41229367810934,-58.4037613062316,-10.014325445620965,-1.6144909809819357,-0.10393178694891059,2.903206484546593,-1.655302182115487,0.9317055345861844,-0.258106197359184,0.49885420262724367,275.62789527477656,-104.07665731196535,-8.186932529791397,5.903963041239265,-4.5263665815335035
GUIDED_NOGPS,4.6207475662231445,19.312481294404208,275.06682885669835,-103.84761733624809,-8.05748924062396,4.99621184832817,299.4396089035863,-58.47795077503824,-10.450643298998099,-1.6996508467707125,0.0234881667820276,2.661026546154747,-1.6725513841967095,0.911775486410324,-0.24981059241640852,0.4988034229708129,276.3359388501715,-104.35893908473759,-8.16166647080669,5.853941225940517,-4.354479242994256
GUIDED_NOGPS,4.665730953216553,22.233964504569453,275.8934109569107,-104.29267070520557,-8.069889624001299,4.758022005302486,299.46636138472996,-58.55061180311492,-10.891324111105316,-1.681428649117059,0.4030848945287719,2.387499027680304,-1.6860431422974118,0.8811425179097127,-0.23790110026512432,0.498589282756448,277.97048012288155,-104.44241571891384,-7.861069871405839,5.320666344019301,-6.187944187412891
GUIDED_NOGPS,4.711183547973633,22.00348337005561,276.64623898392955,-104.3384647783571,-7.856747113475788,4.510035585238235,299.4925352599443,-58.62170130960282,-11.336300793759431,-1.6679911056987051,0.5270835638157684,2.1197675650468515,-1.682831546456084,0.8576524246529631,-0.22550177926191176,0.4982602231598582,278.0811148975275,-104.21403953141996,-7.547504998214867,5.002846660330803,-6.245239966925974
GUIDED_NOGPS,4.762085676193237,19.64830490609878,277.33917831164024,-104.17651999006672,-7.470336268405306,4.245845630645935,299.51811538380383,-58.69117815879618,-11.785504969855001,-1.6724290211119208,0.624317069623012,1.8268480723016849,-1.675048576893136,0.8368367467148744,-0.21229228153229673,0.49784241564927517,278.6804624128434,-103.87310471986642,-7.002433935595241,4.750204151669436,-6.187944187412891
GUIDED_NOGPS,4.8154356479644775,18.748257843614923,278.25875687715376,-103.68010354119484,-6.739396702844165,3.961414375855646,299.5430873540786,-58.759003233544306,-12.238866999939983,-1.6935184041130988,0.8558515178631587,1.4999363288829513,-1.6546622136392724,0.8048101452503577,-0.19807071879278232,0.4972502648514521,280.22578810234404,-102.95316637229813,-5.668251174722416,4.624779388528921,-5.500394833255903
GUIDED_NOGPS,4.8809521198272705,15.265503699632767,279.13168781687676,-103.06388954386894,-5.913282564180196,3.661615595787643,299.56743753875946,-58.82513950865361,-12.69631600879153,-1.8635005749352658,1.2225692835996091,1.0712667196620753,-1.6337771407990755,0.7783834224977111,-0.18308077978938217,0.49660848327769436,280.70059354878657,-102.36539753944224,-5.069162582222959,4.612917721075291,-6.41712730546522
GUIDED_NOGPS,4.9266040325164795,21.91347053076493,280.1666758969275,-101.9695019931357,-4.719118601924251,3.2911775658253783,299.5911531030836,-58.88955212428957,-13.157779911991657,-2.038534631144009,1.2498889730626024,0.8443578035939082,-1.587691453681886,0.7392665261437849,-0.16455887829126892,0.4957806693449663,283.1454205231351,-100.58994206766667,-3.419942048827408,3.6446177090365097,-4.92743703812508
GUIDED_NOGPS,4.978499412536621,19.27307983917289,281.29226775100113,-100.96666276941586,-3.7691727901802916,3.094597672654793,299.6142220365597,-58.95220845937877,-13.623185442502951,-2.3231859664554637,1.3935107758350456,0.6162269239945435,-1.5547636861126874,0.7018568719303034,-0.15472988363273965,0.49507299367383867,283.70907416789584,-99.94464870113863,-2.818413739490536,3.461418171236417,-3.495042550298022
GUIDED_NOGPS,5.0302019119262695,19.34534988838256,282.63026068265356,-99.80689804481555,-2.782167953092775,2.9116301652396266,299.63663317999294,-59.01307820501084,-14.092458177244325,-2.395283095456591,1.581994968623425,0.438230860202689,-1.5130802919396793,0.6550598248268806,-0.14558150826198132,0.49434485488792423,285.3704270711054,-98.88610336564132,-2.1081480709604086,2.6997569052675203,-2.864788975654116
GUIDED_NOGPS,5.081342935562134,19.556235254622937,283.8459282047983,-99.08253152245713,-2.312672998124537,2.795342913523149,299.658376252511,-59.07213343784056,-14.565522563666683,-2.4759975753127477,1.3823425627684285,0.4283759110865655,-1.4916353699147633,0.6148989774558276,-0.13976714567615744,0.4938735752172289,286.30412571306795,-98.41684250059136,-2.0114571839226936,2.751827137880511,-0.2864788975654116
GUIDED_NOGPS,5.127187728881836,21.81601805906646,285.260155152746,-98.50121815118013,-2.1462078926289827,2.7855934279165466,299.6794418785887,-59.12934869348976,-15.042301946328724,-2.4489323103963376,1.1227185346797812,0.4708843937989332,-1.471805797620598,0.563312742119173,-0.13927967139582734,0.49355195297315013,287.7717282885249,-98.20070858730767,-2.319018423003874,2.65577594970469,1.604281826366305
GUIDED_NOGPS,5.176559209823608,20.259793455894428,286.3507780758994,-98.15621816850667,-2.5207834768862463,2.8531697536267466,299.69982161507346,-59.18470103994939,-15.522718593472565,-2.4645181617520717,0.9530350779120966,0.5986184295099862,-1.4625855912476247,0.5307843323900908,-0.14265848768133735,0.49349903244170684,288.59853513890226,-97.85110341762096,-3.2318748237322,2.866825856552339,3.0366763141933633
GUIDED_NOGPS,5.218140363693237,24.05514963122699,287.35787757127645,-98.01713925916467,-3.1369018251063867,2.979955076864766,299.71950797821086,-59.2381701509815,-16.006693723599497,-2.5498861348671222,0.7981253203191496,0.7541831915721668,-1.459212923343129,0.4957436268743913,-0.1489977538432383,0.49356510405075343,288.7445716447809,-97.99960577256533,-3.859812228583115,3.18593559131385,3.724225668350351
GUIDED_NOGPS,5.264103651046753,21.761348130392598,288.1286123401898,-98.0914285634492,-3.968459932541107,3.1306462120060163,299.73849447066954,-59.28973837952123,-16.494147532045712,-2.518899914480302,0.5177863956949116,0.9608415572465981,-1.4643539907590104,0.473660770726468,-0.15653231060030082,0.4937371562002477,289.2241009156724,-98.42357650016123,-4.813692745308035,2.98250812353335,4.640958140559668
GUIDED_NOGPS,5.312968730926514,20.466409025256667,288.65471013104263,-98.59856917599359,-5.189923418985773,3.322224488860844,299.75677560856684,-59.339390831078866,-16.984999217558023,-2.4218346020813697,0.29385437488781235,1.206614602028694,-1.486706553309509,0.4594389822164712,-0.16611122444304222,0.4941024621007139,288.93461466733186,-99.37252525525415,-6.896265283066198,3.516872672780579,4.755549699585833
GUIDED_NOGPS,5.36050271987915,21.043172000662256,289.0263199998995,-99.53921783400729,-7.0557696736995466,3.550135195192646,299.77434694849387,-59.38711543714173,-17.479167008869542,-2.2367176925538064,0.09865439859801792,1.4936486061434255,-1.524634571687246,0.4489881613508322,-0.17750675975963232,0.494788301332415,289.6297776328093,-100.82155174660642,-9.457350992724438,3.5554868538223303,5.328507494716656
GUIDED_NOGPS,5.4059367179870605,22.0121441129392,289.2896108144899,-100.59140269609749,-9.053318361461802,3.7851418517981656,299.7912051145409,-59.432903028576334,-17.976568191275437,-2.046539612851264,-0.11048449968389157,1.7579646540267542,-1.5633315354315391,0.441882132248496,-0.1892570925899083,0.4955383750850932,289.9149892118541,-101.5801310864318,-10.806338808594802,4.036811958519266,5.328507494716656
GUIDED_NOGPS,5.455474138259888,20.19181313576253,289.5776150379337,-101.6303690615833,-10.775394903194018,4.038803533618834,299.80734782532267,-59.47674740903024,-18.47711913320865,-1.874560785635632,-0.6488563384852811,2.1093376527408307,-1.59929157506656,0.4328184959103762,-0.20194017668094172,0.4961491378849927,290.1845927620003,-102.48942435171155,-12.062494908262847,4.302454532823049,6.359831525952138
GUIDED_NOGPS,5.49554181098938,24.960597963543744,289.718013527341,-102.78648303877816,-12.33029391361495,4.3313100105004905,299.82277392100355,-59.518645428334196,-18.980735312815593,-1.786101511590916,-0.7333915621301191,2.3241334417593915,-1.643784313553752,0.4300541836544851,-0.21656550052502455,0.49667477930039966,289.92609336270885,-104.28989367819096,-14.12204802398723,4.295796383359871,6.474423084978302
GUIDED_NOGPS,5.5442423820495605,20.53886873019837,289.837623231141,-103.95125250161554,-13.730639425458806,4.586137126191758,299.8374833903231,-59.55859705590401,-19.487331344531835,-1.6846876098465071,-0.6883431561810058,2.660899547324867,-1.6830453256952096,0.42734147519769633,-0.22930685630958791,0.4971216540404635,289.5326631863319,-105.07443947494396,-15.007375344126375,4.672351787084111,6.990085100596044
GUIDED_NOGPS,5.601961374282837,17.328540855870372,289.94942404408323,-105.1181052223435,-14.999455615454133,4.923000117863567,299.85147739762095,-59.59660545414265,-19.99682100565791,-1.5111699623552124,-0.4886812520941948,3.152700488322465,-1.7235037764644179,0.4246992428693044,-0.24615000589317837,0.4975013173048981,290.18878169752065,-105.98998251389541,-15.868943478248834,4.774058020234307,8.13600069085769
GUIDED_NOGPS,5.642288446426392,24.801196804579078,289.83639369714507,-106.27676554268605,-15.93461548065381,5.3742684452074805,299.8647583098626,-59.63267705184218,-20.50911726293496,-1.3576469466071894,-0.5168722175631877,3.5035410524463977,-1.7683811709382853,0.4319246749072577,-0.26871342226037404,0.49771274910885943,289.34983747716313,-107.76587463921862,-16.927527619586254,5.582375561462115,9.396507840145501
GUIDED_NOGPS,5.692210912704468,20.036420266177497,289.616838145026,-107.51075442109793,-16.564367755182506,5.730055691784205,299.87732972366445,-59.66682161758583,-21.024132299120467,-0.9846456202777388,-0.16172714015826598,3.910521929566427,-1.8112101153164064,0.44136107926378926,-0.28650278458921025,0.49777011772803104,289.08681500140534,-108.77640611017962,-16.896632167712472,6.105699355769403,8.88084582452776
GUIDED_NOGPS,5.732775449752808,24.657581921435373,289.1885935358963,-109.1875291417562,-16.45664948293116,6.162295083059347,299.8891964923188,-59.69905233314994,-21.54177753956397,-0.99526197540376,-0.04699554347109586,4.33607387759631,-1.8789922032492312,0.4602910338639256,-0.3081147541529674,0.49745743597168357,287.78487031706015,-111.02030667587023,-15.545788661494802,6.483735683730728,9.052733163067007
GUIDED_NOGPS,5.787179470062256,18.384942447115343,288.74462321844715,-110.65036359043745,-15.691749559274081,6.4980697873909765,299.9003647528197,-59.72938586690599,-22.06196367878282,-0.8375903667868949,0.3145118551456928,4.772444845271493,-1.9247955527874052,0.4755855692290979,-0.3249034893695488,0.4968148929402456,287.31281159908565,-112.15437798526239,-14.63282784861503,7.20319650992279,7.964113352318443
GUIDED_NOGPS,5.831559419631958,22.535845731448497,287.98930882803285,-112.54234306457181,-14.250657375691086,6.940794500688743,299.91084195288806,-59.7578424472226,-22.584600707037797,-0.8154595933807015,0.40149879653744797,5.0965091468582715,-2.0001996419836505,0.507364664809016,-0.3470397250344372,0.49583302833432663,286.4122097454491,-114.45234453258269,-12.573355616963486,7.530671038794168,8.021409131831525
GUIDED_NOGPS,5.87913179397583,21.026925949877928,287.4574196435427,-114.10548634917096,-13.070452306726784,7.2701196838785975,299.92063687799674,-59.7844459358675,-23.109597936909008,-0.812873299562794,0.4745162935292346,5.538634975796013,-2.051710903199293,0.5239798060075628,-0.3635059841939299,0.49498042718490887,286.69039155471256,-115.70973652966768,-12.005173454601893,7.577046905184801,6.875493541569879
GUIDED_NOGPS,5.928153991699219,20.4016012685627,286.69207563517546,-115.92053145619046,-11.953270587721333,7.617686608559203,299.9297596783959,-59.809223901409624,-23.636864029871358,-0.5360410367471228,0.5400694609752551,5.786958029016051,-2.119221348277388,0.553935347200253,-0.38088433042796016,0.494158203278925,285.26009495956913,-117.5995133063209,-11.281282691598678,8.404580772249304,7.276563998161455
GUIDED_NOGPS,5.977517604827881,20.2606742441442,286.00410069764666,-117.23147848101797,-11.400538517195892,7.94588425343434,299.93822189613854,-59.832207692621,-24.166307022870516,-0.6336301926388831,0.48916299387409223,6.20914312067194,-2.161929302912263,0.5781554819731156,-0.397294212671717,0.4936171157471627,284.3449956294163,-118.38518560706521,-10.91515940538717,8.368701349666907,6.0733526283867265
GUIDED_NOGPS,6.021074056625366,22.965750986951974,285.53853999038563,-118.80900905842945,-11.02586649649905,8.265541013189457,299.94603649210563,-59.85343251187884,-24.697834354898436,-0.40997868983543034,0.3813390663153322,6.416968701642503,-2.2238582150672483,0.5937567049346331,-0.4132770506594729,0.4931640160708003,284.9850080627808,-120.44232826190213,-10.88115739251137,8.288756426623337,6.875493541569879
GUIDED_NOGPS,6.064458847045898,23.054113327433726,285.1657157591491,-119.95292614394087,-10.934522313870366,8.512444407921654,299.9532178730313,-59.872937488567494,-25.231352893569184,-0.45028854532614154,0.44776222910688307,6.660621186130722,-2.260886390721644,0.6066381619687199,-0.4256222203960827,0.4928515847101506,284.5480885892664,-121.03126456285516,-11.007250143712618,8.99826066975261,4.640958140559668
GUIDED_NOGPS,6.109496831893921,22.208535423064703,284.4839821199958,-120.97374293147959,-10.983092257689705,8.727170394332946,299.95978191852834,-59.89076575248043,-25.766768961694627,-0.36287823892755133,0.43458935551886724,6.847217685387239,-2.296839168052033,0.6346453706110462,-0.4363585197166473,0.49260816164799753,283.2817233589459,-121.4476359696814,-11.060869236845196,9.097953481390078,4.583662361046586
GUIDED_NOGPS,6.156314849853516,21.363758608043682,284.0628444614329,-121.48648297010182,-11.122009784651231,8.93576476382722,299.9657460081133,-59.90696450722237,-26.303988363860146,-0.43257407618774324,0.36737879998206086,6.99874244391621,-2.3113132976602655,0.6472913173387259,-0.44678823819136104,0.49240901071039556,283.15440666675477,-121.98054837776883,-11.297909973395942,9.505668731276884,4.354479242994256
GUIDED_NOGPS,6.198592185974121,23.65867196137271,283.9065500486916,-122.21558656798594,-11.518124866893386,9.129052821154678,299.9711290482319,-59.921585103611086,-26.842916413000385,-0.6351534315455017,0.2756192639077592,7.206892885759172,-2.3420899246508298,0.6509736488539335,-0.4564526410577339,0.4923376042269465,283.56352356570966,-123.21857535650746,-12.195595390439083,9.304932168055615,3.6096341093241864
GUIDED_NOGPS,6.245763778686523,21.201985583290366,283.62225314927736,-122.80589969692795,-11.896366918091346,9.260638837291813,299.9759514992844,-59.934683113079586,-27.383457956974862,-0.8473750396597614,0.3109558879090549,7.341770338846706,-2.362927879297578,0.6630142499391044,-0.4630319418645907,0.4922564544805582,283.56352356570966,-123.21857535650746,-12.195595390439083,9.304932168055615,2.177239621497128
GUIDED_NOGPS,6.301040887832642,18.093870789618997,283.1850906467252,-123.37563048521963,-12.632739567749317,9.382893464111314,299.98023540265075,-59.94631840107802,-27.925517405143854,-1.304624508245498,0.3595163984737299,7.4982397274479435,-2.3849092010535244,0.6803294234630746,-0.46914467320556574,0.4923536110813027,282.3622760765056,-123.68974074264383,-13.507027922369856,9.583271336926288,2.0626480624709638
GUIDED_NOGPS,6.3421642780303955,24.338085705167263,283.22846343559684,-123.7044605889148,-13.5345276597181,9.496331654549866,299.9840044077158,-59.95655520047569,-28.468998754943957,-1.3429696171327725,0.29650811682377387,7.5179858043384495,-2.397515830980978,0.6751432146353705,-0.47481658272749333,0.4925327644523871,283.49858730330425,-124.20506566759296,-14.90095966634543,9.818587318405662,1.4896902673401404
GUIDED_NOGPS,6.385493040084839,23.07732599724897,283.21555800542365,-124.04371689458593,-14.728721033081236,9.537413559769574,299.987283798895,-59.96546218496311,-29.013805618463895,-1.6136726389420035,0.3145810108110392,7.570054897702396,-2.411747826377445,0.6771130490123466,-0.4768706779884787,0.49285745770730865,283.0898795158886,-124.23634427352086,-15.778175510528492,9.736428025671742,0.2291831180523293
GUIDED_NOGPS,6.433907508850098,20.659458873712573,282.88185613366085,-123.93796129841134,-15.820325746442444,9.531556350102168,299.99010052265925,-59.973112542453954,-29.559841249020213,-1.798214638640522,0.4282567029412076,7.533857456422267,-2.405921219647606,0.6930069101306072,-0.4765778175051084,0.4931302422487111,281.89501420689567,-123.3724739541201,-16.78184206245348,9.9348096968735,-1.6615776058793874
GUIDED_NOGPS,6.480326175689697,21.548591274326462,282.81083199816675,-123.64119431882573,-16.602495473861936,9.47166261740827,299.9924832145603,-59.97958404848705,-30.107008567732986,-1.7816921975948496,0.35771664362743155,7.448252988007205,-2.396098635501625,0.6936922270340604,-0.47358313087041354,0.4932477434530645,283.2084028882391,-123.31476472883608,-17.2474688486039,9.741378663965435,-2.5783100780887045
GUIDED_NOGPS,6.523979663848877,22.911931476767435,282.8096009032853,-122.8727614391302,-17.39057163541744,9.405666191143375,299.9944622262563,-59.984959139628415,-30.655210190101524,-1.9400499200581838,0.3115321851202747,7.393341682174888,-2.36632416035693,0.6937998310679863,-0.4702833095571688,0.49336768072265796,282.35612060209814,-121.93104563443428,-18.142403995195014,9.415441354481231,-1.3178029288008934
GUIDED_NOGPS,6.577194690704346,18.794715993619043,282.62411658758,-122.11059085330372,-17.927637775490528,9.288262255558717,299.99606965253673,-59.989324986873285,-31.20434845258018,-1.9012527380252187,0.5328981892335648,7.170020963298504,-2.344386351666109,0.7029924937077445,-0.46441311277793584,0.49336164466145516,282.57116572477776,-121.08596219664065,-18.393040482672742,9.367315165993347,-4.411775022507339
GUIDED_NOGPS,6.628652811050415,19.43652077202901,282.9211581024786,-121.18350710375137,-18.445018051866484,9.093277294164464,299.99733935834803,-59.992773569048055,-31.754325439153863,-1.8581930910633426,0.5071953336131606,6.974489295947141,-2.313122454962485,0.6888931692626943,-0.45466386470822323,0.4933453463063563,284.5750870903816,-120.53351348017908,-18.799609677731766,9.235184645301956,-4.92743703812508
GUIDED_NOGPS,6.680162668228149,19.41870338390596,283.3212738370425,-119.91285938774155,-18.88682874590505,8.862863301745486,299.9983070058186,-59.9954017462123,-32.305043007914065,-1.9776112647381994,0.4161704697614585,6.719102973351664,-2.268250485361745,0.674758151970503,-0.44314316508727436,0.49329089286899547,283.8955928797152,-118.11910248640483,-19.467836077310704,8.938181530901701,-5.213915935690491
GUIDED_NOGPS,6.722379207611084,23.691680270225998,283.560398984661,-118.46138663371774,-19.308680360118046,8.593586063738243,299.9990100812843,-59.997311333060786,-32.856402817634205,-1.9793975726495694,0.5977845594618628,6.467831412844296,-2.2151241789436082,0.6681883949376635,-0.42967930318691216,0.49322613877124194,284.4040286263315,-116.73154393456925,-19.658595325311737,8.890813750269373,-6.359831525952138
