Mode,Time,Freq,time2delay,actualDelay,North-Desired,East-Desired,Down-Desired,Roll-UAV,Pitch-UAV,Yaw-UAV,Roll-Control,Pitch-Control,Yaw-Control,Thrust-Control,North-Pos,East-Pos,Down-Pos,Yaw-Ang,North-Vel,East-Vel,Down-Vel,Yaw-Vel,North-Acc,East-Acc,Down-Acc,North-Avg,East-Avg,Down-Avg,Yaw-Avg,North-Dif,East-Dif,Down-Dif,Yaw-Dif,North-One,East-One,Down-One,Yaw-One,North-Two,East-Two,Down-Two,Yaw-Two,Landing-State,Q-Size,Kalman-Time,Kalman-Dt
STABILIZE,0.03436160087585449,29.111746578194843,0.03261617024739583,0.03279423713684082,0.0,0.0,0.0,-0.5013344976967608,-1.3069069653670458,118.20795294638964,-0.05560757492665394,0.054738811800448706,0.02035786724993445,0.4,0.05822515184692589,0.05903010476773011,0.06731792603381806,0.057756289947932686,-0.1253718277439475,0.047375416033901274,1.8259866163134575,-0.2259921232546515,-6.762731820344925,0.6463030353188515,27.511969208717346,0.0,0.0,0.0,0.0,0.0,0.0,0.0,0.0,0.0,0.0,0.0,0.0,0.0,0.0,0.0,0.0,False,0,0.05867576599121094,0.06985205078125
STABILIZE,0.06772422790527344,29.97344462389412,0.03235295613606771,0.032476186752319336,0.0,0.0,0.0,-0.5007445401072009,-1.3069393020438975,118.21024788995076,-0.05226055907393056,0.05087415055270923,0.029051607285181143,0.4,0.10557273903743707,0.10806041196605698,0.1342540305779281,0.10508776399290298,-0.06506736390292645,0.09331749752163887,1.8351633101701736,0.02720948596156062,-3.4240595996379852,0.7673365995287895,27.909132838249207,0.0,0.0,0.0,0.0,0.0,0.0,0.0,0.0,0.0,0.0,0.0,0.0,0.0,0.0,0.0,0.0,False,0,0.08713722229003906,0.02993701171875
STABILIZE,0.10119795799255371,29.874385675009616,0.032482179005940755,0.032624006271362305,0.0,0.0,0.0,-0.5011199870681401,-1.3070566959202572,118.21207838064832,-0.0420100478370639,0.040017454862679,0.030852505958162905,0.4,0.12090468153106164,0.1264117843279381,0.1821446396792859,0.12254418994355663,-0.11290648253634572,0.062428065575659275,1.5101372264325619,0.09284932477288889,-3.8511883467435837,0.5038020666688681,21.729594469070435,0.0,0.0,0.0,0.0,0.0,0.0,0.0,0.0,0.0,0.0,0.0,0.0,0.0,0.0,0.0,0.0,False,0,0.1446821689605713,0.064863037109375
STABILIZE,0.1353013515472412,29.323005075574322,0.03246644337972005,0.03315591812133789,0.0,0.0,0.0,-0.5011463473294681,-1.306152442907171,118.2165043432305,-0.033505502540886446,0.030721714208675654,0.03470394081803523,0.4,0.14670246448186655,0.15542693736726473,0.2458613935784671,0.1493435847685136,-0.1068388344720006,0.03660284273792058,1.7184384167194366,-0.08322054563174275,-0.39903358556330204,0.40186229161918163,23.514369130134583,0.0,0.0,0.0,0.0,0.0,0.0,0.0,0.0,0.0,0.0,0.0,0.0,0.0,0.0,0.0,0.0,False,0,0.17319679260253906,0.0348515625
STABILIZE,0.16872930526733398,29.91465597786162,0.0323667844136556,0.032500267028808594,0.0,0.0,0.0,-0.501158086717104,-1.3055876716401755,118.21934570192522,-0.02037478191168862,0.01748364880860427,0.03322537198882545,0.4,0.14936273146271825,0.16014262828025955,0.2740424011366366,0.15246760423829706,-0.1068388344720006,0.03660284273792058,1.7184384167194366,-0.08322054563174275,-0.39903358556330204,0.40186229161918163,23.514369130134583,0.0,0.0,0.0,0.0,0.0,0.0,0.0,0.0,0.0,0.0,0.0,0.0,0.0,0.0,0.0,0.0,False,0,0.20233607292175293,0.0348515625
STABILIZE,0.20216941833496094,29.90335229784261,0.03239396413167318,0.03254127502441406,0.0,0.0,0.0,-0.5013570159766807,-1.3062601251083044,118.22504207969301,-0.016218427920124626,0.013130413986587017,0.03302291091154092,0.4,0.14995099739942908,0.1641298463776272,0.3033576318184844,0.15472343536365443,-0.1484489068388939,0.10191845940425992,1.8217533826828003,-0.01986591202588621,-1.8946856260299683,0.5989783443510532,27.164149284362793,0.0,0.0,0.0,0.0,0.0,0.0,0.0,0.0,0.0,0.0,0.0,0.0,0.0,0.0,0.0,0.0,False,0,0.2306673526763916,0.034926025390625
STABILIZE,0.23558831214904785,29.92511415525114,0.03242090543111165,0.03253173828125,0.0,0.0,0.0,-0.5019880614229664,-1.306088409883702,118.22901724978996,-0.00815199729234681,0.005835169387609216,0.03245031096829418,0.4,0.1506816111723721,0.16550697948354698,0.3326934327381909,0.157265047205777,-0.029331346740946174,-0.022380624432116747,1.8222356215119362,0.09910528446473132,2.1926652640104294,0.25908981915563345,22.32298254966736,0.0,0.0,0.0,0.0,0.0,0.0,0.0,0.0,0.0,0.0,0.0,0.0,0.0,0.0,0.0,0.0,False,0,0.26018619537353516,0.03492578125
STABILIZE,0.2690258026123047,29.906763829271423,0.03243449529012044,0.032546043395996094,0.0,0.0,0.0,-0.5024986180634248,-1.306253935249369,118.23159906129622,-0.007551873702340225,0.005083328193774025,0.03245231404310562,0.4,0.150730977724409,0.1678861136275953,0.3598330192367779,0.1574742842105627,-0.008078099926933646,0.14114775694906712,1.671173796057701,-0.01592441095958618,-4.655657708644867,0.561521528288722,23.79729449748993,0.0,0.0,0.0,0.0,0.0,0.0,0.0,0.0,0.0,0.0,0.0,0.0,0.0,0.0,0.0,0.0,False,0,0.2889518737792969,0.029937255859375
STABILIZE,0.3024160861968994,29.94840450978572,0.03242472012837728,0.03253316879272461,0.0,0.0,0.0,-0.5021398196885876,-1.3066951227810695,118.23573815593325,-0.005739050702506924,0.0029087364052065513,0.031542025873233216,0.4,0.14457198404372779,0.16593651049018202,0.4047942235155553,0.15386990625087915,-0.09728824952617288,0.0877284852322191,1.5578359365463257,0.040838034552836806,2.0715586841106415,2.3205630481243134,23.2595756649971,0.0,0.0,0.0,0.0,0.0,0.0,0.0,0.0,0.0,0.0,0.0,0.0,0.0,0.0,0.0,0.0,False,0,0.3463888168334961,0.029936767578125
STABILIZE,0.339799165725708,26.749217160604843,0.03246787389119466,0.03638458251953125,0.0,0.0,0.0,-0.5022635101455882,-1.3069217996841493,118.23890736370814,-0.004773884277777392,0.0013941775324909152,0.030911665048405878,0.4,0.14013229688081388,0.16399441285398955,0.4226417464606028,0.15135128968184786,-0.09728824952617288,0.0877284852322191,1.5578359365463257,0.040838034552836806,2.0715586841106415,2.3205630481243134,23.2595756649971,0.0,0.0,0.0,0.0,0.0,0.0,0.0,0.0,0.0,0.0,0.0,0.0,0.0,0.0,0.0,0.0,False,0,0.37499165534973145,0.029936767578125
STABILIZE,0.37316250801086426,29.97344462389412,0.032326491673787434,0.032514095306396484,0.0,0.0,0.0,-0.5037610291211135,-1.3071430337802343,118.24327868477694,-0.0031035777292639983,0.0006490445767408316,0.029545447175555368,0.4,0.13782407299038404,0.16099967931643122,0.4450130782250393,0.14553212503836666,0.0637633609585464,0.02068066969513893,1.9077831879258156,-0.18846071401310746,-0.8605625480413437,0.31920503824949265,30.04191219806671,0.0,0.0,0.0,0.0,0.0,0.0,0.0,0.0,0.0,0.0,0.0,0.0,0.0,0.0,0.0,0.0,False,0,0.4036710262298584,0.06985205078125
STABILIZE,0.4066164493560791,29.8905659839512,0.032471450169881184,0.0325932502746582,0.0,0.0,0.0,-0.5037568669745881,-1.3066115596854426,118.24494525093442,-0.007257145870397239,0.0035119789787555647,0.030670564591899197,0.4,0.14088442525379075,0.17173974529025665,0.5148861745684737,0.14891718563130082,-0.22812625393271446,0.09566445951350033,1.754835806787014,-0.2547313181262437,-4.080843925476074,0.304582342505455,24.72018003463745,0.0,0.0,0.0,0.0,0.0,0.0,0.0,0.0,0.0,0.0,0.0,0.0,0.0,0.0,0.0,0.0,False,0,0.4324061870574951,0.034926025390625
STABILIZE,0.44022488594055176,29.755489184798417,0.032457860310872395,0.03272271156311035,0.0,0.0,0.0,-0.504099230206735,-1.306121173447377,118.25039574189209,-0.006632981412020195,0.003138186823237734,0.030347703916968116,0.4,0.1360340211633949,0.16816306258708774,0.5363544130526924,0.14677773596717658,-0.06171843269839883,0.02668510132934898,1.7071595415472984,0.11163169799008264,1.87089703977108,0.1774186734110117,23.745352029800415,0.0,0.0,0.0,0.0,0.0,0.0,0.0,0.0,0.0,0.0,0.0,0.0,0.0,0.0,0.0,0.0,False,0,0.46114134788513184,0.029936767578125
STABILIZE,0.4743838310241699,29.27490874065595,0.032433303197224934,0.03322792053222656,0.0,0.0,0.0,-0.5043587773951955,-1.305803676372677,118.25136562875424,-0.005895440403558085,0.0019445311032975532,0.02991378678830528,0.4,0.13012982716651303,0.16303595593425144,0.5509111001650938,0.14347700255188778,-0.06171843269839883,0.02668510132934898,1.7071595415472984,0.11163169799008264,1.87089703977108,0.1774186734110117,23.745352029800415,0.0,0.0,0.0,0.0,0.0,0.0,0.0,0.0,0.0,0.0,0.0,0.0,0.0,0.0,0.0,0.0,False,1,0.4902372360229492,0.029936767578125
STABILIZE,0.5077981948852539,29.92660877755025,0.032388957341512044,0.032509565353393555,0.0,0.0,0.0,-0.5049073269629121,-1.3058287559735358,118.25297755339837,0.0004623084663061067,-0.002526909613471659,0.029208715569804526,0.4,0.11921387406877111,0.15343113930663035,0.5830211345056946,0.14095293980678625,-0.3014023182913661,-0.07972590974532068,1.717505045235157,0.22878700464650897,-10.7041634619236,-0.025277610984630883,16.8645977973938,0.0,0.0,0.0,0.0,0.0,0.0,0.0,0.0,0.0,0.0,0.0,0.0,0.0,0.0,0.0,0.0,False,0,0.5478217601776123,0.034926025390625
STABILIZE,0.5413088798522949,29.840803665442955,0.03242376645406087,0.03268766403198242,0.0,0.0,0.0,-0.5052280256887853,-1.3061678108328034,118.25912472365137,0.0012483401064574153,-0.004008132427042115,0.02936625254275228,0.4,0.11022918178564461,0.14772106020428652,0.6027021326739042,0.1407800077586016,-0.3014023182913661,-0.07972590974532068,1.717505045235157,0.22878700464650897,-10.7041634619236,-0.025277610984630883,16.8645977973938,0.0,0.0,0.0,0.0,0.0,0.0,0.0,0.0,0.0,0.0,0.0,0.0,0.0,0.0,0.0,0.0,False,0,0.5764329433441162,0.034926025390625
STABILIZE,0.5749087333679199,29.765413875326445,0.032505067189534505,0.032645463943481445,0.0,0.0,0.0,-0.5046087196301356,-1.3062467848950816,118.26196608234609,0.001301449883081855,-0.004109471821380148,0.028584327856612732,0.4,0.10460254390541722,0.14291457713478867,0.618416896926776,0.13663754862134028,-0.09357427479699254,-0.017402427329216152,1.5279135666787624,-0.006607473476496763,2.512456476688385,0.06046529160812497,22.46221750974655,0.0,0.0,0.0,0.0,0.0,0.0,0.0,0.0,0.0,0.0,0.0,0.0,0.0,0.0,0.0,0.0,False,0,0.606623649597168,0.064863037109375
STABILIZE,0.6082935333251953,29.952040218804004,0.03234461148579915,0.03247880935668945,0.0,0.0,0.0,-0.5043587773951955,-1.3069092065228671,118.2669111393052,-0.0014111494868620084,-0.0020568041653069055,0.02887790162523897,0.4,0.10088763340071369,0.14234139072923463,0.6689729780124398,0.13694244150779303,-0.09357427479699254,-0.017402427329216152,1.5279135666787624,-0.006607473476496763,2.512456476688385,0.06046529160812497,22.46221750974655,0.0,0.0,0.0,0.0,0.0,0.0,0.0,0.0,0.0,0.0,0.0,0.0,0.0,0.0,0.0,0.0,False,0,0.6348576545715332,0.064863037109375
STABILIZE,0.643416166305542,28.470703231061634,0.03243115743001302,0.034271240234375,0.0,0.0,0.0,-0.5049718935949099,-1.307127025524367,118.27009400745841,-0.003264282346214009,-0.0007769346197957058,0.027773209305397832,0.4,0.09640515688688443,0.14273486397520244,0.7122723138380156,0.13206753267306576,-0.07275864481925964,0.11235105339437723,1.427553966641426,-0.18206385498920705,-1.2445136904716492,2.0875511690974236,22.081314027309418,0.0,0.0,0.0,0.0,0.0,0.0,0.0,0.0,0.0,0.0,0.0,0.0,0.0,0.0,0.0,0.0,False,0,0.6635918617248535,0.034926025390625
STABILIZE,0.6770727634429932,29.712909372985457,0.032463820775349934,0.03280353546142578,0.0,0.0,0.0,-0.5060646171404062,-1.3070492254008523,118.272648498208,-0.0008069389356376842,-0.003671721764819626,0.025792272893666424,0.4,0.08236211067494911,0.1307887841029127,0.7285655362676351,0.12297099303182482,-0.435124896466732,-0.03829978813882917,1.8972722813487053,0.10428939137466439,-11.305014789104462,0.12576704612001777,26.94600522518158,0.0,0.0,0.0,0.0,0.0,0.0,0.0,0.0,0.0,0.0,0.0,0.0,0.0,0.0,0.0,0.0,False,0,0.720966100692749,0.03492626953125
STABILIZE,0.7105832099914551,29.84122828236834,0.03248599370320638,0.032611846923828125,0.0,0.0,0.0,-0.5057381554424207,-1.3066399476591806,118.27682857398004,0.0011477049763825276,-0.006748027730022611,0.025010476994711543,0.4,0.06957803490502543,0.12427766909298146,0.7420255336657662,0.1195816077954118,-0.435124896466732,-0.03829978813882917,1.8972722813487053,0.10428939137466439,-11.305014789104462,0.12576704612001777,26.94600522518158,0.0,0.0,0.0,0.0,0.0,0.0,0.0,0.0,0.0,0.0,0.0,0.0,0.0,0.0,0.0,0.0,False,0,0.7495841979980469,0.03492626953125
STABILIZE,0.7441456317901611,29.795016054328986,0.03241732915242513,0.032540321350097656,0.0,0.0,0.0,-0.5062583170363995,-1.306655849193342,118.27859076278591,0.003320282414439219,-0.006748191251196525,0.023940696294465415,0.4,0.06565505612907815,0.1179519915094271,0.7491938663985124,0.11406893451546307,0.011755468585761264,-0.03845156170427799,1.5909688547253609,-0.014084033496498104,1.678793504834175,2.0955434069037437,23.885029554367065,0.0,0.0,0.0,0.0,0.0,0.0,0.0,0.0,0.0,0.0,0.0,0.0,0.0,0.0,0.0,0.0,False,0,0.7783660888671875,0.06486279296875
STABILIZE,0.777477502822876,30.000886943335765,0.03229835828145345,0.032413482666015625,0.0,0.0,0.0,-0.5054458446902853,-1.3070471976884426,118.28344019709662,0.0005179895162863821,-0.006352691547792032,0.023293745387345657,0.4,0.05416735346316838,0.11561765117141694,0.7944224346681219,0.10938378918691566,-0.3252793103456497,0.07033763686195016,1.8414821475744247,-0.06967782797234129,0.6400724407285452,0.237644137814641,26.193729043006897,0.0,0.0,0.0,0.0,0.0,0.0,0.0,0.0,0.0,0.0,0.0,0.0,0.0,0.0,0.0,0.0,False,0,0.8069930076599121,0.034926025390625
STABILIZE,0.8109085559844971,29.91230922835544,0.03240469296773275,0.03252530097961426,0.0,0.0,0.0,-0.5052368835903652,-1.3070041888410127,118.28516140476746,-1.9323241205363244e-05,-0.0059425172691248696,0.021810947104463185,0.4,0.043785536033641784,0.11127688053590006,0.8021143346576859,0.10249865554304098,-0.3252793103456497,0.07033763686195016,1.8414821475744247,-0.06967782797234129,0.6400724407285452,0.237644137814641,26.193729043006897,0.0,0.0,0.0,0.0,0.0,0.0,0.0,0.0,0.0,0.0,0.0,0.0,0.0,0.0,0.0,0.0,False,0,0.835604190826416,0.034926025390625
STABILIZE,0.8459088802337646,28.733226464986917,0.032415183385213216,0.033293962478637695,0.0,0.0,0.0,-0.5060772103016884,-1.3070238256348765,118.28704653697838,-0.0004316739838692272,-0.007016403407571476,0.02052174264363433,0.4,0.036800769513708365,0.10663767918122416,0.806395495569685,0.09594772187586922,-0.17532114870846272,0.04413823480717838,1.6790945082902908,-0.0667177880706804,-5.379674211144447,0.18303568940609694,22.586199641227722,0.0,0.0,0.0,0.0,0.0,0.0,0.0,0.0,0.0,0.0,0.0,0.0,0.0,0.0,0.0,0.0,False,0,0.8646676540374756,0.06985205078125
STABILIZE,0.8785829544067383,30.42172449808518,0.031597407658894856,0.03178977966308594,0.0,0.0,0.0,-0.5055744443457519,-1.307254024354247,118.29311174496135,-0.0001310730213629343,-0.0067900183605651004,0.019372914994577592,0.4,0.02701311934790925,0.10354071827871203,0.8485663957666194,0.0901705552593577,-0.17532114870846272,0.04413823480717838,1.6790945082902908,-0.0667177880706804,-5.379674211144447,0.18303568940609694,22.586199641227722,0.0,0.0,0.0,0.0,0.0,0.0,0.0,0.0,0.0,0.0,0.0,0.0,0.0,0.0,0.0,0.0,False,1,0.8931190967559814,0.06985205078125
STABILIZE,0.9124488830566406,29.53236072776432,0.032448561986287434,0.03260016441345215,0.0,0.0,0.0,-0.5054452043600506,-1.3080103610831202,118.29677272635648,0.0010609536990383922,-0.006036619820695573,0.01779107746454489,0.4,0.019841792138445995,0.09590608096326339,0.8775542586396748,0.08224244650758153,0.06771240150555968,0.06481899763457477,1.8300943076610565,-0.1356647657915105,4.708097130060196,0.19970866851508617,26.071354746818542,0.0,0.0,0.0,0.0,0.0,0.0,0.0,0.0,0.0,0.0,0.0,0.0,0.0,0.0,0.0,0.0,False,0,0.9506146907806396,0.034926025390625
STABILIZE,0.9455776214599609,30.18049419315843,0.03203633626302083,0.032300710678100586,0.0,0.0,0.0,-0.5047070103211604,-1.3072689653930565,118.3016221606672,0.0013153698074756825,-0.0049582667259610485,0.017541775062463107,0.4,0.016891889214215486,0.09094213909108952,0.8753336055229706,0.07975056299737532,-0.039887893944978714,0.02186458877986297,1.7450351268053055,0.10874401540494158,0.20808358676731586,0.17723090713843703,23.89802783727646,0.0,0.0,0.0,0.0,0.0,0.0,0.0,0.0,0.0,0.0,0.0,0.0,0.0,0.0,0.0,0.0,False,0,0.979271650314331,0.034926025390625
STABILIZE,0.979119062423706,29.813017549595912,0.03252771695454915,0.0326693058013916,0.0,0.0,0.0,-0.5046659224644345,-1.3065526493038513,118.3048323495771,0.0018558646923845757,-0.00478730037548758,0.017266760221660127,0.4,0.008516546110794481,0.0864395258545838,0.8720162656294368,0.07729166195587803,-0.3021797863766551,0.028988361009396613,1.6684619709849358,0.10058971669108517,-3.46030630171299,2.123912051320076,24.22814965248108,0.0,0.0,0.0,0.0,0.0,0.0,0.0,0.0,0.0,0.0,0.0,0.0,0.0,0.0,0.0,0.0,False,0,1.007920503616333,0.02993701171875
STABILIZE,1.0126440525054932,29.829980015219725,0.032451899846394856,0.03258514404296875,0.0,0.0,0.0,-0.5050644213138225,-1.3061131693194432,118.30771468940684,0.000975748684563163,-0.0051054925311892745,0.017130099598909543,0.4,0.0010440571117328783,0.08214550799382964,0.8640912447684526,0.07496499621280757,-0.3021797863766551,0.028988361009396613,1.6684619709849358,0.10058971669108517,-3.46030630171299,2.123912051320076,24.22814965248108,0.0,0.0,0.0,0.0,0.0,0.0,0.0,0.0,0.0,0.0,0.0,0.0,0.0,0.0,0.0,0.0,False,0,1.0366535186767578,0.02993701171875
STABILIZE,1.046135663986206,29.858647986787403,0.03237036069234212,0.032508134841918945,0.0,0.0,0.0,-0.5044627243366266,-1.3068307660691179,118.31182646328719,-0.00012617300840476046,-0.005072056037996339,0.015654748944548946,0.4,-0.0015222134983599407,0.08095483947444468,0.8544939229616523,0.06838058356567005,-0.07947641424834728,0.16819254960864782,1.528946217149496,-0.1212571887686694,-0.18586218357086182,2.1769024431705475,23.691196739673615,0.0,0.0,0.0,0.0,0.0,0.0,0.0,0.0,0.0,0.0,0.0,0.0,0.0,0.0,0.0,0.0,False,0,1.0653712749481201,0.034926025390625
STABILIZE,1.0795495510101318,29.927249375668925,0.032332690556844075,0.03254437446594238,0.0,0.0,0.0,-0.5046813971117728,-1.3066759128740288,118.31487272765702,0.00024253428505998298,-0.005721235900979943,0.013886278593966987,0.4,-0.011109467242849795,0.07569972514335255,0.8517029732967515,0.06064664703573576,-0.41675278916954994,-0.049972080159932375,1.564931869506836,-0.19781162985303838,-1.0130097158253193,-0.14785983366891742,20.6566259264946,0.0,0.0,0.0,0.0,0.0,0.0,0.0,0.0,0.0,0.0,0.0,0.0,0.0,0.0,0.0,0.0,False,1,1.0941016674041748,0.06486279296875
STABILIZE,1.1131799221038818,29.737557074388135,0.03246000607808431,0.03269314765930176,0.0,0.0,0.0,-0.5058877792739263,-1.3062636469245952,118.31780970900012,0.001572500665259053,-0.007790957444366423,0.012017689915725405,0.4,-0.024220588232633667,0.06770045628522214,0.9021570945252433,0.05255677386506476,0.2023993292823434,0.049402430886402726,1.635175384581089,0.20872833987976827,6.505823880434036,-0.06768792518414557,20.777103304862976,0.0,0.0,0.0,0.0,0.0,0.0,0.0,0.0,0.0,0.0,0.0,0.0,0.0,0.0,0.0,0.0,False,0,1.1523470878601074,0.034926025390625
STABILIZE,1.1467080116271973,29.823404769692402,0.032370599110921223,0.032546043395996094,0.0,0.0,0.0,-0.5063663194026503,-1.3063387790054652,118.32229031309565,0.002071059632592294,-0.006535476933346838,0.011825338770418045,0.4,-0.022722254285274537,0.06506031458498858,0.8957705295215892,0.05033785724215459,0.060755497543141246,0.06636501639150083,1.6971629112958908,0.05278030682159337,-2.8971491381525993,0.026837267796508968,23.55310767889023,0.0,0.0,0.0,0.0,0.0,0.0,0.0,0.0,0.0,0.0,0.0,0.0,0.0,0.0,0.0,0.0,False,0,1.1810240745544434,0.034902587890625
STABILIZE,1.1806349754333496,29.476945133564314,0.03234413464864095,0.032959938049316406,0.0,0.0,0.0,-0.5063858494748084,-1.30626908973159,118.32433936984665,0.0014036566335517552,-0.004965495423853017,0.01203301739176209,0.4,-0.02668161553937009,0.0622498809137184,0.8914556062122595,0.04949255434056202,-0.19453640561550856,0.04892009310424328,1.7544886097311974,0.10894889439961553,-5.1210034638643265,0.13939541531726718,31.594184041023254,0.0,0.0,0.0,0.0,0.0,0.0,0.0,0.0,0.0,0.0,0.0,0.0,0.0,0.0,0.0,0.0,False,0,1.2097036838531494,0.029937255859375
STABILIZE,1.2211277484893799,24.693293142426526,0.03234890302022298,0.03961992263793945,0.0,0.0,0.0,-0.5050687969037595,-1.3064778373880985,118.32953031361586,0.00026221431109277625,-0.0015085149134195553,0.012940786936943907,0.4,-0.02828638270301734,0.05770081378800686,0.88334507372742,0.051418360711011586,-0.11433153413236141,-0.044830646947957575,1.763671264052391,0.23709091385165776,0.31998592894524336,-0.056549406144768,25.549450516700745,0.0,0.0,0.0,0.0,0.0,0.0,0.0,0.0,0.0,0.0,0.0,0.0,0.0,0.0,0.0,0.0,False,0,1.2385098934173584,0.03492578125
STABILIZE,1.2546465396881104,29.835496973275195,0.032462390263875325,0.03259539604187012,0.0,0.0,0.0,-0.505309240906885,-1.3055573626757335,118.33111491750331,0.0017567708916464823,-0.002348482529741161,0.013294238708105066,0.4,-0.02947017721924134,0.05074086271025894,0.8701361714778338,0.05225166113795899,-0.04537834320217371,-0.00984279322437942,1.5301975421607494,0.16053102996029395,-2.4806393310427666,-0.19103470258414745,19.922509789466858,0.0,0.0,0.0,0.0,0.0,0.0,0.0,0.0,0.0,0.0,0.0,0.0,0.0,0.0,0.0,0.0,False,0,1.297471046447754,0.034926025390625
STABILIZE,1.288102388381958,29.8905659839512,0.03238871892293294,0.03251957893371582,0.0,0.0,0.0,-0.5051889655444693,-1.3055427418020416,118.33618291786746,0.0018313471939573394,-0.0017619917595709821,0.011759589491506255,0.4,-0.031219942771214045,0.04796872029830821,0.8659116600533158,0.04582008116534504,-0.10997038334608078,0.011853191972477362,1.606808789074421,-0.19335003556135233,-2.4083534255623817,-0.17083716811612248,21.471846103668213,0.0,0.0,0.0,0.0,0.0,0.0,0.0,0.0,0.0,0.0,0.0,0.0,0.0,0.0,0.0,0.0,False,0,1.326554775238037,0.02993701171875
STABILIZE,1.3215208053588867,29.92212535848303,0.032380135854085286,0.03251028060913086,0.0,0.0,0.0,-0.5059564013307437,-1.306253508362546,118.33936578602068,0.001096992674175836,-0.003563566238135329,0.010684761350837976,0.4,-0.03787705227099819,0.04677459797441341,0.8608045143184622,0.04172249322756995,-0.3946536220610142,0.08261374314315617,1.7728384584188461,-0.08413480380474597,-8.241916447877884,1.9764453172683716,27.420061826705933,0.0,0.0,0.0,0.0,0.0,0.0,0.0,0.0,0.0,0.0,0.0,0.0,0.0,0.0,0.0,0.0,False,0,1.3551523685455322,0.034926025390625
STABILIZE,1.3550827503204346,29.797344434893187,0.03241399129231771,0.03260540962219238,0.0,0.0,0.0,-0.5069302368959995,-1.3060619429006681,118.32127944509848,-0.0001243851793279258,-0.003916694845477846,0.00972004321327965,0.4,-0.04000806514755815,0.04413321105762373,0.8626584447572389,0.03792354612582368,-0.13965782709419727,0.0020175801182631403,1.8539221957325935,-0.07799668488640608,-0.7294984068721533,0.004916562465950847,31.364527344703674,0.0,0.0,0.0,0.0,0.0,0.0,0.0,0.0,0.0,0.0,0.0,0.0,0.0,0.0,0.0,0.0,False,0,1.383666753768921,0.039916015625
STABILIZE,1.38848876953125,29.932375148081015,0.03236082394917806,0.0324854850769043,0.0,0.0,0.0,-0.5056288724157005,-1.308299470184082,118.3124821614475,0.000409850350924957,-0.003850116277796224,0.009380428209580767,0.4,-0.04137520246472994,0.039971317410922594,0.8662215807724426,0.035187425483367445,-0.07792990654706955,-0.08244178025051951,1.6860174015164375,-0.025178972106936322,-0.1259910874068737,-0.1874749083071947,24.045269191265106,0.0,0.0,0.0,0.0,0.0,0.0,0.0,0.0,0.0,0.0,0.0,0.0,0.0,0.0,0.0,0.0,False,0,1.4123961925506592,0.024947021484375
STABILIZE,1.4218733310699463,29.95653260768643,0.032413514455159505,0.0325162410736084,0.0,0.0,0.0,-0.5070390930358966,-1.3066877589833708,118.3390652576972,0.006091221908237702,-0.00500870716808818,0.010938321110644193,0.4,-0.05092357756697326,0.021626992981206232,0.8527207381367147,0.04049658006348148,-0.614530686289072,-0.8835188113152981,1.519183162599802,0.39879681639047326,-13.614870607852936,-29.741990566253662,17.522773146629333,0.0,0.0,0.0,0.0,0.0,0.0,0.0,0.0,0.0,0.0,0.0,0.0,0.0,0.0,0.0,0.0,False,0,1.440971851348877,0.034926025390625
STABILIZE,1.4554259777069092,29.803696413725476,0.032448800404866536,0.032579660415649414,0.0,0.0,0.0,-0.5052729555269193,-1.3060732554014811,118.33581408765228,0.011299815050222834,-0.00781436662646809,0.012466521379404318,0.4,-0.061377076460248585,0.003388636240314054,0.849717698480119,0.0457362102800995,-0.614530686289072,-0.8835188113152981,1.519183162599802,0.39879681639047326,-13.614870607852936,-29.741990566253662,17.522773146629333,0.0,0.0,0.0,0.0,0.0,0.0,0.0,0.0,0.0,0.0,0.0,0.0,0.0,0.0,0.0,0.0,False,0,1.4753692150115967,0.034926025390625
STABILIZE,1.4892148971557617,29.59445690981189,0.03233841260274251,0.03286004066467285,0.0,0.0,0.0,-0.503897526182808,-1.3067562743184824,118.34100503142149,-0.014489285380022117,0.004658459928305393,-0.0002860176558639564,0.4,-0.024311119276030562,0.07866860217359337,0.8495678779244986,-0.005948951018409716,0.981068704277277,2.222639136016369,1.791710965335369,-1.3508143028379438,17.30847805738449,53.06134819984436,30.112716555595398,0.0,0.0,0.0,0.0,0.0,0.0,0.0,0.0,0.0,0.0,0.0,0.0,0.0,0.0,0.0,0.0,False,0,1.5328688621520996,0.029937255859375
STABILIZE,1.5226142406463623,29.940922005054038,0.03239897092183431,0.03251361846923828,0.0,0.0,0.0,-0.5066832828688212,-1.3064477418670681,118.37574337354017,-0.013665923927813066,0.00889452658911713,0.004530517915898694,0.4,-0.02009790487424117,0.05944440293446736,0.8452792093587405,0.014350489957129283,0.18438167171552777,-0.9711512364447117,1.6422254964709282,1.236898593591473,12.571960687637329,-19.60483491420746,18.284840881824493,0.0,0.0,0.0,0.0,0.0,0.0,0.0,0.0,0.0,0.0,0.0,0.0,0.0,0.0,0.0,0.0,False,0,1.5616638660430908,0.034926025390625
STABILIZE,1.5561363697052002,29.831252978286074,0.032436402638753255,0.03257632255554199,0.0,0.0,0.0,-0.5041982679497001,-1.3055267335461742,118.34944714523562,-0.021813375876201392,0.014710411608085028,-0.0006512675125410889,0.4,-0.011914529095719793,0.06763469226989091,0.8503106457293911,-0.005335378736843527,0.42051528580486774,0.5738179199397564,1.8860053271055222,-1.0466624572809853,5.060376971960068,25.758937001228333,27.887463569641113,0.0,0.0,0.0,0.0,0.0,0.0,0.0,0.0,0.0,0.0,0.0,0.0,0.0,0.0,0.0,0.0,True,0,1.5904970169067383,0.03492578125
STABILIZE,1.5896821022033691,29.810262970859984,0.032366069157918294,0.032483577728271484,0.0,0.0,0.0,-0.5034578327549885,-1.304212775904593,118.33827295575348,-0.0018239896195235514,0.0019068124042126927,0.001982942955674587,0.4,-0.017490707215716265,0.07451130310244035,0.848811808389296,-0.004976709223514362,-0.3742197994142771,0.49808425828814507,1.5055600553750992,0.10718303703511599,-16.74913465976715,-15.283249318599701,27.121081948280334,0.0,0.0,0.0,0.0,0.0,0.0,0.0,0.0,0.0,0.0,0.0,0.0,0.0,0.0,0.0,0.0,True,0,1.619617223739624,0.029937255859375
STABILIZE,1.6230456829071045,29.9715169747683,0.03226521809895833,0.032464027404785156,0.0,0.0,0.0,-0.5062836100806697,-1.3063791198102508,118.37597559997195,-0.002653780884823769,-0.00326421238078592,0.006170938125036552,0.4,-0.029385728633216007,0.05949680593877109,0.838336873629065,0.015804058760275772,-0.7467718329280615,-0.7457361090928316,1.2404309585690498,1.270219244570557,-0.59336107224226,-11.603939533233643,25.24532377719879,0.0,0.0,0.0,0.0,0.0,0.0,0.0,0.0,0.0,0.0,0.0,0.0,0.0,0.0,0.0,0.0,True,0,1.6477534770965576,0.03492578125
STABILIZE,1.656529426574707,29.866089420879113,0.0324275811513265,0.03253436088562012,0.0,0.0,0.0,-0.5057498948300566,-1.3076479341702862,118.37165892041651,0.0017635603864737173,-0.006840092951575794,0.005066696529762627,0.4,-0.032806473918480544,0.05348622546583871,0.8372764215412695,0.0074424473941218485,-0.24270783178508282,-0.24617970921099186,1.5018920414149761,-0.42738158495379974,10.304199159145355,9.97915267944336,28.19676101207733,0.0,0.0,0.0,0.0,0.0,0.0,0.0,0.0,0.0,0.0,0.0,0.0,0.0,0.0,0.0,0.0,True,0,1.6764414310455322,0.034888916015625
STABILIZE,1.68983793258667,30.021716568009218,0.03237441380818685,0.0324854850769043,0.0,0.0,0.0,-0.5040553675856588,-1.3053814853046057,118.32827355880858,0.002883546266066487,-0.005602325128480791,0.01097336731618686,0.4,-0.034099732108401254,0.05630941743990462,0.8439712471482788,0.031067648570542866,-0.8055495098233223,-0.5117613356560469,1.9636442884802818,2.1499249846665736,-28.863775730133057,-41.48202836513519,4.222707450389862,0.0,0.0,0.0,0.0,0.0,0.0,0.0,0.0,0.0,0.0,0.0,0.0,0.0,0.0,0.0,0.0,True,0,1.7339587211608887,0.04490576171875
STABILIZE,1.7233564853668213,29.834860297046607,0.03250768979390462,0.03263592720031738,0.0,0.0,0.0,-0.5073507204167784,-1.3096524879699794,118.37470518478632,0.0017426179801278468,-0.0065827512041604355,0.019220953257102148,0.4,-0.04785262897270687,0.046147114719912424,0.8602724927510504,0.06803934400275763,-0.8055495098233223,-0.5117613356560469,1.9636442884802818,2.1499249846665736,-28.863775730133057,-41.48202836513519,4.222707450389862,0.0,0.0,0.0,0.0,0.0,0.0,0.0,0.0,0.0,0.0,0.0,0.0,0.0,0.0,0.0,0.0,True,0,1.7627644538879395,0.04490576171875
STABILIZE,1.7569115161895752,29.803061093978712,0.03243115743001302,0.03260183334350586,0.0,0.0,0.0,-0.509329127398555,-1.3093687149543065,118.38993650663545,0.010017879802543385,-0.01230698688480494,0.02474015225816445,0.4,-0.06839515491132747,0.015513636011770443,0.8740286416745326,0.08823029112939441,-1.1471289210021496,-1.6202282160520554,1.8590953201055527,1.0814093371361326,-22.85393625497818,-44.46049928665161,48.07661473751068,0.0,0.0,0.0,0.0,0.0,0.0,0.0,0.0,0.0,0.0,0.0,0.0,0.0,0.0,0.0,0.0,True,0,1.791640043258667,0.024947265625
STABILIZE,1.790266990661621,29.977729176494133,0.03233793576558431,0.03246188163757324,0.0,0.0,0.0,-0.5069595853650893,-1.3070930880219287,118.31720865235316,0.020523303619490042,-0.01765310421764074,0.02755847816874143,0.4,-0.08583344997735276,-0.01378405546160529,0.8685615247560962,0.10394904851677549,-1.1471289210021496,-1.6202282160520554,1.8590953201055527,1.0814093371361326,-22.85393625497818,-44.46049928665161,48.07661473751068,0.0,0.0,0.0,0.0,0.0,0.0,0.0,0.0,0.0,0.0,0.0,0.0,0.0,0.0,0.0,0.0,True,0,1.8200340270996094,0.024947265625
STABILIZE,1.8238248825073242,29.801578786565393,0.032462151845296223,0.03264164924621582,0.0,0.0,0.0,-0.5137016224061267,-1.3090323281376832,118.37648103397053,0.020340725881186093,-0.012531826545257644,0.03319604566398098,0.4,-0.08273909901871301,-0.022467789110392634,0.8626060595321039,0.13353487087253052,0.02427625731797889,-0.4838335793465376,1.7805838957428932,1.95195686077222,-37.4395489692688,-56.45744800567627,32.98195004463196,0.0,0.0,0.0,0.0,0.0,0.0,0.0,0.0,0.0,0.0,0.0,0.0,0.0,0.0,0.0,0.0,True,0,1.8486943244934082,0.064863037109375
STABILIZE,1.8572418689727783,29.923406198276354,0.03239277203877767,0.03259563446044922,0.0,0.0,0.0,-0.5051751984444236,-1.3065073993006,118.35021212642266,0.016490826873219885,-0.007777175899991623,0.043483051344887946,0.4,-0.08690554465994967,-0.0385907727959112,0.8944724234256594,0.1782708308019248,0.02427625731797889,-0.4838335793465376,1.7805838957428932,1.95195686077222,-37.4395489692688,-56.45744800567627,32.98195004463196,0.0,0.0,0.0,0.0,0.0,0.0,0.0,0.0,0.0,0.0,0.0,0.0,0.0,0.0,0.0,0.0,True,0,1.877399206161499,0.064863037109375
STABILIZE,1.8907535076141357,29.8405913615117,0.03251818021138509,0.0326838493347168,0.0,0.0,0.0,-0.4981245222302663,-1.3029689344237103,118.33485786116847,0.016154390418199056,-0.016712702517420897,0.0474145465050342,0.4,-0.1299141129515159,-0.06410485810580407,0.9130410561197767,0.1966218632216915,-2.031351998448372,-0.9485287591814995,1.260615885257721,0.4237746047417983,-37.89297640323639,0.21641021594405174,23.792339861392975,0.0,0.0,0.0,0.0,0.0,0.0,0.0,0.0,0.0,0.0,0.0,0.0,0.0,0.0,0.0,0.0,True,0,1.9120967388153076,0.03492578125
STABILIZE,1.9242489337921143,29.854822407288776,0.03249195416768392,0.03261232376098633,0.0,0.0,0.0,-0.5001271550392552,-1.3023583795449345,118.41537213110459,0.010747466322611443,0.001597244855200539,0.05548313011197579,0.4,-0.07137759441455392,-0.05571354081224435,0.9103552724948651,0.2341823335751949,2.8433071449398994,0.4327614791691303,1.7298869788646698,2.148894266432136,56.87164068222046,-11.172561347484589,25.55544078350067,0.0,0.0,0.0,0.0,0.0,0.0,0.0,0.0,0.0,0.0,0.0,0.0,0.0,0.0,0.0,0.0,True,1,1.9410192966461182,0.06486328125
STABILIZE,1.957658052444458,29.932161539175176,0.032433541615804036,0.03254961967468262,0.0,0.0,0.0,-0.498676486892568,-1.3118524492129582,118.40870586647465,-0.003989449343586365,-0.012637869273643956,0.051627499213494625,0.4,-0.11817321354666868,-0.025367282536987768,0.9268392349508249,0.2270485619342536,-1.221328042447567,0.8231972344219685,1.669892854988575,-0.21455534501543538,-33.518871665000916,96.70409560203552,16.430549323558807,0.0,0.0,0.0,0.0,0.0,0.0,0.0,0.0,0.0,0.0,0.0,0.0,0.0,0.0,0.0,0.0,True,0,1.9985272884368896,0.03492578125
STABILIZE,1.991114854812622,29.889287953936492,0.03246787389119466,0.03258967399597168,0.0,0.0,0.0,-0.5055747645108694,-1.3193882823015979,118.37925409077356,-0.028159051099984976,0.009270275664081763,0.027744190994658455,0.4,-0.09042638064050945,0.024705472771340924,0.9237333189446354,0.13474643928903762,1.1720459908246994,2.391243726015091,1.8005957826972008,-4.118473442149813,80.88939189910889,-14.516355097293854,11.743774265050888,0.0,0.0,0.0,0.0,0.0,0.0,0.0,0.0,0.0,0.0,0.0,0.0,0.0,0.0,0.0,0.0,True,0,2.0272507667541504,0.034926025390625
STABILIZE,2.0246827602386475,29.790571974458956,0.03244593938191732,0.03264951705932617,0.0,0.0,0.0,-0.5269156905725741,-1.3224733933723278,118.46933062554768,-0.041706996439204516,0.0007201378315508433,0.0033453943952994857,0.4,-0.06321893401759753,0.07366799258954848,0.9211225714298632,0.04440531279928449,1.1720459908246994,2.391243726015091,1.8005957826972008,-4.118473442149813,80.88939189910889,-14.516355097293854,11.743774265050888,0.0,0.0,0.0,0.0,0.0,0.0,0.0,0.0,0.0,0.0,0.0,0.0,0.0,0.0,0.0,0.0,True,0,2.0570900440216064,0.034926025390625
STABILIZE,2.0580763816833496,29.945624857208134,0.03240922292073568,0.03252601623535156,0.0,0.0,0.0,-0.5250728201571401,-1.3194587186274136,118.44528835966923,-0.03422826042954189,0.00752636706088853,-0.002112283807507647,0.4,-0.0850708236264435,0.07847170148513628,0.8971333663123606,0.021083969934193075,-1.2495465576648712,0.24374520871788263,0.7113710045814514,-0.8742829967818496,-81.44704699516296,106.25381469726562,23.403505980968475,0.0,0.0,0.0,0.0,0.0,0.0,0.0,0.0,0.0,0.0,0.0,0.0,0.0,0.0,0.0,0.0,True,0,2.0868024826049805,0.064863037109375
STABILIZE,2.091574192047119,29.852272565515083,0.032460959752400716,0.03259682655334473,0.0,0.0,0.0,-0.5164629398215159,-1.3444019291460654,118.43359507581017,-0.033263777656278457,-0.0027981940515320576,-0.010473791610080068,0.4,-0.0912858628939051,0.12100887697467201,0.9087393860637678,-0.03071824462247607,-0.3155495971441269,1.6468340530991554,1.2653996236622334,-1.8016062544502565,28.417152166366577,-11.39955148100853,31.188565492630005,0.0,0.0,0.0,0.0,0.0,0.0,0.0,0.0,0.0,0.0,0.0,0.0,0.0,0.0,0.0,0.0,True,0,2.114391803741455,0.034926025390625
STABILIZE,2.125047445297241,29.87587523416743,0.032410415013631184,0.03253054618835449,0.0,0.0,0.0,-0.5310679119794129,-1.318646459724711,118.50480662809673,-0.02934808906495547,-0.011826008269746316,-0.016295954368732955,0.4,-0.09408153025901414,0.15335183210670306,0.8933909087904855,-0.07179621661847699,-0.3155495971441269,1.6468340530991554,1.2653996236622334,-1.8016062544502565,28.417152166366577,-11.39955148100853,31.188565492630005,0.0,0.0,0.0,0.0,0.0,0.0,0.0,0.0,0.0,0.0,0.0,0.0,0.0,0.0,0.0,0.0,True,0,2.142991065979004,0.034926025390625
STABILIZE,2.1584203243255615,29.962952644249658,0.03236082394917806,0.03248095512390137,0.0,0.0,0.0,-0.5186487070776258,-1.3274780010432432,118.46344300248313,-0.02203474845250734,0.019187781072788596,-0.04680486558608818,0.4,-0.019825757373744042,0.13567552180384357,0.8812661553881098,-0.19802888675684097,1.5740854665637016,-0.5256302189081907,1.1312779039144516,-2.4741687921624766,-8.825734257698059,2.2625742480158806,51.99773907661438,0.0,0.0,0.0,0.0,0.0,0.0,0.0,0.0,0.0,0.0,0.0,0.0,0.0,0.0,0.0,0.0,True,0,2.2004146575927734,0.064863037109375
STABILIZE,2.192619562149048,29.241437007187823,0.03245237668355306,0.03328204154968262,0.0,0.0,0.0,-0.5132442131751473,-1.3126220194333482,118.40780428150421,-0.017205712547571934,-0.005725220409555582,-0.037452787251103584,0.4,-0.10262289229959923,0.15975177120730058,0.9227497377654107,-0.17034265294242146,-3.8311246782541275,0.8879587054252625,2.862936817109585,1.9575648729676236,-101.10830068588257,13.011515140533447,85.09535193443298,0.0,0.0,0.0,0.0,0.0,0.0,0.0,0.0,0.0,0.0,0.0,0.0,0.0,0.0,0.0,0.0,True,0,2.2295358180999756,0.0349267578125
STABILIZE,2.226113796234131,29.857797773285117,0.032401116689046223,0.032518625259399414,0.0,0.0,0.0,-0.5107208851636508,-1.3145640343134533,118.45736413412182,-0.0016616689810019674,-0.03354529652886112,-0.024845558094677846,0.4,-0.18948404640424515,0.1416554904465481,0.8981034698165002,-0.12773272892960702,-4.027369245886803,-0.5243247374892235,1.0205462574958801,1.6638356826406928,-82.83658027648926,-20.35568505525589,10.01497358083725,0.0,0.0,0.0,0.0,0.0,0.0,0.0,0.0,0.0,0.0,0.0,0.0,0.0,0.0,0.0,0.0,True,0,2.2580337524414062,0.03492626953125
STABILIZE,2.2595062255859375,29.94370078459089,0.032323392232259114,0.03247809410095215,0.0,0.0,0.0,-0.5118003752176301,-1.3188668400471497,118.46434458745358,-0.012352789535270274,-0.06627752472072973,-0.02170033505270877,0.4,-0.22145949776424517,0.1577500017692018,0.8657572468970285,-0.1399597733135069,-1.7177345231175423,0.9892178699374199,0.5891349632292986,-0.7388108903497012,77.4728775024414,41.33598208427429,-79.20483350753784,0.0,0.0,0.0,0.0,0.0,0.0,0.0,0.0,0.0,0.0,0.0,0.0,0.0,0.0,0.0,0.0,True,0,2.287452459335327,0.02993603515625
STABILIZE,2.2929437160491943,29.90697707583158,0.03243258794148763,0.03255295753479004,0.0,0.0,0.0,-0.5171068985942011,-1.3025043748384437,118.4338409626203,0.001160193095610549,0.004470363830060815,-0.011969946963110614,0.4,-0.08005214834872168,0.13856020489323684,0.8834515986637782,-0.09535457121565413,6.252222508192062,-0.5680324975401163,3.0066724866628647,1.8334722885795394,91.90876483917236,-44.518959522247314,34.66964364051819,0.0,0.0,0.0,0.0,0.0,0.0,0.0,0.0,0.0,0.0,0.0,0.0,0.0,0.0,0.0,0.0,True,0,2.3161215782165527,0.0349267578125
STABILIZE,2.326570987701416,29.73882216140331,0.032430442174275716,0.032745361328125,0.0,0.0,0.0,-0.5143599886090924,-1.3043584510329846,118.43530262310269,0.00699157927256957,0.024376397772944796,0.0082495770872885,0.4,-0.09852992918072574,0.10415439256420048,0.844095802896417,-0.005812371071892336,-1.0718243196606636,-1.4075152575969696,0.07320666336454451,4.156174378820991,-120.58877944946289,-1.451643742620945,-20.729808509349823,0.0,0.0,0.0,0.0,0.0,0.0,0.0,0.0,0.0,0.0,0.0,0.0,0.0,0.0,0.0,0.0,True,0,2.3447728157043457,0.029937255859375
STABILIZE,2.3602123260498047,29.724280156193526,0.032439502080281575,0.03273963928222656,0.0,0.0,0.0,-0.5239459456657938,-1.3065562778418478,118.45610737931455,0.013903934766761392,0.045141237670875946,0.010363235259444145,0.4,-0.06425777645662932,0.0976687999495438,0.8205973668963238,0.00021694665801885206,3.314809873700142,-1.6470447182655334,1.4745885506272316,0.8071805503329998,93.69783401489258,-64.86068964004517,7.91592076420784,0.0,0.0,0.0,0.0,0.0,0.0,0.0,0.0,0.0,0.0,0.0,0.0,0.0,0.0,0.0,0.0,True,0,2.4023327827453613,0.034926025390625
STABILIZE,2.3936357498168945,29.918496907790086,0.032422812779744466,0.03253936767578125,0.0,0.0,0.0,-0.5335771527257465,-1.295022649654635,118.46353862513152,0.013119016483319762,0.009697762653754946,0.0025405686803739013,0.4,-0.04335392762408876,0.08257095382159732,0.8075073478258427,-0.022133387183494915,0.8963766507804394,-0.5538236815482378,1.1580932885408401,-1.233298123403524,-97.2066342830658,31.107518076896667,26.99977457523346,0.0,0.0,0.0,0.0,0.0,0.0,0.0,0.0,0.0,0.0,0.0,0.0,0.0,0.0,0.0,0.0,True,0,2.4308290481567383,0.02993701171875
STABILIZE,2.427116632461548,29.869492454832255,0.032442839940389,0.032569169998168945,0.0,0.0,0.0,-0.5235682575490332,-1.297667000080488,118.45161311484067,0.007724578043079641,0.02172823040762664,-0.007387656106271582,0.4,-0.023473190019367807,0.06786882167992975,0.791915221289598,-0.043990358697028484,0.8963766507804394,-0.5538236815482378,1.1580932885408401,-1.233298123403524,-97.2066342830658,31.107518076896667,26.99977457523346,0.0,0.0,0.0,0.0,0.0,0.0,0.0,0.0,0.0,0.0,0.0,0.0,0.0,0.0,0.0,0.0,True,0,2.4595565795898438,0.02993701171875
STABILIZE,2.4606430530548096,29.826161777777777,0.03239897092183431,0.032561302185058594,0.0,0.0,0.0,-0.5150845222696426,-1.307110483659971,118.4545227754271,-0.003940199638828089,-0.011371611929954907,0.004104375913873511,0.4,-0.09312997804488764,0.09739059786386689,0.7771578221438327,0.0032066856472203684,-3.8878846913576126,1.7950978130102158,1.1340892873704433,2.444567819516699,-39.72030282020569,32.76001214981079,3.5528168082237244,0.0,0.0,0.0,0.0,0.0,0.0,0.0,0.0,0.0,0.0,0.0,0.0,0.0,0.0,0.0,0.0,True,0,2.4883055686950684,0.034926025390625
STABILIZE,2.494145631790161,29.852272565515083,0.03236344655354818,0.03256583213806152,0.0,0.0,0.0,-0.5174029446060389,-1.307302369286966,118.48610557014923,0.00017953818204283784,-0.014729109975994996,0.00301407035384502,0.4,-0.08428110201801474,0.07105496219176129,0.7752978374355703,-0.005603548117651201,0.3235816489905119,-1.23430909588933,1.6004178673028946,-0.5610159969732446,101.83554887771606,-60.74445843696594,20.41025310754776,0.0,0.0,0.0,0.0,0.0,0.0,0.0,0.0,0.0,0.0,0.0,0.0,0.0,0.0,0.0,0.0,True,0,2.5170533657073975,0.034926025390625
STABILIZE,2.5278124809265137,29.69965444966861,0.03234270413716634,0.032784223556518555,0.0,0.0,0.0,-0.5152412964554356,-1.301203864131791,118.44381303880851,-0.00030898741162982104,-0.000538912923340272,0.0021220890727947517,0.4,-0.02257860984458597,0.059057800916330366,0.7714737158108136,-0.013510369340375288,3.2279349863529205,-0.46413023956120014,1.4665713533759117,-0.5077929751655367,41.37518107891083,27.284100651741028,12.80902773141861,0.0,0.0,0.0,0.0,0.0,0.0,0.0,0.0,0.0,0.0,0.0,0.0,0.0,0.0,0.0,0.0,True,0,2.5456790924072266,0.02993701171875
STABILIZE,2.561340570449829,29.827222301237377,0.03248337109883626,0.03259897232055664,0.0,0.0,0.0,-0.5142548677288977,-1.3015459071988205,118.45118964311213,0.005439824783457604,0.029041422238992674,-0.006770446672745966,0.4,0.004112575358647126,0.06841409674054577,0.7562568243318911,-0.03959592805804428,-1.9672909751534462,1.3638314791023731,1.3210590928792953,-1.0978596343086968,-102.83087491989136,26.899129152297974,7.025822252035141,0.0,0.0,0.0,0.0,0.0,0.0,0.0,0.0,0.0,0.0,0.0,0.0,0.0,0.0,0.0,0.0,True,0,2.6034703254699707,0.034926025390625
STABILIZE,2.594677686691284,29.99316371333362,0.03237870534261068,0.03249621391296387,0.0,0.0,0.0,-0.5157213306880406,-1.3045669852460817,118.489028891114,0.0017363418089429562,0.0135818428816317,0.00315517631021852,0.4,-0.034828189632974675,0.055707094257752755,0.75594144066201,-0.001619969119202043,-2.3586157709360123,-0.5569930654019117,1.555471494793892,2.1132370504266733,-0.18874676898121834,-37.133437395095825,14.149147272109985,0.0,0.0,0.0,0.0,0.0,0.0,0.0,0.0,0.0,0.0,0.0,0.0,0.0,0.0,0.0,0.0,True,0,2.631720542907715,0.034926025390625
STABILIZE,2.6282339096069336,29.801578786565393,0.0325041135152181,0.03264641761779785,0.0,0.0,0.0,-0.5160260211580466,-1.2984245107481247,118.46342934210479,-0.00448269357608421,-0.001262303507809606,-0.001518047300337267,0.4,-0.024350986904545992,0.06377370128580662,0.7505701212227027,-0.021833289516034356,0.49253590404987335,0.6305813789367676,1.247457042336464,-1.2278473122807365,-46.18851840496063,5.74675165116787,11.540701985359192,0.0,0.0,0.0,0.0,0.0,0.0,0.0,0.0,0.0,0.0,0.0,0.0,0.0,0.0,0.0,0.0,True,0,2.660454273223877,0.064839599609375
STABILIZE,2.6617324352264404,29.853334946653664,0.03240254720052083,0.0325167179107666,0.0,0.0,0.0,-0.5148362875819951,-1.2976929334549927,118.46004156827647,-0.00490217414563191,-0.005251634687639938,-0.00578089319095133,0.4,-0.01222844124479382,0.07349991091962813,0.765135357433181,-0.04397929805853834,0.49253590404987335,0.6305813789367676,1.247457042336464,-1.2278473122807365,-46.18851840496063,5.74675165116787,11.540701985359192,0.0,0.0,0.0,0.0,0.0,0.0,0.0,0.0,0.0,0.0,0.0,0.0,0.0,0.0,0.0,0.0,True,0,2.6891770362854004,0.064839599609375
STABILIZE,2.6953885555267334,29.712698884969043,0.032335789998372395,0.03247237205505371,0.0,0.0,0.0,-0.5150364975020411,-1.3011389773346758,118.48549085312393,-0.006322163285219865,-0.012503415529825604,0.0006193874941733666,0.4,-0.0696452787324765,0.06623193994300038,0.7880978816497564,-0.010752215320336107,-3.0220165848731995,-0.2967317122966051,1.7917612567543983,1.7103324088589662,-72.61417508125305,-15.698285400867462,25.5372554063797,0.0,0.0,0.0,0.0,0.0,0.0,0.0,0.0,0.0,0.0,0.0,0.0,0.0,0.0,0.0,0.0,True,0,2.7185099124908447,0.03492578125
STABILIZE,2.728611707687378,30.09927591873641,0.03213194211324056,0.03227853775024414,0.0,0.0,0.0,-0.5151473813543479,-1.3005971512344234,118.48120149432516,-0.003580364912246198,-0.01361957106216446,-0.00150565748821807,0.4,-0.06348914332107498,0.06518008383281247,0.7867161683592347,-0.02322583472600771,0.22364417091012,0.11037954827770591,1.6555910930037498,-0.6890831644888944,56.19056820869446,15.85833877325058,25.13175904750824,0.0,0.0,0.0,0.0,0.0,0.0,0.0,0.0,0.0,0.0,0.0,0.0,0.0,0.0,0.0,0.0,True,0,2.7469663619995117,0.034927001953125
STABILIZE,2.7619707584381104,29.975800976251225,0.0323825200398763,0.0325007438659668,0.0,0.0,0.0,-0.5163814044382988,-1.298022490082446,118.47851039979219,-0.0016429455877155581,0.014225673784079917,-0.013371689524780517,0.4,0.03211045747651878,0.06816920245127998,0.7841800382354519,-0.07493467252642899,2.3729126900434494,0.23936901707202196,1.7136575654149055,-1.4028412411281062,33.357423543930054,-5.739835649728775,23.906131088733673,0.0,0.0,0.0,0.0,0.0,0.0,0.0,0.0,0.0,0.0,0.0,0.0,0.0,0.0,0.0,0.0,True,0,2.8045358657836914,0.02993701171875
STABILIZE,2.795438289642334,29.88077054599339,0.032471450169881184,0.03259706497192383,0.0,0.0,0.0,-0.5168788343089462,-1.3022162262328336,118.49686994828117,-0.0008386081382332315,0.02128393314947134,-0.00904719259900822,0.4,0.0013881797964953937,0.05908880488320882,0.7749672948309098,-0.050861088235982496,-1.6479529440402985,-0.3165773581713438,1.3416935689747334,1.1611579855549667,-61.69562339782715,9.530989825725555,21.888336539268494,0.0,0.0,0.0,0.0,0.0,0.0,0.0,0.0,0.0,0.0,0.0,0.0,0.0,0.0,0.0,0.0,True,0,2.8338704109191895,0.034926025390625
STABILIZE,2.8289995193481445,29.796709385922536,0.03244593938191732,0.032561540603637695,0.0,0.0,0.0,-0.5160203649076402,-1.3016079125098794,118.4932636083994,-0.00377177688457441,0.014537868373492161,-0.010418366338553602,0.4,-0.013529735050355055,0.06700378656271912,0.7700791154641231,-0.05867931092686391,-0.85998410359025,0.5695887375622988,1.3281858526170254,-0.48934137920530596,37.3297244310379,11.54593676328659,13.409121334552765,0.0,0.0,0.0,0.0,0.0,0.0,0.0,0.0,0.0,0.0,0.0,0.0,0.0,0.0,0.0,0.0,True,0,2.8621420860290527,0.034926025390625
STABILIZE,2.8624467849731445,29.897597103122838,0.032316001256306966,0.03245663642883301,0.0,0.0,0.0,-0.5177710277692791,-1.2998630126203528,118.49661040109271,-0.005533253505592332,-0.01897041878809819,-0.009810633173514573,0.4,-0.02845472557108413,0.07492618752365232,0.7655188203107601,-0.06638766079665111,-0.85998410359025,0.5695887375622988,1.3281858526170254,-0.48934137920530596,37.3297244310379,11.54593676328659,13.409121334552765,0.0,0.0,0.0,0.0,0.0,0.0,0.0,0.0,0.0,0.0,0.0,0.0,0.0,0.0,0.0,0.0,True,0,2.8907406330108643,0.034926025390625
STABILIZE,2.895801305770874,29.97944334052864,0.032327922185262044,0.03245973587036133,0.0,0.0,0.0,-0.5194052572499105,-1.299144988983855,118.49870043897874,-0.005539696055916062,-0.010890907356627162,-0.01037752318915219,0.4,-0.03179241138644029,0.06669212254872028,0.7679060647005272,-0.06368581447064128,-0.2351011149585247,-0.3041735850274563,1.6882333904504776,0.06763206625400346,-50.31163692474365,11.386129260063171,25.577080249786377,0.0,0.0,0.0,0.0,0.0,0.0,0.0,0.0,0.0,0.0,0.0,0.0,0.0,0.0,0.0,0.0,True,0,2.9193670749664307,0.06985302734375
STABILIZE,2.929373025894165,29.789302480841485,0.032439263661702473,0.03256392478942871,0.0,0.0,0.0,-0.5182461528034181,-1.301123289243926,118.49886436351882,-0.00728025084613708,-0.01741379493453788,-0.010257345071924964,0.4,-0.06515307857879517,0.07911366620948496,0.7952334371498951,-0.06459105086185421,-1.6494043171405792,0.6625260692089796,1.6207076609134674,0.061523142392301416,-18.20877641439438,11.501399427652359,22.856834530830383,0.0,0.0,0.0,0.0,0.0,0.0,0.0,0.0,0.0,0.0,0.0,0.0,0.0,0.0,0.0,0.0,True,0,2.9481022357940674,0.02993603515625
STABILIZE,2.9651877880096436,27.92014644699617,0.03230145772298177,0.03496193885803223,0.0,0.0,0.0,-0.5191799677290058,-1.2998006871441763,118.51140459083496,-0.0005854085759226189,-0.012418413481680097,-0.006375662303968712,0.4,-0.06336006850034694,0.06506164436833142,0.776922884703209,-0.05024658929828919,-0.06271207821555436,-0.19166376441717148,1.3881086371839046,0.2405994432900758,37.02079355716705,-21.624870598316193,23.25102686882019,0.0,0.0,0.0,0.0,0.0,0.0,0.0,0.0,0.0,0.0,0.0,0.0,0.0,0.0,0.0,0.0,True,0,3.005972146987915,0.02993701171875
STABILIZE,2.9987549781799316,29.79120676184388,0.03247717221577962,0.03262948989868164,0.0,0.0,0.0,-0.5194476257671057,-1.2983910001325092,118.50599508101232,-0.00023427642486997376,-0.0032189589050695385,-0.007164102731091446,0.4,-0.038377506650090265,0.05649478851111233,0.7639726136392243,-0.05272288114739828,1.2329311110079288,-0.30123000033199787,1.10923545435071,-0.25066548794023497,1.1702240444719791,9.251540899276733,13.406264781951904,0.0,0.0,0.0,0.0,0.0,0.0,0.0,0.0,0.0,0.0,0.0,0.0,0.0,0.0,0.0,0.0,True,0,3.034480333328247,0.034926025390625
STABILIZE,3.035569667816162,27.162190691439413,0.032289775212605794,0.03588557243347168,0.0,0.0,0.0,-0.5181925785071159,-1.301737045773875,118.51917734611044,0.0011034210598806317,-0.002157851052128503,-0.0063980530564307055,0.4,-0.06793027108654831,0.06434902933824294,0.7599782434910537,-0.0496330751128453,-1.6657309606671333,0.5637272726744413,1.3470781035721302,0.06380011001610814,-45.03159523010254,11.209827661514282,11.400561779737473,0.0,0.0,0.0,0.0,0.0,0.0,0.0,0.0,0.0,0.0,0.0,0.0,0.0,0.0,0.0,0.0,True,0,3.063053607940674,0.0349267578125
STABILIZE,3.069099187850952,29.825949682135594,0.03248718579610189,0.03261232376098633,0.0,0.0,0.0,-0.5195856169326811,-1.3001418764375596,118.52368527096264,-0.0009340509809363918,-0.006439562883735652,-0.0040656948257149555,0.4,-0.07939975611569715,0.058624291555769564,0.7591206916060952,-0.0375342667170673,-0.6946494802832603,-0.1737585524097085,1.5004062093794346,0.5536612172584632,8.261071145534515,-15.857939422130585,21.128277480602264,0.0,0.0,0.0,0.0,0.0,0.0,0.0,0.0,0.0,0.0,0.0,0.0,0.0,0.0,0.0,0.0,True,0,3.0917043685913086,0.029936279296875
STABILIZE,3.102670669555664,29.785917693427546,0.032404216130574544,0.03252744674682617,0.0,0.0,0.0,-0.5193140101914673,-1.297787061999492,118.51771568562806,-0.0015330184080484914,-0.0069184301637203295,-0.005692074730763625,0.4,-0.05815822911038969,0.052640939746823594,0.7502868388996482,-0.044418301683390234,1.0501202195882797,-0.18513562390580773,1.2472921051084995,-0.48413117216820273,35.04852056503296,5.6073736399412155,18.285049498081207,0.0,0.0,0.0,0.0,0.0,0.0,0.0,0.0,0.0,0.0,0.0,0.0,0.0,0.0,0.0,0.0,True,0,3.120382070541382,0.03492578125
STABILIZE,3.137929916381836,28.361354538569728,0.03227403958638509,0.03439784049987793,0.0,0.0,0.0,-0.5196832672934711,-1.2991234311992874,118.52712768630434,0.0023810572339397545,0.007452927839129099,-0.007590759721562726,0.4,-0.03775221685280156,0.04693506234212278,0.7457402620229985,-0.05139187380802448,1.0501202195882797,-0.18513562390580773,1.2472921051084995,-0.48413117216820273,35.04852056503296,5.6073736399412155,18.285049498081207,0.0,0.0,0.0,0.0,0.0,0.0,0.0,0.0,0.0,0.0,0.0,0.0,0.0,0.0,0.0,0.0,True,1,3.148946762084961,0.03492578125
STABILIZE,3.1762876510620117,26.07117150156329,0.032470019658406575,0.037183523178100586,0.0,0.0,0.0,-0.5188701546171223,-1.2996479683832032,118.5333977999624,0.0011510563806896117,0.005925991901908773,-0.006726810262411224,0.4,-0.05468986509333096,0.045252261287379296,0.7431475722090354,-0.0452314573435704,-0.9660569950938225,-0.17014264594763517,1.5765681862831116,0.6276941179199074,-14.59973156452179,-6.287016719579697,19.664958119392395,0.0,0.0,0.0,0.0,0.0,0.0,0.0,0.0,0.0,0.0,0.0,0.0,0.0,0.0,0.0,0.0,True,0,3.211576223373413,0.02993701171875
STABILIZE,3.2096846103668213,29.942845720567973,0.032135756810506184,0.032375335693359375,0.0,0.0,0.0,-0.517386296019937,-1.2964591238144534,118.52929968646039,-0.00037239765541579835,0.0020603617676572482,-0.00670998983162906,0.4,-0.047116340577080806,0.04441326559007357,0.7396940912860843,-0.046413059790143325,0.3261575708165765,0.07658491376787424,1.475990191102028,-0.17477450902028285,-23.29360395669937,-6.199581176042557,22.516141831874847,0.0,0.0,0.0,0.0,0.0,0.0,0.0,0.0,0.0,0.0,0.0,0.0,0.0,0.0,0.0,0.0,True,0,3.24027156829834,0.06985205078125
STABILIZE,3.248713731765747,25.621893708002442,0.032294543584187825,0.038015127182006836,0.0,0.0,0.0,-0.517408707578151,-1.2964599775880996,118.53719538514093,-0.0019039415174815673,-0.002003717885716915,-0.007129587424928024,0.4,-0.04117285947837853,0.044097239438684425,0.7651253827145204,-0.049334630058642095,0.3261575708165765,0.07658491376787424,1.475990191102028,-0.17477450902028285,-23.29360395669937,-6.199581176042557,22.516141831874847,0.0,0.0,0.0,0.0,0.0,0.0,0.0,0.0,0.0,0.0,0.0,0.0,0.0,0.0,0.0,0.0,True,0,3.2689480781555176,0.06985205078125
STABILIZE,3.2823989391326904,29.68578101776488,0.03229358990987142,0.032756805419921875,0.0,0.0,0.0,-0.5178094475833604,-1.2981064800648958,118.53954497021542,-0.00036892645203451767,-0.005389345914012452,-0.00434946668503471,0.4,-0.0651087351951598,0.0380168212042217,0.7893009106919656,-0.03700793635436142,-1.1936243623495102,-0.20244147162884474,1.5428951941430569,0.5635701141968591,-30.69360852241516,-2.345544658601284,23.01967889070511,0.0,0.0,0.0,0.0,0.0,0.0,0.0,0.0,0.0,0.0,0.0,0.0,0.0,0.0,0.0,0.0,True,1,3.297605037689209,0.02993701171875
STABILIZE,3.31588077545166,29.867365467738605,0.03240469296773275,0.03253483772277832,0.0,0.0,0.0,-0.5176350643161135,-1.2970151439015747,118.53965425324213,-0.0011350704994003208,-0.00742400033830325,-0.0018847024794277504,0.4,-0.06437485030147994,0.03956276238856058,0.7816164218953504,-0.027304454136449392,-0.10072503937408328,0.1451455056667328,1.5833854675292969,0.137755857554379,21.95264995098114,1.7384031787514687,24.64400827884674,0.0,0.0,0.0,0.0,0.0,0.0,0.0,0.0,0.0,0.0,0.0,0.0,0.0,0.0,0.0,0.0,True,0,3.355452060699463,0.034926025390625
STABILIZE,3.3525147438049316,27.296892388793076,0.03233531316121419,0.03569364547729492,0.0,0.0,0.0,-0.5186220266511804,-1.296332872036514,118.54511840457815,0.00022409605462947425,-0.011150073615999298,-0.0006659033500829525,0.4,-0.07161055308781983,0.0347813983175952,0.780928500173667,-0.022778866066961174,-0.4695774521678686,-0.13806355418637395,1.6022726893424988,0.1332988256156151,-23.16605895757675,7.3037706315517426,22.07845449447632,0.0,0.0,0.0,0.0,0.0,0.0,0.0,0.0,0.0,0.0,0.0,0.0,0.0,0.0,0.0,0.0,True,0,3.3839926719665527,0.064863037109375
STABILIZE,3.385943651199341,29.913375887030632,0.0324275811513265,0.03255915641784668,0.0,0.0,0.0,-0.517296436343669,-1.298939016091697,118.54667568770891,-0.0031205413510753148,-0.007348542486937177,-0.0011559543606022011,0.4,-0.08157829754926448,0.039457985313362705,0.8019767784932174,-0.022244248389486212,-0.41045392863452435,0.31569607090204954,1.5380273573100567,-0.1050299533014017,1.65738295763731,3.4404322504997253,18.00837516784668,0.0,0.0,0.0,0.0,0.0,0.0,0.0,0.0,0.0,0.0,0.0,0.0,0.0,0.0,0.0,0.0,True,0,3.413973093032837,0.034926025390625
STABILIZE,3.4193825721740723,29.905271188495078,0.032453091939290364,0.032570838928222656,0.0,0.0,0.0,-0.5188111375138251,-1.2984596221893268,118.5542162165526,-0.004181805653533908,-0.009459261460173826,-0.0018047426425082441,0.4,-0.08728278491539941,0.0440620547934443,0.7979709835094011,-0.022844963556082037,-0.41045392863452435,0.31569607090204954,1.5380273573100567,-0.1050299533014017,1.65738295763731,3.4404322504997253,18.00837516784668,0.0,0.0,0.0,0.0,0.0,0.0,0.0,0.0,0.0,0.0,0.0,0.0,0.0,0.0,0.0,0.0,True,0,3.4426212310791016,0.034926025390625
STABILIZE,3.4532392024993896,29.538600222544616,0.03245261510213216,0.03293347358703613,0.0,0.0,0.0,-0.519164279638256,-1.297441390394466,118.55577349968337,-0.0031806767165092646,-0.0035693478944187743,-0.0022258627789390247,0.4,-0.0752216990871087,0.03697529065143232,0.7985366487216823,-0.023644947974206187,0.4431177396327257,-0.24751073215156794,1.732529141008854,-0.11248059578840135,21.041280031204224,-10.140623152256012,20.317459106445312,0.0,0.0,0.0,0.0,0.0,0.0,0.0,0.0,0.0,0.0,0.0,0.0,0.0,0.0,0.0,0.0,True,0,3.4712319374084473,0.039916015625
STABILIZE,3.486844301223755,29.75696691072138,0.03239038785298665,0.03269076347351074,0.0,0.0,0.0,-0.5173152193638866,-1.2978532294570766,118.55968036788862,0.0006633569686205875,9.16692392941475e-05,0.0007252314503064037,0.4,-0.07309810117436821,0.029496477357110657,0.7850538024502591,-0.011683188884160997,-0.11272931005805731,-0.20114465150982141,1.452647801488638,0.5651224881291561,10.706429928541183,-6.332521885633469,14.525851607322693,0.0,0.0,0.0,0.0,0.0,0.0,0.0,0.0,0.0,0.0,0.0,0.0,0.0,0.0,0.0,0.0,True,0,3.528921604156494,0.06486279296875
STABILIZE,3.5203444957733154,29.850997807953995,0.032413752873738606,0.03255057334899902,0.0,0.0,0.0,-0.5180070961824677,-1.2969050071012083,118.56433855690256,0.004028908921303609,0.001051186192640828,0.004354960513468459,0.4,-0.07533161657698394,0.023435494673414894,0.8038325784016543,0.0027206290570568076,-0.11272931005805731,-0.20114465150982141,1.452647801488638,0.5651224881291561,10.706429928541183,-6.332521885633469,14.525851607322693,0.0,0.0,0.0,0.0,0.0,0.0,0.0,0.0,0.0,0.0,0.0,0.0,0.0,0.0,0.0,0.0,True,0,3.5575320720672607,0.06486279296875
STABILIZE,3.5537705421447754,29.914442621781614,0.03237202962239583,0.03249549865722656,0.0,0.0,0.0,-0.5182353739111342,-1.2959532629290493,118.56543138716977,0.0028618457073026032,0.0012686626855833065,0.0035022556524966835,0.4,-0.06379132633321358,0.020600139899430193,0.8140305082369436,-0.0008481649022174971,0.47380663454532623,-0.02965756575576961,1.1976543813943863,-0.2935367444109803,9.141092002391815,3.4557197242975235,17.632950842380524,0.0,0.0,0.0,0.0,0.0,0.0,0.0,0.0,0.0,0.0,0.0,0.0,0.0,0.0,0.0,0.0,True,0,3.586235523223877,0.034926025390625
STABILIZE,3.587141513824463,29.96573551475316,0.03239157994588216,0.03250718116760254,0.0,0.0,0.0,-0.518454260129692,-1.2964030949189183,118.57153757628775,-0.0006679869684879312,-0.0009283178128252185,0.0032395823492936703,0.4,-0.0685111872582603,0.02455034290931836,0.8016950730169589,0.00047350517491485825,-0.3680309746414423,0.2462021540850401,1.2845426797866821,0.03250660448780963,-14.312925934791565,3.4832805395126343,19.703879952430725,0.0,0.0,0.0,0.0,0.0,0.0,0.0,0.0,0.0,0.0,0.0,0.0,0.0,0.0,0.0,0.0,True,0,3.6148128509521484,0.02993701171875
STABILIZE,3.6208863258361816,29.63690707517506,0.03246787389119466,0.03260350227355957,0.0,0.0,0.0,-0.5184174411411974,-1.2965827075497482,118.57443357649584,-0.003722025566072475,-0.0016575716968799594,0.002774949491272015,0.4,-0.07272041928702075,0.028316599124723188,0.7869119995016334,0.0014805760187921056,-0.3680309746414423,0.2462021540850401,1.2845426797866821,0.03250660448780963,-14.312925934791565,3.4832805395126343,19.703879952430725,0.0,0.0,0.0,0.0,0.0,0.0,0.0,0.0,0.0,0.0,0.0,0.0,0.0,0.0,0.0,0.0,True,0,3.6438703536987305,0.02993701171875
STABILIZE,3.654116153717041,30.091501955016682,0.03214100201924642,0.03227496147155762,0.0,0.0,0.0,-0.5187254399840826,-1.2966638160461423,118.57388716136224,-0.004431683954005839,-0.0038150040582331916,0.0015507715047827445,0.4,-0.06875943678033465,0.02788221348304619,0.772039862760978,-0.004119610766389386,0.019230411271564662,0.05265904474072158,1.2067439034581184,-0.2866930015843333,1.7631014809012413,-0.44785384088754654,14.576122164726257,0.0,0.0,0.0,0.0,0.0,0.0,0.0,0.0,0.0,0.0,0.0,0.0,0.0,0.0,0.0,0.0,True,0,3.6724822521209717,0.069851806640625
