Mode,Time,Freq,North-Vision,East-Vision,Down-Vision,Yaw-Vision,North-Desired,East-Desired,Down-Desired,Roll-UAV,Pitch-UAV,Yaw-UAV,Roll-Control,Pitch-Control,Yaw-Control,Thrust-Control,northVraw,eastVraw,downVraw,yawVraw,zGyro
GUIDED_NOGPS,0.002646923065185547,382.0992985332969,31.526593043171506,-10.720739570169037,89.53281443588757,-14.53334872038778,28.354992750957216,-12.465928283316751,85.30051100458208,-0.17160438077068457,0.9229384896646702,-68.08805896778192,2.0,2.0,10.0,0.49365154485304175,31.526593043171506,-10.720739570169037,89.53281443588757,1.3907972116807588,3.4377467707849396
GUIDED_NOGPS,0.02465033531188965,45.46671002710027,31.964672418136722,-10.813640373051697,90.08189527962284,-13.170355484503308,28.354907893826347,-12.46589097690948,85.30047925362805,-0.17514666094855597,0.9589216337595898,-68.03694866222271,0.04450568999710632,0.2231101147986717,-10.0,0.4928278759610078,32.402751793101935,-10.90654117593436,90.63097612335811,1.6312736922731865,3.4377467707849396
GUIDED_NOGPS,0.04631161689758301,46.177010051634355,32.37457690154248,-10.89491433367999,90.66452978094253,-12.942235270631377,28.354320741754577,-12.465632842630189,85.30025827251211,-0.039841293841477735,0.7870085471147192,-67.8981728786664,0.04304185840028796,0.236896634812381,3.8458507720170427,0.4919535927373544,33.194385868354004,-11.057462254936574,91.82979878358191,1.8124434241987235,3.552338329811104
GUIDED_NOGPS,0.08872747421264648,23.582716257625595,32.68816295211466,-10.90430790891617,91.28071433140683,-12.6508793752884,28.352747706276965,-12.464941276681882,85.29966232730338,0.19352392524070997,0.609837068582585,-67.5896805546136,0.05544961182954001,0.2035921701417006,5.522838323244505,0.49102842199384483,33.62892110383119,-10.932488634624713,93.1292679827997,1.956981721655921,3.8388172273765155
GUIDED_NOGPS,0.12939739227294922,24.592378908609053,33.20857180270185,-10.904054338874394,91.86019471621219,-12.293898599611943,28.349725353274167,-12.4636125358809,85.29850947477797,0.32579351338555557,0.6536162332848395,-67.43952567590004,0.05623202966651235,0.24625444691960507,4.391713726877876,0.49015747213784866,35.2902072050506,-10.903040058707294,94.17811625543364,2.1613369806366256,3.323155211758775
GUIDED_NOGPS,0.17431068420410156,22.272099234817148,33.951561875259884,-10.94087778280102,93.08619478290595,-11.951419068771179,28.344810124981464,-12.461451615441558,85.29662153671916,0.44042868701155213,0.5615322632249624,-67.30839287402496,0.05182317423185959,0.29245614530253716,4.72534905945169,0.4883156401307198,35.24154340596171,-10.90485678980216,95.66281476935642,2.357840365369738,3.323155211758775
GUIDED_NOGPS,0.2167823314666748,23.54617669018868,34.5755374312097,-10.96861294631169,94.38763133587334,-11.604624564200492,28.33757806199781,-12.458272126760798,85.29382407421775,0.5020914213950157,0.24565757189644047,-67.19233429964811,0.05134563897920614,0.3091993883600285,4.364477691406587,0.48635928910751663,35.522629572851024,-11.045216993487703,97.13815888819505,2.570978405397867,3.4377467707849396
GUIDED_NOGPS,0.255108118057251,26.115487590750035,35.284576526225294,-10.897462998703876,95.64968773471062,-11.258838196161753,28.32762452529483,-12.453896175202832,85.28994636197235,0.3757065614884518,0.25678928613968033,-67.03338896747275,0.06270035144570835,0.35515554434475916,3.6491400873567326,0.4844603879408926,36.73958134343195,-10.70171251689751,98.14008077776835,2.697166747257338,3.7815214478634336
GUIDED_NOGPS,0.2907865047454834,28.014694291935506,36.03235750691748,-10.673472967022446,96.86499324550843,-10.931506741301718,28.314563918225865,-12.448154237883776,85.28482136258962,0.3847340972196517,0.11460395752705552,-66.92992526192539,0.0861830560993201,0.39508662178441467,3.442234383279972,0.48262974217562177,37.36782600729214,-9.812538476217556,99.20579553678868,2.729644181132437,3.8388172273765155
GUIDED_NOGPS,0.337843656539917,21.253877766122944,36.75980300563837,-10.350434953257396,98.04449237009729,-10.633552911925769,28.298029408534987,-12.440885041456301,85.27828570088464,0.37646199108282574,-0.10090302493883306,-66.8053767624102,0.09992689273046892,0.40375698362880497,4.674388697397507,0.480850689996181,38.927434698655034,-9.287849989882046,100.075611878378,2.8246716756775845,2.807493196141034
GUIDED_NOGPS,0.3808248043060303,23.270144914671224,37.5783351900361,-9.961543987287788,99.1578694163517,-10.314893510909098,28.277672650366032,-12.431935439894282,85.27017963818112,0.31272287919167835,-0.13759608182061092,-66.69108037683921,0.12136639210422176,0.4525405005549464,3.9547063956491924,0.47916846533274415,39.33420432795038,-8.960401959954119,101.22970000062845,2.9640437583226267,2.6929016371148693
GUIDED_NOGPS,0.4195394515991211,25.833994431988963,38.52449087348418,-9.483939745007149,100.18802893411097,-10.00695537288086,28.253163506271626,-12.42116029227743,85.26034704661177,0.3396830765887467,-0.06069327440814487,-66.54205930952787,0.14985294084151746,0.5139626885410677,3.5089076030517408,0.4776084771687512,40.25340799009144,-8.657195782084507,102.28895647699134,3.0858023040654645,3.495042550298022
GUIDED_NOGPS,0.4567117691040039,26.906398947942392,39.14572432113568,-8.993312056156087,101.27561169862317,-9.706314006370881,28.224189769222203,-12.40842234057594,85.24863538341855,0.3448770619265712,-0.059266405201846895,-66.45108801997247,0.16998904861961303,0.5099684518348803,3.272505980732814,0.47595953552719306,39.84574858168944,-8.248574072642201,103.57799460032929,3.2244730122415453,3.724225668350351
GUIDED_NOGPS,0.5015246868133545,22.321169514706742,39.70442357382672,-8.667409333032031,102.39533460140863,-9.422681269864611,28.19045688461505,-12.393592087435142,85.23489566525295,0.46111903755481326,-0.16300310487258898,-66.27974589445354,0.16020082627229484,0.5173926694142538,3.9774976957322363,0.4742593415957665,40.161322270747355,-8.18302486059728,104.80441005071606,3.4080791050427197,2.979380534680281
GUIDED_NOGPS,0.5346803665161133,30.169639774427438,40.26699883547904,-8.678768654036631,103.56121710774391,-9.116450818523573,28.151687672283302,-12.376547673960133,85.2189824424763,0.45387386103186933,-0.015140181512391077,-66.16868018835996,0.1311131625334534,0.5611915637623671,2.3597757586401773,0.4724866480020986,41.74031100691663,-9.34464659490504,105.90502441005437,3.653071991980059,3.380450991271857
GUIDED_NOGPS,0.5782289505004883,22.966882775538814,40.620807586358595,-8.430771141337155,104.69219882096418,-8.839669681601269,28.107622048505004,-12.357174757500426,85.2007537734601,0.4748411010407804,0.061103939531991884,-66.0083414975939,0.1615027725009882,0.541798576440158,3.633940016844198,0.4707628324287439,41.103248082348124,-7.720414396456738,106.8846085667298,3.732402375593426,3.9534087864026803
GUIDED_NOGPS,0.6187293529510498,24.771901226693124,40.934828943028236,-8.171293748909033,105.78022781260422,-8.52658240035158,28.058016748012108,-12.335366389434595,85.18007119888622,0.4991254651087905,0.1331400237174123,-65.8611577511693,0.1726686547091676,0.5566176890971146,2.7183943700005866,0.469099765079423,41.82351477343963,-7.3598088199439,107.72910143519158,3.8776595318000937,3.896113006889598
GUIDED_NOGPS,0.662473201751709,22.801574357970733,41.46467098721997,-8.164569635669618,106.82249782695388,-8.235857847673252,28.002645045999515,-12.311022892954918,85.1567997160473,0.5711546123833352,0.12900562483543895,-65.71379641982628,0.1493778408489032,0.5972559920114906,3.1734475052396283,0.46750145283364014,42.49495880264807,-8.21495350644512,108.78934467207746,4.013782088906003,3.724225668350351
GUIDED_NOGPS,0.6936869621276855,32.04816809933142,41.884483478091965,-7.865797375839874,107.74844591868509,-7.933248286183741,27.941296480134096,-12.284051740852021,85.13080775314694,0.5153703763585783,0.19546848810154055,-65.60335909113634,0.19200884777449326,0.6254871507918858,1.439182724241097,0.46607354275169277,42.26038472510736,-6.689163561448556,109.43415050937209,4.097207519787462,3.6096341093241864
GUIDED_NOGPS,0.7420401573181152,20.683400234730208,41.98849822173012,-7.3347007691485775,108.45427113854865,-7.673612702616493,27.873776572563724,-12.254367433299517,85.10196714360006,0.5447493144954775,0.11964079515311679,-65.44965251405438,0.21619339833289905,0.5856370636047209,3.456779962608627,0.4649715440075771,42.26038472510736,-6.689163561448556,109.43415050937209,4.097207519787462,4.068000345428845
GUIDED_NOGPS,0.7816131114959717,25.278921896565233,42.77461454531816,-7.019447952689906,109.12911073080086,-7.369826062673157,27.799906551926288,-12.221891375638656,85.07015310033319,0.5144296245221148,0.2258914313252467,-65.3058770320256,0.21520905199199586,0.6938554785962768,2.090885373191705,0.46391156355429847,45.033829700288315,-6.144150314163383,110.25880652799079,4.4058568073272095,2.6929016371148693
GUIDED_NOGPS,0.8190798759460449,26.695078252789287,43.47582415994773,-7.022554138672383,109.84883509776937,-7.11277531230118,27.71952307535873,-12.186551756162963,85.03524419008473,0.4958901965980259,0.16600134447481302,-65.22069774288637,0.18444774985468676,0.7218062047622976,2.3641552454884116,0.46277961363847303,45.32956284658747,-7.375339749856285,111.32772327003413,4.6314516499211535,3.0366763141933633
GUIDED_NOGPS,0.8608171939849854,23.961837512354247,44.13438680016519,-6.727605030454669,110.41981475156008,-6.85097798101663,27.632477950506065,-12.148283423902887,84.99712230770524,0.5044479433803759,0.24569214972911368,-65.07669003442582,0.21963524589967426,0.7400130526306777,2.5178262211890505,0.46186596133421776,45.787772003735355,-6.7402079653565465,111.64424294103105,4.7388355815809255,3.896113006889598
GUIDED_NOGPS,0.9140489101409912,18.79042179065027,44.755196058299774,-6.396043602179611,110.94433416564436,-6.593525330826176,27.538637857530418,-12.107027766410443,84.95567265045777,0.41504887799454837,0.29090074495860496,-64.93028492956661,0.227998582178631,0.7522019030068257,3.070933688254299,0.4610170077272201,45.364431015780276,-5.0313564200732666,112.05674757979357,4.79789133481036,2.5783100780887045
GUIDED_NOGPS,0.9585843086242676,22.4575350973946,45.92927899472335,-6.679408878061767,111.56536167657399,-6.3064452439296765,27.437884071120028,-12.062732587543852,84.91078369231812,0.37870570822517496,0.42086088873055316,-64.78885220242316,0.1702168322316934,0.8647935827249402,2.096374930715633,0.4600181330236162,48.130799407225226,-8.105989940859331,112.5392880640202,5.134717784168825,3.0366763141933633
GUIDED_NOGPS,0.9976077079772949,25.633481231589112,46.38552102159243,-6.421623922740039,112.03125290234406,-6.055730509626264,27.330112182498297,-12.01535198525219,84.86234715827517,0.30967533416138326,0.5401497156980027,-64.67760891141116,0.2239041407772569,0.8312611410896352,1.9601141188213247,0.45924664138389665,47.31503983463372,-4.8552255375547455,112.58826265684128,5.123528590994377,2.6929016371148693
GUIDED_NOGPS,1.0329093933105469,28.336637007911254,47.1004538896774,-5.894637735791708,112.27302747037079,-5.82927465821926,27.21523182143281,-11.964846229360026,84.8102579986311,0.2955499159884151,0.4857368002316846,-64.61513317107304,0.27043282212746605,0.9013816186138808,1.8260848859333598,0.4588058457923905,48.90422718701228,-4.740408815114628,112.53659611016774,5.280876967325881,2.5783100780887045
GUIDED_NOGPS,1.0776889324188232,22.336146894520745,47.8789106922355,-5.660989024527547,112.52424933110001,-5.614021556767985,27.093166378244344,-11.91118163935207,84.75441436330176,0.19280640853231484,0.6594654365353092,-64.47842693483524,0.24303091494418272,0.9246558866833315,2.5072901226262285,0.45834524754830264,49.680056016525924,-5.571964409035739,112.90035224467711,5.483219714441924,2.7501974166279517
GUIDED_NOGPS,1.1131622791290283,28.193021489403176,48.82783189825204,-5.926328638625925,112.78312458665457,-5.380006194402883,26.963852725815926,-11.854330462157819,84.69471757611693,0.14191352176821267,0.7281325299126209,-64.40819892978917,0.1845728117247483,1.0094443207381179,1.4744163940666346,0.45786738948419353,50.10903704586298,-6.35805449056516,113.35112385756631,5.646910853926706,2.4064227395494577
GUIDED_NOGPS,1.1586248874664307,22.00094417809297,49.247961131882725,-5.53794140132012,112.99999427771168,-5.160916469976579,26.827240941601833,-11.79427074993619,84.63107210912058,0.11724770764331324,0.7561734446632851,-64.28313133589707,0.255314753101934,0.9606305575854809,2.2169701888738573,0.45744661674711334,50.231445575378615,-6.164053754330304,113.62363651930576,5.7081191802382,3.323155211758775
GUIDED_NOGPS,1.1959927082061768,26.768337279579296,50.23520907878127,-5.87034513268186,113.16951962788639,-4.919516126052817,26.683294029636624,-11.730986237860177,84.56338555687121,0.11017435306667746,0.9461910149203323,-64.17735219622108,0.1770434063971581,1.078840694056959,1.2493333836127887,0.45709079889347726,52.25127956912639,-6.517244194363442,113.43588940771482,5.920939694221899,2.6929016371148693
GUIDED_NOGPS,1.236774206161499,24.526946107784433,51.57617549425488,-6.028940258047531,113.13757644947509,-4.708925521832037,26.53198764254417,-11.664466221901485,84.49156861074215,0.10813112598885194,0.9535016652097732,-64.11183019151315,0.18680974387805277,1.1692091120866606,1.6919315856382768,0.4570309882419006,55.60905926438036,-5.533384441942986,112.37688021811122,6.129784872424257,2.521014298575622
GUIDED_NOGPS,1.2724568843841553,28.033980550078535,52.76197614382577,-6.02122426462898,113.0328820441619,-4.502374085592947,26.373309803546686,-11.594705436615177,84.41553503322179,0.0970796397879333,0.9674935211679558,-64.05436781002582,0.19907461352850928,1.2215806993069103,1.3731065433914527,0.45707397948358985,55.60905926438036,-5.533384441942986,112.37688021811122,6.129784872424257,2.291831180523293
GUIDED_NOGPS,1.3215160369873047,20.384546969998883,53.71390388720945,-5.527056788693939,112.8672542883696,-4.29929493913955,26.207260628473737,-11.52170393292432,84.33520163221394,0.05189617752015356,1.0745319769721644,-63.90128278015833,0.2510756181567052,1.2088163222148836,2.0685805529606114,0.4572019210157665,54.86867576278137,-3.8872171108899534,112.52298507860489,6.171291102892977,2.9220847551671985
GUIDED_NOGPS,1.3655922412872314,22.69215246030243,54.85148163693218,-5.182037903090058,112.65393810985225,-4.06182094557014,26.03385204777129,-11.445466955904621,84.25048823533807,-0.0006009632654685633,1.1827695578625335,-63.79860454636553,0.25254666445359486,1.2918046305052915,1.2630014613848837,0.4573948251882287,55.919334323992246,-4.438959326310899,112.557055626719,6.459684480850409,2.5783100780887045
GUIDED_NOGPS,1.4115214347839355,21.780558858810515,56.08742474144973,-4.79356386568111,112.34867886611536,-3.847598818021073,25.853107528510726,-11.366004822569082,84.16131766422961,-0.06985630668504754,1.3362844627609167,-63.69087880277609,0.26644072832359095,1.355441567257599,1.469797086180657,0.45771895819717134,58.43099509171414,-4.5748740073187015,111.90959318903045,6.66585671478931,2.3491269600363753
GUIDED_NOGPS,1.449838399887085,26.104597536611628,56.54953978945298,-4.488812374244799,112.27772003621249,-3.6389678050009793,25.66506179639785,-11.283332799652634,84.06761570884031,-0.12569866601881563,1.4496075463751834,-63.59589819217789,0.2709259944240669,1.3254450873647998,0.9905716852599271,0.45768484350894173,57.91963450439665,-4.009626984761429,112.02208606859679,6.752808030653415,2.177239621497128
GUIDED_NOGPS,1.495715856552124,21.802296508454663,57.15070882624589,-4.612538610836088,112.3562026276868,-3.4455382250048143,25.46976055778196,-11.197470981396783,83.96931110173843,-0.09398593094978115,1.5267882571095044,-63.49669652467263,0.2263815206116645,1.361355239432639,1.448549191087546,0.4574196627110774,58.61490444834494,-6.152015624899435,112.76929317548274,7.080404500141932,2.4064227395494577
GUIDED_NOGPS,1.5388610363006592,23.17896912457931,57.82226372500038,-4.431612582698761,112.21504649622516,-3.234432486707639,25.26726022166483,-11.10844416733426,83.86633549240909,-0.04639414664869756,1.666587288380856,-63.37496889328466,0.2541032792532022,1.407938024731611,1.0185885892858857,0.4574769334942759,58.226450256553846,-2.9825869702033128,111.81720442129667,6.977315274599193,2.6929016371148693
GUIDED_NOGPS,1.5839016437530518,22.20606625335529,58.45709790369388,-4.765463384610423,112.26335500160744,-3.0224248900859205,25.057627621709763,-11.016281740073653,83.75862342155456,-0.02673934349706028,1.7385779091196134,-63.2844893773495,0.19733456984619693,1.4381737438487283,0.9466137152135468,0.4572429026299207,59.09350521745971,-6.108213335869212,112.79859815363042,7.337956802079052,2.635605857601787
GUIDED_NOGPS,1.6268253326416016,23.302206715704795,58.840398926759846,-4.816608447957806,112.32879415748396,-2.7944832120367527,24.840939738250597,-10.921017543084062,83.64611229539453,0.06822060978096171,1.708493060259823,-63.150829405481524,0.21408520925339494,1.4445937887739797,0.4932133490842463,0.4569759772068659,60.347500207043986,-4.8305993240556155,112.23678896841308,7.505358298212618,3.4377467707849396
GUIDED_NOGPS,1.6678133010864258,24.40350724081153,59.539726561550424,-4.783053091914726,112.2526600372455,-2.5804158181683445,24.617283420300758,-10.822689758479735,83.52874235996644,0.07459996644511395,1.7276342385219605,-63.05250883237919,0.21855492135603694,1.5176471132157454,0.38466163691433364,0.4569141234840814,61.41627267834954,-3.8418502045460317,111.64141546740449,7.648916854438785,2.4064227395494577
GUIDED_NOGPS,1.7050962448120117,26.84612282779147,60.14759137120562,-4.217275960219034,112.00111182298232,-2.3874099521681735,24.38675510756226,-10.721340784804713,83.40645667542574,0.12915846365833122,1.7666666351944678,-62.96710414699735,0.2859361042733385,1.5514109681535102,0.3099276803923914,0.4571080172786651,61.6542284966209,-3.3231299664209715,111.51155210416681,7.761949425579939,2.2345354010102105
GUIDED_NOGPS,1.749636173248291,22.445156767575146,61.22403739850299,-4.832902702636024,111.85938732790507,-2.203078543226,24.149460552434736,-10.61701711481748,83.27920109034616,0.2067754260454603,1.492595049463951,-62.89037380186143,0.15773701167213078,1.6331475368356991,0.7157560738094388,0.45712972064366164,63.60868039304071,-6.060720682288261,111.10858194591034,8.06648127403336,2.46371851906254
GUIDED_NOGPS,1.7911183834075928,24.11406494342747,61.79774771556987,-4.468918163723071,111.62364657585321,-2.000942186848863,23.905514542024484,-10.509769213275598,83.14692421602007,0.25684200666233636,1.4801457490411336,-62.80773534309344,0.2473599546090397,1.6293092485995706,0.19408613238382477,0.45728491646025027,61.9620568027941,-4.28829064130445,111.6198943933712,8.18888257297874,2.4064227395494577
GUIDED_NOGPS,1.833014965057373,23.87359409862939,62.13547555279305,-4.151112593046475,111.42733174065859,-1.8359255874698999,23.65504062015347,-10.399651394720356,83.00957740075872,0.24447781679987945,1.4763643855618853,-62.75144775414337,0.250795108637807,1.632220940079122,0.5354532914576478,0.4573733684901502,62.036139393159914,-3.241571470672639,111.25521479243994,8.258889206673357,0.9740282517223995
GUIDED_NOGPS,1.8646776676177979,31.594558356057068,62.3594811181262,-3.9839929459569903,111.30901380724433,-1.7056297129821596,23.398170809368366,-10.286721701261408,82.86711470419255,0.26485712693164054,1.4300484459132057,-62.738415753206986,0.2409103442894421,1.6555566865274929,0.4215237567384924,0.4573371513454223,62.5363005050153,-3.0062519690986025,111.04982580033325,8.353904471704253,0.17188733853924698
GUIDED_NOGPS,1.9079725742340088,23.104402959176365,62.53589551980508,-3.9206173464925165,111.2166685464776,-1.60097334635585,23.135045332949563,-10.171041780361424,82.71949287157145,0.3182544786457424,1.2965673396241157,-62.73478209256854,0.22885642124269118,1.6557903720103975,1.1674641703163897,0.45725423648764074,62.5363005050153,-3.0062519690986025,111.04982580033325,8.353904471704253,0.17188733853924698
GUIDED_NOGPS,1.9397661685943604,31.46113398891364,62.372041252627255,-3.1181932276794493,111.1094749020892,-1.4937442717935054,22.865812336920225,-10.052676762620733,82.56667130806514,0.3160712727105713,1.261137013965144,-62.73728194180476,0.3353947188972593,1.6338270351000033,0.6236592978370348,0.4571857946089639,62.789409057151566,-2.048600088222926,110.57261372396842,8.50365700345635,0.2291831180523293
GUIDED_NOGPS,1.987969160079956,20.748371267023167,62.02747252488034,-2.2992267553335433,110.96390439394429,-1.410594888937572,22.59062761205528,-9.931695139561956,82.40861205306335,0.3908521324469848,0.8976981659171227,-62.79686851212395,0.3356021094463211,1.6139574525225315,1.3943122650272368,0.4571670614886786,60.23921316405954,-0.19345827957491746,110.89204185264653,8.228936086399816,-0.4583662361046586
GUIDED_NOGPS,2.0298922061920166,23.858520241867133,61.68513031655736,-0.5025216452329918,110.87540955232066,-1.345495121958435,22.309654315890473,-9.808168641414664,82.2452797544762,0.33347694259329097,0.9710955921814913,-62.823390136671115,0.4876130943592748,1.6130609156772782,1.440884231710717,0.4570548053032333,60.324428351545045,5.741954079830117,110.81274058432174,8.010902794796417,-1.0313240312354819
GUIDED_NOGPS,2.062187671661377,30.97416053111592,61.242755885863325,1.2471195645527522,110.82799250911837,-1.291119693290503,22.02306269473138,-9.682172114900013,82.07664164303442,0.31502769451058743,0.8927565240526185,-62.87574353665926,0.5844368965209352,1.5945829804841007,1.3379747924056666,0.4568729737008741,60.324428351545045,5.741954079830117,110.81274058432174,8.010902794796417,-1.0313240312354819
GUIDED_NOGPS,2.0977368354797363,28.135529096092572,60.90228335878062,2.4369046074500162,110.4475813188607,-1.2445618355376462,21.731029805662438,-9.553783401015389,81.9026675065897,0.3380562109058143,0.6389609952035195,-62.95519229708485,0.5487955563220409,1.6079544710664782,1.500420862120293,0.4571826292815935,60.83393786960177,2.9426732453877174,109.14776984904485,8.197982188818234,-1.432394487827058
GUIDED_NOGPS,2.140620231628418,23.321771525480276,60.51118912127066,3.4351592741721446,110.16261254387598,-1.2035577348792865,21.43373923855597,-9.423083212819055,81.72332966441498,0.42131792443556226,0.6846959418859248,-63.0091849424738,0.545752209391789,1.6026081816217583,1.6544817468493627,0.4573410756808085,60.83393786960177,2.9426732453877174,109.14776984904485,8.197982188818234,-1.260507149287811
GUIDED_NOGPS,2.1740212440490723,29.9507569265924,60.28590516795369,4.171927701148727,109.91459992484513,-1.1798235070351704,21.131380838081203,-9.290155013214786,81.53860294150466,0.5399232522383345,0.6645951220454004,-63.06427041812995,0.5608214594292705,1.625000185269362,1.760608527540468,0.4574360045249893,59.11279339747474,3.490383855307995,109.6519787574923,8.029529335330592,-1.5469860468532228
GUIDED_NOGPS,2.209632635116577,28.08955323836886,59.96478404158138,3.7390882860556247,109.69468216281844,-1.1255932950321332,20.824150425713313,-9.155084892736527,81.34846464287506,0.675843162947942,0.7597721005822355,-63.0913862691349,0.41782492947441247,1.6149853795736546,1.3222155644122386,0.45748067372008494,58.718822719683466,3.577757004364603,109.71315177418836,8.005542356002,-0.2291831180523293
GUIDED_NOGPS,2.247337818145752,26.52792693648053,59.11611423367856,3.4642667036979633,109.65928240975605,-1.060472609277244,20.51224952174244,-9.017961447333025,81.15289452786449,0.8612901093506342,0.6912087407029435,-63.10607117585043,0.42152510152156253,1.5395587643391442,1.1786893584084233,0.45724041817716266,56.08107931203096,4.367846168041812,110.63574181900982,7.8842468143992175,0.17188733853924698
GUIDED_NOGPS,2.2849981784820557,26.56018034790428,57.63519210253189,4.57768824003797,109.70233201077171,-0.981021035530549,20.1958850672827,-8.87887565615247,80.95187478443373,0.8976160969253768,0.8306406493064069,-63.06405868226568,0.5893777393203405,1.4278958033430627,0.9378332303898045,0.456874314160493,53.42932721386845,8.509780927087755,109.36301785412323,7.335794670879531,0.9167324722093172
GUIDED_NOGPS,2.320122003555298,28.484431133657953,56.123520099926814,5.82386228814003,109.67437645638063,-0.8720082292279021,19.87526914628124,-8.737920759327157,80.74539000346624,1.009223949284324,0.939954411877876,-63.01303033897651,0.650173558035771,1.3690635900043817,0.3624070255560905,0.45660652032062843,53.27557785657636,9.173543485898012,109.00799207708936,7.32596722039597,2.0053522829578814
GUIDED_NOGPS,2.3654580116271973,22.058450130163823,54.64978857582845,7.126797036926886,109.52450328089326,-0.7579871939978458,19.55061870752725,-8.595192135758104,80.53342715306847,0.9944258108389624,1.0089203260313757,-62.9490997683452,0.6707564067195434,1.3597266283888392,0.589647390447235,0.45651338580826284,51.744135776982894,10.00505759924228,108.90261288005549,7.231059491887892,1.6615776058793874
GUIDED_NOGPS,2.412379741668701,21.317828117773225,53.62569586676658,8.474803499425363,109.1569146580869,-0.6362324740077285,19.22215528666098,-8.450787180899717,80.31597555287011,1.0295508056976934,1.0636280068490622,-62.92261912493306,0.715867183652228,1.3748407006249572,0.45566193488147944,0.4567385913421748,53.59835917437413,10.317789316856981,107.87520866015662,7.370312853702504,1.0313240312354819
GUIDED_NOGPS,2.4512107372283936,25.75926596940311,53.612951698462254,9.539095715123576,108.45851176012305,-0.5211553866663933,18.89010472818277,-8.304805184544428,80.09302684832446,1.050950962306107,1.1434436764991271,-62.86823715876142,0.7419560865891054,1.4814298416195237,0.1981046499875614,0.45745177263230213,56.01735847050938,9.689307246532879,107.14372732919045,7.679849831658252,0.8594366926962349
GUIDED_NOGPS,2.491089344024658,25.081350013155692,54.45377021781703,9.571614466532166,107.94266381308964,-0.4070716835669134,18.5546969074621,-8.157347208607321,79.86457498500864,1.0538536859816565,1.0680057312202174,-62.83770621317146,0.6429282329087942,1.6148465977046373,0.1734773240536749,0.4578828667578785,57.6334198106423,8.672374684130705,106.78377811895623,7.94712239669819,1.4896902673401404
GUIDED_NOGPS,2.532862663269043,23.945831763322257,55.35864168083516,9.273856688045061,107.63580068157944,-0.2966336570725021,18.216165452746587,-8.008515964910812,79.63061618292396,0.9762316809939293,1.153125042760797,-62.77311994437982,0.5990278891616658,1.6684088761545524,0.19236490969567743,0.4579922232520168,57.799935171667045,7.684754593462481,107.47367641953838,8.161569894779348,0.9167324722093172
GUIDED_NOGPS,2.5714852809906006,25.89731969202082,56.65611014513191,8.71924948783422,107.3204632462421,-0.2037734574607879,17.874747467171023,-7.858415692969257,79.39114891079616,1.0167868896862322,1.1105883321572503,-62.76759432134128,0.5480946920474664,1.7832551170070552,0.27266049780818147,0.4581060284968311,58.231478098466646,7.232021598188075,107.32592570336871,8.251192403862689,0.11459155902616465
GUIDED_NOGPS,2.6080846786499023,27.331222061487534,57.684727055418094,8.626757541982284,106.78897561549884,-0.12618486968492032,17.530683250766387,-7.7071520377736125,79.1461738603757,1.087047658295978,1.0241518613239158,-62.77962911465884,0.5808430792917335,1.8218423863002522,0.34737334878378623,0.4585357973673153,58.74144372580501,9.855329587597307,105.21777050644043,8.285376714691546,0.0
GUIDED_NOGPS,2.640327215194702,31.017223146607506,57.773484081823405,8.555295404716043,106.66252239016663,-0.06445945214396304,17.184216022468895,-7.554831927576082,78.89569392073807,1.0852317884721068,0.9272656279472848,-62.818923192953925,0.5723441531638882,1.7442647721503461,0.4109783933690011,0.45834975729585714,56.46114360253589,9.331996560201668,106.51146120252936,8.277428129360457,-0.4583662361046586
GUIDED_NOGPS,2.681272029876709,24.42738417634897,57.53902884020213,8.687219779930235,106.60805900688126,-0.01343362484888775,16.835591642129025,-7.401563451674747,78.6397141525841,1.0691742271768183,1.0890365240049211,-62.84297228902154,0.5951948821243203,1.7078373965940101,0.7062630541383466,0.4580474827185543,56.46114360253589,9.331996560201668,106.51146120252936,8.277428129360457,-0.6875493541569879
GUIDED_NOGPS,2.7208685874938965,25.26110890278129,57.16623525658376,9.368423828220683,106.1787062429114,0.029404212848312284,16.485058332520513,-7.247455738198225,78.37824176254024,1.1058830788710519,1.1602348427999571,-62.88576342417167,0.6646601125655055,1.695148352764763,0.7571603494966841,0.45829930327944324,55.9359672535752,11.090774834914727,105.3269125996891,8.071296831318126,-0.6302535746439055
GUIDED_NOGPS,2.7552478313446045,29.09579272311054,56.655260893718626,10.217477685997062,105.68249800938125,0.05405555430552671,16.13286640134941,-7.092618831890302,78.1112860774588,1.0331745412175026,1.2023359154005042,-62.92983863488576,0.7150538302984479,1.6739159266224972,0.9222949381563301,0.4586431821021163,55.67660628414096,11.477290887069968,104.84488453571791,8.080009555766566,-1.604281826366305
GUIDED_NOGPS,2.7894127368927,29.27797400494213,55.68719129043234,10.670037096686901,105.59341472381259,0.06504739518797481,15.779267963263095,-6.93716357189458,77.83885851871833,1.0480295623320455,1.313291057806892,-62.992573922412326,0.6847077656212858,1.5972811352970844,1.1129960547415456,0.4583681656923586,53.90109570937356,12.118126641046493,104.77235407859712,7.884949228197189,-1.8334649444186344
GUIDED_NOGPS,2.837934732437134,20.612653699098693,55.010008559914944,11.328712533865497,105.16344207009186,0.06487509544696275,15.424516661859297,-6.781201469539123,77.56097257652382,0.9217984884035128,1.408755758062514,-63.1089261949235,0.7095423212640947,1.6317028293964346,1.2754426507811274,0.45859629575964794,53.075229949948955,12.625373746094656,104.36159793392576,7.815532791600267,-2.119943841984046
GUIDED_NOGPS,2.8804686069488525,23.515549749667812,54.16243242640015,12.161218093945205,104.63053728960331,0.04810873793630521,15.06886739169514,-6.6248445861211,77.2776437842071,0.8987794702401004,1.4002560145272562,-63.16238608555719,0.7544731130681637,1.5940637473315606,1.4819255591075986,0.4589706597419057,52.22326293496195,13.494524360600208,103.8469373000867,7.659227629826818,-1.2032113697747289
GUIDED_NOGPS,2.9300432205200195,20.175010582214185,53.384990468161604,12.634855406551884,104.27742444136463,0.06995663464840907,14.712576020296147,-6.468205410691423,76.98888969252702,0.8703788499800998,1.4327835097889725,-63.16075367034555,0.7326642617042454,1.5912837018352706,1.048928159495474,0.4590671978767436,52.04875746238245,13.458961397948128,103.56134835849575,7.619150552602198,-0.057295779513082325
GUIDED_NOGPS,2.967036008834839,27.072601466487658,52.663259870604996,13.03301687218602,103.97556712234862,0.11630543534030938,14.355899110165272,-6.311396737839397,76.69472984396984,1.0134241954587644,1.4423389444378205,-63.1543879340391,0.7425274989238658,1.5724855868231058,0.6077135952936257,0.4590787440824318,52.06795329635792,13.468098215240646,103.33559794063788,7.590211569634536,0.40107045659157625
GUIDED_NOGPS,3.005892753601074,25.79713139961129,52.45069806821442,13.12120895570575,103.70333587284992,0.17946156052009826,13.999093640791955,-6.154531545477363,76.39518574704944,1.1662914063247602,1.2607754408259566,-63.16558261408875,0.7107609185162848,1.6342755122199508,0.37632295958425743,0.45903777481129926,52.838286697420685,12.559087058645146,103.41119783110369,7.760751990080232,0.4583662361046586
GUIDED_NOGPS,3.046283721923828,24.72036305770024,52.528898347537314,12.905068628107765,103.54876616063743,0.27579528412398413,13.642416730661093,-5.99772287262534,76.09028085060767,1.4106136762384633,1.1500894505615495,-63.103619137938395,0.6713670938554077,1.681162088903859,-0.06220458085768721,0.45881227203495534,53.46623134656342,11.544672108104722,103.58874937286328,7.959506054894617,2.0053522829578814
GUIDED_NOGPS,3.0801827907562256,29.50950511489158,52.71387689612834,12.538095709056401,103.44727231863001,0.4130600788003466,13.286125359262094,-5.841083697195659,75.78004051811459,1.5740641585016881,1.0576366502864916,-63.034729849969644,0.6292806759463385,1.7265814588600856,-1.0433223682983754,0.4584991522992269,53.1481556779171,11.659659765343399,103.33946809004951,8.046718926193916,3.20856365273261
GUIDED_NOGPS,3.117327928543091,26.92816466464217,52.896901821140354,11.836677933205612,103.6596839556275,0.5706656533416284,12.93047608909794,-5.6847268137776386,75.46449200196885,1.7415775361040127,0.9895279248738286,-62.914306784713155,0.5740248081877674,1.7414423733558517,-1.174155123527942,0.45770721206951204,52.96388208744255,9.951872518694193,104.6234065434832,8.393067368221184,4.010704565915763
GUIDED_NOGPS,3.1515746116638184,29.20966899500672,52.47034778678187,11.062282451730848,104.05271940504785,0.7637672469356062,12.575724787694142,-5.528764711422179,75.14366441779785,1.836379814731849,1.0056947691958371,-62.776295982343875,0.5250979274126992,1.6744783807435477,-2.0422168365746525,0.456636417519125,49.935183124565555,9.596120807866823,105.30077518773963,8.093470359362602,4.8128454790989155
GUIDED_NOGPS,3.190946340560913,25.40262729161241,51.889727072210846,10.469689201575184,104.43063487637505,0.9720202777327454,12.22212634960782,-5.373309451426458,74.81758871875819,1.9409088163463128,0.964370203726556,-62.520163888468396,0.5280906177961633,1.652281916433299,-2.0182393135855294,0.4555804307635747,49.935183124565555,9.596120807866823,105.30077518773963,8.093470359362602,5.443099053742821
GUIDED_NOGPS,3.2249135971069336,29.448384809273392,50.45053311212403,10.561673825086093,104.45730498688954,1.2128098355087364,11.86993441843672,-5.218472545118537,74.4862976698358,2.070321050880779,0.9589737139520113,-62.32105021378418,0.5880517333630184,1.5055019385144197,-3.082010432586136,0.4550434890244194,46.27026154612932,12.004595225659257,103.72209992543577,8.12061291198141,5.500394833255903
GUIDED_NOGPS,3.273169994354248,20.726634809723123,49.07495428576647,10.630660917149264,104.53383135396678,1.4470081101210983,11.519401108828205,-5.064364831642013,74.14982582214637,2.1644357215582657,1.1580118296685296,-62.00546815337292,0.5858466804924375,1.507582273298811,-2.184385995150141,0.4544239917022694,46.27026154612932,12.004595225659257,103.72209992543577,8.12061291198141,6.531718864491385
GUIDED_NOGPS,3.3152201175689697,23.787347228129875,47.73730368981358,11.44682877454822,103.71260551102247,1.7816357883514256,11.170776728488331,-4.91109635574068,73.80820948723553,2.2784804573470265,1.150397876291258,-61.70579360353861,0.6725492137323531,1.4635367112576645,-3.8682896129444524,0.45514340596431957,46.275629107678114,14.03271180568897,100.51727732876168,8.555671506713871,7.16197243913529
GUIDED_NOGPS,3.357135057449341,23.862320860665296,47.00539288643609,12.334146974112647,102.75590593922689,2.13796754949122,10.824309500190857,-4.758776245543148,73.46148671137927,2.4222012978624345,1.07167162181381,-61.372671617338746,0.7070527779318353,1.5052612002314445,-4.470117365043851,0.45605837115822856,46.275629107678114,14.03271180568897,100.51727732876168,8.555671506713871,8.766254265501596
GUIDED_NOGPS,3.40610933303833,20.42783321887952,45.58402522059158,12.476375321303744,102.24434193821783,2.5232765570206066,10.480245283786218,-4.607512590347506,73.10969724988406,2.6277981027294577,0.9207784423396537,-60.95173388898003,0.643658673779641,1.4123209742843832,-4.450117099880938,0.4562980329674994,42.828344795342964,10.307262543822304,102.74295518269433,9.147237978137206,9.11002894258009
GUIDED_NOGPS,3.4432709217071533,26.90812510024058,45.06396409954896,11.175215116678453,102.21343339315857,2.961983328680838,10.138827298210636,-4.457412318405948,72.75288254138732,2.7502749204920107,0.9260329922455091,-60.62173329923086,0.45287628429169274,1.4757274356517325,-6.684631457163851,0.45580917372234314,43.66995594091626,5.4987942025328085,103.56755720013945,9.699268110297485,8.938141604040842
GUIDED_NOGPS,3.476085901260376,30.48429743656833,45.749887570492405,11.628979146232766,100.62991060276134,3.336008817849587,9.800295843495128,-4.308581074709439,72.39108568215761,2.8565949257728986,0.8339246896367137,-60.26904282105891,0.6376268212154851,1.6623204188901282,-6.810378158881823,0.4576417626190944,49.699878900846514,14.273415373430828,95.80448597344963,10.704694709594257,9.11002894258009
GUIDED_NOGPS,3.5094053745269775,30.022361244327374,46.43473752912608,11.677119859781136,99.68735233169893,3.677228984053243,9.464888022774453,-4.161123098772331,72.02435140039493,2.8889488915410144,0.9403228152062336,-59.986184196961176,0.5902660105106426,1.7010366656779523,-6.442093207609504,0.458505498603044,49.699878900846514,14.273415373430828,95.80448597344963,10.704694709594257,9.625690958197831
GUIDED_NOGPS,3.567514419555664,17.211990889878326,46.346219463602246,11.58528535629027,98.80739309269377,4.019958361029765,9.132837464296259,-4.015141102417045,71.65272603053103,3.071590284381271,0.6745635696956225,-59.55784937373134,0.5741012897821527,1.6119990594865072,-5.388378176583448,0.4592679994067559,45.83303878005894,13.573539288234635,96.11748113373588,10.534312050899826,9.281916281119337
GUIDED_NOGPS,3.591888189315796,41.03614127776147,47.169813004713355,10.726076226274031,97.93880653603954,4.453192966751886,8.804374043429988,-3.8707361475586577,71.27625748752968,3.100468751078908,0.7009874371602861,-59.216640443554176,0.4604037719457564,1.7616734676511592,-7.734492366524686,0.4600061764272352,46.94631250089847,6.011216893741112,98.4000223994232,10.757654596604599,8.88084582452776
GUIDED_NOGPS,3.62620210647583,29.152822280761505,50.54580113680723,7.310865205193201,96.59415439881883,4.831633972916964,8.47972360467599,-3.7280075239895982,70.89499524118702,3.1245487964411995,0.74302661117148,-59.0052187679856,0.05087639327411153,2.0,-7.796529366075893,0.4614512612635523,60.549896601385626,-11.577260902871341,96.84429651403596,14.464840060777586,8.422479588423101
GUIDED_NOGPS,3.6613428592681885,28.464906684764166,52.65999894112631,2.9669099638357794,95.87054935734547,5.129189662218382,8.159107683674542,-3.587052627164292,70.50899029043178,3.1359528644775936,0.8163446364867472,-58.70309901042843,-0.18573357482232633,2.0,-6.612261723444488,0.46195766139962946,60.2708679224419,-7.446360833356281,92.18646076608282,14.016640876362173,6.589014644004467
GUIDED_NOGPS,3.6986217498779297,26.833756645575694,54.257797338236195,-3.011841611933802,95.32614701258055,5.409032899742311,7.842743229214797,-3.4479668359837365,70.11829513762562,3.175942768294372,0.70589898350376,-58.51405986476999,-0.5453279881099378,2.0,-6.414095829021928,0.4621882221875676,57.68887088639593,-15.62034250541708,93.082474249625,14.349041312694808,5.271211715203574
GUIDED_NOGPS,3.7399303913116455,24.214438703345554,58.124854145338915,-6.644225200755062,94.41865462175137,5.669235267799477,7.530842325243917,-3.3108433905802332,69.7229637628634,2.9999966683880204,0.697993679869705,-58.32064939804274,-0.41559067570104957,2.0,-5.993122694394354,0.46295646371166804,65.16832281557255,-4.588378655871662,91.58001917959,16.721875002453242,4.010704565915763
GUIDED_NOGPS,3.773895263671875,29.451072913155826,61.76925620827374,-8.764144310677619,93.05465397778474,5.923761608564748,7.223611912876031,-3.1757732701019687,69.32305159827348,2.8099536983649975,0.724613701829595,-58.208443050357765,-0.4080916025048311,2.0,-6.795443365758791,0.4644025964307331,65.16832281557255,-4.588378655871662,91.58001917959,16.721875002453242,3.724225668350351
GUIDED_NOGPS,3.8134517669677734,25.296302327404753,58.803553018662456,-10.716587224932065,95.55997027832593,6.093270234406385,6.921253512401272,-3.042845070497707,68.918615502318,2.3903978026527395,0.6694699561220854,-58.09107990984944,-0.4393654934740749,1.9125854935472564,-5.391196107198593,0.4600379678359881,45.7213806533292,-21.33947547414358,109.37087801674195,15.709184637923752,2.3491269600363753
GUIDED_NOGPS,3.848811149597168,28.276270283753448,55.893655564839925,-13.495210153089525,98.99685372845775,6.239957826048005,6.6239629452947995,-2.912144882301371,68.5097137340932,1.9985692733195604,0.6046510340118413,-58.05369828452196,-0.6369463324993208,1.7997352427759832,-5.32837678567257,0.4542692900084532,45.7213806533292,-21.33947547414358,109.37087801674195,15.709184637923752,1.1459155902616465
GUIDED_NOGPS,3.879302978515625,32.802853031345805,53.50015751822658,-14.639036746834824,102.25453448188117,6.349303061834504,6.331930056225858,-2.783756168416753,68.09640592762968,1.8154689771444437,0.7303980182829495,-58.03379511328054,-0.5458017680131924,1.728245110903771,-5.204382020950942,0.44876280716862277,45.7213806533292,-21.33947547414358,109.37087801674195,15.709184637923752,0.5729577951308232
GUIDED_NOGPS,3.9062938690185547,37.060012723545626,49.61076908577792,-17.989256110489208,105.81270624931156,6.430877277837435,6.045338435066775,-2.6577596419020946,67.6787530661927,1.477468101443077,0.8333582108224258,-58.00326416769058,-0.986095656908208,1.3255474937046063,-5.000918067221649,0.4427990702253217,45.7213806533292,-21.33947547414358,109.37087801674195,15.709184637923752,0.34377467707849396
GUIDED_NOGPS,3.9521710872650146,21.80161655014684,45.721380653329255,-21.33947547414359,109.37087801674195,6.484770869743805,5.764365138901965,-2.534233143754813,67.2568174565825,0.6217003067581038,0.6731367004893245,-58.04339152906441,-0.918769066256635,1.4047750648165391,-4.138674678290096,0.4368289091597608,45.7213806533292,-21.33947547414358,109.37087801674195,15.709184637923752,-0.6875493541569879
GUIDED_NOGPS,3.985807180404663,29.73966561254733,45.72138065332926,-21.33947547414359,109.37087801674195,6.522129171189336,5.489180414037001,-2.4132515206960203,66.83066270343457,0.15145116057262148,0.5110800037036054,-58.116884364533746,-0.6647880156558595,1.7636425858612879,-4.1563780252217635,0.4361896770300389,45.7213806533292,-21.33947547414358,109.37087801674195,15.709184637923752,-1.7188733853924698
GUIDED_NOGPS,4.019525051116943,29.66856237444473,45.72138065332926,-21.33947547414359,109.37087801674195,6.525167355292393,5.219947418007671,-2.294886502955338,66.4003536835199,-0.32555312274328285,0.47485268034585776,-58.16355504713244,-0.6693483239706722,1.775073273996211,-3.670203531256703,0.4355442135001669,45.7213806533292,-21.33947547414358,109.37087801674195,15.709184637923752,-2.46371851906254
GUIDED_NOGPS,4.056480646133423,27.063692500274232,45.72138065332926,-21.33947547414359,109.37087801674195,6.508624314916273,4.9568219415888635,-2.179206582055359,65.96595652004535,-0.7579895812914209,0.2937442380874459,-58.349254230286746,-0.672823661354235,1.7837532488112433,-3.4118536550671412,0.4348926177549551,45.7213806533292,-21.33947547414358,109.37087801674195,15.709184637923752,-2.864788975654116
GUIDED_NOGPS,4.0847861766815186,35.34128749578699,45.72138065332926,-21.33947547414359,109.37087801674195,6.452240366069525,4.699952130803759,-2.0662768885964073,65.52753855695394,-1.0480124868591205,0.378299418691265,-58.42153129208383,-0.6802459066226122,1.8024311392080412,-2.6307635510660248,0.43423499081031797,45.7213806533292,-21.33947547414358,109.37087801674195,15.709184637923752,-4.354479242994256
GUIDED_NOGPS,4.116435289382935,31.60622433216533,45.72138065332926,-21.33947547414359,109.37087801674195,6.422867089040921,4.449478208932739,-1.9561590700411617,65.08516833322506,-1.2385845830994082,0.1485700613827058,-58.53478948890098,-0.6830733097039711,1.8094877423681444,-3.1521242759948196,0.43357143547472465,45.7213806533292,-21.33947547414358,109.37087801674195,15.709184637923752,-3.0939720937064457
GUIDED_NOGPS,4.155834913253784,25.390171555867646,45.72138065332926,-21.33947547414359,109.37087801674195,6.369948056400259,4.205532198522498,-1.8489111684992796,64.63891555717478,-1.517503148541401,0.3544481846661689,-58.6984135006578,-0.6849753301941571,1.8141846679429248,-2.9269318830122515,0.43290205631064926,45.7213806533292,-21.33947547414358,109.37087801674195,15.709184637923752,-3.9534087864026803
GUIDED_NOGPS,4.188673496246338,30.463927484547614,45.72138065332926,-21.33947547414359,109.37087801674195,6.257393366264665,3.968237643394964,-1.7445874985120486,64.18885108075624,-1.5749740677651807,0.5452567762064682,-58.89342223165084,-0.6911248187943615,1.8296360866013537,-1.7909983243364422,0.4322269595960214,45.7213806533292,-21.33947547414358,109.37087801674195,15.709184637923752,-5.7868737308213145
GUIDED_NOGPS,4.221894979476929,30.110295912360552,45.72138065332926,-21.33947547414359,109.37087801674195,6.16434427915834,3.737709330656479,-1.6432385248370256,63.735046873859865,-1.5785638657825514,0.35898300338823425,-59.05563239424947,-0.6944568126081337,1.8379618827294042,-2.1249413178399705,0.43154625328567686,45.7213806533292,-21.33947547414358,109.37087801674195,15.709184637923752,-5.213915935690491
GUIDED_NOGPS,4.253031015396118,32.12475203541585,45.72138065332926,-21.33947547414359,109.37087801674195,6.048485186421372,3.5140530127066327,-1.5449107402326963,63.27757599861364,-1.5345799021269022,0.4772039729676346,-59.28675233538436,-0.6989604106137755,1.8492548578994499,-1.607511854798676,0.43086004697280755,45.7213806533292,-21.33947547414358,109.37087801674195,15.709184637923752,-5.7868737308213145
GUIDED_NOGPS,4.285678148269653,30.63704958985559,37.49370579560554,-14.73644363765187,106.11182218499141,5.890682705648363,3.29736512924746,-1.4496465432430998,62.81651258368343,-1.4172230581992142,0.7162998675058084,-59.56959046891459,0.26280991634957507,0.5213854505907105,-0.9340641628540092,0.43505703559803804,4.583006364710597,11.675683708315,93.07559885798919,10.834513565603697,-6.932789321082962
GUIDED_NOGPS,4.323820352554321,26.222758504273237,33.37136865934617,-10.819247864245758,103.20281207511043,5.695807521120869,3.0877325292924027,-1.357484115982503,62.35193179857329,-1.3202011815345351,0.8185832309872187,-59.84990143245191,0.044511859046728,0.9359735625475214,-0.6785083986454845,0.4387236795851943,25.109694972032322,-1.7534966071130151,94.82582746733699,11.5357494875045,-8.422479588423101
GUIDED_NOGPS,4.36498236656189,24.29818443036068,25.68316335402121,-8.531200504653333,100.37241843685247,5.4264908074419775,2.885232193175277,-1.268457301919975,61.883909827925734,-1.1752157955273224,0.6544486625899348,-60.257308556064835,-0.045456511031272046,0.3210219215475755,0.2015898321011771,0.44226723708660987,7.280354126704436,-9.899238676181447,95.21890982545214,10.635898891999,-9.453803619658583
GUIDED_NOGPS,4.407178640365601,23.702390976338883,17.827596716587244,-6.569492172502774,97.30961120962266,5.102209148601622,2.6899309545593653,-1.182595483664132,61.41252384582202,-1.0000682941453334,0.6070042476243223,-60.613407298632616,-0.010230313479807296,0.01581849172119476,0.9814356123038368,0.44615436895429905,6.443547466159355,-11.530933813390781,94.05684188059291,10.815346856299785,-9.912169855763242
GUIDED_NOGPS,4.451623916625977,22.502838135093086,10.06370540971675,-4.066620404219913,94.09467798307621,4.757183599489392,2.5018852224464965,-1.0999234607476627,60.937851990082464,-0.8168723753218364,0.4978157763354406,-61.0816372568045,0.11311555152033131,-0.24371816033125704,1.2475198762945343,0.4502647610105094,6.9019241189767335,-8.825116632729275,93.29621188400972,10.453914031954701,-10.026761414789407
GUIDED_NOGPS,4.484638214111328,30.298659269533054,2.5988290623278605,-10.664488840737858,92.16059429875892,4.356043048208937,2.3211407031859537,-1.0204613274121375,60.45997333656671,-0.7020600436642426,0.3816799354435982,-61.44194339590101,-1.056225414469332,-0.7396061063904811,3.735463548551764,0.4524490685567117,-32.741375372233854,-21.313658474274728,83.40518043640276,5.546133608856744,-9.224620501606255
GUIDED_NOGPS,4.526600122451782,23.841974522655054,-8.971385006525376,-14.5765212141702,89.87646489257207,4.076951225031534,2.1477321224834824,-0.9442243503924406,59.97896787347406,-0.5703469958748341,0.055901683261969363,-61.78054319381523,-0.8099123155006247,-1.3938467484605983,1.1264875850977316,0.455153754471353,-32.741375372233854,-21.313658474274728,83.40518043640276,5.546133608856744,-8.995437383553925
GUIDED_NOGPS,4.559824705123901,30.09625223337615,-2.6132118334489403,-18.73758494363862,88.2826392961386,3.769365268968367,1.9816829474105404,-0.8712228467015866,59.4949164756437,-0.5262101000148001,-0.20821767651760403,-62.13707223830072,-1.076880495674993,0.732969699288869,2.60611197912269,0.45681841576925764,39.07121999208661,-30.70455732352355,87.24978184328475,12.287062225087887,-9.167324722093172
GUIDED_NOGPS,4.59885048866272,25.632071378372597,3.9123226717365105,-22.57230964566517,86.92122728867697,3.5427053138107274,1.8230051084130352,-0.8014620614152665,59.00790087885505,-0.6437282004399238,-0.4952309766214139,-62.42491690049257,-1.1237711473970722,0.9074336432293075,1.065549041265767,0.45813001038526713,39.07121999208661,-30.70455732352355,87.24978184328475,12.287062225087887,-8.36518380891002
GUIDED_NOGPS,4.624178647994995,39.50145506258182,10.346181846358485,-26.948197783824025,85.71194128053199,3.3068421966809316,1.6716987213205883,-0.7349420454565863,58.51800365412805,-0.654598072978029,-0.6261352873244106,-62.547061173419905,-1.5544739822244815,1.5238513666525009,2.9657269627698555,0.4592090935603941,39.07121999208661,-30.70455732352355,87.24978184328475,12.287062225087887,-6.760901982543714
GUIDED_NOGPS,4.655466794967651,31.96342076785905,24.708700919222576,-28.82637755367379,86.48086156190837,3.201902944937201,1.5277518093554008,-0.6716575333805626,58.02530818202344,-0.8109399291408572,-0.6558783065605832,-62.66165808731438,-1.2162910684143433,2.0,0.04372553734383189,0.4573166699301726,39.07121999208661,-30.70455732352355,87.24978184328475,12.287062225087887,-6.016056848873644
GUIDED_NOGPS,4.686961889266968,31.76179622127144,39.07121999208667,-30.704557323523556,87.24978184328478,3.059345097954998,1.39114002514129,-0.6115978211589468,57.52989862694301,-1.0046846482506158,-0.6949681195108008,-62.831108250433225,-1.2863086944671471,2.0,0.7309314762237284,0.45542017517548733,39.07121999208661,-30.70455732352355,87.24978184328475,12.287062225087887,-5.901465289847479
GUIDED_NOGPS,4.720982074737549,29.400494879469512,39.07121999208667,-30.704557323523556,87.2497818432848,2.9412379067894396,1.2618263727128678,-0.5547466439646858,57.03185991142999,-1.5154124703251424,-0.34435828771476756,-63.161204462830774,-1.0731451114009933,1.667322774243942,0.26909767509862137,0.4546731171022178,39.07121999208661,-30.70455732352355,87.24978184328475,12.287062225087887,-5.271211715203574
GUIDED_NOGPS,4.755132675170898,29.290650576831755,39.07121999208667,-30.704557323523556,87.2497818432848,2.824117564536963,1.1397609295244067,-0.5010820539567167,56.53127769046927,-1.8224349163242104,0.0709270322189396,-63.344267192965454,-1.075678553711601,1.6726811136245883,0.3317723836670945,0.4539222437707767,39.07121999208661,-30.70455732352355,87.24978184328475,12.287062225087887,-4.583662361046586
GUIDED_NOGPS,4.781528949737549,37.89371736262942,39.07121999208667,-30.704557323523556,87.2497818432848,2.7171848701815406,1.0248805684589044,-0.450576298064556,56.028238325787655,-2.0025519139359127,0.3521878189377178,-63.439131690347764,-1.0793476035606708,1.6811331778256156,0.6784884112226917,0.4531676847237543,39.07121999208661,-30.70455732352355,87.24978184328475,12.287062225087887,-4.469070802020421
GUIDED_NOGPS,4.823704957962036,23.71901172292502,30.616466682345994,-26.846956695179824,87.25935349549184,2.6495936848804744,0.9171086798371775,-0.4031956957728884,55.52282886015432,-2.0855357241438055,0.9595433944174726,-63.606102494797895,-0.6097441024961927,0.5362542687371327,-0.48477964259417194,0.4523952130469937,-3.202546556616767,-11.416554181804871,87.2976401043199,7.6085298391872485,-3.0939720937064457
GUIDED_NOGPS,4.863300561904907,25.263086884505345,22.236926085739157,-23.848102032816776,87.2137116683173,2.5398673871994033,0.8163548934267837,-0.35890051690631175,55.01513699168085,-2.003174741810853,1.4213711174595276,-63.76421454389452,-0.5596255732397017,0.15660793403561823,0.17621712060391492,0.4517021379850453,-2.8264829909475804,-15.710284011708307,87.02157270741199,7.214038860602831,-2.0626480624709638
GUIDED_NOGPS,4.902943849563599,25.2263167074645,14.005635656584744,-20.75961523423815,87.1408231918351,2.459689579345242,0.7225148004511581,-0.31764485941385523,54.50525104812181,-1.9015214632803765,1.7110168151581426,-63.83942175684553,-0.447179728315349,-0.1390311630709673,-0.17255713398177064,0.4510466417844301,-2.085232153685456,-15.262123330630438,86.8853394608737,7.137049928267454,-2.7501974166279517
GUIDED_NOGPS,4.94407320022583,24.318048203528587,5.774345227430331,-17.67112843565953,87.0679347153529,2.3800033758602512,0.6354696755985216,-0.27937652715379535,53.99325996117481,-1.6458208452613727,1.7019382130907263,-63.96080787877499,-0.34723355697533204,-0.43713395468210325,-0.16718650753817432,0.45038798786873285,-2.085232153685456,-15.262123330630438,86.8853394608737,7.137049928267454,-2.46371851906254
GUIDED_NOGPS,4.984313011169434,24.855134814814814,-3.73821801573371,-14.077475560502501,86.56663120321143,2.3224772895777654,0.5550861990309031,-0.2440369076780886,53.47925324078093,-1.3353696442989582,1.4131215296026216,-64.02490920413557,-0.16648104233014288,-0.9654507516871994,-0.3840669690934183,0.4503689330563542,-8.491596223733596,-12.736292947738411,84.74326428257739,7.373844504158761,-1.432394487827058
GUIDED_NOGPS,5.0216968059539795,26.760993287905467,-6.092842949992786,-13.989515701889676,85.6142765364531,2.2704701709026147,0.4812161783935025,-0.21156085001723035,52.96332094942496,-1.128421742636742,1.109561029017398,-64.09880502076594,-0.47820573076029504,-0.3634267795009096,-0.37341042482933995,0.4510235666194578,-14.975671227912144,-10.976754888740736,82.53586677052824,7.636920736406898,-2.177239621497128
GUIDED_NOGPS,5.055802822113037,29.32710567900544,-8.522680597385698,-13.04280987729616,84.71713534907636,2.226013509844902,0.41369627082311666,-0.18187654246474416,52.44555367643571,-0.9034659405060812,0.7073704623830747,-64.14632264682172,-0.3540149084258234,-0.49074934758793454,-0.39532010904024606,0.451592627491039,-14.975671227912144,-10.976754888740736,82.53586677052824,7.636920736406898,-2.0053522829578814
GUIDED_NOGPS,5.087969064712524,31.094715615918393,-11.100768412231037,-12.185736188918217,83.84724081100725,2.1735795708616754,0.3523477049577295,-0.15490539036185602,51.92604251228629,-0.7283348209059296,0.37791863564503675,-64.23707537032367,-0.32858573919483347,-0.627044161010309,-0.20391215704626642,0.45211820255191854,-14.975671227912144,-10.976754888740736,82.53586677052824,7.636920736406898,-2.9220847551671985
GUIDED_NOGPS,5.12358546257019,28.094633336012645,-13.678856227076375,-11.328662500540277,82.97734627293816,2.1208788015240865,0.29697600294507964,-0.13056189388215422,51.40487902289437,-0.6037809319446051,-0.13749704407764574,-64.33062847138534,-0.3072537166488263,-0.7003010789126527,-0.24583870255757356,0.45264129912493434,-14.975671227912144,-10.976754888740736,82.53586677052824,7.636920736406898,-2.807493196141034
GUIDED_NOGPS,5.155131578445435,31.69746756043923,-14.975671227912084,-10.976754888740741,82.53586677052833,2.0627356417471363,0.2473707024522227,-0.10875352581633457,50.88215522392261,-0.6597344819555843,-0.36036697046880806,-64.40315141999253,-0.3429180638404342,-0.6227123319573528,-0.04221637127879185,0.4525194326800914,-14.975671227912144,-10.976754888740736,82.53586677052824,7.636920736406898,-2.635605857601787
GUIDED_NOGPS,5.191476821899414,27.523124573468422,-14.975671227912084,-10.976754888740741,82.53586677052833,2.0228822811675995,0.2033050786738997,-0.08938060935661873,50.35796355507871,-0.673727778656795,-0.8028601355178494,-64.50873931437175,-0.38320129817046555,-0.4600227347464209,-0.38347273732487297,0.45173314517682556,-14.975671227912144,-10.976754888740736,82.53586677052824,7.636920736406898,-1.948056503444799
GUIDED_NOGPS,5.2303431034088135,25.73492615703671,-14.975671227912084,-10.976754888740741,82.53586677052833,1.9703818606498662,0.1645358663421561,-0.0723361958815989,49.83239685441596,-0.7177702791680652,-0.8801608014494687,-64.59368637707921,-0.3838465692846819,-0.4599455424367526,-0.23024780334387673,0.45094479512583147,-14.975671227912144,-10.976754888740736,82.53586677052824,7.636920736406898,-2.4064227395494577
GUIDED_NOGPS,5.254459857940674,41.480942302747394,-14.975671227912084,-10.976754888740741,82.53586677052833,1.913663351009622,0.13080298173499472,-0.057505942740826654,49.305548332633364,-0.678687082963606,-0.9675684398054144,-64.63664826695859,-0.38525217339357976,-0.4573571515345932,0.3049682924242365,0.45015452234315756,-14.975671227912144,-10.976754888740736,82.53586677052824,7.636920736406898,-2.2345354010102105
GUIDED_NOGPS,5.2887091636657715,29.204991087344027,-14.975671227912084,-10.976754888740741,82.53586677052833,1.883727578206463,0.1018292446855682,-0.04476799103931661,48.77751154737597,-0.7367441711563905,-1.1424962011951993,-64.76974133312545,-0.38517675098020243,-0.45891278360636495,-0.41754070085152223,0.44936246716527145,-14.975671227912144,-10.976754888740736,82.53586677052824,7.636920736406898,-2.7501974166279517
GUIDED_NOGPS,5.315469026565552,37.3820554184009,-14.975671227912084,-10.976754888740741,82.53586677052833,1.8355988359078608,0.077320100591173,-0.033992843422476327,48.24838037753522,-0.7205798347944677,-1.1240090135460905,-64.82322171432665,-0.3859443424560612,-0.45803417139288555,0.07893167967293646,0.44856877041051035,-14.975671227912144,-10.976754888740736,82.53586677052824,7.636920736406898,-2.291831180523293
GUIDED_NOGPS,5.344262599945068,34.74205438717105,-14.975671227912084,-10.976754888740741,82.53586677052833,1.8020491166047328,0.0569633424222431,-0.02504324186043938,47.71824899754918,-0.7684690658297775,-1.0539681983719602,-64.8861687377175,-0.3862019752948811,-0.4585435312870196,-0.23108868781006942,0.44777357334053125,-14.975671227912144,-10.976754888740736,82.53586677052824,7.636920736406898,-2.7501974166279517
GUIDED_NOGPS,5.369650840759277,39.40015405715145,-14.975671227912084,-10.976754888740741,82.53586677052833,1.7625719981917292,0.04042883273134379,-0.01777404543298111,47.18721185170281,-0.7949191334732105,-1.0891415381634102,-64.97444210255074,-0.3866350379097283,-0.45846422560864003,-0.008688567371990863,0.44697701762176173,-14.975671227912144,-10.976754888740736,82.53586677052824,7.636920736406898,-2.46371851906254
GUIDED_NOGPS,5.403687477111816,29.399258412947635,-18.687269726769532,-12.476635565777697,81.1548995585255,1.705961592767255,0.02736822566239283,-0.012032108113908535,46.65536362842837,-0.8688274365431549,-0.7568480325655297,-65.0741218832979,-0.6004042450623471,-1.0469414653815488,0.08521101037358514,0.4482506961048543,-33.53366372219938,-18.476158273925513,75.63103071051407,4.69429359246663,-3.20856365273261
GUIDED_NOGPS,5.441077470779419,26.745294087639646,-22.949538177193595,-12.676854481898541,78.9302185227735,1.6370300419887163,0.017414688959341618,-0.007656156555947646,46.12279923460553,-0.8832050381068846,-0.8654086600592991,-65.22653755462674,-0.46755113839200396,-1.232518822441608,0.20635272056753529,0.45078887106774806,-36.28701348003246,-11.977849469344957,71.4124615917682,6.782032492469528,-3.0939720937064457
GUIDED_NOGPS,5.481281280517578,24.8785759619434,-26.966502325864475,-12.21871005354441,76.85012503605454,1.5542220758415881,0.010182625975794224,-0.004476667875204399,45.589613769861934,-0.9824692445317377,-0.7773535411143773,-65.36594854577586,-0.39122117159106523,-1.3418305337077032,0.37432770067133125,0.4531092331007111,-35.06049197126656,-8.686032746970078,72.1353993369334,6.931494935689225,-3.151267873219528
GUIDED_NOGPS,5.512031316757202,32.532646634503514,-30.983466474535362,-11.760565625190278,74.77003154933557,1.463670717804805,0.005267397683034858,-0.002315747435867266,45.05590250087312,-1.0915307169907396,-0.6507335732899768,-65.46548489255046,-0.36255208881143114,-1.6255783792801557,0.8741367057567704,0.4554288064273063,-35.06049197126656,-8.686032746970078,72.1353993369334,6.931494935689225,-3.0366763141933633
