Mode,Time,Freq,North-Vision,East-Vision,Down-Vision,Yaw-Vision,North-Desired,East-Desired,Down-Desired,Roll-UAV,Pitch-UAV,Yaw-UAV,Roll-Control,Pitch-Control,Yaw-Control,Thrust-Control,northVraw,eastVraw,downVraw,N-Velocity,E-Velocity,D-Velocity,yawVraw,yawRate,Q-Size
GUIDED_NOGPS,0.00490117073059082,204.6700824671839,-24.282620424561273,65.59576478627773,90.01861052207546,-2.7430044932445163,-28.706581399107257,67.60013475639443,82.74719987551005,0.5100890926654246,1.4663035169144565,36.689754485314175,0.14601331191466954,0.3251820161597211,-1.3715022466222582,0.4890928840301519,-30.995105607894768,67.63565550468941,78.13884017113077,-4.794873669743538,-17.56957918405533,-14.333045482635498,-1.0578959371856185,3.9290210700465837,3
GUIDED_NOGPS,0.015540361404418945,94.04479921074464,-26.765541112676686,63.49398240884298,84.1299919882946,-1.4508502002390529,-28.70657071380965,67.60012634406687,82.7471690749614,0.6453388444235775,1.4270296090217658,36.71615316645627,0.2704997200447059,0.13877281644573725,-0.7254251001195264,0.4979257656300002,-31.68591724540456,67.69169219960216,77.07245550943938,-3.397206589579582,-21.71318084001541,-14.080674946308136,-0.878886295327697,0.531636311784405,3
GUIDED_NOGPS,0.0276029109954834,82.92743880738661,-27.634372824589615,63.99622558319261,82.79550613151405,-1.3254521389282177,-28.706496345997337,67.60006779573064,82.74695470850152,0.7155331254106216,1.4259138335878208,36.75415292390364,0.23604704829748518,0.07496921515812575,-0.6627260694641088,0.4999271728654812,-31.68591724540456,67.69169219960216,77.07245550943938,-1.981908641755581,-27.137133479118347,-9.934193640947342,-0.878886295327697,2.237429953218192,2
GUIDED_NOGPS,0.03586435317993164,121.11414628512027,-28.378600011494076,64.45051623313803,81.71850376253141,-1.2406932908383548,-28.706295789758666,67.59990990169382,82.74637660179711,0.7101684920652527,1.3996798240377422,36.7778946614586,0.2051947527955976,0.020138927320044537,-0.6203466454191774,0.5015418092588986,-32.62069719509431,67.81597638302145,76.06110477954428,-2.7300357818603516,-26.252248883247375,-6.587634980678558,-0.7779943581698875,0.15640108670953698,1
GUIDED_NOGPS,0.05376100540161133,55.90020258023243,-29.033056568246476,64.75303191674763,80.81585839068097,-1.2038654779382088,-28.70590781488639,67.59960445660185,82.7452582577541,0.7339968342844586,1.321871696395132,36.77516941597977,0.18447087225395967,-0.02841813839626777,-0.6019327389691044,0.5028940998006097,-33.30270981771536,67.65291394376301,75.29369626396374,-3.6377403885126114,-23.194046318531036,-9.800677746534348,-0.817516703315825,-2.0607816244877983,1
GUIDED_NOGPS,0.07191300392150879,55.10193250042696,-29.608864852702094,64.83330918403227,79.98098099221919,-1.1703146463854233,-28.705272458228812,67.59910425262842,82.7434268315872,0.742799507381577,1.262680636717567,36.889960990265585,0.17835502645558668,-0.07142712791079107,-0.5851573231927116,0.504143668759052,-34.04580452126252,68.18025046075428,74.80575262901505,-2.4785639718174934,-26.86524987220764,-8.18849802017212,-0.7140291045774506,-3.359321394678167,0
GUIDED_NOGPS,0.08760571479797363,63.74322188449848,-30.149537165991813,64.91725799973423,79.25255907606466,-1.1685290315165797,-28.70433101504094,67.59836307266639,82.7407131058894,0.6354532661778948,1.1491610784429567,36.9512960890123,0.17202515200635918,-0.1119218916198696,-0.5842645157582899,0.5052322310447371,-34.523818264184506,68.94290594174673,74.60384394258273,-2.208508364856243,-26.905080676078796,-11.46298348903656,-0.6725289673699175,-5.826872800751959,0
GUIDED_NOGPS,0.12187600135803223,29.1862944303727,-30.75311383641918,64.9917641181186,78.6098248407894,-1.1589576442441665,-28.703026030335643,67.59733568351876,82.73695146570165,0.7063440663777215,1.112180833450921,37.17257372755321,0.16621758634527792,-0.1571506920330048,-0.5794788221220832,0.5061906899373684,-36.27466155443561,69.12485107949425,73.3433794534008,-2.2759856656193733,-31.007325649261475,-3.8256220519542694,-0.745662966542815,-3.1773920490588843,0
GUIDED_NOGPS,0.15514183044433594,30.069066377993963,-31.30119372192856,64.56299561026711,77.94671281836055,-1.231884860750133,-28.701301290234813,67.59597782908962,82.73197987358233,0.6616753228969258,0.7626736503190216,37.31669071904047,0.19290618853686203,-0.19918521890821714,-0.6159424303750665,0.5071779005828326,-36.27466155443561,69.12485107949425,73.3433794534008,-1.0678053833544254,-37.28534281253815,-0.86565176025033,-0.745662966542815,-8.526319801318262,0
GUIDED_NOGPS,0.18803811073303223,30.40077699739793,-31.780771953668406,64.09995456757458,77.43473469754093,-1.3436403611105934,-28.699101813320528,67.594246223575,82.72563984467685,0.584627267242891,0.5024666549125433,37.67644019771963,0.22164689631507906,-0.23638761136275963,-0.6718201805552967,0.5079363577207039,-36.45778534370438,68.94625918941836,73.76584884757877,-1.0678053833544254,-37.28534281253815,-0.86565176025033,-0.9704343550161799,-8.526319801318262,0
GUIDED_NOGPS,0.2218031883239746,29.61995423858083,-32.27924028764402,63.70840572875716,76.97305255976782,-1.4600790034278435,-28.696373841986194,67.59209854465391,82.71777642178722,0.6126658341160282,0.1382439892964101,37.896467911642425,0.2455110983319058,-0.27506001743337943,-0.7300395017139217,0.5086170857930291,-37.15704505501191,69.26919893051846,73.49818704963658,-4.080856963992119,-31.208166480064392,-1.575220748782158,-1.057429428738288,-7.578685695492354,0
GUIDED_NOGPS,0.2560708522796631,29.186497526216538,-32.7294540532437,63.291029564754645,76.6418717524298,-1.663216621612407,-28.6930648337877,67.58949342667917,82.70823815044159,0.4476154867614336,-0.1951636108685494,38.302184563435766,0.2704958672749417,-0.31071110945951613,-0.8316083108062035,0.5090995495970176,-37.15704505501191,69.26919893051846,73.49818704963658,-4.215057939291,-31.567278504371643,4.195720702409744,-1.057429428738288,-13.657453311513445,0
GUIDED_NOGPS,0.2896554470062256,29.779573289786644,-33.283577269927356,62.826051815028094,76.42311222246272,-1.9250388337346764,-28.6891234527946,67.58639045386845,82.69687705396383,0.45844987433236634,-0.6194834834856116,38.79659122160172,0.29767213543675763,-0.3547836510648381,-0.9625194168673382,0.5094106472472517,-39.5789135066784,69.65999622278031,72.81620396423654,-2.6318304240703583,-37.329113483428955,12.039145827293396,-1.5532919210988756,-14.554072734428528,0
GUIDED_NOGPS,0.3236830234527588,29.391635833613634,-33.876966671211434,62.377848833623574,76.15570616937394,-2.2023419400930897,-28.68449956094124,67.58275015349508,82.68354860854313,0.5168199239273549,-0.8960290384387009,39.230284328235435,0.32310322162947486,-0.40214850341997715,-1.1011709700465449,0.5097917636587538,-41.07716997086613,69.8522620785414,72.48809773564065,-2.3585664108395576,-37.75155544281006,5.668491870164871,-2.1027181706508564,-13.071766297732143,0
GUIDED_NOGPS,0.3594787120819092,27.941536206781695,-34.480226692782544,61.99299506203844,75.93174207179788,-2.529937524028724,-28.679144209377927,67.57853398907913,82.66811171830349,0.3793523083600783,-1.1218017952271186,39.92367147239679,0.3435010639772995,-0.4506830851612968,-1.264968762014362,0.5101045544697584,-41.77999111193631,70.0115509451741,72.28746874886369,-3.9814293384552,-32.4956089258194,6.8403370678424835,-2.2840266624989076,-15.702799562250659,0
GUIDED_NOGPS,0.39290475845336914,29.92169843625157,-35.127376319081435,61.64868740295345,75.7873384628657,-2.942149790475657,-28.67300962982209,67.5737043535782,82.65042869037337,0.4044767323351471,-1.4247664685289643,40.518072100011736,0.3597719005882334,-0.5032070363918826,-1.4710748952378285,0.5102946353412615,-42.81529604165007,70.46065491973027,72.69658300675266,-5.633852630853653,-29.135477542877197,8.229084312915802,-3.0013298632157834,-18.08278922382536,0
GUIDED_NOGPS,0.42499685287475586,31.165879031059593,-35.68649855976223,61.32926667631364,75.89035440126992,-3.2665793985803115,-28.666049225909433,67.56822456257842,82.63036520995514,0.2538742361071129,-1.6078245029085918,41.10685148193976,0.3748705860800954,-0.548786112236823,-1.6332896992901558,0.5101100162130279,-42.81529604165007,70.46065491973027,72.69658300675266,-3.5613957792520523,-33.01241993904114,22.592225670814514,-3.0013298632157834,-14.065208774774035,0
GUIDED_NOGPS,0.46453332901000977,25.298591005597373,-36.29281646845423,61.0211888033924,76.02783862314249,-3.621412281370649,-28.658217564545087,67.56205884748543,82.60779031539481,0.23207344621519582,-1.6386778547717145,41.66178727653037,0.38814050248151366,-0.598305928986938,-1.8107061406853244,0.5098699275383785,-44.308289105572904,70.93216310127352,72.81224776849359,-3.5613957792520523,-33.01241993904114,22.592225670814514,-3.606642934375389,-14.065208774774035,0
GUIDED_NOGPS,0.49401378631591797,33.923519896473636,-36.98770499891661,60.62979422937406,76.06098854421275,-4.08592555149201,-28.64947036725477,67.55517234871522,82.58257637325138,0.21397351161572814,-1.6736169404189742,42.25736952687173,0.40444648165335045,-0.6558523596658903,-2.042962775746005,0.5097823817435579,-45.31799582510489,71.15453773811112,72.3619885730972,-6.29459023475647,-27.367809414863586,15.323083102703094,-3.7913504527860784,-17.79304064640237,0
GUIDED_NOGPS,0.5271449089050293,30.18961794259062,-37.5867556756238,60.51871340900534,76.10111075256856,-4.451029992552982,-28.63976450153595,67.54753110888512,82.55459905336666,0.33888490495120727,-1.7798258484041436,42.92461070689028,0.4034190384829381,-0.7044571082006625,-2.225514996276491,0.5096802324511972,-45.31799582510489,71.15453773811112,72.3619885730972,-6.29459023475647,-27.367809414863586,15.323083102703094,-3.7913504527860784,-17.79304064640237,0
GUIDED_NOGPS,0.5621523857116699,28.567466506834855,-38.19051422368563,60.263771765924034,76.20829241773875,-4.923761317071436,-28.629057972208994,67.53910206600473,82.52373730393457,0.3384249343992892,-1.954673355071181,43.57380311202706,0.40960181526437095,-0.7550516906660957,-2.461880658535718,0.5094731673292937,-46.21484417340193,70.87433957660434,73.39901339464927,-4.512154683470726,-29.749208688735962,14.65747356414795,-5.237246596949715,-18.2174600636905,0
GUIDED_NOGPS,0.5950288772583008,30.422165808370202,-38.84106419716966,60.080369650595586,76.46697905471808,-5.433157613906004,-28.617309912768317,67.52985304666683,82.48987332657093,0.4948936826702916,-1.8290126019383441,44.33153746835911,0.4094387166049287,-0.809184439788055,-2.716578806953002,0.5090343414077793,-47.052135751527786,71.08704686616272,73.60195229060105,-7.070335745811462,-25.07224977016449,23.088474571704865,-5.804752886719015,-19.14345100758393,0
GUIDED_NOGPS,0.6309983730316162,27.807970510041038,-39.487995384527046,59.93811211646682,76.46743760956966,-5.975463584414796,-28.604480576733565,67.51975275923833,82.45289255138287,0.6085517123581533,-1.8157532837686454,45.042549915673675,0.40515387999533653,-0.8631309296229711,-2.987731792207398,0.5089781824127199,-47.879680921150985,71.51935365148874,73.92530109398399,-6.8275004625320435,-26.1685311794281,5.056698992848396,-6.376606270445648,-21.06278026813441,0
GUIDED_NOGPS,0.6627168655395508,31.532801058535192,-40.219956984273125,59.74940025008488,76.50649952369443,-6.622945731159362,-28.590531329000736,67.50877078705122,82.4126836120385,0.4651522642597058,-1.5489527545747246,45.53457625291389,0.400397367538506,-0.9245566251557915,-3.311472865579681,0.5088592761325161,-49.866252443265715,71.81926024576157,74.43811414019471,-6.8275004625320435,-26.1685311794281,5.056698992848396,-8.111989062701818,-21.06278026813441,0
GUIDED_NOGPS,0.7003247737884521,26.59773992669347,-40.88162734256012,59.70620944148242,76.71295592586502,-7.149625837009195,-28.575424637193375,67.49687758159345,82.36913832083638,0.612996457960539,-1.3743742933279623,46.27221960780234,0.3875828711652404,-0.9788148899516897,-3.5748129185045974,0.5084842735924571,-49.866252443265715,71.81926024576157,74.43811414019471,-6.641481816768646,-23.416726291179657,16.776835918426514,-8.111989062701818,-17.86928604810722,0
GUIDED_NOGPS,0.7289571762084961,34.9292471685543,-41.57668430853673,59.62468821234232,76.9035448474864,-7.685250054873554,-28.559124063013698,67.48404445569993,82.32215164377516,0.7516683479362799,-1.5017532659238804,46.76938907748757,0.37570553726388434,-1.0358650129628475,-3.842625027436777,0.5081279101944332,-50.80458517443838,71.60715671263591,74.05474000374168,-7.193417847156525,-22.34153151512146,16.398586332798004,-8.525925777567986,-16.811235104158886,0
GUIDED_NOGPS,0.7629599571228027,29.413690330091097,-42.37560425528744,59.71694227976564,77.02985656359489,-8.256485777585816,-28.54159425359376,67.47024357674341,82.27162167562311,0.3700121847526445,-1.5145578429052444,47.58633434373445,0.34974395057251995,-1.099168335769975,-4.128242888792908,0.5078626476680423,-52.418326938109175,72.540809549621,75.24449150860596,-11.753225326538086,-15.698717534542084,8.873247355222702,-10.155378132585474,-16.635984402887406,0
GUIDED_NOGPS,0.7972829341888428,29.138847591390977,-43.15376740220886,59.795088763217535,77.18060271101957,-8.83184894601919,-28.522800932846625,67.45544795982545,82.2174496149877,0.33577682203330766,-1.6857372178228676,48.34347447360871,0.32354200527941596,-1.1607604695259026,-4.415924473009595,0.5075552703559522,-52.50258633679927,72.75313048702355,75.659300374678,-11.753225326538086,-15.698717534542084,8.873247355222702,-10.389392922090977,-16.635984402887406,0
GUIDED_NOGPS,0.8296873569488525,30.863618301961765,-43.935522635926816,59.798080399853745,77.44011443706336,-9.525314122073903,-28.5027108928175,67.43963146096733,82.15953973938515,0.05397150115099285,-1.8740626087130443,49.019492446710714,0.29831209996675356,-1.2236982001330776,-4.762657061036951,0.5070791379534827,-53.797999686487415,72.69301246759804,76.43274630590618,-9.4671331346035,-19.560538232326508,13.316445052623749,-11.892729393259131,-20.000639748420532,0
GUIDED_NOGPS,0.8664488792419434,27.20888473714256,-44.65087043253037,59.87314214093427,77.53706684865071,-10.138947309428614,-28.48129198503491,67.42276877030099,82.09779938031,-0.05319215255431059,-1.855932085004657,49.623943697689334,0.26958044850558427,-1.28016561529716,-5.069473654714307,0.506841098797489,-53.797999686487415,72.69301246759804,76.43274630590618,-8.665426820516586,-17.77329444885254,4.135650023818016,-11.892729393259131,-18.6830672292211,0
GUIDED_NOGPS,0.897517204284668,32.19058144532449,-45.39429224492676,59.95434034260876,77.79827977102705,-10.865888911243731,-28.458513111861844,67.40483540525996,82.03213889830465,-0.3695254003721489,-2.095940023240439,50.18488664365497,0.23615624548003059,-1.338702885327837,-5.432944455621866,0.5063507886909164,-54.477240021133156,72.87983760811332,76.43974542423213,-9.90195944905281,-16.478216648101807,14.452719688415527,-12.561072240244073,-21.55931623777412,0
GUIDED_NOGPS,0.9328703880310059,28.29114701021888,-46.080520715556084,60.12138930809635,78.02532391180253,-11.444305162899694,-28.43434421784691,67.38580770377031,81.96247165802903,-0.5379744605299124,-2.4544032919215177,50.9661988130019,0.20020383767690875,-1.3908393551159808,-5.722152581449847,0.5059057216193398,-54.9078080826257,73.0672979698673,76.44918086256686,-9.00772511959076,-15.14417678117752,13.857245445251465,-12.949831662874924,-18.116105179049388,0
GUIDED_NOGPS,0.9641509056091309,31.975117020141187,-46.740195286258384,60.25505373462449,78.27597107680961,-12.07706447814837,-28.40875628107551,67.36566281744157,81.88871400333,-0.5906776942696117,-2.415045394046377,51.613007482118356,0.1643023895459852,-1.4411308952528046,-6.038532239074185,0.5054191143897806,-54.88046499377244,73.10894807905949,76.99107732955639,-7.422986626625061,-13.726215064525604,12.775889039039612,-13.310768227378075,-18.634856338964564,0
GUIDED_NOGPS,0.997575044631958,29.920844628334997,-47.40590512585965,60.48918316407705,78.61412780345881,-12.717186729356696,-28.38172130452097,67.34437870475766,81.81078523231103,-0.8293607892498229,-2.656026634238886,52.120773990300854,0.12055969491580765,-1.4899031341085125,-6.358593364678348,0.5047949861432783,-56.355125878312194,73.97073283948072,78.22405040962445,-6.54296800494194,-11.82778850197792,15.965558588504791,-15.148376349376155,-17.738921642513773,0
GUIDED_NOGPS,1.0318176746368408,29.26694205649213,-48.063999479701536,60.688218187677286,78.95735212926891,-13.357459155979843,-28.35321230739572,67.32193412426781,81.72860757240176,-0.9411733872013117,-2.932413440654625,52.93655812438884,0.07799960769122521,-1.5379336180140586,-6.678729577989921,0.5041568831646993,-56.355125878312194,73.97073283948072,78.22405040962445,-6.54296800494194,-11.82778850197792,15.965558588504791,-15.148376349376155,-17.738921642513773,0
GUIDED_NOGPS,1.0646095275878906,30.438061510326712,-48.74129092807171,60.98026689142053,79.14474560279604,-14.018578667832639,-28.32320331650243,67.29830862777757,81.64210615542751,-1.0900040629895358,-2.8052733112362462,53.4842846543105,0.027491270706715143,-1.5852284549127378,-7.009289333916319,0.5037460408289473,-56.94178056959869,74.17097294225493,78.2410822089731,-7.684516161680222,-5.873143300414085,6.207385286688805,-15.768372048430177,-18.052198514080164,0
GUIDED_NOGPS,1.0994606018066406,28.697250217232156,-49.39304523551913,61.30514348500641,79.3183954930187,-14.657110964912706,-28.29166935758518,67.27348255353961,81.55120899267888,-1.2506294082573142,-2.9552602099849063,54.09935343435391,-0.025134721978380514,-1.6292636776778124,-7.328555482456353,0.5033492202494902,-57.38257364275293,74.37457010442222,78.44148808225086,-7.684516161680222,-5.873143300414085,6.207385286688805,-16.425253661053688,-18.052198514080164,0
GUIDED_NOGPS,1.1341183185577393,28.859161810137817,-49.99345625755607,61.57345644501386,79.5610746999174,-15.282893756235225,-28.258586446680628,67.24743701944476,81.45584694998132,-1.4062544147224083,-3.4392787907535096,54.584122695600975,-0.0739077784871871,-1.6696805703649675,-7.641446878117613,0.5028421583750959,-57.38257364275293,74.37457010442222,78.44148808225086,-5.5672794580459595,-8.561975508928299,10.59550940990448,-16.425253661053688,-17.654362193041724,0
GUIDED_NOGPS,1.171645164489746,26.652161756856366,-50.56274880110039,61.839083238288794,79.88623326210922,-15.92940833620093,-28.223931581469134,67.22015391621295,81.35595372276467,-1.3022910381485866,-3.295629453780975,55.083129486172936,-0.1234827097980819,-1.7070716988182995,-7.964704168100465,0.5022045806909832,-57.672396298113675,73.88787617572821,78.20479242810752,-3.9535265415906906,-6.818785518407822,16.965091228485107,-16.762965143068904,-19.59115795484722,0
GUIDED_NOGPS,1.1994526386260986,35.96803073440126,-51.17600162203709,62.24170048001381,79.99806318377429,-16.573924266859752,-28.187682732625944,67.19161590058404,81.25146581113273,-1.5588781933775167,-3.5664402645130453,55.48901347760094,-0.18343331637702842,-1.7442691946440272,-8.286962133429876,0.5018801039410377,-57.50532188428485,74.42949469639126,78.68979313106304,-6.981866806745529,2.1903235465288162,1.121450588107109,-16.999813400104756,-17.128625457152918,0
GUIDED_NOGPS,1.2321889400482178,30.551578456652535,-51.59263061234382,62.72814266600619,80.12230992845085,-16.982637383925216,-28.149818835172336,67.16180638850885,81.14232249493288,-1.2967216592106758,-3.6987472185951273,56.08589687897919,-0.23792036004563571,-1.7657156672453052,-8.491318691962608,0.501530018849723,-57.532840128163215,74.32694154496511,78.80425843977471,-2.9684457927942276,1.859547570347786,6.856461614370346,-17.3326887160897,-13.102422748048099,0
GUIDED_NOGPS,1.2661917209625244,29.4145154390468,-52.06164574324314,63.217022897674134,80.27492604835946,-17.4554801173688,-28.110319779826778,67.13070954834008,81.02846580882556,-1.3871350076882503,-3.5090615528430606,56.44694750869523,-0.29616626839506877,-1.7899360220804,-8.7277400586844,0.5011303096406992,-57.62876717832428,74.24320872287777,78.75349966670996,-3.4784842282533646,6.386105716228485,6.82125985622406,-17.607315027503727,-12.716154206142722,0
GUIDED_NOGPS,1.3056254386901855,25.36376280492967,-52.54181306005248,63.70796001884886,80.46648579116342,-18.050853516198547,-28.069166404356086,67.0983102940232,80.90984051735386,-1.1409079687697599,-3.4163833563253925,56.84321459377186,-0.35920746308009677,-1.813396081507123,-9.025426758099274,0.5006650320892857,-58.25406652684938,74.49504136814556,79.63346252506916,-3.4784842282533646,6.386105716228485,6.82125985622406,-20.38102099100806,-12.716154206142722,0
GUIDED_NOGPS,1.3363287448883057,32.57433539658748,-52.97152107010756,64.23106727696351,80.69234764871284,-18.562329188597587,-28.02634048492658,67.0645942782874,80.78639409001312,-1.0318716826333225,-3.5813021158167584,57.153441785873845,-0.42097350007746065,-1.8321919260519879,-9.281164594298794,0.5001410696619504,-58.25406652684938,74.49504136814556,79.63346252506916,-1.9308386370539665,8.60113576054573,9.655769914388657,-20.38102099100806,-9.53863665235784,0
GUIDED_NOGPS,1.3679277896881104,31.65130248422832,-53.41946793096643,64.85100599959078,80.75033521945377,-19.02724534948967,-27.98182472745524,67.02954788583655,80.65807667632048,-1.0396408093708005,-3.464813239522191,57.31264325014308,-0.48811577442990384,-1.8497525634286571,-9.513622674744836,0.49986161218530006,-58.13656803960866,74.83998969586037,79.71600719560493,-5.233750492334366,14.107036590576172,-0.3954528830945492,-20.56227142779822,-7.681530415146174,0
GUIDED_NOGPS,1.401116132736206,30.13604063831469,-53.79405651346931,65.46444153820019,80.84293609264957,-19.367770966906196,-27.93560275896086,66.99315822654012,80.52484108088441,-0.9004238382827809,-3.268298878703992,57.49269386685379,-0.5494155581489525,-1.8625860207266203,-9.683885483453098,0.49952285748235226,-57.850210240368035,74.90953775399555,80.01359008157132,-4.289225861430168,13.613539934158325,2.5554219260811806,-20.74127871652186,-3.9378712876636275,0
GUIDED_NOGPS,1.4346957206726074,29.785494649083564,-54.157168393042255,66.10114017074957,81.01701800008104,-19.734180586323124,-27.887659118915217,66.95541312862409,80.38664273847434,-0.6637074642575632,-2.9532771072480757,57.64824459501166,-0.6129894149265803,-1.8732504753250574,-9.867090293161562,0.49905443710758995,-57.774353252573405,74.99962437529535,79.81002660579287,-3.4833595156669617,15.997494757175446,7.902591675519943,-20.917765602061287,-4.70753328872063,0
GUIDED_NOGPS,1.4681344032287598,29.909109708703248,-54.48307909655325,66.73148415695262,81.20259166727732,-20.08727904039265,-27.837979250594206,66.91630113186193,80.24343968909014,-0.6285578166847966,-3.1114687707372135,57.70621924068673,-0.6750644829751198,-1.8809478537719826,-10.0,0.4985612720327192,-57.34888722427211,75.06196696459136,80.18499589230049,-3.4833595156669617,15.997494757175446,7.902591675519943,-21.03073552827331,-4.70753328872063,0
GUIDED_NOGPS,1.5010311603546143,30.40452337803552,-54.78962044402035,67.3779680403106,81.3030794816757,-20.344965774147084,-27.786549492429014,66.87581148076546,80.09519255303178,-0.5708756952052754,-2.8955270040419716,57.70216210831974,-0.734719031217935,-1.8875410408448008,-10.0,0.4981881696070341,-57.07799551904225,74.96329279540114,80.01472663738852,-4.133482649922371,17.998558282852173,3.614029288291931,-21.19275704620959,-0.016167484652243307,0
GUIDED_NOGPS,1.5350561141967773,29.393901592930277,-55.07229444224047,68.04124538257177,81.33547631606154,-20.552863437920617,-27.73335706935728,66.83393411777588,79.9418645059688,-0.5574482903489707,-2.7583003927667757,57.67517603090902,-0.7933241968485746,-1.8923579205798815,-10.0,0.4979095822848609,-57.07799551904225,74.96329279540114,80.01472663738852,-3.5999566316604614,19.83199417591095,-0.018149707466363907,-21.19275704620959,1.0879010050554065,0
GUIDED_NOGPS,1.569077491760254,29.397403908155542,-55.33473764074953,68.69972886865287,81.324311795791,-20.75227113426124,-27.67839008417423,66.79065967645462,79.78342125400994,-0.36190365631035515,-2.55052219623358,57.649310104522186,-0.8509953077498528,-1.8956843000701666,-10.0,0.4976886641873284,-56.54204769561617,74.8781819883728,80.04186783672606,-3.820028528571129,20.11055499315262,-2.960541658103466,-21.318239677602698,1.8770170924158978,0
GUIDED_NOGPS,1.602243185043335,30.15662477351816,-55.517370335912545,69.36756495464779,81.39952676675082,-20.941543739936947,-27.62163750888385,66.74597947467431,79.61983100877269,-0.5186188250000069,-2.423386762570255,57.480508809374484,-0.9069242529763215,-1.8930775458055038,-10.0,0.4973304563630328,-55.508044905973904,74.94062174122442,80.16113903034895,-3.204280510544777,21.481014788150787,2.9787998646497726,-22.200452812188384,3.4002278245041966,0
GUIDED_NOGPS,1.6365723609924316,29.132775817520074,-55.64749368833704,70.0329938587477,81.52230840893964,-21.042512329264827,-27.56308917605005,66.69988550780973,79.45106446245286,-0.4701638088414969,-2.3717735843334076,57.323639854706805,-0.9585045702536363,-1.888076955797086,-10.0,0.49689313408026986,-55.01053808951661,74.55818267053692,80.48718466449482,-2.2109106183052063,23.433826863765717,5.636220425367355,-22.261476063376687,6.998635295323606,0
GUIDED_NOGPS,1.6694533824920654,30.417091512984705,-55.819098364946115,70.79128659821211,81.40228103896003,-21.064887234231694,-27.502735770147794,66.65237044192867,79.27709476289411,-0.4490958235423281,-2.2424520632488556,57.09139634745345,-1.0143720127872022,-1.8851110088421876,-10.0,0.49681222058590113,-54.27481977405514,74.20346141497345,80.07716697409208,-7.354935258626938,30.860018730163574,-8.400141447782516,-22.268423340857712,11.67180974431131,0
GUIDED_NOGPS,1.7034363746643066,29.430820831637593,-55.829419361132025,71.53308679645116,81.38876188686574,-21.09448694411781,-27.44056881891429,66.60342760698299,79.09789748865755,-0.3140549795232424,-2.1906568177819445,56.88720442712133,-1.0652564214647837,-1.8711603911337638,-10.0,0.49656370340268774,-52.400267339761285,75.48786879628537,80.22603235474391,-3.0702361837029457,27.4053156375885,-1.4209598302841187,-21.920338311752964,8.093728916461858,0
GUIDED_NOGPS,1.7365782260894775,30.176802814570728,-55.825431723407576,72.25621698710906,81.52530614480536,-21.13190652269936,-27.376580684700116,66.5530509899994,78.9134506240913,-0.47804990256851126,-1.9125443213837192,56.481924907434866,-1.1149974736821033,-1.856535684220666,-10.0,0.49608221671892894,-52.400267339761285,75.48786879628537,80.22603235474391,-2.1074116230010986,26.546558737754822,8.023390173912048,-21.920338311752964,7.242093973194125,0
GUIDED_NOGPS,1.7715682983398438,28.583820031757497,-55.759523689312104,72.91761490366387,81.56778325129117,-21.10938005020047,-27.310764555820395,66.50123522827056,78.72373453440004,-0.26445318527525774,-1.7661029311445302,56.191621377141814,-1.1575129440711345,-1.8402713514638236,-10.0,0.4957339269246633,-51.692185069464614,74.55164535812557,79.93794513371779,-0.8220458403229713,27.00595259666443,3.474276140332222,-21.72136170773991,9.100472333138704,0
GUIDED_NOGPS,1.803781509399414,31.050518211430262,-55.67879205073511,73.57233589465243,81.61006373794443,-21.07312971750286,-27.243114437905948,66.44797560254585,78.52873194071458,-0.33269003009571146,-1.5410595104934228,55.76475504458353,-1.1989367377108633,-1.8235413648241143,-10.0,0.49537800230415524,-51.37014421670138,74.60851333144568,79.93905472550097,-0.8220458403229713,27.00595259666443,3.474276140332222,-21.559861339832153,9.100472333138704,0
GUIDED_NOGPS,1.8390419483184814,28.365574236132716,-55.56258225524021,74.27665834001037,81.65182144078416,-21.041697421148797,-27.173625145254448,66.39326803022242,78.32842789516144,-0.4893748364600684,-1.3609996089943137,55.26750361262826,-1.2427251851000292,-1.8032141394277255,-10.0,0.4950149096815659,-49.97586504802369,75.42786793709473,80.25679328838847,-3.2168395817279816,29.974234104156494,3.146820515394211,-21.24426616897209,6.639988892195406,0
GUIDED_NOGPS,1.8709113597869873,31.38298079297264,-55.4429266781342,75.05041797486133,81.5180617164058,-20.8490066180942,-27.102292292181577,66.33710905853604,78.12280975593241,-0.6456242182648371,-1.089041539925093,54.93439528680674,-1.2857764178622515,-1.7847971641003684,-10.0,0.49490712205928994,-49.30069054814214,75.39093129587481,80.10834927306703,-4.291806742548943,34.34613347053528,-7.651211321353912,-20.886767555174647,15.628876424863611,0
GUIDED_NOGPS,1.9049129486083984,29.413896602990267,-55.22155542822562,75.70162195186863,81.51600775614943,-20.64624715078264,-27.029112284372186,66.27949585775214,77.91186716235408,-0.6932793018776623,-0.7972053792153135,54.40241575801654,-1.318647500088621,-1.7626903367247884,-10.0,0.49459378910930696,-48.63201364292439,75.34257873872139,80.23381842407031,-0.06451292429119349,29.56055998802185,0.9323474951088428,-20.745140705164435,14.808037950789819,0
GUIDED_NOGPS,1.9391484260559082,29.215365862153032,-55.001695356701205,76.40731082219955,81.51671420800442,-20.32187969877937,-26.95408231023145,66.22042621435662,77.69559200995747,-0.6201670893719946,-0.6681353478304355,53.994486124932116,-1.3514901605166054,-1.7426773994802316,-10.0,0.4942683167029296,-48.65663135234476,75.37281585959907,79.31978193351858,0.6054640747606754,32.5020432472229,3.4978777170181274,-20.258103168264444,20.83801752556951,0
GUIDED_NOGPS,1.9718663692474365,30.56827805350883,-54.78031161778821,77.12371760858244,81.44679946377398,-20.01991579609196,-26.877200332236022,66.1598985242469,77.47397842554751,-0.7618493852244186,-0.5346652338770412,53.253256920729406,-1.3860260020757396,-1.7223043562143725,-10.0,0.4940407684426603,-48.328885378379994,74.9444204242188,79.31937903310221,-0.16673672944307327,35.75064241886139,-0.8234240114688873,-20.180036303026334,18.910112962516077,0
GUIDED_NOGPS,2.005495071411133,29.740298232303537,-54.404231580646254,77.85264941226345,81.4092276210205,-19.648697204972816,-26.79846507828519,66.09791178592273,77.2470227422727,-0.5623798470122786,-0.19801494804276526,52.53764434100883,-1.4157557123826983,-1.6929592414734398,-9.824348602486408,0.4937566926818783,-45.4578628559309,75.72124450609546,79.48873263028503,1.9700247794389725,36.29044592380524,0.9276206605136395,-18.983083982050154,19.611243833648935,0
GUIDED_NOGPS,2.0397186279296875,29.226969925021603,-53.98321017359344,78.52529592312013,81.18534292531304,-19.207881225086947,-26.71787603305204,66.03446559367725,77.01472347469459,-0.5013054693927882,-0.09415563180218688,51.78917172119132,-1.439471246692303,-1.6639491718025994,-9.603940612543473,0.49374407082407235,-44.358487123355374,75.27589381370711,79.00126665580562,2.4921711534261703,34.332841634750366,-9.460711479187012,-18.12968830440869,21.45455308873717,0
GUIDED_NOGPS,2.0733590126037598,29.729758082236447,-53.53356318968873,79.18061607267127,81.15819239779395,-18.789793796184757,-26.635433429334604,65.96956013078783,76.7770812938574,-0.7466289489892799,0.07831036666012421,51.08571687819337,-1.4627402862768513,-1.6332571259604796,-9.394896898092378,0.4934283333440952,-43.960741323000114,74.9853667404598,78.92640293098356,3.8103248924016953,34.918251633644104,3.146711364388466,-17.903682394538627,19.478951607162248,0
GUIDED_NOGPS,2.110138177871704,27.192126913327325,-53.05416796033183,79.80942555126744,81.12711475775393,-18.347923698602795,-26.551138239407024,65.90319616270703,76.53409900235756,-0.5194069647972029,0.03998475115942114,50.09237514644173,-1.483662295806819,-1.6021391375191714,-9.173961849301397,0.49311047636690547,-43.08344284101118,75.0530821070954,78.83917581964181,3.8103248924016953,34.918251633644104,3.146711364388466,-17.259061353222297,19.478951607162248,0
GUIDED_NOGPS,2.140782594680786,32.63694227866225,-52.55172614626243,80.39521064272898,81.08269662928807,-17.821835422163634,-26.464992166370703,65.83537503025356,76.28578150941331,-0.6288688037354437,0.015627249372417693,49.44314517526451,-1.4997790579891748,-1.572967741938647,-8.910917711081817,0.49280462732018787,-42.265154778709956,75.61502863868523,78.77884726386606,3.7377100437879562,32.337722182273865,2.472851611673832,-16.487415083516183,23.06168123251554,0
GUIDED_NOGPS,2.173643112182617,30.43673623407158,-52.036251393774606,80.95060707215272,80.90708323774695,-17.288952612261436,-26.376997635505465,65.7660986428032,76.03213580593416,-0.7188133237595202,0.09424381728169541,48.48893701236247,-1.5143258650557798,-1.5441687999833464,-8.644476306130718,0.4926875788522808,-41.69341137108574,75.66223778922517,78.79195162600269,3.96091565489769,34.477660059928894,-5.784047022461891,-16.083561024551685,23.703321155977587,0
GUIDED_NOGPS,2.2081899642944336,28.950592912657548,-51.52983183973672,81.57830115731691,80.61728669014087,-16.656493028281083,-26.287157785620707,65.69536947147968,75.77317093959061,-0.47151575941033624,0.27870594912364965,48.048396641085816,-1.5317258780044316,-1.5178453281044266,-8.328246514140542,0.4927338263741746,-41.350930910408515,75.82326351545697,78.58753418344583,3.3272724598646164,36.390042304992676,-12.730027735233307,-15.71790656364215,28.549190107939893,0
GUIDED_NOGPS,2.2408463954925537,30.625640726083212,-50.96198704902599,82.15720653830863,80.32727695667812,-15.958161966717656,-26.195476460406564,65.62319054234572,75.50889798988362,-0.5468788927734933,0.1741406888096468,46.62465395388041,-1.5439838015049374,-1.4904296704357864,-7.979080983358828,0.49277243154980827,-40.866844117840884,75.92705020941158,78.17763838448903,6.90491646528244,33.28510224819183,-11.594097316265106,-14.974399703859753,30.386972032442298,0
GUIDED_NOGPS,2.286038398742676,22.131077822510434,-50.31910174591242,82.68849001722687,80.15319257426985,-15.195717430977538,-26.10195819978506,65.54956542959387,75.23933004321414,-0.7382761612428832,0.1821758727596379,45.089678220946766,-1.551158712057704,-1.460775031728594,-7.597858715488769,0.49262920620341644,-39.23530225613592,76.02114221175647,78.76800005699141,8.350522071123123,32.838523387908936,-6.115924194455147,-14.0723566956171,33.61341679257292,0
GUIDED_NOGPS,2.328003406524658,23.835200118201296,-49.58283688123538,83.46860523495991,79.94567848736087,-14.22396351870657,-26.00660823126126,65.47449824873746,74.96448216795277,-0.4945408073501253,0.23610987457126179,43.6312825689873,-1.5682332530654217,-1.4266184382781377,-7.111981759353285,0.49252820552088783,-38.18912843642787,76.05261626704922,77.86484809518628,9.790883213281631,33.340710401535034,-4.884776473045349,-12.158305418906943,33.1117120772788,0
GUIDED_NOGPS,2.358161449432373,33.16415620972397,-48.8089189283224,83.92449535027787,79.76103184101494,-13.180190605272923,-25.90943246127444,65.39799364980159,74.68437138950925,-0.45190180399158686,0.3956788350343624,42.97718950312103,-1.5641064271296976,-1.3976398437659823,-6.5900953026364615,0.4923850093227415,-36.73908911212312,76.01860933594132,77.53421287421125,11.205542832612991,30.21017014980316,-3.2183121889829636,-10.131470166708688,37.92926306494224,0
GUIDED_NOGPS,2.393007278442383,28.701374062517107,-47.99369979472161,84.19520206968265,79.61887336888469,-12.220208042562328,-25.81043746654924,65.32005681051402,74.39901666540212,-0.4422798817200372,0.2898152784891018,41.64520699232016,-1.5512488633104242,-1.3663523484170066,-6.110104021281164,0.49217021494477614,-35.19167134871266,76.43098397280625,78.09003530331628,13.697914779186249,26.280754804611206,-3.2829679548740387,-9.047620898359485,36.603724837623275,0
GUIDED_NOGPS,2.4308414459228516,26.43646631706333,-47.14976114315971,84.68870209738493,79.5508956604943,-11.182659607629029,-25.709630485446798,65.24069342949605,74.10843886032812,-0.41394217390559473,0.2809872323064339,39.96156536191202,-1.5519731724148806,-1.3323196259471333,-5.5913298038145145,0.4918363147997507,-34.673897539973446,76.01285729377068,77.9688646043873,12.907972931861877,33.089250326156616,2.007759176194668,-8.493166413233654,37.14639361246455,0
GUIDED_NOGPS,2.473954916000366,23.19781423182859,-46.27577268942685,85.17816076349565,79.31022293837773,-9.970456052872784,-25.60701940931594,65.15990971945358,73.81266072123194,-0.5712803839135986,0.40212677373469247,38.855539169233516,-1.5499293485340766,-1.301456879985927,-4.985228026436392,0.4917536566742813,-33.66678834540292,75.91256861929668,77.99263185778912,12.184125930070877,31.141486763954163,-8.73599648475647,-7.297262936982771,43.41352247786896,0
GUIDED_NOGPS,2.4978392124176025,41.880219670494256,-45.34088554876406,85.7906222271796,79.06544463765749,-8.62115951214142,-25.50261277384432,65.07771240036794,73.51170685237562,-0.650916120767716,0.3334950852832738,37.05786411553743,-1.5541594755801267,-1.269242254700922,-4.31057975607071,0.4916693933220772,-32.95700930585924,76.31516766516201,78.18153429463473,12.184125930070877,31.141486763954163,-8.73599648475647,-6.542660658544012,43.41352247786896,0
GUIDED_NOGPS,2.5306782722473145,30.45397383210142,-44.57183730886865,86.05025915567433,78.88399880477998,-7.630500426010982,-25.39641975040957,64.99410869268685,73.20560369040828,-0.5358596632081472,0.4133292978297183,35.73085056735774,-1.5474945687636759,-1.243686605215872,-3.815250213005491,0.49148240732844245,-32.5964917132267,76.54772757928623,77.47622106254212,12.463387101888657,36.215201020240784,-5.963870882987976,-4.653986637728941,42.01485683020125,0
GUIDED_NOGPS,2.5656230449676514,28.621465225461296,-43.66469007595991,86.39350667635638,78.68247464548556,-6.335657554218806,-25.28845013743048,64.90910631051538,72.89437947943553,-0.4943150375815446,0.5088875663408842,34.24525027193412,-1.5400472601734165,-1.215694243574557,-3.167828777109403,0.49131785725092497,-31.307707117300737,76.71745082881066,77.16597598957995,14.658969640731812,28.741300106048584,-5.3088996559381485,-1.9497696998602814,43.51502591912452,0
GUIDED_NOGPS,2.6034481525421143,26.440465984164607,-42.77896282389057,86.74027635338255,78.4842197858983,-5.048284190708493,-25.178714351718128,64.82271345480687,72.57806424608911,-0.40978274878361565,0.4648914364107759,32.75292224017804,-1.535270590636581,-1.1895364924136798,-2.5241420953542466,0.4911407666902862,-31.307707117300737,76.71745082881066,77.16597598957995,14.658969640731812,28.741300106048584,-5.3088996559381485,-1.9497696998602814,43.51502591912452,0
GUIDED_NOGPS,2.6364023685455322,30.349961649227918,-41.736814741936875,87.10827004596608,78.29615977946526,-3.612632474488526,-25.067223419827048,64.73493880655381,72.2566897745965,-0.5818604002988013,0.5478824503338092,31.04581207978173,-1.53015372252307,-1.1561008383228015,-1.806316237244263,0.4909407949926969,-28.11362273098215,76.54081751739307,77.95844545094732,14.955615997314453,26.859894394874573,-6.555227190256119,0.896759671127587,41.643437973325135,0
GUIDED_NOGPS,2.6688642501831055,30.809887244279576,-40.74858609865377,87.34447631519446,78.12856735603181,-2.335620401847626,-24.953988969406392,64.64579151997887,71.93028958185036,-0.5993428030879778,0.592500927891182,29.73455919311185,-1.52246457879805,-1.1234831514228285,-1.167810200923813,0.49070258333872785,-28.11362273098215,76.54081751739307,77.95844545094732,16.722773015499115,26.2744277715683,-6.592617183923721,0.896759671127587,42.49437367597658,0
GUIDED_NOGPS,2.702022075653076,30.16356470960504,-39.79036003198268,87.56844158468478,77.95243219027138,-1.0735273652672679,-24.839023220551084,64.55528121572576,71.5988988924782,-0.8484998330778449,0.7184479086389246,28.79252584240535,-1.5166019119691898,-1.0931278505251179,-0.5367636826336339,0.49046970005331025,-27.76723352315641,77.47066473445545,77.81113472822753,16.261026263237,23.97829443216324,-7.092154026031494,2.5038815881852012,40.42667050853863,0
GUIDED_NOGPS,2.7406704425811768,25.878624842666405,-38.826666236674704,87.82347457207456,77.79452112172422,0.23086676421416608,-24.722338977152965,64.4634179740502,71.26255461391192,-0.95849965613493,0.6267981358390192,27.193249001077913,-1.5141289815322034,-1.0639341737935457,0.11543338210708304,0.49020205023828156,-27.045965322998782,77.90686370717405,77.99995392264898,15.661823749542236,24.23653155565262,-6.587514281272888,3.2135991525771557,41.740597414268564,0
GUIDED_NOGPS,2.7699007987976074,34.218266367530084,-37.7237266146173,88.08171809923677,77.72542678419224,1.6894433818589336,-24.603949618251967,64.37021232801082,70.92129531145736,-1.1995743845417035,0.6435973596286358,25.40142571195323,-1.5115680380847827,-1.0289947345713448,0.8447216909294668,0.4897938027908977,-25.231132742246768,76.93927242510851,78.16915001296773,16.851772367954254,21.687500178813934,-0.7866386324167252,5.375943175700498,39.12939218891059,0
GUIDED_NOGPS,2.803612232208252,29.666463906296418,-36.739497869533714,88.18282255812395,77.54740306393651,2.8973182876863413,-24.483869089387255,64.27567525666015,70.57516118336386,-1.6260106286256912,0.7182455642847629,23.937048521828128,-1.5055175237017042,-0.9965441996748089,1.4486591438431706,0.489541637179141,-24.73448926942156,77.1925003216945,78.05841723959102,19.441798329353333,24.69022572040558,-9.673532098531723,6.8236812545635335,39.42915553120412,0
GUIDED_NOGPS,2.837437868118286,29.567752759879877,-35.70238947372166,88.40574013927753,77.39155521216765,4.250536163583957,-24.362111893948402,64.17981817823546,70.22419403589385,-1.758642016693349,0.6643749018055204,22.73946705842019,-1.507314992417865,-0.9648936713956502,2.1252680817919787,0.4892489582355893,-23.914034277604088,77.76892347749981,78.17676910342894,18.68111789226532,25.89481770992279,-7.999276369810104,8.230893988144715,40.38156052416527,0
GUIDED_NOGPS,2.8758316040039062,26.05271036628922,-34.63337191297417,88.58383298559087,77.28056516959141,5.655374453474291,-24.238693084526517,64.08265294334981,69.86843725839238,-2.0578194568221284,0.7019244537370473,21.388407829267475,-1.5079994898118294,-0.9327463079825238,2.8276872267371456,0.4888818081332014,-22.59382473733411,77.44752652889022,78.13533495405761,19.313186407089233,23.72993528842926,-5.172073468565941,10.998942217973516,36.78312658636283,0
GUIDED_NOGPS,2.9051785469055176,34.07814493130429,-33.591847373689426,88.74948707315976,77.17331571888117,7.125893661881683,-24.113628254265436,63.98419182818289,69.50793579835673,-2.2480568737930855,0.639676617601637,19.99067962506336,-1.509127560189241,-0.9050643370587905,3.5629468309408416,0.48850193011921333,-22.59382473733411,77.44752652889022,78.13533495405761,19.313186407089233,23.72993528842926,-5.172073468565941,10.998942217973516,36.78312658636283,0
GUIDED_NOGPS,2.9384889602661133,30.02558504126966,-32.64257446029496,88.98654751293664,77.03788034643308,8.386042428572528,-23.986933528212848,63.884447527671995,69.14273613650592,-2.2668763928339977,0.5819718177596371,18.943352078111946,-1.519514142904519,-0.8801932226569485,4.193021214286264,0.48815728368510924,-22.544196892249694,79.55454016417076,78.2589786641698,20.440320670604706,28.41709554195404,-8.800531178712845,12.593343334140272,39.695748059793466,0
GUIDED_NOGPS,2.9720888137817383,29.765413875326445,-31.63427482820072,89.10876041922918,77.01654667905014,9.58436946728245,-23.85862555467147,63.783433148702954,68.77288626185033,-2.3442959467458575,0.5360725730111812,17.769684814535513,-1.5260702542469677,-0.8491164166271503,4.792184733641225,0.4876345093742003,-22.544196892249694,79.55454016417076,78.2589786641698,22.564101219177246,17.183852195739746,-0.924285501241684,12.593343334140272,31.957652579262184,0
GUIDED_NOGPS,3.0061585903167725,29.359540809183816,-30.458306387811376,89.20807274915941,76.99721268093538,10.884792075053129,-23.728721496550193,63.68116220330106,68.39843564676124,-2.338780782434484,0.4966535769594806,16.833942068054593,-1.5340889321051683,-0.8089623863072901,5.4423960375265645,0.4871018344487388,-18.575548726900802,77.53294113404405,79.06787934856044,24.109378457069397,21.721751987934113,-3.2717283815145493,15.501874952510306,32.48435920201313,0
GUIDED_NOGPS,3.0391085147857666,30.35084012330492,-29.236876491634543,89.421514870206,76.90242466101661,12.1430644785043,-23.59723902271526,63.577648601821984,68.01943522204037,-2.304301347174025,0.430412187913302,15.958081297574472,-1.5532915412915744,-0.7668714370862983,6.07153223925215,0.4866755158415356,-17.297916742651402,78.25198165304359,79.51321152620257,26.117518544197083,27.650639414787292,-9.437837451696396,17.34218600054266,27.786756581458878,0
GUIDED_NOGPS,3.0736031532287598,28.995423562431732,-28.05759728687819,89.50259746518476,76.86869901390808,13.313121248509928,-23.46419629934139,63.47290664614277,67.63593735198948,-2.233893195888595,0.25834374114524,14.821349989482174,-1.5671311777754524,-0.7248519953555118,6.656560624254964,0.4861508575071221,-17.297916742651402,78.25198165304359,79.51321152620257,26.5158474445343,20.354633033275604,-5.864895507693291,17.34218600054266,27.633584466679466,0
GUIDED_NOGPS,3.1069283485412598,30.011834996958964,-26.816164311853285,89.48877510527666,76.876270548199,14.497484570128371,-23.329611981262953,63.366951022852675,67.24799580947993,-2.276538762632039,0.20991460500038195,14.09968756970426,-1.578393405608617,-0.6782178683565059,7.248742285064186,0.4855575878919214,-15.132027499548467,78.13184559323979,80.31023150051061,25.80972909927368,14.1822949051857,-5.427437648177147,18.919999903342905,25.69045199687149,0
GUIDED_NOGPS,3.140171527862549,30.085889922602952,-25.591586263342293,89.46245091891544,76.8726601437014,15.562850973126931,-23.193505203325135,63.2597967964442,66.85566575102224,-2.394153766366012,0.14592298955335561,13.344798840935171,-1.5924740985155594,-0.6302151067905177,7.7814254865634656,0.4849745084109813,-14.417889165189862,77.40315284242456,80.19261655856462,26.94803774356842,17.07802414894104,-6.0334712266922,19.32460802864937,22.028193356369865,0
GUIDED_NOGPS,3.173943519592285,29.614934899878556,-24.293972010087334,89.34312218987306,76.90184194928644,16.63487038999919,-23.055895571735075,63.151459402503946,66.45900369183563,-2.435624967459037,0.10033909410527066,12.814907642483705,-1.6046257465237335,-0.5763349016785504,8.317435194999595,0.4843357426138238,-11.70350387988044,75.47565342356106,80.87111168172297,26.94803774356842,17.07802414894104,-6.0334712266922,20.971184956661624,22.028193356369865,0
GUIDED_NOGPS,3.2080297470092773,29.34228788896351,-23.031459660559797,89.11463760787895,77.01159562777222,17.649489292797313,-22.916803155413042,63.04195464090358,66.05806748091763,-2.519706944019421,0.1832985050631794,12.2675439663617,-1.612345028525617,-0.5220232021790497,8.824744646398656,0.4835697077797181,-11.81566897566698,74.17574454687872,80.3776069284633,27.08948254585266,13.124103844165802,0.6412968970835209,21.338522040457065,19.074741012080896,0
GUIDED_NOGPS,3.239973306655884,31.30965497678446,-21.81789169955306,88.89663731335557,77.11559245616719,18.566382048586195,-22.776248477343565,62.9312986689908,65.65291627611363,-2.565334101778987,0.20795172602679665,11.913071662590024,-1.6227946708968226,-0.4692480161065273,9.283191024293098,0.4828059857299197,-11.81566897566698,74.17574454687872,80.3776069284633,27.11883783340454,14.290621876716614,0.15045497566461563,21.338522040457065,16.81159198154302,0
GUIDED_NOGPS,3.27425479888916,29.17472263763781,-20.499394915235438,88.48909206948451,77.15369373381647,19.290884588142813,-22.634252505926625,62.81950799478019,65.24361051918639,-2.61947999953744,0.2637122965132965,11.626394962746248,-1.6277373224064633,-0.400095849443175,9.645442294071406,0.48213487517805487,-8.558348797222699,71.33265567473325,80.59336364856384,28.819963335990906,11.06184720993042,-4.837905988097191,22.091151612402204,8.951435897901733,0
GUIDED_NOGPS,3.3083999156951904,29.290036941598753,-19.16979273163749,88.0303599015816,77.18940123073104,20.022561215996216,-22.49083664632878,62.70659947014422,64.83021191088571,-2.720123263844401,0.3967803364401592,11.337667498604176,-1.631835950365187,-0.32956590620417286,10.0,0.481461216020232,-8.516544400262244,69.57414745099729,80.34315079077444,29.93038296699524,11.00083440542221,-3.870118409395218,22.697369144054555,7.070442354728419,0
GUIDED_NOGPS,3.344357490539551,27.815716000504015,-17.829655773373293,87.57936522731357,77.22509493721557,20.692334422630978,-22.346022731834328,62.59259028400416,64.41278338601789,-2.6609437301110606,0.5006983296085975,11.208077465707879,-1.6390584737633036,-0.2570128389835156,10.0,0.4807815326732035,-7.68504393805684,67.61872284276298,80.12475838034075,32.48976767063141,17.19468981027603,-3.3264268189668655,23.25408057236622,5.023240426971075,0
GUIDED_NOGPS,3.3823232650756836,26.34348306702844,-16.419940721753953,87.0751510465258,77.28827097771904,21.282571086364463,-22.199833015196486,62.47749795552101,63.991389088515376,-2.8186171529969237,0.7215002561459798,11.192953719338178,-1.6471523544969726,-0.17640164063813119,10.0,0.4800546771661945,-6.136475993116676,66.35370443226797,80.50998991546102,32.75647461414337,15.778124332427979,-2.523336373269558,23.53031359609677,0.7982518922622065,0
GUIDED_NOGPS,3.4111149311065674,34.73975235018843,-14.966694605079104,86.496699695092,77.20936022470764,21.875421115757124,-22.05229015998852,62.36134032728643,63.566094346506254,-2.8275072845319302,0.8527361511888395,11.268222403991718,-1.6538403807017077,-0.09136272839331211,10.0,0.47953510118269793,-6.15294207930004,63.45573338529606,79.74758610131468,33.590537309646606,17.057505249977112,-8.68329405784607,23.8056404790106,-0.9002588465256428,0
GUIDED_NOGPS,3.4452593326568604,29.291264237776986,-13.80396127703834,85.8049658880783,77.18509405238532,22.10433771919064,-21.903417231954915,62.244135558513676,63.13696564738389,-2.8215067499026625,0.9531417996178781,11.436449109475486,-1.6474758252239488,-0.013466530461012205,10.0,0.47892780739249785,-6.184887179516741,62.97989548954993,79.69035655131663,34.652695059776306,15.974259376525879,-6.751002371311188,23.8734946787021,-6.648538581488969,0
GUIDED_NOGPS,3.4781246185302734,30.4387241917341,-12.486073686532421,84.96306522496803,77.25397013875555,22.416213268250026,-21.753237690362525,62.12590211822855,62.70407061287642,-2.852514528074051,1.0314612309528872,11.729159427677322,-1.6372903855081993,0.07646385806486644,10.0,0.47817515071118133,-4.735361055377908,59.88885346325702,79.73106443845066,34.89895164966583,10.620921850204468,-0.1434258883818984,23.76121021452621,-6.5068322198918915,0
GUIDED_NOGPS,3.5125508308410645,29.0498465885873,-11.210105228850711,84.15423695979831,77.29300842468596,22.605008276058104,-21.601775379351736,62.0066587784603,62.267477974116375,-2.7116435839898303,1.0334029256678747,12.129518649840435,-1.6285713775771842,0.16615615420292895,10.0,0.4774617043241456,-4.735361055377908,59.88885346325702,79.73106443845066,36.56318187713623,11.751057207584381,-2.229243889451027,23.76121021452621,-10.190147052944198,0
GUIDED_NOGPS,3.5458312034606934,30.052261637779704,-9.928981472259544,83.27583083946637,77.27325602763116,22.7344931265258,-21.44905451928762,61.88642460743258,61.82725754671021,-2.716310524183653,1.1175248161462212,12.565788445338537,-1.616196724286355,0.2595754580705558,10.0,0.4768310022786186,-4.846728277094382,56.62618631599655,79.1213504237839,38.72641324996948,14.661768078804016,-3.9893660694360733,23.459609635232965,-12.521652616695562,0
GUIDED_NOGPS,3.578876495361328,30.265427466374184,-8.713132880140556,82.37528805733437,77.23163680677067,22.771558706754835,-21.2950996981111,61.765218962754375,61.38348020580787,-2.6656025594552437,1.1036490734039288,12.999515702918101,-1.6004819092046516,0.3515713862556443,10.0,0.4762277650985558,-4.846728277094382,56.62618631599655,79.1213504237839,39.23393189907074,11.820188909769058,-5.555766820907593,23.459609635232965,-15.011811522035272,0
GUIDED_NOGPS,3.6137783527374268,28.65842642888866,-7.513088862676161,81.34225227674395,77.18331814584035,22.710166563438495,-21.139935862690074,61.64306148461094,60.93621786117238,-2.6055325398088627,1.1267807896886464,13.758675861239388,-1.575742289065831,0.4484344229802822,10.0,0.4756293495729981,-4.663390702459743,53.609173821915626,78.67657869747875,39.930590987205505,10.034612566232681,-4.740594327449799,22.877181490716204,-17.637600908818513,0
GUIDED_NOGPS,3.6464149951934814,30.644212433605365,-6.328094076549259,80.30409351650573,77.19510766013447,22.601499343815355,-20.983588310170614,61.519972088954724,60.48554343224938,-2.558427926754458,1.129872944391958,14.390641675515756,-1.5496271503517252,0.5455048494717515,10.0,0.47493565365817236,-4.663390702459743,53.609173821915626,78.67657869747875,40.728458762168884,7.551726698875427,-1.0022561997175217,22.877181490716204,-19.65130460067835,0
GUIDED_NOGPS,3.6801347732543945,29.65933133450246,-5.1752755899600675,79.13316538393703,77.22243886414479,22.365747629955173,-20.82608267932811,61.3959709606963,60.03153082323672,-2.5002223353080786,0.9805570050075457,15.181995930489895,-1.5128434503086317,0.6468036317750189,10.0,0.4742136379386379,-3.9603785138132954,51.157116288448165,78.65292823001994,41.51783883571625,4.206078127026558,-0.27468241751194,22.0148118398139,-22.480771936058662,0
GUIDED_NOGPS,3.7170779705047607,27.074873317625794,-4.033679535261885,77.9536772300671,77.15394762059256,22.086947897491964,-20.66744494191841,61.271078546895325,59.574254898153995,-2.437844352052468,0.9344523743363133,15.906786576907676,-1.473880392184649,0.7482443683949446,10.0,0.47363046091634214,-4.212112482245647,48.62033626897254,78.41897579416587,42.62671768665314,8.450545370578766,-5.518822371959686,21.14404368944794,-22.411863865069698,0
GUIDED_NOGPS,3.758472442626953,24.16073732718894,-2.931744618687152,76.76153582590935,77.08012038741958,21.762878681851255,-20.507701394028985,61.14531554995143,59.11379145591212,-2.3625748136252813,0.8922881224859437,16.672008528117345,-1.4314503823599516,0.8478960811346425,10.0,0.4730505066027388,-4.480716202967971,47.708169565277686,78.20417576862152,43.582913279533386,7.833615690469742,-4.8590730875730515,20.851327937987456,-24.53790709330332,0
GUIDED_NOGPS,3.7820286750793457,42.458915827301716,-1.5947411251765857,75.38638635131454,77.0500143694828,21.368831761987703,-20.346878647430096,61.01870292079519,58.650217205382916,-2.280473378480789,0.8717212489562718,17.799314175155025,-1.3821518023695147,0.9694403020594307,10.0,0.47240030425385016,-4.491153613445246,45.857534677001276,78.11966243186421,44.144150614738464,-0.09443779708817601,-1.3802153058350086,20.13967434408821,-26.43117576707562,0
GUIDED_NOGPS,3.8147528171539307,30.562932196597078,-0.9210421842017446,74.13057732849609,77.03248150787267,20.871985601082372,-20.18500362092594,60.89126185207907,58.18360974046864,-2.0874507384323477,0.7979497097522863,18.83050027755041,-1.3188388335871073,1.0433880354154599,10.0,0.471726692348894,-4.533848666990604,45.13248297684535,78.2589919983559,45.43804228305817,5.14092780649662,-3.8849901407957077,19.693447415133342,-26.703437352676083,0
GUIDED_NOGPS,3.8487095832824707,29.45396834314125,0.07989537223330236,72.89637529134775,76.96499558952176,20.34269492842975,-20.02210353170581,60.76301377136828,57.71404751517157,-2.0376003893315984,0.6468383911115126,19.772634373547167,-1.2635903958055388,1.1394496861441141,10.0,0.4711235778884747,-4.574591850663443,44.00632384013386,78.02197492313982,46.65482044219971,7.3359377682209015,-4.903540387749672,19.318586559328956,-29.7955903484405,0
GUIDED_NOGPS,3.8838963508605957,28.42343374106326,1.0584473701059625,71.57875756162213,76.89151481980741,19.726527311716666,-19.858205886695256,60.633980334331795,57.24160981866355,-2.034710152095625,0.531263746309522,20.822658137673443,-1.1991625406474649,1.2365627908621928,9.863263655858333,0.4705251424982842,-4.756481530911458,41.39099799690234,78.17393676098422,47.4056601524353,6.652212142944336,-5.741212889552116,17.86674892936856,-30.80662568523705,0
GUIDED_NOGPS,3.915374994277954,31.77358604911898,2.1424558732641255,69.95209508372047,76.83429635494892,19.003473221328875,-19.693338473907225,60.50418341793326,56.76637675035562,-1.9267146160339685,0.3218700232746328,21.55125319945892,-1.113916128142508,1.3484576197546474,9.501736610664437,0.46989812059311004,-3.4662936431538136,33.82030033743564,77.70512602113286,48.10848534107208,5.975094065070152,-3.2176386564970016,15.728680331228727,-30.96160267750464,0
GUIDED_NOGPS,3.94923996925354,29.533400460501763,3.051146733854298,68.30285596321016,76.7767949557143,18.250307799368834,-19.52752935379324,60.37364511362192,56.28842919496748,-1.7974018461292904,0.17747614232171377,22.517029995267677,-1.0197932836175334,1.4468114725347625,9.125153899684417,0.46926745135887976,-3.951677114272944,32.69800415293764,77.32657084020734,49.27740693092346,2.9136616736650467,-2.884257026016712,15.291024435656581,-32.648051515661656,0
GUIDED_NOGPS,3.990098476409912,24.479563905473942,4.027128722096528,66.67472474222326,76.77600792062219,17.51030251670898,-19.36080685059455,60.24238772052352,55.80784879759711,-1.804789336046894,-0.05047777934925199,23.308990429530656,-0.9264956538527065,1.5470180560575524,8.75515125835449,0.4685477613154624,-3.951677114272944,32.69800415293764,77.32657084020734,50.668537616729736,1.435293909162283,0.8551301434636116,15.291024435656581,-31.8338793062178,0
GUIDED_NOGPS,4.017382860183716,36.66285554448349,5.165380829986733,65.09907503934546,76.67065463718772,16.669797514356063,-19.193199543693265,60.11043373863129,55.32471793879036,-1.4232810091061923,-0.37811935249318523,25.148440627737838,-0.8346888138509696,1.6570999326655678,8.334898757178031,0.4679810949524039,-4.292008231027479,32.13896116878766,77.10712372137587,51.2420654296875,6.213515251874924,-4.400495067238808,14.683690906200754,-33.88501243472931,0
GUIDED_NOGPS,4.049556732177734,31.081351058942094,5.866605408969955,63.645751309445984,76.59912724788106,15.884691295783384,-19.024736258963554,59.977805861996885,54.83911970961048,-1.3078362979809905,-0.6190210583344605,26.161876776027647,-0.7402736013319773,1.7303088328869807,7.942345647891692,0.46735998869259415,-2.6791996695491704,29.64681071495066,76.71801104196973,51.45081281661987,10.580667108297348,-3.342704102396965,13.340881828973753,-33.96299270448334,0
GUIDED_NOGPS,4.084915637969971,28.28714019800912,6.765806379363852,62.17499438540575,76.47848823662999,15.065359131844932,-18.85544606012275,59.84452697192125,54.35113788670765,-1.060589853328876,-0.9910845676743568,27.394570534411333,-0.6457361094268603,1.8161757696517524,7.532679565922466,0.4668089744751165,-2.6791996695491704,29.64681071495066,76.71801104196973,52.503806352615356,8.466976135969162,-5.728716403245926,13.340881828973753,-34.357248298849406,0
GUIDED_NOGPS,4.118124723434448,30.116133294081322,7.726916955241205,60.69212806954734,76.40647814668563,14.204885935976632,-18.68535824008257,59.71062013014562,53.86085690738865,-0.8710656041568035,-1.016291274084583,28.711830572456236,-0.5479455800924387,1.904697458574201,7.102442967988316,0.46618156814105455,-2.6791996695491704,29.64681071495066,76.71801104196973,53.52969765663147,5.273652449250221,-2.5016233325004578,13.340881828973753,-35.98643283100504,0
GUIDED_NOGPS,4.1525866985321045,29.027731447198136,8.662550811375061,59.03040386096519,76.29052983376091,13.272616947223995,-18.514502312300195,59.576108572042415,53.3683618446863,-0.7593898767929793,-1.260847477977359,29.93377532063361,-0.43343414027451826,1.991977470223531,6.636308473611997,0.4656167480163881,-1.33989333693064,21.63905112053215,76.02640445063494,53.13560366630554,12.116216123104095,-3.7868209183216095,10.072203082824538,-33.539077013646505,0
GUIDED_NOGPS,4.185290098190308,30.581427904806347,9.549430187877107,57.45684363582335,76.14122770869754,12.289706180491406,-18.342908002129512,59.4410156998062,52.873738382429124,-0.628861866824568,-1.3619920141363755,31.01307839818444,-0.3192607920290482,2.07143859252716,6.144853090245703,0.46509876601059735,-2.030083266580376,21.263923974059182,75.78078205706146,52.83264517784119,15.109555423259735,-5.262531340122223,9.450843672123838,-35.20590954850724,0
