Mode,Time,Freq,time2delay,actualDelay,North-Desired,East-Desired,Down-Desired,Roll-UAV,Pitch-UAV,Yaw-UAV,Roll-Control,Pitch-Control,Yaw-Control,Thrust-Control,North-Pos,East-Pos,Down-Pos,Yaw-Ang,North-Vel,East-Vel,Down-Vel,Yaw-Vel,North-Acc,East-Acc,Down-Acc,North-Avg,East-Avg,Down-Avg,Yaw-Avg,North-Dif,East-Dif,Down-Dif,Yaw-Dif,North-One,East-One,Down-One,Yaw-One,North-Two,East-Two,Down-Two,Yaw-Two,Landing-State,Q-Size,Kalman-Time,Kalman-Dt
STABILIZE,0.03442859649658203,29.054474923801607,0.03278210957845052,0.03290200233459473,0.0,0.0,0.0,-0.15735010947819852,-1.21975129695845,-10.846889378434788,-0.128412234305995,-0.0969737492703097,0.0018400826356235519,0.4,-0.023652421457791402,0.03133086346226934,0.7283804235457932,0.0091700714927805,-0.06138965836726129,0.17180644208565354,1.5625298023223877,-0.06677251629542645,-1.158539205789566,2.154448442161083,18.66665631532669,0.0,0.0,0.0,0.0,0.0,0.0,0.0,0.0,0.0,0.0,0.0,0.0,0.0,0.0,0.0,0.0,False,0,3.505692481994629,0.029932861328125
STABILIZE,0.0681295394897461,29.671710633360924,0.03222063382466634,0.03281092643737793,0.0,0.0,0.0,-0.1582024690618485,-1.219914901333413,-10.84500083112928,-0.061426805167235456,-0.05641574003099298,0.0021167046565537546,0.4,-0.02647957659481219,0.028726762578964747,0.7285220258958938,0.010517598131672266,-0.22215507924556732,-0.106610800139606,1.5095279552042484,0.10271879471110525,-3.32934707403183,-1.7368709668517113,20.991700887680054,0.0,0.0,0.0,0.0,0.0,0.0,0.0,0.0,0.0,0.0,0.0,0.0,0.0,0.0,0.0,0.0,False,1,3.534294366836548,0.034920166015625
STABILIZE,0.10168695449829102,29.80073181995808,0.03246906598409017,0.032634735107421875,0.0,0.0,0.0,-0.15729642846019046,-1.2201755157389313,-10.844370746178345,-0.04397231200794658,-0.042837321507126505,0.001895041259139991,0.4,-0.029021798994961327,0.029674301305381613,0.7239743695947458,0.009377864222668748,-0.15472050290554762,0.19446148071438074,1.3698999769985676,0.10157087603340015,-3.2024402171373367,0.3162282984703779,20.945535600185394,0.0,0.0,0.0,0.0,0.0,0.0,0.0,0.0,0.0,0.0,0.0,0.0,0.0,0.0,0.0,0.0,False,0,3.5916481018066406,0.029931884765625
STABILIZE,0.14174771308898926,24.96104359831939,0.032369407018025716,0.03912186622619629,0.0,0.0,0.0,-0.15790295459457288,-1.2202604662167333,-10.842968849851202,-0.0058468877804373955,-0.013956945447491988,0.0021712198016697504,0.4,-0.030697606065984658,0.0319896125068655,0.721760848691539,0.010715819098171854,-0.15472050290554762,0.19446148071438074,1.3698999769985676,0.10157087603340015,-3.2024402171373367,0.3162282984703779,20.945535600185394,0.0,0.0,0.0,0.0,0.0,0.0,0.0,0.0,0.0,0.0,0.0,0.0,0.0,0.0,0.0,0.0,False,0,3.6204445362091064,0.029931884765625
STABILIZE,0.1751267910003662,29.95910029214077,0.03238371213277181,0.03250718116760254,0.0,0.0,0.0,-0.15847474281372342,-1.219834326445548,-10.842869812108235,-0.01243734482632598,-0.006905428768100416,0.001438188361152192,0.4,-0.028357246789510005,0.034203287604740756,0.7179618121959391,0.007027194041946285,0.08964827284216881,0.1902062795124948,1.2589430436491966,-0.20524182179316766,-10.2273128926754,0.09948320221155882,9.74522978067398,0.0,0.0,0.0,0.0,0.0,0.0,0.0,0.0,0.0,0.0,0.0,0.0,0.0,0.0,0.0,0.0,False,0,3.6490697860717773,0.069842041015625
STABILIZE,0.20858287811279297,29.889500951349348,0.03245142300923665,0.03258490562438965,0.0,0.0,0.0,-0.15873613095160863,-1.2195593046097493,-10.84254537812266,-0.017644418822622913,-0.0017986973072072084,0.0006429830201935453,0.4,-0.02711406986877077,0.03858973316286356,0.7414038317560674,0.0030409927129156486,0.08964827284216881,0.1902062795124948,1.2589430436491966,-0.20524182179316766,-10.2273128926754,0.09948320221155882,9.74522978067398,0.0,0.0,0.0,0.0,0.0,0.0,0.0,0.0,0.0,0.0,0.0,0.0,0.0,0.0,0.0,0.0,False,0,3.677682399749756,0.069842041015625
STABILIZE,0.24207639694213867,29.858010322121373,0.032442601521809895,0.03254985809326172,0.0,0.0,0.0,-0.15729789588364493,-1.2188822621082718,-10.841197269535229,-0.0162154728173649,0.010556336000280475,0.0005856281041477531,0.4,-0.019924980069056977,0.03931857685703363,0.7486338514481286,0.002745045671750582,0.10978945065289736,-0.034324475564062595,1.2250689789652824,0.10269775719485308,5.12353703379631,0.14828643761575222,16.608427464962006,0.0,0.0,0.0,0.0,0.0,0.0,0.0,0.0,0.0,0.0,0.0,0.0,0.0,0.0,0.0,0.0,False,0,3.735076665878296,0.0349208984375
STABILIZE,0.2757694721221924,29.679269181508765,0.03235963185628255,0.032787322998046875,0.0,0.0,0.0,-0.15670940571753958,-1.2190714796926223,-10.839155896747041,-0.010458832599903599,0.012178361266243025,0.0009317185833521427,0.4,-0.016719538990686185,0.03733131139584993,0.7428739853253403,0.00446044605736714,0.10978945065289736,-0.034324475564062595,1.2250689789652824,0.10269775719485308,5.12353703379631,0.14828643761575222,16.608427464962006,0.0,0.0,0.0,0.0,0.0,0.0,0.0,0.0,0.0,0.0,0.0,0.0,0.0,0.0,0.0,0.0,False,0,3.7636964321136475,0.0349208984375
STABILIZE,0.3092803955078125,29.841015972395148,0.03240683873494466,0.03253459930419922,0.0,0.0,0.0,-0.15641696156327198,-1.21884309524225,-10.837771929666468,-0.005644544160624115,0.011479737012457913,0.0003573515477222034,0.4,-0.016096351728532077,0.03791995268776412,0.7431190955132447,0.0015833127904252113,-0.02168322098441422,0.0998993287794292,1.5211218036711216,-0.13701187386295005,1.3809162192046642,2.2526325657963753,19.80350911617279,0.0,0.0,0.0,0.0,0.0,0.0,0.0,0.0,0.0,0.0,0.0,0.0,0.0,0.0,0.0,0.0,False,0,3.7923903465270996,0.0349208984375
STABILIZE,0.3426847457885742,29.93622062979987,0.03236440022786458,0.03249502182006836,0.0,0.0,0.0,-0.15554435153594995,-1.2174086487948415,-10.837437250397137,-0.004197796051016226,0.006689503968401117,-0.0004916996864959414,0.4,-0.013002279056488715,0.037574698674361556,0.7344941218568026,-0.0026530688318224943,0.11033409973606467,0.05129752680659294,1.043983269482851,-0.2093617598840076,3.070981614291668,0.10049314005300403,13.8368159532547,0.0,0.0,0.0,0.0,0.0,0.0,0.0,0.0,0.0,0.0,0.0,0.0,0.0,0.0,0.0,0.0,False,0,3.82120943069458,0.02993212890625
STABILIZE,0.3761575222015381,29.875662430907745,0.03241566022237142,0.03255438804626465,0.0,0.0,0.0,-0.15534144689283297,-1.2164884942475938,-10.835695552158784,-0.007097750095922529,0.0007310804822307505,-0.00030428964075925876,0.4,-0.014258323390602458,0.037808603129716754,0.7285263909091475,-0.0017102964979468038,-0.11220421874895692,0.09293976472690701,1.3405488803982735,0.05571881561911285,-3.1178180128335953,0.13865544460713863,15.007486939430237,0.0,0.0,0.0,0.0,0.0,0.0,0.0,0.0,0.0,0.0,0.0,0.0,0.0,0.0,0.0,0.0,False,0,3.8578412532806396,0.0349208984375
STABILIZE,0.40961742401123047,29.885667462324985,0.03238943417867025,0.032518863677978516,0.0,0.0,0.0,-0.15593866155838595,-1.215950296685338,-10.835936316327027,-0.0050041868011787925,0.0008917737694318105,-0.00020861964109999406,0.4,-0.013596286560359105,0.03689628611145535,0.7293103450830832,-0.0012278367647441486,-0.011569607158889994,0.019601960957515985,1.4975045807659626,0.03594846621064732,-0.8860411122441292,0.05619779112748802,15.413489937782288,0.0,0.0,0.0,0.0,0.0,0.0,0.0,0.0,0.0,0.0,0.0,0.0,0.0,0.0,0.0,0.0,False,0,3.8871304988861084,0.069842041015625
STABILIZE,0.4430422782897949,29.916789706060673,0.03238657315572103,0.03253793716430664,0.0,0.0,0.0,-0.15575328595544358,-1.215643151616099,-10.835341236095589,-0.0038800369983573646,-0.0006873520741321463,-0.0007165411794309814,0.4,-0.011937796692042152,0.03582072681261583,0.7489247162370108,-0.003754885034591013,0.02446253492962569,-0.049519387539476156,1.2836323119699955,-0.09334482698272555,-1.4643678441643715,0.08844329859130085,17.919054627418518,0.0,0.0,0.0,0.0,0.0,0.0,0.0,0.0,0.0,0.0,0.0,0.0,0.0,0.0,0.0,0.0,False,0,3.9157700538635254,0.029932861328125
STABILIZE,0.4765346050262451,29.859710821758846,0.03242209752400716,0.03255343437194824,0.0,0.0,0.0,-0.15478737447684213,-1.2153592718787203,-10.832830287801963,0.0002944422893558548,0.0027366416459636096,-0.0010849349028288695,0.4,-0.01071072112113154,0.033177012936112145,0.7398342491178971,-0.005578202075688463,0.02446253492962569,-0.049519387539476156,1.2836323119699955,-0.09334482698272555,-1.4643678441643715,0.08844329859130085,17.919054627418518,0.0,0.0,0.0,0.0,0.0,0.0,0.0,0.0,0.0,0.0,0.0,0.0,0.0,0.0,0.0,0.0,False,0,3.9444148540496826,0.029932861328125
STABILIZE,0.5099222660064697,29.949901459541287,0.03237155278523763,0.03247332572937012,0.0,0.0,0.0,-0.1555958981198424,-1.215137717617518,-10.832187396246336,0.003885934477584468,-0.002008394977541935,-0.00011496568584844292,0.4,-0.013359394727712075,0.029921215062697796,0.7309642347041927,-0.0007259309962283885,-0.27678085025399923,0.023334857542067766,1.51566993445158,0.2127799227180552,-4.792638123035431,0.06828802870586514,17.912304401397705,0.0,0.0,0.0,0.0,0.0,0.0,0.0,0.0,0.0,0.0,0.0,0.0,0.0,0.0,0.0,0.0,False,0,4.002369165420532,0.0349208984375
STABILIZE,0.5433857440948486,29.883751086538325,0.0324130376180013,0.0325472354888916,0.0,0.0,0.0,-0.15529886493222617,-1.2152003632588118,-10.831850155656067,0.0030170426502965416,0.0020767256935439295,0.0002199642882579826,0.4,-0.009103132824899825,0.029560433259395905,0.7232800304069558,0.0009455545395918234,0.1884802128188312,0.05165855400264263,1.0867015458643436,0.08927615533130034,6.897386163473129,0.06661061197519302,16.999629139900208,0.0,0.0,0.0,0.0,0.0,0.0,0.0,0.0,0.0,0.0,0.0,0.0,0.0,0.0,0.0,0.0,False,0,4.031006813049316,0.02993212890625
STABILIZE,0.5768001079559326,29.926395250938253,0.03240850766499837,0.032526493072509766,0.0,0.0,0.0,-0.15491954930945245,-1.2153926757726299,-10.830764155578034,-0.0017358707709823188,0.001144859412153649,8.408735969624822e-05,0.4,-0.008653260761748506,0.03046249784956575,0.7165639064468463,0.00026528305920185105,-0.007048196857795119,0.1220198580995202,1.29368519410491,-0.03469377246630787,-1.2207872234284878,-0.05388995632529259,12.147914618253708,0.0,0.0,0.0,0.0,0.0,0.0,0.0,0.0,0.0,0.0,0.0,0.0,0.0,0.0,0.0,0.0,False,0,4.062205791473389,0.0349208984375
STABILIZE,0.6102535724639893,29.892057157110788,0.0323975404103597,0.03251338005065918,0.0,0.0,0.0,-0.1548836908163099,-1.2156995006767515,-10.83073341972677,-0.007448449487730433,0.005263662519953458,-4.990934325580347e-05,0.4,-0.0081866031685789,0.031475659427848454,0.7137106598743027,-0.0004033514897497023,-0.007048196857795119,0.1220198580995202,1.29368519410491,-0.03469377246630787,-1.2207872234284878,-0.05388995632529259,12.147914618253708,0.0,0.0,0.0,0.0,0.0,0.0,0.0,0.0,0.0,0.0,0.0,0.0,0.0,0.0,0.0,0.0,False,0,4.088379383087158,0.0349208984375
STABILIZE,0.6437277793884277,29.874598460081057,0.03241899808247884,0.032547950744628906,0.0,0.0,0.0,-0.1539425921343026,-1.2143416804140943,-10.829639735685921,-0.0032947224956635115,-0.0015313758243111232,6.72264354520887e-05,0.4,-0.009061597662337975,0.028320308738392606,0.7150067535188386,0.00018171964891099232,-0.07795264245942235,-0.10473004076629877,1.5080218203365803,0.03298129930007221,3.7775035947561264,0.20540140103548765,23.08817356824875,0.0,0.0,0.0,0.0,0.0,0.0,0.0,0.0,0.0,0.0,0.0,0.0,0.0,0.0,0.0,0.0,False,0,4.117188453674316,0.034921875
STABILIZE,0.67720627784729,29.869705170203673,0.03239587148030599,0.032547712326049805,0.0,0.0,0.0,-0.15392786453890478,-1.2137674109152843,-10.829453613031038,-0.0022367021540496304,-0.003357718562183868,0.0006400798117204153,0.4,-0.00990944192965477,0.028393808740046166,0.7124780159878573,0.0030358249982522113,-0.07512764423154294,0.069601513678208,1.290785986930132,0.15660984770625871,0.2886359579861164,0.17400378128513694,17.172130942344666,0.0,0.0,0.0,0.0,0.0,0.0,0.0,0.0,0.0,0.0,0.0,0.0,0.0,0.0,0.0,0.0,False,0,4.145962953567505,0.02993212890625
STABILIZE,0.7106411457061768,29.91209590574878,0.03238681157430013,0.032500267028808594,0.0,0.0,0.0,-0.1534174146201521,-1.2123346720151682,-10.828048301609309,-0.0018041116033397607,0.0014314786508358805,0.0008109018617821458,0.4,-0.006230635485801817,0.02899119004675463,0.7115270624657533,0.003876976326815701,0.1281615230254829,0.1177820609882474,1.4251433312892914,0.08370598265070289,3.429648280143738,0.19943611696362495,18.648169934749603,0.0,0.0,0.0,0.0,0.0,0.0,0.0,0.0,0.0,0.0,0.0,0.0,0.0,0.0,0.0,0.0,False,0,4.203460216522217,0.034921142578125
STABILIZE,0.7441670894622803,29.826798082803545,0.0323672612508138,0.03249168395996094,0.0,0.0,0.0,-0.15349137276225866,-1.2117691536962323,-10.827090367578213,-0.008415944750406676,0.009735875557318004,0.0009304763220511285,0.4,-0.0013359414312678819,0.030710317132605785,0.712046813244225,0.004459926396228576,0.24765967391431332,0.15775386709719896,1.4177008531987667,0.03405879165712147,2.0637057721614838,0.1934598432853818,17.02616661787033,0.0,0.0,0.0,0.0,0.0,0.0,0.0,0.0,0.0,0.0,0.0,0.0,0.0,0.0,0.0,0.0,False,0,4.232593059539795,0.029932861328125
STABILIZE,0.7777760028839111,29.75211207660933,0.032294543584187825,0.03269314765930176,0.0,0.0,0.0,-0.15311288423270475,-1.2115831377630553,-10.82739857986451,-0.0063706890057323015,0.005716869084178363,0.00022424439319623936,0.4,-0.004850392173068635,0.029368566894381998,0.702540315885694,0.0009256473214694768,-0.2188548445701599,-0.007525832916144282,1.0370601899921894,-0.19583320953104863,-3.1289227306842804,0.1399161177687347,14.919202029705048,0.0,0.0,0.0,0.0,0.0,0.0,0.0,0.0,0.0,0.0,0.0,0.0,0.0,0.0,0.0,0.0,False,0,4.261314630508423,0.034921142578125
STABILIZE,0.8112976551055908,29.831252978286074,0.032413514455159505,0.03255796432495117,0.0,0.0,0.0,-0.15350802134836056,-1.2098456016712276,-10.826112796753256,-0.0023714424212972042,0.0035777230411215863,0.0014095743093926604,0.4,-0.0030540732800734775,0.02716389890939229,0.7023667920372356,0.006829435582811102,0.07953069871291518,-0.0657760538160801,1.3508547097444534,0.33925032007180295,0.8078712970018387,-1.8562447279691696,15.279155969619751,0.0,0.0,0.0,0.0,0.0,0.0,0.0,0.0,0.0,0.0,0.0,0.0,0.0,0.0,0.0,0.0,False,0,4.290059328079224,0.034921142578125
STABILIZE,0.8447127342224121,29.92660877755025,0.03235581715901693,0.032491445541381836,0.0,0.0,0.0,-0.15378864607371287,-1.2093205308787829,-10.825402457079575,0.0015887160259131304,-0.0035514180987678418,0.0015419031870543744,0.4,-0.003593146379229315,0.025978908940969447,0.7007143068326871,0.007466100607864148,-0.05234793061390519,-0.007848898530937731,1.262915227562189,0.0380128475315907,-2.6766877621412277,2.0934976637363434,14.48708325624466,0.0,0.0,0.0,0.0,0.0,0.0,0.0,0.0,0.0,0.0,0.0,0.0,0.0,0.0,0.0,0.0,False,0,4.318710565567017,0.029931884765625
STABILIZE,0.8781654834747314,29.892483233912753,0.032399924596150716,0.03253984451293945,0.0,0.0,0.0,-0.1530183288013824,-1.2103299047720637,-10.824446230595772,0.0016573473191665736,0.0001914048857161449,0.0010557766063417173,0.4,-0.004122444397942888,0.02475214338467558,0.6958515185643321,0.005018679559341094,-0.047798766172491014,-0.007337777060456574,1.2642416171729565,-0.13363861418661002,-2.9029719531536102,0.18848576582968235,18.766111135482788,0.0,0.0,0.0,0.0,0.0,0.0,0.0,0.0,0.0,0.0,0.0,0.0,0.0,0.0,0.0,0.0,False,0,4.347533226013184,0.034921142578125
STABILIZE,0.9115958213806152,29.912522554004806,0.03240636189778646,0.03252363204956055,0.0,0.0,0.0,-0.1541650268495776,-1.2097592638112504,-10.823476343733631,-0.014305752760116497,0.012971229357289006,1.6582357699538133e-05,0.4,0.006179063935381748,0.033689774436041355,0.6967200461748179,-0.00017670097076657792,0.2796635031700134,0.3153572790324688,1.3551408424973488,-0.1456752484535972,5.249791592359543,0.11508488096296787,15.073907375335693,0.0,0.0,0.0,0.0,0.0,0.0,0.0,0.0,0.0,0.0,0.0,0.0,0.0,0.0,0.0,0.0,False,0,4.4049317836761475,0.0349208984375
STABILIZE,0.9451065063476562,29.84207755247243,0.03242019017537435,0.03255128860473633,0.0,0.0,0.0,-0.1540100402523565,-1.211663392485803,-10.823548914493562,-0.016435284458860104,0.010963894510630377,-0.0003238748132528139,0.4,0.0043315352053242264,0.034092845888353034,0.7029842147496799,-0.0018727202753838943,-0.12481698067858815,0.07727480842731893,1.689622923731804,-0.09208769197936635,0.6368007976561785,0.23257480934262276,19.76485699415207,0.0,0.0,0.0,0.0,0.0,0.0,0.0,0.0,0.0,0.0,0.0,0.0,0.0,0.0,0.0,0.0,False,0,4.433682680130005,0.0349208984375
STABILIZE,0.9784998893737793,29.94669389328783,0.03226831754048665,0.032395124435424805,0.0,0.0,0.0,-0.15602347863405577,-1.2108858181374793,-10.822314357801082,-0.013609880114660427,0.012181845416802404,-0.0006662869775777466,0.4,0.004694070026450908,0.031078267888670196,0.6983391886777585,-0.003572831718502854,0.007132910832297057,-0.1195550779812038,1.054631546139717,-0.09254029873358548,0.4606260918080807,-1.7840802669525146,18.34888458251953,0.0,0.0,0.0,0.0,0.0,0.0,0.0,0.0,0.0,0.0,0.0,0.0,0.0,0.0,0.0,0.0,False,0,4.469816446304321,0.02993310546875
STABILIZE,1.0120203495025635,29.833587026104276,0.032413514455159505,0.032546043395996094,0.0,0.0,0.0,-0.1562077603395139,-1.2106722680042106,-10.82224178704115,0.005859074800540636,-0.0035899700115859553,-0.0007865056935819126,0.4,0.003044184158733628,0.025695372470886144,0.691929118612541,-0.004160009419236551,-0.10133591713383794,-0.24959491565823555,1.1445291340351105,-0.03344955745945485,-1.8672477453947067,-1.801806502044201,17.911912500858307,0.0,0.0,0.0,0.0,0.0,0.0,0.0,0.0,0.0,0.0,0.0,0.0,0.0,0.0,0.0,0.0,False,0,4.498601913452148,0.0349208984375
STABILIZE,1.0458226203918457,29.58235061784122,0.0323064645131429,0.0328669548034668,0.0,0.0,0.0,-0.15557009814746972,-1.2094451818311356,-10.820472768046118,0.013991383940882028,-0.0034727722375684075,-0.0009200361638983855,0.4,0.0014750716661071496,0.020443944085737097,0.6891959026063124,-0.004811369799712287,-0.10133591713383794,-0.24959491565823555,1.1445291340351105,-0.03344955745945485,-1.8672477453947067,-1.801806502044201,17.911912500858307,0.0,0.0,0.0,0.0,0.0,0.0,0.0,0.0,0.0,0.0,0.0,0.0,0.0,0.0,0.0,0.0,False,0,4.527216672897339,0.0349208984375
STABILIZE,1.0792946815490723,29.876726477522848,0.03241566022237142,0.03255438804626465,0.0,0.0,0.0,-0.15501143669813028,-1.2088884146920738,-10.820025390655482,0.008319283926133146,-0.0007652698198966393,-0.0008141460588417307,0.4,0.003643618196532108,0.02164803635237918,0.691630639013297,-0.00426763512876808,0.11982971336692572,0.12928482610732317,1.4478468336164951,0.03526868896545915,2.213318459689617,0.29847659170627594,25.208911299705505,0.0,0.0,0.0,0.0,0.0,0.0,0.0,0.0,0.0,0.0,0.0,0.0,0.0,0.0,0.0,0.0,False,0,4.555814743041992,0.0349208984375
STABILIZE,1.1128945350646973,29.762879282450115,0.03240326245625814,0.03254413604736328,0.0,0.0,0.0,-0.1546394315122026,-1.2082224712479974,-10.820815131278264,0.0023894461158900787,-0.007318349976222169,-0.0006831265299486743,0.4,-0.0022900075236926823,0.02093358508119209,0.6918595397814623,-0.003600486001381675,-0.35328478552401066,0.01423807698301971,1.316896267235279,0.04074051759417901,1.598660834133625,2.2049954161047935,20.636919140815735,0.0,0.0,0.0,0.0,0.0,0.0,0.0,0.0,0.0,0.0,0.0,0.0,0.0,0.0,0.0,0.0,False,0,4.58471417427063,0.0349208984375
STABILIZE,1.1462984085083008,29.937502676621317,0.03225234349568685,0.03238248825073242,0.0,0.0,0.0,-0.15311074979858913,-1.2088177649228464,-10.820060395374979,-0.005869913716795858,-0.0025946423350695406,-0.0012093828803252265,0.4,-0.0004374676059879265,0.02198181288440821,0.6926827072299818,-0.00621099293979116,0.10519756469875574,0.1155660254880786,1.3512303121387959,-0.15192431125520353,2.535012364387512,-1.7582468688488007,20.359311997890472,0.0,0.0,0.0,0.0,0.0,0.0,0.0,0.0,0.0,0.0,0.0,0.0,0.0,0.0,0.0,0.0,False,0,4.614245414733887,0.02993310546875
STABILIZE,1.1797523498535156,29.89312237189081,0.03228000005086263,0.032404422760009766,0.0,0.0,0.0,-0.15292542755649963,-1.2087369765915699,-10.819430310424044,-0.0008726034801042796,0.003860460643856847,-0.0026559323336433137,0.4,0.005879451065777752,0.019635808254109068,0.6894780079675873,-0.013398948347122108,0.18240096978843212,-0.01585298014106229,1.2953581288456917,-0.21370186485387468,3.9938699454069138,0.16150802839547396,18.645943701267242,0.0,0.0,0.0,0.0,0.0,0.0,0.0,0.0,0.0,0.0,0.0,0.0,0.0,0.0,0.0,0.0,False,0,4.672743797302246,0.0349208984375
STABILIZE,1.2131693363189697,29.922552292897297,0.03229573567708333,0.0324244499206543,0.0,0.0,0.0,-0.15235451979142176,-1.2087397513559202,-10.819251871731979,-0.001976068261693519,0.008050382700059837,-0.0023851094462788674,0.4,0.0034962953063255474,0.019756353884696008,0.6896741437638276,-0.01200467982154323,-0.1450695563107729,0.05732550052925944,1.2956737540662289,0.08236463755137552,-0.4369935020804405,0.16004947246983647,17.516811192035675,0.0,0.0,0.0,0.0,0.0,0.0,0.0,0.0,0.0,0.0,0.0,0.0,0.0,0.0,0.0,0.0,False,0,4.701344728469849,0.0349208984375
STABILIZE,1.2466652393341064,29.853334946653664,0.032331021626790364,0.032479047775268555,0.0,0.0,0.0,-0.15303623136752723,-1.208234424079045,-10.818933414161926,-0.0018310275810466585,0.010232552910369794,-0.0028719194477923055,0.4,0.00662508375505661,0.020583475384516357,0.6874206105872358,-0.014390547291118876,0.181527656968683,0.09710534359328449,1.1533640325069427,-0.14325210544340297,1.565232127904892,0.16104013193398714,18.792955577373505,0.0,0.0,0.0,0.0,0.0,0.0,0.0,0.0,0.0,0.0,0.0,0.0,0.0,0.0,0.0,0.0,False,0,4.732068061828613,0.034921142578125
STABILIZE,1.2812280654907227,28.93261961260416,0.032314332326253255,0.033600568771362305,0.0,0.0,0.0,-0.15258237063326516,-1.2077645284084892,-10.818859989628349,-0.006096429474788438,0.006512533674679145,-0.00335705827122601,0.4,0.00976450896993692,0.021441655082977632,0.6851227400022037,-0.016758260192705862,0.181527656968683,0.09710534359328449,1.1533640325069427,-0.14325210544340297,1.565232127904892,0.16104013193398714,18.792955577373505,0.0,0.0,0.0,0.0,0.0,0.0,0.0,0.0,0.0,0.0,0.0,0.0,0.0,0.0,0.0,0.0,False,0,4.758891820907593,0.034921142578125
STABILIZE,1.314594030380249,29.968947161587653,0.03236058553059896,0.032474517822265625,0.0,0.0,0.0,-0.15479972751428633,-1.1899390153352254,-10.801280790252028,-0.004217186033053938,0.012253694171877024,-0.003028145103413034,0.4,0.011573654241862914,0.020265641143353715,0.6842458975691474,-0.015063342477809527,0.1039547030813992,-0.023175681417342275,1.2382395565509796,0.09263966998188122,5.0472356379032135,0.1551471301354468,18.161596357822418,0.0,0.0,0.0,0.0,0.0,0.0,0.0,0.0,0.0,0.0,0.0,0.0,0.0,0.0,0.0,0.0,False,0,4.787501811981201,0.02993310546875
STABILIZE,1.348111867904663,29.836133676677715,0.03242209752400716,0.03254580497741699,0.0,0.0,0.0,-0.1548801156391662,-1.1984204027370886,-10.81791656974924,0.0003440884822410859,0.012017713653563666,-0.0028236697375661054,0.4,0.014174866617664155,0.017882204570178434,0.6844151987904871,-0.013994164666292589,0.16287819016724825,-0.09190355776809156,1.488934364169836,0.04403633733276139,0.45666731894016266,0.18251023720949888,20.18198072910309,0.0,0.0,0.0,0.0,0.0,0.0,0.0,0.0,0.0,0.0,0.0,0.0,0.0,0.0,0.0,0.0,False,0,4.816014051437378,0.0349208984375
STABILIZE,1.382420301437378,29.146947227974593,0.032355578740437825,0.03346514701843262,0.0,0.0,0.0,-0.15074048739360957,-1.203528530462612,-10.812676960882195,-0.03297647294912943,0.010595948642702673,-0.031560514331985645,0.4,0.015866198566636916,0.04196016436887946,0.6723721028804884,-0.15713768436180772,0.0655164709314704,1.2118225917220116,-0.5394770298153162,-8.186350550475463,-2.8390198945999146,34.32757258415222,-117.91845560073853,0.0,0.0,0.0,0.0,0.0,0.0,0.0,0.0,0.0,0.0,0.0,0.0,0.0,0.0,0.0,0.0,False,0,4.875095844268799,0.029931884765625
STABILIZE,1.4160234928131104,29.761189793659355,0.03246930440266927,0.03266191482543945,0.0,0.0,0.0,-0.14935033045410043,-1.1860260639927485,-10.833009580267676,-0.0038677105198963065,-0.021065264204176235,-0.02907330774607289,0.4,-0.004122923016421205,0.02095666096364074,0.7633993652079032,-0.14421814305853645,-1.1728299781680107,-1.1925367638468742,6.879697740077972,0.6795765016595887,-0.7363602519035339,-20.26062160730362,87.76177167892456,0.0,0.0,0.0,0.0,0.0,0.0,0.0,0.0,0.0,0.0,0.0,0.0,0.0,0.0,0.0,0.0,False,0,4.902689456939697,0.034921142578125
STABILIZE,1.4496498107910156,29.74071999376015,0.032375367482503255,0.03250932693481445,0.0,0.0,0.0,-0.1444089287134342,-1.1987317099528532,-10.868535101688204,-0.02781544057982923,-0.022353022660673027,-0.04212334043540765,0.4,-0.002762985239245905,0.03517791928624435,0.8020390135176956,-0.20876941766207086,0.09738232474774122,0.8892451412975788,3.508560359477997,-3.811089743176674,-3.9179548621177673,-15.667252242565155,107.16676712036133,0.0,0.0,0.0,0.0,0.0,0.0,0.0,0.0,0.0,0.0,0.0,0.0,0.0,0.0,0.0,0.0,False,0,4.932427883148193,0.0349208984375
STABILIZE,1.483173131942749,29.829980015219725,0.0321991761525472,0.03232693672180176,0.0,0.0,0.0,-0.15288884869184305,-1.1938381995776564,-10.786846892988498,0.04447215360766293,-0.004520511634350976,-0.033103416987979174,0.4,0.011013369463603352,0.006588348486598304,0.8431479487180981,-0.16312415195987165,0.8275686763226986,-1.6519470140337944,3.655876964330673,2.7110961016391717,58.389848470687866,-37.83717751502991,91.12937450408936,0.0,0.0,0.0,0.0,0.0,0.0,0.0,0.0,0.0,0.0,0.0,0.0,0.0,0.0,0.0,0.0,False,0,4.961193561553955,0.02993310546875
STABILIZE,1.5163993835449219,30.092149631946736,0.03211358388264974,0.03225088119506836,0.0,0.0,0.0,-0.15198862442315006,-1.1844080562113959,-10.808227946411577,-0.02593184135483441,0.07947483780102625,-0.03975220388774761,0.4,0.050542070840034974,0.03629168128397645,0.8568823793896496,-0.19571353419633786,2.3744309321045876,1.8207715824246407,2.3850923404097557,-2.117068573107639,64.4971251487732,66.38913154602051,99.06038045883179,0.0,0.0,0.0,0.0,0.0,0.0,0.0,0.0,0.0,0.0,0.0,0.0,0.0,0.0,0.0,0.0,False,0,4.989779710769653,0.0349208984375
STABILIZE,1.5499095916748047,29.842714536774174,0.032378228505452473,0.03250575065612793,0.0,0.0,0.0,-0.1465500862965274,-1.2042875352341296,-10.790182586624404,0.007356411604976774,0.05551368716316508,-0.04344842454722439,0.4,0.03546905305016432,0.026091971100745043,0.8694478706602399,-0.21348056266700602,-0.9124061092734337,-0.5712707061320543,1.984097994863987,-1.11445592677477,-16.70023500919342,-85.4856789112091,115.92912673950195,0.0,0.0,0.0,0.0,0.0,0.0,0.0,0.0,0.0,0.0,0.0,0.0,0.0,0.0,0.0,0.0,False,0,5.018484592437744,0.0349208984375
STABILIZE,1.5841403007507324,29.213941437049005,0.03230765660603841,0.033263206481933594,0.0,0.0,0.0,-0.1380375361565759,-1.2086572554773511,-10.800859879844426,0.0019669118740551937,0.03117661089394664,-0.03188036882252875,0.4,0.030927133155290224,0.003947576020085034,0.8615977028003295,-0.15510882151562155,0.6682354491204023,-0.6444563623517752,0.14379826607182622,4.360775683616484,-2.1148011088371277,36.04397177696228,55.950844287872314,0.0,0.0,0.0,0.0,0.0,0.0,0.0,0.0,0.0,0.0,0.0,0.0,0.0,0.0,0.0,0.0,False,0,5.076011419296265,0.02993212890625
STABILIZE,1.6176567077636719,29.892270193993472,0.03234985669453939,0.032471656799316406,0.0,0.0,0.0,-0.139016067476886,-1.2163675785549435,-10.827012674176405,0.018637499105970814,-0.04868226507181374,-0.041035444729901775,0.4,0.011420232478121028,0.018660290109943127,0.8727333266840376,-0.20021440019893116,-1.1288302019238472,0.9218970313668251,2.334033325314522,-2.956499248989029,40.95032811164856,-31.097736954689026,89.88218307495117,0.0,0.0,0.0,0.0,0.0,0.0,0.0,0.0,0.0,0.0,0.0,0.0,0.0,0.0,0.0,0.0,False,0,5.104597806930542,0.034922119140625
STABILIZE,1.6510095596313477,29.925541174959687,0.032259257634480794,0.03238391876220703,0.0,0.0,0.0,-0.14983041804755826,-1.1983604251384394,-10.814916409156313,0.03356719377104874,0.005132884770275875,-0.04363936166254076,0.4,0.0348276535238032,-0.00039286900440512265,0.8742790350185554,-0.21252402164019132,1.424308493733406,-1.0923173278570175,1.4461382292211056,-0.9040092607102145,-1.267263013869524,-3.270808979868889,53.14741134643555,0.0,0.0,0.0,0.0,0.0,0.0,0.0,0.0,0.0,0.0,0.0,0.0,0.0,0.0,0.0,0.0,False,0,5.134512901306152,0.0349208984375
STABILIZE,1.6844580173492432,29.896531569418507,0.03236869176228841,0.032501220703125,0.0,0.0,0.0,-0.14461145983058094,-1.2018664466167717,-10.833889820896962,-0.013306930481230267,-0.05128998520209468,-0.028647410592015445,0.4,-0.007716027352267146,0.012389255941999655,0.8909670202783256,-0.13710544742973557,-2.5063293054699898,0.8092763833701611,2.3787885904312134,4.283919406867739,-35.38889288902283,26.63847804069519,-16.090893745422363,0.0,0.0,0.0,0.0,0.0,0.0,0.0,0.0,0.0,0.0,0.0,0.0,0.0,0.0,0.0,0.0,False,0,5.16320538520813,0.029931884765625
STABILIZE,1.7178926467895508,29.909536271776258,0.03237655957539876,0.032499074935913086,0.0,0.0,0.0,-0.15134575954794907,-1.209006875785491,-10.817485414057883,0.01566305410657459,-0.0060555631303416,-0.03345841099195431,0.4,0.005955571991830642,0.00569909022807616,0.8784784782372189,-0.16062336520520737,0.8462476544082165,-0.3633682616055012,0.9752489626407623,-1.7015098321637196,33.34002494812012,-38.49966526031494,-47.460007667541504,0.0,0.0,0.0,0.0,0.0,0.0,0.0,0.0,0.0,0.0,0.0,0.0,0.0,0.0,0.0,0.0,False,0,5.191898584365845,0.034921142578125
STABILIZE,1.751366376876831,29.873321795118336,0.032381566365559895,0.032567501068115234,0.0,0.0,0.0,-0.15600546934620516,-1.1937086394268377,-10.85292043547191,0.0008088200555365223,-0.016425444872573282,-0.03848971327343479,0.4,0.019586947722023018,-0.0010633570701063366,0.8711418789255826,-0.18515957518980766,0.8462476544082165,-0.3633682616055012,0.9752489626407623,-1.7015098321637196,33.34002494812012,-38.49966526031494,-47.460007667541504,0.0,0.0,0.0,0.0,0.0,0.0,0.0,0.0,0.0,0.0,0.0,0.0,0.0,0.0,0.0,0.0,False,0,5.220564126968384,0.034921142578125
STABILIZE,1.7848851680755615,29.83698265682132,0.032424243291219075,0.032541751861572266,0.0,0.0,0.0,-0.1448423522410391,-1.1806481437950098,-10.89944000013522,0.07006372531428066,-0.0681687207186624,-0.015144159258379841,0.4,-0.05322387104259067,-0.03702803427777427,0.9136091183985314,-0.06820376834243672,-5.1626622676849365,-1.299998164176941,1.1275559663772583,4.483374164123628,-99.71855878829956,-58.78603458404541,27.8188556432724,0.0,0.0,0.0,0.0,0.0,0.0,0.0,0.0,0.0,0.0,0.0,0.0,0.0,0.0,0.0,0.0,False,0,5.27815318107605,0.06485302734375
STABILIZE,1.818302869796753,29.92105807574601,0.03232601483662923,0.03245139122009277,0.0,0.0,0.0,-0.15336090547694084,-1.1992442943057215,-10.817500781983515,0.10343483172324945,-0.23412907697157656,0.0029355183109677162,0.4,-0.15447650587024175,-0.06560009512741384,0.9378366200183584,0.022120605231193052,-5.1626622676849365,-1.299998164176941,1.1275559663772583,4.483374164123628,-99.71855878829956,-58.78603458404541,27.8188556432724,0.0,0.0,0.0,0.0,0.0,0.0,0.0,0.0,0.0,0.0,0.0,0.0,0.0,0.0,0.0,0.0,False,0,5.306815147399902,0.06485302734375
STABILIZE,1.8517327308654785,29.912735882696943,0.03236869176228841,0.03249931335449219,0.0,0.0,0.0,-0.14385325547185665,-1.1963316455115343,-10.851998359933958,0.08731658474080363,-0.14814510087642926,-0.011030708725522193,0.4,-0.08370048894666655,-0.06071122911245083,0.9535740418553115,-0.04755150471097102,4.336879402399063,0.5558412056416273,1.0284691117703915,-4.344047696565476,138.0650758743286,94.22165751457214,49.15924072265625,0.0,0.0,0.0,0.0,0.0,0.0,0.0,0.0,0.0,0.0,0.0,0.0,0.0,0.0,0.0,0.0,False,0,5.335516452789307,0.0349208984375
STABILIZE,1.8852429389953613,29.842926870917708,0.03239301045735677,0.03256487846374512,0.0,0.0,0.0,-0.151182928905353,-1.2112588104991855,-10.828483726168896,0.00888313625019355,-0.007067054049909802,-0.004085377158905433,0.4,-0.05184778100090018,-0.0388960403166996,0.9435276968607336,-0.01278205781981312,1.5059641562402248,1.055688876658678,1.3868019916117191,1.6048385363025326,-46.75934314727783,-11.643004417419434,22.499337792396545,0.0,0.0,0.0,0.0,0.0,0.0,0.0,0.0,0.0,0.0,0.0,0.0,0.0,0.0,0.0,0.0,False,0,5.364608287811279,0.02993310546875
STABILIZE,1.9186441898345947,29.93707531547993,0.032367976506551106,0.03249669075012207,0.0,0.0,0.0,-0.1362659291601774,-1.2237955159990381,-10.845468699087427,-0.060034672608189045,0.170022089547922,0.0025465078767958347,0.4,-0.020467478921838353,-0.01715330759420352,0.9294059609314677,0.02030941902106749,1.5059641562402248,1.055688876658678,1.3868019916117191,1.6048385363025326,-46.75934314727783,-11.643004417419434,22.499337792396545,0.0,0.0,0.0,0.0,0.0,0.0,0.0,0.0,0.0,0.0,0.0,0.0,0.0,0.0,0.0,0.0,False,0,5.39299464225769,0.02993310546875
STABILIZE,1.9521565437316895,29.841440595362602,0.0324278195699056,0.03256535530090332,0.0,0.0,0.0,-0.14814819047975172,-1.232611155783409,-10.811521805138817,-0.048855545360080486,0.009170982677880008,0.002893019249819056,0.4,-0.0676693317588205,-0.020420115695025005,0.9169120377781941,0.021968448199702825,-2.597261779010296,-0.2272406592965126,1.418391615152359,0.007662298309990711,30.137580633163452,31.878629326820374,24.51932430267334,0.0,0.0,0.0,0.0,0.0,0.0,0.0,0.0,0.0,0.0,0.0,0.0,0.0,0.0,0.0,0.0,False,0,5.4218361377716064,0.034921142578125
STABILIZE,1.9857239723205566,29.791629968463223,0.03237012227376302,0.03264498710632324,0.0,0.0,0.0,-0.14676072826331354,-1.2432013640915136,-10.768985948308915,0.030492225304974814,0.042842360520338685,0.0015360778014740658,0.4,-0.016385866710839837,-0.05542396960750669,0.9338243877864265,0.015132910835097386,2.6268091052770615,-1.9187435507774353,2.7095863595604897,-0.4947694052439091,150.33570528030396,-105.36744594573975,47.395071387290955,0.0,0.0,0.0,0.0,0.0,0.0,0.0,0.0,0.0,0.0,0.0,0.0,0.0,0.0,0.0,0.0,False,0,5.450299263000488,0.0349208984375
STABILIZE,2.0192246437072754,29.84972315925815,0.03239253362019857,0.032592058181762695,0.0,0.0,0.0,-0.14490449095423036,-1.24300488943117,-10.797740190941022,-0.012614087865678861,-0.0056395029660389956,-0.009684764547750116,0.4,-0.02174211365909533,-0.006702189563489058,0.9268677185457264,-0.040834440485415895,-0.7686938159167767,3.5400498658418655,1.5988612547516823,-3.5038708225172623,-52.29831337928772,51.5830397605896,-0.38436874747276306,0.0,0.0,0.0,0.0,0.0,0.0,0.0,0.0,0.0,0.0,0.0,0.0,0.0,0.0,0.0,0.0,False,0,5.509081602096558,0.02993212890625
STABILIZE,2.0529444217681885,29.655766334589522,0.03242066701253255,0.03280305862426758,0.0,0.0,0.0,-0.15403490640980358,-1.24992621893792,-10.684695437535435,-0.11224703073680972,0.037411183894028574,-0.022208470398855415,0.4,-0.034275245039627394,0.058858509844235664,0.9187879979777382,-0.10310558515066075,-0.7686938159167767,3.5400498658418655,1.5988612547516823,-3.5038708225172623,-52.29831337928772,51.5830397605896,-0.38436874747276306,0.0,0.0,0.0,0.0,0.0,0.0,0.0,0.0,0.0,0.0,0.0,0.0,0.0,0.0,0.0,0.0,False,0,5.53762674331665,0.02993212890625
STABILIZE,2.086484909057617,29.815348744633056,0.03240230878194173,0.0325472354888916,0.0,0.0,0.0,-0.1534948145372701,-1.2432275109094302,-10.70882393455215,-0.22545467815977996,-0.01019057121911442,-0.02798243923958833,0.4,-0.021811448697161312,0.105269647951658,0.9181107483528738,-0.13153493216630854,0.6060035433620214,2.5890225544571877,1.9750174134969711,-1.7242716510161986,-53.66212725639343,155.9576153755188,9.636592864990234,0.0,0.0,0.0,0.0,0.0,0.0,0.0,0.0,0.0,0.0,0.0,0.0,0.0,0.0,0.0,0.0,False,0,5.566184043884277,0.069843017578125
STABILIZE,2.11997127532959,29.86438819466695,0.03232243855794271,0.03245806694030762,0.0,0.0,0.0,-0.15600045342603341,-1.2412131387128054,-10.70083602831782,-0.2133469733225757,0.02549099512111898,-0.03256798951023902,0.4,-0.002230502290939268,0.1400356651708206,0.9406622894648334,-0.15394784348626608,0.8797893300652504,1.061778049916029,1.276186853647232,-0.6847252903550147,2.6195917278528214,-92.61420965194702,24.664784967899323,0.0,0.0,0.0,0.0,0.0,0.0,0.0,0.0,0.0,0.0,0.0,0.0,0.0,0.0,0.0,0.0,False,0,5.594872951507568,0.029931884765625
STABILIZE,2.1533493995666504,29.957174487536605,0.03225735028584798,0.03238987922668457,0.0,0.0,0.0,-0.15174369810838165,-1.1843235326204171,-10.764106631920587,-0.08289430850439591,0.04910556730299419,-0.025874893656280994,0.4,0.003155539925300524,0.10857473027716576,0.9218052381995425,-0.12008075269981008,0.23167701438069344,-1.4836839400231838,1.1686197482049465,1.5220738257566089,26.20987594127655,-16.034328937530518,20.330768823623657,0.0,0.0,0.0,0.0,0.0,0.0,0.0,0.0,0.0,0.0,0.0,0.0,0.0,0.0,0.0,0.0,False,0,5.623536586761475,0.034921142578125
STABILIZE,2.186748504638672,29.941135739015596,0.03238108952840169,0.03251004219055176,0.0,0.0,0.0,-0.1463802653822027,-1.2203244992402023,-10.753649612301299,0.003944694215042164,0.014486730425268185,-0.02276018367675734,0.4,-0.009339541285751898,0.0902347878399677,0.9260527334771228,-0.10415874577832986,-0.7255078759044409,-0.8985605090856552,2.105454169213772,0.6670199459224607,-83.597332239151,32.88924992084503,47.37158715724945,0.0,0.0,0.0,0.0,0.0,0.0,0.0,0.0,0.0,0.0,0.0,0.0,0.0,0.0,0.0,0.0,False,0,5.6522979736328125,0.0349208984375
STABILIZE,2.220521926879883,29.609499202281615,0.03243282636006673,0.03294634819030762,0.0,0.0,0.0,-0.15598553906765045,-1.2289718388945556,-10.757325107848411,-0.0732981380481313,-0.0018318916294288617,-0.038550198600224364,0.4,-0.0032678871120100927,0.17444427184236827,0.7601114146934426,-0.1824917610091769,8.129450678825378,3.9415527135133743,-7.307461649179459,-12.941960260103343,270.9846019744873,69.63843107223511,-110.67708730697632,0.0,0.0,0.0,0.0,0.0,0.0,0.0,0.0,0.0,0.0,0.0,0.0,0.0,0.0,0.0,0.0,False,0,5.712569952011108,0.034797607421875
STABILIZE,2.254086971282959,29.793111286324148,0.03249314626057943,0.032610416412353516,0.0,0.0,0.0,-0.15096551011024975,-1.2005531293054252,-10.774076146787868,-0.21618059960210015,0.2136990605806605,-0.08589680499142778,0.4,0.14769016682106467,0.24519640410134524,0.5921167543327066,-0.4178265700527386,8.129450678825378,3.9415527135133743,-7.307461649179459,-12.941960260103343,270.9846019744873,69.63843107223511,-110.67708730697632,0.0,0.0,0.0,0.0,0.0,0.0,0.0,0.0,0.0,0.0,0.0,0.0,0.0,0.0,0.0,0.0,False,0,5.742225885391235,0.034797607421875
STABILIZE,2.2874512672424316,29.969803717015242,0.03236082394917806,0.032479047775268555,0.0,0.0,0.0,-0.16332246957713997,-1.208732067393104,-10.738590752728712,-0.12652240339061283,0.04595040247338182,-0.04144302627863572,0.4,0.023038476210527736,0.16688501938475314,0.6159438627506738,-0.19490616828608137,-6.873466819524765,-4.154010489583015,3.0819322913885117,11.998560871562843,-254.9582004547119,69.76308226585388,-41.58589243888855,0.0,0.0,0.0,0.0,0.0,0.0,0.0,0.0,0.0,0.0,0.0,0.0,0.0,0.0,0.0,0.0,False,0,5.77100944519043,0.0349208984375
STABILIZE,2.3209481239318848,29.85545993579477,0.032451899846394856,0.032576799392700195,0.0,0.0,0.0,-0.15105678384911936,-1.2215017463766773,-10.829609853608302,-0.14638848052449918,-0.09176582291077,-0.06584176072082439,0.4,-0.06588414431966831,0.2536147672105432,0.5853260203068481,-0.31584323545030013,-4.903685674071312,4.912136122584343,0.029464776162058115,-6.870188038452815,-140.361225605011,229.30784225463867,-21.935942769050598,0.0,0.0,0.0,0.0,0.0,0.0,0.0,0.0,0.0,0.0,0.0,0.0,0.0,0.0,0.0,0.0,False,0,5.7995195388793945,0.02993310546875
STABILIZE,2.354377031326294,29.915082699151966,0.03239610989888509,0.032507896423339844,0.0,0.0,0.0,-0.15779946122039132,-1.2221368472477827,-10.742220144498928,-0.043027838288266694,-0.23168571358450327,-0.04198958759078113,0.4,-0.027545294146236632,0.24539091476340286,0.5956586671288017,-0.19592748503643295,2.073068916797638,-0.12608161196112633,2.2380799055099487,6.253097522415088,227.03845500946045,-176.9894242286682,-36.60556375980377,0.0,0.0,0.0,0.0,0.0,0.0,0.0,0.0,0.0,0.0,0.0,0.0,0.0,0.0,0.0,0.0,False,0,5.828793287277222,0.0349208984375
STABILIZE,2.3879799842834473,29.759922802934625,0.032395394643147786,0.0326533317565918,0.0,0.0,0.0,-0.15214507844382566,-1.2031809378668818,-10.815780428086319,-0.13571888815953825,-0.01526193150210806,-0.018712606551743276,0.4,0.00996491303899856,0.23985187017818968,0.6071656804900454,-0.07927639376872161,2.073068916797638,-0.12608161196112633,2.2380799055099487,6.253097522415088,227.03845500946045,-176.9894242286682,-36.60556375980377,0.0,0.0,0.0,0.0,0.0,0.0,0.0,0.0,0.0,0.0,0.0,0.0,0.0,0.0,0.0,0.0,False,0,5.856981992721558,0.0349208984375
STABILIZE,2.4215095043182373,29.825101329730497,0.03236964543660482,0.03249526023864746,0.0,0.0,0.0,-0.15376719501085082,-1.1998513273682063,-10.841341557281446,-0.03907427075796031,0.11001233285705521,-0.043776417892030656,0.4,0.016881669675620603,0.25082381107531904,0.5882831324515175,-0.20391331894239684,-2.0148301497101784,4.307632148265839,0.13475777814164758,-5.263508552725552,-134.0906262397766,78.85051965713501,28.431814908981323,0.0,0.0,0.0,0.0,0.0,0.0,0.0,0.0,0.0,0.0,0.0,0.0,0.0,0.0,0.0,0.0,False,0,5.914363145828247,0.029931884765625
STABILIZE,2.454833984375,30.005393997925385,0.032279284795125325,0.03239560127258301,0.0,0.0,0.0,-0.16056558111254068,-1.2151848886114733,-10.725109666854399,-0.1507437093074418,0.00915506076667071,-0.061151939789446594,0.4,-0.018434001733476393,0.31945709889264146,0.5638490971984187,-0.28982189203352404,-2.0148301497101784,4.307632148265839,0.13475777814164758,-5.263508552725552,-134.0906262397766,78.85051965713501,28.431814908981323,0.0,0.0,0.0,0.0,0.0,0.0,0.0,0.0,0.0,0.0,0.0,0.0,0.0,0.0,0.0,0.0,False,0,5.9429662227630615,0.029931884765625
STABILIZE,2.488299608230591,29.88183495650563,0.03238824208577474,0.03252434730529785,0.0,0.0,0.0,-0.14957460611880014,-1.2013431900933251,-10.823887862631125,-0.15272686601375818,0.059461022974876834,-0.07764433349543902,0.4,0.04878361980491282,0.3161329906160813,0.543605528272905,-0.37104238293249,3.8819707930088043,0.24031244684010744,0.31114218290895224,-5.121098254757141,32.76137113571167,111.20139360427856,-0.20787622779607773,0.0,0.0,0.0,0.0,0.0,0.0,0.0,0.0,0.0,0.0,0.0,0.0,0.0,0.0,0.0,0.0,False,0,5.971569538116455,0.069843017578125
STABILIZE,2.521780252456665,29.868854326895686,0.03239587148030599,0.03249859809875488,0.0,0.0,0.0,-0.15139245029422846,-1.194978094117108,-10.829774631922028,-0.22809657153656043,-0.009445566065326141,-0.09494235448312778,0.4,0.0073432786909779085,0.3768678410024097,0.5496201501790705,-0.45600836266834033,-2.5223907083272934,2.350655011832714,1.362620759755373,-3.2906239923364136,-157.4055552482605,-9.838070720434189,25.810319185256958,0.0,0.0,0.0,0.0,0.0,0.0,0.0,0.0,0.0,0.0,0.0,0.0,0.0,0.0,0.0,0.0,False,0,6.0005810260772705,0.02993212890625
STABILIZE,2.555570125579834,29.593621675015875,0.032328160603841145,0.032859086990356445,0.0,0.0,0.0,-0.16316686933011063,-1.2135076502834121,-10.71585732184997,-0.05136698610087686,-0.024376249976971284,-0.07117872583568688,0.4,-0.03344122030621535,0.3163040582847587,0.5339661968889853,-0.33605350509232135,-2.182652987539768,-2.648913487792015,0.5785883869975805,5.782269957924483,54.29002642631531,-67.09702610969543,-12.185391783714294,0.0,0.0,0.0,0.0,0.0,0.0,0.0,0.0,0.0,0.0,0.0,0.0,0.0,0.0,0.0,0.0,False,0,6.029653072357178,0.0349208984375
STABILIZE,2.589109182357788,29.817256357212425,0.03240493138631185,0.03255605697631836,0.0,0.0,0.0,-0.15310239882511173,-1.2021333576029312,-10.808618974741561,-0.09499498265600705,-0.015027343017009677,-0.09301356473897178,0.4,0.032118815239370824,0.34315371040007075,0.536165838219932,-0.44374143224787,3.604934737086296,1.9222589209675789,1.43966693431139,-6.364675492696416,111.46658658981323,94.17279362678528,15.200132131576538,0.0,0.0,0.0,0.0,0.0,0.0,0.0,0.0,0.0,0.0,0.0,0.0,0.0,0.0,0.0,0.0,False,0,6.058354616165161,0.0349208984375
STABILIZE,2.622431755065918,30.008184758034513,0.03233030637105306,0.03244638442993164,0.0,0.0,0.0,-0.1536337395177711,-1.193854527998641,-10.795872134203025,0.05094539947720143,-0.08624024474414203,-0.07806265906218829,0.4,-0.05233683841752961,0.2970153230284361,0.5257726235343798,-0.3677579063896915,-3.8481254130601883,-1.0928206145763397,1.2446415610611439,2.3895233249955665,-44.512611627578735,23.302750289440155,10.365001112222672,0.0,0.0,0.0,0.0,0.0,0.0,0.0,0.0,0.0,0.0,0.0,0.0,0.0,0.0,0.0,0.0,False,0,6.115961074829102,0.0349208984375
STABILIZE,2.6621413230895996,25.182696406592417,0.03245595296223958,0.03880786895751953,0.0,0.0,0.0,-0.16218148114020406,-1.2117345758635591,-10.750071446949857,0.009333566067167936,-0.12202402164669741,-0.06769137964734531,0.4,-0.12228315227208149,0.26838685114218463,0.5263338597187294,-0.3146531530225442,-3.8481254130601883,-1.0928206145763397,1.2446415610611439,2.3895233249955665,-44.512611627578735,23.302750289440155,10.365001112222672,0.0,0.0,0.0,0.0,0.0,0.0,0.0,0.0,0.0,0.0,0.0,0.0,0.0,0.0,0.0,0.0,False,0,6.144999980926514,0.0349208984375
STABILIZE,2.69570255279541,29.798826321099224,0.032422574361165364,0.03255796432495117,0.0,0.0,0.0,-0.15843096023392658,-1.2046656502377133,-10.785880421220941,-0.0033143420172777717,-0.13195210711477431,-0.07851306592262661,0.4,-0.07117988221827296,0.3005996488218715,0.5269810455846562,-0.36753105797691166,2.8777772560715675,2.3021239787340164,1.2229126878082752,-3.5274896166671668,119.85112428665161,43.4143990278244,18.408966064453125,0.0,0.0,0.0,0.0,0.0,0.0,0.0,0.0,0.0,0.0,0.0,0.0,0.0,0.0,0.0,0.0,False,0,6.173381090164185,0.0349208984375
STABILIZE,2.729182720184326,29.86779084092317,0.032300504048665364,0.032436370849609375,0.0,0.0,0.0,-0.1599748231101875,-1.1966930052073101,-10.753998805722615,0.0011142658627458922,-0.02319788482442145,-0.06906926330638512,0.4,-0.07167341523260908,0.2572103206531,0.5226147918723991,-0.3192439263551009,-0.032582791754975915,-1.916351169347763,0.92045608907938,2.116278405598033,-104.5870304107666,-19.912387430667877,11.24219298362732,0.0,0.0,0.0,0.0,0.0,0.0,0.0,0.0,0.0,0.0,0.0,0.0,0.0,0.0,0.0,0.0,False,0,6.2018232345581055,0.034922119140625
STABILIZE,2.7626233100891113,29.90207317420937,0.03228643735249837,0.03257393836975098,0.0,0.0,0.0,-0.16007938370142685,-1.2077976121372815,-10.771445670183766,-0.05182520326419015,-0.002396008681037831,-0.06776954735476175,0.4,-0.10993161211285662,0.27210379012490876,0.5151453357555769,-0.31169856419030306,-2.1577801555395126,1.3497396372258663,0.7274772971868515,-0.1757814816751837,-9.449327737092972,88.22750449180603,15.054047107696533,0.0,0.0,0.0,0.0,0.0,0.0,0.0,0.0,0.0,0.0,0.0,0.0,0.0,0.0,0.0,0.0,False,0,6.23047947883606,0.02996337890625
STABILIZE,2.796077013015747,29.892057157110788,0.03246286710103353,0.032586097717285156,0.0,0.0,0.0,-0.15948443687212172,-1.1966902304429599,-10.747349616565607,0.05293038150910339,-0.025386098183231967,-0.06366523767789974,0.4,-0.08010429194753912,0.22897344046299095,0.5109910711979819,-0.29020631352619064,0.9308789856731892,-1.3296830467879772,1.0480609722435474,0.15742061250508038,-36.65924072265625,39.1284704208374,11.63957417011261,0.0,0.0,0.0,0.0,0.0,0.0,0.0,0.0,0.0,0.0,0.0,0.0,0.0,0.0,0.0,0.0,False,0,6.287897825241089,0.034921142578125
STABILIZE,2.829768180847168,29.68283983468267,0.0324588139851888,0.0325932502746582,0.0,0.0,0.0,-0.15642059010126855,-1.1945188706171304,-10.774108590186424,-0.043440554267107405,-0.07152219892221141,-0.06429189046134498,0.4,-0.11241472509971734,0.2562599352612586,0.5160365806306153,-0.29235928291846575,-1.8976129591464996,2.0634600892663,1.3727890327572823,-0.7136402025151761,-58.57503414154053,45.18630504608154,17.263460159301758,0.0,0.0,0.0,0.0,0.0,0.0,0.0,0.0,0.0,0.0,0.0,0.0,0.0,0.0,0.0,0.0,False,0,6.316541910171509,0.029932861328125
STABILIZE,2.8630740642547607,30.023865596747292,0.03220322926839193,0.03233838081359863,0.0,0.0,0.0,-0.15768454862369113,-1.201563143528941,-10.77795910933102,-0.062336955351935244,-0.06686969705359645,-0.06467656076028695,0.4,-0.14292639998670204,0.2822123903187242,0.5192014173922634,-0.2933034606628738,-1.8976129591464996,2.0634600892663,1.3727890327572823,-0.7136402025151761,-58.57503414154053,45.18630504608154,17.263460159301758,0.0,0.0,0.0,0.0,0.0,0.0,0.0,0.0,0.0,0.0,0.0,0.0,0.0,0.0,0.0,0.0,False,0,6.3455116748809814,0.029932861328125
STABILIZE,2.8964500427246094,29.961454389599258,0.03234413464864095,0.03245806694030762,0.0,0.0,0.0,-0.15957066801039313,-1.1984683207829845,-10.745461923033746,-0.0636513733742748,-0.10532881294636592,-0.05622077026734573,0.4,-0.14276068301736294,0.24490807563541672,0.5185542750075305,-0.25018838243971714,-0.14862277312204242,-1.6099464148283005,1.136903464794159,1.87249422652488,61.89085841178894,-85.90724468231201,6.565376371145248,0.0,0.0,0.0,0.0,0.0,0.0,0.0,0.0,0.0,0.0,0.0,0.0,0.0,0.0,0.0,0.0,False,0,6.373983860015869,0.0349208984375
STABILIZE,2.9299404621124268,29.85928567869067,0.032429011662801106,0.03254866600036621,0.0,0.0,0.0,-0.15445587017825851,-1.1943639107003359,-10.786392685408693,-0.020851762604604702,-0.01657036440176166,-0.059944369541962035,0.4,-0.11055453945385474,0.24000511094148855,0.5186188204763632,-0.26791020301572926,1.810641586780548,0.20085389260202646,1.0288271121680737,-1.6141794603227597,22.316597402095795,62.906455993652344,11.692623794078827,0.0,0.0,0.0,0.0,0.0,0.0,0.0,0.0,0.0,0.0,0.0,0.0,0.0,0.0,0.0,0.0,False,0,6.402767181396484,0.034921142578125
STABILIZE,2.9635860919952393,29.72091012804433,0.03237727483113607,0.0326533317565918,0.0,0.0,0.0,-0.15647200328302874,-1.1969729362415749,-10.7732829910705,-0.008594617933647053,-0.011950475434017015,-0.057332043653013455,0.4,-0.13450051174961397,0.2546988976389226,0.524775715988815,-0.25399387406932544,-1.505003310739994,1.343993004411459,1.3787416741251945,0.25333667887509176,-85.86271405220032,-3.7950851023197174,17.935526371002197,0.0,0.0,0.0,0.0,0.0,0.0,0.0,0.0,0.0,0.0,0.0,0.0,0.0,0.0,0.0,0.0,False,0,6.433193683624268,0.02993212890625
STABILIZE,2.996931552886963,29.988231508955064,0.03233078320821126,0.03245258331298828,0.0,0.0,0.0,-0.16003962986602327,-1.1998596516612574,-10.749274876137905,-0.033313834566822624,-0.07331458087478225,-0.04711301399102922,0.4,-0.176178301520227,0.23843183054001818,0.5269788850490812,-0.20222388020009982,-1.3608619570732117,-1.2272756546735764,1.0448111221194267,1.6347130366802278,15.479710698127747,-36.977601051330566,8.067160844802856,0.0,0.0,0.0,0.0,0.0,0.0,0.0,0.0,0.0,0.0,0.0,0.0,0.0,0.0,0.0,0.0,False,0,6.4905383586883545,0.034921875
STABILIZE,3.030484437942505,29.804755340164576,0.032428773244222005,0.03255486488342285,0.0,0.0,0.0,-0.15480327601100358,-1.1948444785414696,-10.78920843089403,-0.05115598801740608,-0.054804366851547034,-0.05453788093287354,0.4,-0.13510865979962192,0.24627516611103772,0.5280860492864617,-0.2385497851094594,2.340310998260975,0.9399529546499252,1.0423747822642326,-2.7178891516555725,65.29573202133179,53.13476324081421,8.615850657224655,0.0,0.0,0.0,0.0,0.0,0.0,0.0,0.0,0.0,0.0,0.0,0.0,0.0,0.0,0.0,0.0,False,0,6.519272089004517,0.034921142578125
STABILIZE,3.0637874603271484,30.026874753910583,0.032317193349202473,0.032427072525024414,0.0,0.0,0.0,-0.16111842622891503,-1.1989245560752002,-10.72909081336687,-0.04356722522327303,0.03761114730297184,-0.06213832444216657,0.4,-0.0931271998744855,0.2542553177784578,0.5291772192096306,-0.2756312284446722,2.340310998260975,0.9399529546499252,1.0423747822642326,-2.7178891516555725,65.29573202133179,53.13476324081421,8.615850657224655,0.0,0.0,0.0,0.0,0.0,0.0,0.0,0.0,0.0,0.0,0.0,0.0,0.0,0.0,0.0,0.0,False,0,6.54793643951416,0.034921142578125
STABILIZE,3.09729266166687,29.84653701371247,0.03245094617207845,0.03258800506591797,0.0,0.0,0.0,-0.15906197899978586,-1.2004933651501875,-10.760873391122233,-0.04388538983862184,0.03990591179848365,-0.0580842600266149,0.4,-0.12848323113379856,0.24002855843713697,0.5339341454276836,-0.2545091997242267,-2.281840890645981,-0.3815394127741456,1.260631252080202,0.7632236939906192,-26.460546255111694,16.00491553544998,15.803924202919006,0.0,0.0,0.0,0.0,0.0,0.0,0.0,0.0,0.0,0.0,0.0,0.0,0.0,0.0,0.0,0.0,False,0,6.576536178588867,0.06485400390625
STABILIZE,3.1307666301727295,29.873109028232815,0.03240183194478353,0.032525062561035156,0.0,0.0,0.0,-0.15720053900754583,-1.1973775182281923,-10.780031217970473,-0.03788472320065978,0.026644245612815573,-0.0630430810181582,0.4,-0.10123697747143806,0.24280788077668525,0.555411855503701,-0.27837232492619896,1.625770702958107,0.28798365965485573,1.3139499351382256,-1.4609375495477652,32.01620876789093,-32.6822966337204,19.30752992630005,0.0,0.0,0.0,0.0,0.0,0.0,0.0,0.0,0.0,0.0,0.0,0.0,0.0,0.0,0.0,0.0,False,0,6.608447551727295,0.03990966796875
STABILIZE,3.164125919342041,29.97708641551777,0.032378228505452473,0.03250312805175781,0.0,0.0,0.0,-0.15955722107546466,-1.1962791384322897,-10.735463379862493,0.012231041466299547,-0.01244726776249357,-0.054859119687930544,0.4,-0.09058651452965749,0.21553954041679912,0.550851751670933,-0.23666116580028795,0.36937904078513384,-1.022434514015913,0.684231473132968,1.7971610819610475,-22.789521515369415,-46.964845061302185,1.0477741248905659,0.0,0.0,0.0,0.0,0.0,0.0,0.0,0.0,0.0,0.0,0.0,0.0,0.0,0.0,0.0,0.0,False,0,6.637140512466431,0.024943115234375
STABILIZE,3.1977078914642334,29.777459089134215,0.032463820775349934,0.03258252143859863,0.0,0.0,0.0,-0.15856220125161133,-1.1995765189758192,-10.762950622403563,-0.006562613629753517,-0.010604871494046236,-0.05494637615291363,0.4,-0.12066743551011591,0.21577883818888946,0.5475268523711798,-0.23630535859198964,-1.923578418791294,0.5856841336935759,1.1912628076970577,-0.6033473216540151,-4.113182798027992,39.54071402549744,15.572501718997955,0.0,0.0,0.0,0.0,0.0,0.0,0.0,0.0,0.0,0.0,0.0,0.0,0.0,0.0,0.0,0.0,False,0,6.665751934051514,0.034921142578125
STABILIZE,3.231055498123169,29.988445918892637,0.03232005437215169,0.03243589401245117,0.0,0.0,0.0,-0.15811661144954733,-1.1956172504130331,-10.741269040657004,0.04386496286239644,-0.013514988378144587,-0.04896584856070435,0.4,-0.09848532210491442,0.18388793828440164,0.5522963856957019,-0.20571659711192358,0.6369185633957386,-0.8246131241321564,1.143824215978384,1.061685031473605,-18.134750425815582,25.76650083065033,14.244133234024048,0.0,0.0,0.0,0.0,0.0,0.0,0.0,0.0,0.0,0.0,0.0,0.0,0.0,0.0,0.0,0.0,False,0,6.72344970703125,0.02993310546875
STABILIZE,3.2644882202148438,29.909962847016708,0.03239420255025228,0.032521724700927734,0.0,0.0,0.0,-0.1574981324841174,-1.1945481123645145,-10.746425833480362,-0.0024479552500614376,-0.0527076380285277,-0.05065390716542349,0.4,-0.11591373158064701,0.19125849726045419,0.5549263334568545,-0.2134429411496677,-1.2216859497129917,0.9091836400330067,1.3466162607073784,-0.973982200879468,-38.90059292316437,18.01469922065735,18.75544637441635,0.0,0.0,0.0,0.0,0.0,0.0,0.0,0.0,0.0,0.0,0.0,0.0,0.0,0.0,0.0,0.0,False,0,6.752143621444702,0.0349208984375
STABILIZE,3.2980332374572754,29.811110479331326,0.03242448170979818,0.03253769874572754,0.0,0.0,0.0,-0.15756739487116955,-1.1964348454010247,-10.759098395711675,-0.013770743790654284,-0.040117685594643286,-0.052489462977215566,0.4,-0.13386998450153126,0.19920276112021754,0.5606097566225164,-0.221878850045417,-1.2216859497129917,0.9091836400330067,1.3466162607073784,-0.973982200879468,-38.90059292316437,18.01469922065735,18.75544637441635,0.0,0.0,0.0,0.0,0.0,0.0,0.0,0.0,0.0,0.0,0.0,0.0,0.0,0.0,0.0,0.0,False,0,6.780944585800171,0.0349208984375
STABILIZE,3.331444501876831,29.930452777678667,0.03231552441914876,0.03246188163757324,0.0,0.0,0.0,-0.15832082343356013,-1.1969058082886384,-10.74171641804764,-0.02803733119479416,-0.07958465205583931,-0.04825073982451167,0.4,-0.14115625156120598,0.18055519596404726,0.5605020595995073,-0.2000158116650793,-0.614065770059824,-0.610897783190012,1.0192754678428173,0.7556232942699818,39.00777995586395,-42.6986038684845,9.090423583984375,0.0,0.0,0.0,0.0,0.0,0.0,0.0,0.0,0.0,0.0,0.0,0.0,0.0,0.0,0.0,0.0,False,0,6.809674024581909,0.0349208984375
STABILIZE,3.3648951053619385,29.894400729843767,0.03236249287923177,0.032488107681274414,0.0,0.0,0.0,-0.15620020977882984,-1.1950881241957687,-10.753740966081446,-0.010617825733511424,-0.029270582951457732,-0.04726710127997301,0.4,-0.12218194231078608,0.17529148034597258,0.5592454309787553,-0.1944473846894142,0.8694123476743698,0.14364210655912757,0.9577990509569645,-0.16523637662798482,9.354133903980255,37.66442835330963,17.520885169506073,0.0,0.0,0.0,0.0,0.0,0.0,0.0,0.0,0.0,0.0,0.0,0.0,0.0,0.0,0.0,0.0,False,0,6.8383283615112305,0.02993310546875
STABILIZE,3.398300886154175,29.934938692778736,0.032360108693440755,0.03247976303100586,0.0,0.0,0.0,-0.15748783383950948,-1.1971844586624336,-10.738110931939518,-0.006390292438467384,-0.023353608086380984,-0.04692375539889019,0.4,-0.1340022561705668,0.17943041776191535,0.5623601723525211,-0.19208811353174235,-0.9343350306153297,0.6898302584886551,1.3731632381677628,-0.3596503342144856,-49.91550147533417,-9.389886260032654,23.092512786388397,0.0,0.0,0.0,0.0,0.0,0.0,0.0,0.0,0.0,0.0,0.0,0.0,0.0,0.0,0.0,0.0,False,0,6.868157625198364,0.0349208984375
STABILIZE,3.4317493438720703,29.8978102189781,0.03239491780598958,0.032535552978515625,0.0,0.0,0.0,-0.1573424521958087,-1.1976147605801446,-10.746993592955121,-0.0069115250038163665,0.007888318910018021,-0.04439566910241261,0.4,-0.119114949909928,0.16337115425940246,0.5662808731998363,-0.17884964094070013,1.2269929982721806,0.672485213726759,1.1229909025132656,-0.8493908525994142,32.6649934053421,27.932852506637573,18.48749816417694,0.0,0.0,0.0,0.0,0.0,0.0,0.0,0.0,0.0,0.0,0.0,0.0,0.0,0.0,0.0,0.0,False,0,6.924237251281738,0.0349208984375
STABILIZE,3.4653899669647217,29.727229557809387,0.03240993817647298,0.03254413604736328,0.0,0.0,0.0,-0.155833167152221,-1.1948303912763065,-10.75589930585917,-0.02068458039222416,0.02045295585551197,-0.045964219381991786,0.4,-0.09377765454130348,0.16812968870366315,0.5679804528973258,-0.18606976922779261,1.2269929982721806,0.672485213726759,1.1229909025132656,-0.8493908525994142,32.6649934053421,27.932852506637573,18.48749816417694,0.0,0.0,0.0,0.0,0.0,0.0,0.0,0.0,0.0,0.0,0.0,0.0,0.0,0.0,0.0,0.0,False,0,6.953018665313721,0.0349208984375
STABILIZE,3.5024800300598145,26.958973139393628,0.03221753438313802,0.036183834075927734,0.0,0.0,0.0,-0.15818720785792176,-1.195959186758357,-10.735617912892465,-0.0022623744116346584,0.019043347398486017,-0.04264078829239514,0.4,-0.10627217988417795,0.1583010538563931,0.5733629519350245,-0.16882317518557494,-0.9514848701655865,-0.17670048400759697,1.3389806263148785,0.5682128819243224,-41.789597272872925,-25.174060463905334,18.912595510482788,0.0,0.0,0.0,0.0,0.0,0.0,0.0,0.0,0.0,0.0,0.0,0.0,0.0,0.0,0.0,0.0,False,0,6.981854438781738,0.02993310546875
STABILIZE,3.5361247062683105,29.723016306080943,0.03242305119832357,0.032745361328125,0.0,0.0,0.0,-0.1570772487569418,-1.1973643914583811,-10.753287612275287,-0.009937313061990286,-0.031542488471123745,-0.04204197011586231,0.4,-0.12772479324158473,0.14918210335013038,0.571100584361698,-0.16527343697988867,-1.4949125237762928,-0.12757546501234174,1.0737699456512928,-0.23105729549359777,-9.9546417593956,12.03392669558525,13.732942938804626,0.0,0.0,0.0,0.0,0.0,0.0,0.0,0.0,0.0,0.0,0.0,0.0,0.0,0.0,0.0,0.0,False,0,7.01074481010437,0.0349208984375
STABILIZE,3.5695927143096924,29.879280498664293,0.03242019017537435,0.032530784606933594,0.0,0.0,0.0,-0.15826442101205462,-1.1927224241437113,-10.733710582566738,0.0047905275518655924,-0.036564348331189045,-0.04179766047002291,0.4,-0.10870673139239477,0.14331013767790626,0.5712801014423423,-0.16350444972662453,0.893375463783741,0.032978938543237746,1.0309264995157719,-0.304140666458278,15.616840124130249,-21.291717886924744,8.476722985506058,0.0,0.0,0.0,0.0,0.0,0.0,0.0,0.0,0.0,0.0,0.0,0.0,0.0,0.0,0.0,0.0,False,0,7.039508819580078,0.0349208984375
STABILIZE,3.603039503097534,29.898449584773854,0.032383235295613606,0.032518625259399414,0.0,0.0,0.0,-0.15814057047249527,-1.1929756747515308,-10.737701120589318,0.013627230716426608,-0.026923250985094193,-0.03795270771598865,0.4,-0.11201130758858621,0.12950560565580652,0.5719450332270591,-0.14379896117020974,-0.41352096013724804,-0.43591815046966076,1.065882109105587,0.7473223199117419,-43.751803040504456,4.215230792760849,17.51933842897415,0.0,0.0,0.0,0.0,0.0,0.0,0.0,0.0,0.0,0.0,0.0,0.0,0.0,0.0,0.0,0.0,False,0,7.068289279937744,0.034921142578125
