E-kp,E-ki,E-kd,E-I-Tot,E-P,E-I,E-D,E-PID,N-kp,N-ki,N-kd,N-I-Tot,N-P,N-I,N-D,N-PID,D-kp,D-ki,D-kd,D-I-Tot,D-P,D-I,D-D,D-PID,Y-kp,Y-ki,Y-kd,Y-I-Tot,Y-P,Y-I,Y-D,Y-PID,errorN,desiredN,actualN,errorE,desiredE,actualE,errorD,desiredD,actualD,errorY,desiredY,actualY,roll,pitch,yaw-rate,thrust,dt,Time,Mode
0.2,0.015,0.1,-0.001036830622926234,-0.006261070192653054,-1.5552459343893508e-05,-0.09452122432179921,-0.10079784697379617,0.2,0.015,0.1,-4.486528880514156e-05,-0.000270926336675752,-6.729793320771233e-07,-0.004090081768075634,-0.004361681084083463,0.002,8e-05,0,-0.02159730482732235,-0.0013041883457719822,-1.7277843861857881e-06,-0.0,-0.001305916130158168,0.2,0.02,0.0,0.0002569863299673067,0.0015518537115893811,5.139726599346134e-06,0.0,0.0015569934381887273,-0.00135463168337876,0.0,0.00135463168337876,-0.03130535096326527,0.0,0.03130535096326527,-0.652094172885991,0.0,0.652094172885991,0.007759268557946905,0,-0.007759268557946905,-0.10079725536976998,0.004375331570687665,-0.0015569934381887273,0.4,0.033119916915893555,0.03342032432556152,STABILIZE
0.2,0.015,0.1,-0.0019047559265221341,-0.00518663366802043,-2.857133889783201e-05,-0.039234707411778126,-0.04444991241869639,0.2,0.015,0.1,2.9011229027230405e-05,0.00044147858470997345,4.3516843540845605e-07,0.003276533644343212,0.003718447397488594,0.002,8e-05,0,-0.04343084463787994,-0.001304750215304557,-3.4744675710303955e-06,-0.0,-0.0013082246828755874,0.2,0.02,0.0,0.00033567428176582736,0.0004702312265524136,6.713485635316547e-06,0.0,0.00047694471218773016,0.002207392923549867,0.0,-0.002207392923549867,-0.025933168340102147,0.0,0.025933168340102147,-0.6523751076522786,0.0,0.6523751076522786,0.002351156132762068,0,-0.002351156132762068,-0.04445006496930651,-0.0037166233737224125,-0.00047694471218773016,0.4,0.033467769622802734,0.06681299209594727,STABILIZE
0.2,0.015,0.1,-0.0028989318735639937,-0.00581459150428293,-4.34839781034599e-05,-0.02921706189759926,-0.03507513737998565,0.2,0.015,0.1,-0.0001015001151457783,-0.000763315744359856,-1.5225017271866745e-06,-0.003687665592296564,-0.0044525038383836065,0.002,8e-05,0,-0.06575710035164137,-0.001305785532047472,-5.26056802813131e-06,-0.0,-0.0013110461000756031,0.2,0.02,0.0,0.000510516363807939,0.00102259090843846,1.021032727615878e-05,0.0,0.0010328012357146187,-0.00381657872179928,0.0,0.00381657872179928,-0.029072957521414648,0.0,0.029072957521414648,-0.6528927660237359,0.0,0.6528927660237359,0.005112954542192299,0,-0.005112954542192299,-0.035074739908274095,0.004455633851946572,-0.0010328012357146187,0.4,0.034195899963378906,0.10102057456970215,STABILIZE
0.2,0.015,0.1,-0.0038946415974993693,-0.0059264068539453835,-5.841962396249054e-05,-0.022328745493675528,-0.028313571971583403,0.2,0.015,0.1,-0.00010832512310984558,-4.062205380160099e-05,-1.6248768466476835e-06,-7.735471408983793e-05,-0.00011960164473808659,0.002,8e-05,0,-0.08773440838866634,-0.0013080766999755355,-7.018752671093307e-06,-0.0,-0.0013150954526466288,0.2,0.02,0.0,0.0007791260448041915,0.0015987493304781585,1.558252089608383e-05,0.0,0.0016143318513742423,-0.00020311026900800494,0.0,0.00020311026900800494,-0.029632034269726916,0.0,0.029632034269726916,-0.6540383499877677,0.0,0.6540383499877677,0.007993746652390792,0,-0.007993746652390792,-0.028313555009534502,0.00012355187380662315,-0.0016143318513742423,0.4,0.03360247611999512,0.13468527793884277,STABILIZE
0.2,0.015,0.1,-0.0049002496757075565,-0.006016054863978368,-7.350374513561334e-05,-0.018131156207143753,-0.024220714816257732,0.2,0.015,0.1,7.225492802830511e-05,0.001080320970494655,1.0838239204245766e-06,0.003291139578329742,0.004372544372744822,0.002,8e-05,0,-0.10932181276388978,-0.0012914674405125866,-8.745745021111183e-06,-0.0,-0.0013002131855336977,0.2,0.02,0.0,0.000858927126927219,0.00047741033376780956,1.7178542538544378e-05,0.0,0.0004945888763063539,0.005401604852473274,0.0,-0.005401604852473274,-0.03008027431989184,0.0,0.03008027431989184,-0.6457337202562933,0.0,0.6457337202562933,0.002387051668839048,0,-0.002387051668839048,-0.024220896963792215,-0.0043715352876844546,-0.0004945888763063539,0.4,0.03343081474304199,0.16805291175842285,STABILIZE
0.2,0.015,0.1,-0.006077138926119598,-0.0066770342838827065,-9.115708389179396e-05,-0.0011019315479973545,-0.007870122915771854,0.2,0.015,0.1,0.00024595396680074876,0.000985474577624888,3.689309502011231e-06,0.0038401023159515546,0.004829266203078454,0.002,8e-05,0,-0.1320400121878345,-0.0012889079951121575,-1.0563200975026762e-05,0.0,-0.0012994711960871842,0.2,0.02,0.0,0.0010428135321536261,0.0010432721954141374,2.0856270643072523e-05,-0.0,0.0010641284660572099,0.0049273728881244405,0.0,-0.0049273728881244405,-0.03338517141941353,0.0,0.03338517141941353,-0.6444539975560788,0.0,0.6444539975560788,0.005216360977070686,0,-0.005216360977070686,-0.007870562552463128,-0.004828549666029972,-0.0010641284660572099,0.4,0.03525185585021973,0.20331859588623047,STABILIZE
0.2,0.015,0.1,-0.007133023665415487,-0.006305099068291152,-0.0001069953549812323,-0.0032018084230897707,-0.009613902846362155,0.2,0.015,0.1,0.0003235097280723125,0.00046311566019983604,4.852645921084687e-06,0.00015186822157553433,0.000619836527696455,0.002,8e-05,0,-0.1533876300719918,-0.0012747494174543347,-1.2271010405759345e-05,0.0,-0.001287020427860094,0.2,0.02,0.0,0.0010789091458325215,0.00021554096929932468,2.157818291665043e-05,-0.0,0.0002371191522159751,0.00231557830099918,0.0,-0.00231557830099918,-0.03152549534145576,0.0,0.03152549534145576,-0.6373747087271674,0.0,0.6373747087271674,0.0010777048464966233,0,-0.0010777048464966233,-0.009613914503475356,-0.0006196556949010714,-0.0002371191522159751,0.4,0.0334930419921875,0.23682093620300293,STABILIZE
0.2,0.015,0.1,-0.008107372145491853,-0.005828212875702512,-0.00012161058218237778,6.082921336116709e-05,-0.005888994244523723,0.2,0.015,0.1,0.00048749474998016683,0.0009809012233803736,7.312421249702502e-06,0.005223687384415429,0.006211901029045504,0.002,8e-05,0,-0.17475764423735207,-0.0012782797352209772,-1.3980611538988167e-05,0.0,-0.0012922603467599653,0.2,0.02,0.0,0.001007260957030312,-0.000428574483397432,2.0145219140606243e-05,-0.0,-0.00040842926425682576,0.004904506116901868,0.0,-0.004904506116901868,-0.02914106437851256,0.0,0.02914106437851256,-0.6391398676104886,0.0,0.6391398676104886,-0.0021428724169871597,0,0.0021428724169871597,-0.005888761914193891,-0.006212121274140553,0.00040842926425682576,0.4,0.03343558311462402,0.2702598571777344,STABILIZE
0.2,0.015,0.1,-0.00928942375257732,-0.007073495575473321,-0.00013934135628865978,-0.003332349388741584,-0.010545186320503564,0.2,0.015,0.1,0.0007823787133162748,0.001764610273724859,1.1735680699744122e-05,0.005417862017809522,0.007194207972234125,0.002,8e-05,0,-0.19607692726197418,-0.0012757637081409108,-1.5686154180957937e-05,0.0,-0.0012914498623218687,0.2,0.02,0.0,0.0009783483476610648,-0.00017301547007158007,1.9566966953221298e-05,-0.0,-0.00015344850311835878,0.008823051368624294,0.0,-0.008823051368624294,-0.035367477877366604,0.0,0.035367477877366604,-0.6378818540704554,0.0,0.6378818540704554,-0.0008650773503579004,0,0.0008650773503579004,-0.010545077697926295,-0.00719436718736193,0.00015344850311835878,0.4,0.033421993255615234,0.30367350578308105,STABILIZE
0.2,0.015,0.1,-0.010419083969497155,-0.006745833261863569,-0.00015628625954245732,-0.002085862066769581,-0.008987981588175608,0.2,0.015,0.1,0.0007851919193966923,1.67992276487363e-05,1.1777878790950385e-05,-0.0031537402077575685,-0.003125163101317882,0.002,8e-05,0,-0.21720513869069938,-0.0012616837283001769,-1.737641109525595e-05,0.0,-0.0012790601393954327,0.2,0.02,0.0,0.0010405903067168183,0.00037168156529995594,2.0811806134336365e-05,-0.0,0.0003924933714342923,8.39961382436815e-05,0.0,-8.39961382436815e-05,-0.03372916630931784,0.0,0.03372916630931784,-0.6308418641500885,0.0,0.6308418641500885,0.0018584078264997797,0,-0.0018584078264997797,-0.008987880217734294,0.0031254546278714516,-0.0003924933714342923,0.4,0.033492088317871094,0.33719849586486816,STABILIZE
0.2,0.015,0.1,-0.011441034570011973,-0.006020522910755802,-0.0001716155185501796,0.00192563498187096,-0.004266503447435021,0.2,0.015,0.1,0.000804605375337277,0.00011436869473765112,1.2069080630059154e-05,-0.0025972856099050886,-0.0024708478345373784,0.002,8e-05,0,-0.23864008895832112,-0.0012627773701793213,-1.909120711666569e-05,0.0,-0.001281868577295987,0.2,0.02,0.0,0.0010972804897160836,0.00033397362395998415,2.1945609794321674e-05,-0.0,0.00035591923375430585,0.0005718434736882556,0.0,-0.0005718434736882556,-0.03010261455377901,0.0,0.03010261455377901,-0.6313886850896606,0.0,0.6313886850896606,0.0016698681197999206,0,-0.0016698681197999206,-0.00426643143351213,0.0024709721794371957,-0.00035591923375430585,0.4,0.03394889831542969,0.37112975120544434,STABILIZE
0.2,0.015,0.1,-0.012444308958950209,-0.005982680214710892,-0.00018666463438425312,0.0009279808794410833,-0.005241363969654062,0.2,0.015,0.1,0.0008691708205413023,0.00038501372688773167,1.3037562308119534e-05,-0.00023073225247738805,0.00016731903671846315,0.002,8e-05,0,-0.25979911849892356,-0.0012617456280231878,-2.0783929479913888e-05,0.0,-0.0012825295575031018,0.2,0.02,0.0,0.001178874539684336,0.00048655792848435546,2.357749079368672e-05,0.0,0.0005101354192780422,0.0019250686344386581,0.0,-0.0019250686344386581,-0.029913401073554457,0.0,0.029913401073554457,-0.6308728140115939,0.0,0.6308728140115939,0.002432789642421777,0,-0.002432789642421777,-0.005241371069327284,-0.00016709648726152544,-0.0005101354192780422,0.4,0.0335392951965332,0.404679536819458,STABILIZE
0.2,0.015,0.1,-0.013318474929748653,-0.005220394290532144,-0.0001997771239462298,0.0017778287347282478,-0.003642342679750126,0.2,0.015,0.1,0.0006493623433702273,-0.001312664822889817,9.74043515055341e-06,-0.0068484854830413696,-0.008151409870780633,0.002,8e-05,0,-0.28104367545325465,-0.001268694590433172,-2.2483494036260375e-05,0.0,-0.0012911780844694326,0.2,0.02,0.0,0.0012190495062104347,0.0002399191605269241,2.4380990124208696e-05,0.0,0.00026430015065113276,-0.0065633241144490845,0.0,0.0065633241144490845,-0.02610197145266072,0.0,0.02610197145266072,-0.6343472952165861,0.0,0.6343472952165861,0.0011995958026346204,0,-0.0011995958026346204,-0.003642172013727443,0.008151486128345545,-0.00026430015065113276,0.4,0.03349041938781738,0.43817901611328125,STABILIZE
0.2,0.015,0.1,-0.014200957265720167,-0.005280810357453706,-0.0002130143589858025,0.00532300048665588,-0.00017082422978362787,0.2,0.015,0.1,0.0005607882710157162,-0.000530030868183468,8.411824065235742e-06,-0.006851718918506149,-0.007373337962624382,0.002,8e-05,0,-0.3022039851317607,-0.001266241577449431,-2.417631881054086e-05,0.0,-0.0012904178962599717,0.2,0.02,0.0,0.0014252503017267136,0.0012339139859142837,2.850500603453427e-05,0.0,0.001262418991948818,-0.0026501543409173395,0.0,0.0026501543409173395,-0.02640405178726853,0.0,0.02640405178726853,-0.6331207887247154,0.0,0.6331207887247154,0.006169569929571418,0,-0.006169569929571418,-0.0001700302728601735,0.007373356314113006,-0.001262418991948818,0.4,0.033422231674194336,0.4715886116027832,STABILIZE
0.2,0.015,0.1,-0.01507294272056775,-0.0052157269918271625,-0.00022609414080851625,0.004539319037168486,-0.0009025020954671926,0.2,0.015,0.1,0.0006940566736107006,0.000797136696154921,1.041085010416051e-05,0.002336045251500259,0.0031435927977593405,0.002,8e-05,0,-0.3232201415641105,-0.0012570683806627065,-2.585761132512884e-05,0.0,-0.0012829259919878353,0.2,0.02,0.0,0.001550461247498709,0.0007489415172061029,3.100922494997418e-05,0.0,0.000779950742156077,0.0039856834807746044,0.0,-0.0039856834807746044,-0.02607863495913581,0.0,0.02607863495913581,-0.6285341903313533,0.0,0.6285341903313533,0.003744707586030514,0,-0.003744707586030514,-0.0009027075508331471,-0.00314353380578544,-0.000779950742156077,0.4,0.03343677520751953,0.5050222873687744,STABILIZE
0.2,0.015,0.1,-0.016102057235835725,-0.005993070494833663,-0.00024153085853753588,0.00013940389649522711,-0.006095197456875972,0.2,0.015,0.1,0.00042767104559465904,-0.0015513024292490582,6.415065683919885e-06,-0.004789448587161487,-0.006334335950726625,0.002,8e-05,0,-0.3447610632119016,-0.0012544402011984517,-2.7580885056952128e-05,0.0,-0.0012820210862554038,0.2,0.02,0.0,0.0017456677680823644,0.0011367893675121438,3.491335536164729e-05,0.0,0.0011717027228737912,-0.00775651214624529,0.0,0.00775651214624529,-0.029965352474168316,0.0,0.029965352474168316,-0.6272201005992258,0.0,0.6272201005992258,0.005683946837560719,0,-0.005683946837560719,-0.006094569038038053,0.0063349405850065404,-0.0011717027228737912,0.4,0.03434348106384277,0.5393660068511963,STABILIZE
0.2,0.015,0.1,-0.017172512186224294,-0.006404549673318119,-0.0002575876827933644,-0.001204370390965234,-0.007866507747076718,0.2,0.015,0.1,4.7698387785093414e-05,-0.0022733826963579457,7.154758167764012e-07,-0.007756506752164389,-0.010029173972705557,0.002,8e-05,0,-0.36582692825788377,-0.0012603741899594636,-2.9266154260630705e-05,0.0,-0.0012896403442200944,0.2,0.02,0.0,0.0018321515120042283,0.0005174336703109682,3.664303024008457e-05,0.0,0.0005540767005510527,-0.011366913481789727,0.0,0.011366913481789727,-0.032022748366590595,0.0,0.032022748366590595,-0.6301870949797318,0.0,0.6301870949797318,0.0025871683515548407,0,-0.0025871683515548407,-0.007866054875657587,0.010029529171539217,-0.0005540767005510527,0.4,0.03342795372009277,0.5727849006652832,STABILIZE
0.2,0.015,0.1,-0.018522370638122995,-0.008071907592182228,-0.0002778355595718449,-0.008465749986270102,-0.016815493138024176,0.2,0.015,0.1,-0.000585478995090596,-0.0037862853818808346,-8.78218492635894e-06,-0.0072108010722627585,-0.011005868639069952,0.002,8e-05,0,-0.3869131757703269,-0.0012609191811697928,-3.0953054061626154e-05,0.0,-0.0012918722352314189,0.2,0.02,0.0,0.002185007516110084,0.00211001461263057,4.370015032220168e-05,0.0,0.0021537147629527714,-0.01893142690940417,0.0,0.01893142690940417,-0.04035953796091114,0.0,0.04035953796091114,-0.6304595905848964,0.0,0.6304595905848964,0.01055007306315285,0,-0.01055007306315285,-0.01681346630373254,0.011008964748270018,-0.0021537147629527714,0.4,0.03344583511352539,0.6062479019165039,STABILIZE
0.2,0.015,0.1,-0.01972329971954631,-0.007174024069688644,-0.00029584949579319463,-0.005603127764400652,-0.01307300132988249,0.2,0.015,0.1,-0.0013646788694011488,-0.004654728359793838,-2.047018304101723e-05,-0.012146379062083379,-0.016821577604918234,0.002,8e-05,0,-0.40828402269513464,-0.001276636335981608,-3.2662721815610775e-05,-0.0,-0.0013092990577972187,0.2,0.02,0.0,0.0024340513649609907,0.0014877202939800665,4.8681027299219814e-05,0.0,0.0015364013212792863,-0.02327364179896919,0.0,0.02327364179896919,-0.03587012034844322,0.0,0.03587012034844322,-0.638318167990804,0.0,0.638318167990804,0.007438601469900332,0,-0.007438601469900332,-0.013070817306466347,0.01682327470590598,-0.0015364013212792863,0.4,0.033479928970336914,0.6397297382354736,STABILIZE
0.2,0.015,0.1,-0.020853341281046663,-0.0067569128061516605,-0.00031280011921569993,-0.004550746930183829,-0.011620459855551189,0.2,0.015,0.1,-0.001904626731201355,-0.0032285366718796415,-2.8569400968020326e-05,-0.01185171548170772,-0.015108821554555382,0.002,8e-05,0,-0.4295905410309064,-0.0012739910769860323,-3.4367243282472514e-05,-0.0,-0.0013083583202685048,0.2,0.02,0.0,0.002716242116417689,0.001687316968911971,5.4324842328353786e-05,0.0,0.0017416418112403249,-0.016142683359398207,0.0,0.016142683359398207,-0.0337845640307583,0.0,0.0337845640307583,-0.6369955384930162,0.0,0.6369955384930162,0.008436584844559855,0,-0.008436584844559855,-0.01161823501327911,0.015110532459119018,-0.0017416418112403249,0.4,0.03344845771789551,0.6731860637664795,STABILIZE
0.2,0.015,0.1,-0.02191957066458919,-0.006377675971976933,-0.0003287935599688378,-0.001153101640363118,-0.007859571172308889,0.2,0.015,0.1,-0.002211550584409557,-0.0018358721997783459,-3.317325876614335e-05,-0.0008484950839456895,-0.0027175405424901787,0.002,8e-05,0,-0.45095630739376996,-0.0012779983074802715,-3.60765045915016e-05,-0.0,-0.001314074812071773,0.2,0.02,0.0,0.0030339934771546014,0.0019006371890650077,6.067986954309203e-05,0.0,0.0019613170586081,-0.009179360998891729,0.0,0.009179360998891729,-0.031888379859884665,0.0,0.031888379859884665,-0.6389991537401357,0.0,0.6389991537401357,0.009503185945325038,0,-0.009503185945325038,-0.007859120327807207,0.002718844108387656,-0.0019613170586081,0.4,0.03343629837036133,0.7067203521728516,STABILIZE
0.2,0.015,0.1,-0.023071001144163158,-0.00688107697026982,-0.00034606501716244735,-0.001426348531242116,-0.008653490518674383,0.2,0.015,0.1,-0.0025520942428214734,-0.002035126885069688,-3.82814136423221e-05,0.0007162298951069699,-0.0013571784036050401,0.002,8e-05,0,-0.47226754708652957,-0.001273583453444856,-3.7781403766922365e-05,-0.0,-0.0013113648572117785,0.2,0.02,0.0,0.0031692575744621896,0.0008083533321368776,6.338515148924379e-05,0.0,0.0008717384836261214,-0.01017563442534844,0.0,0.01017563442534844,-0.0344053848513491,0.0,0.0344053848513491,-0.636791726722428,0.0,0.636791726722428,0.004041766660684388,0,-0.004041766660684388,-0.008653394758880455,0.0013577888359312827,-0.0008717384836261214,0.4,0.03346657752990723,0.7400977611541748,STABILIZE
0.2,0.015,0.1,-0.024213125503824418,-0.0068295982011129675,-0.00036319688255736626,0.003712814381761949,-0.003479980701908385,0.2,0.015,0.1,-0.0030449707075013246,-0.00294726943530632,-4.567456061251987e-05,0.0025124868504944045,-0.0004804571454244352,0.002,8e-05,0,-0.4933307192316303,-0.0012595213592552917,-3.946645753853043e-05,0.0,-0.0012989878167938222,0.2,0.02,0.0,0.0032736725953385324,0.0006243738982659854,6.547345190677065e-05,-0.0,0.000689847350172756,-0.014736347176531599,0.0,0.014736347176531599,-0.034147991005564836,0.0,0.034147991005564836,-0.6297606796276458,0.0,0.6297606796276458,0.0031218694913299266,0,-0.0031218694913299266,-0.003479954518121546,0.0004806467580766678,-0.000689847350172756,0.4,0.033446311950683594,0.7735385894775391,STABILIZE
0.2,0.015,0.1,-0.025405312101471497,-0.007130532701985024,-0.00038107968152207243,0.00013100548059315822,-0.0073806069029139386,0.2,0.015,0.1,-0.0035312768068736264,-0.0029086231564695838,-5.296915210310439e-05,0.005221980803183524,0.002260388494610836,0.002,8e-05,0,-0.5143235707884802,-0.0012555938376548367,-4.114588566307842e-05,0.0,-0.0012967397233179152,0.2,0.02,0.0,0.0034984284092857347,0.001344276713456407,6.99685681857147e-05,-0.0,0.0014142452816421217,-0.014543115782347918,0.0,0.014543115782347918,-0.03565266350992512,0.0,0.03565266350992512,-0.6277969188274184,0.0,0.6277969188274184,0.006721383567282034,0,-0.006721383567282034,-0.007380872018921087,-0.0022595226580447666,-0.0014142452816421217,0.4,0.033438920974731445,0.8069829940795898,STABILIZE
0.2,0.015,0.1,-0.026564292556952675,-0.006928072001691043,-0.0003984643883542901,-0.000510893733573551,-0.007837430123618884,0.2,0.015,0.1,-0.0042501512293481505,-0.004297237054795571,-6.375226844022225e-05,-0.0031922474088023,-0.007553236732038093,0.002,8e-05,0,-0.535394598683186,-0.0012595691127815804,-4.283156789465488e-05,0.0,-0.0013024006806762352,0.2,0.02,0.0,0.003741156832755603,0.0014509649293076544,7.482313665511206e-05,-0.0,0.0015257880659627664,-0.021486185273977852,0.0,0.021486185273977852,-0.03464036000845521,0.0,0.03464036000845521,-0.6297845563907902,0.0,0.6297845563907902,0.007254824646538272,0,-0.007254824646538272,-0.007836473665602339,0.007554229051408174,-0.0015257880659627664,0.4,0.03345751762390137,0.8404748439788818,STABILIZE
0.2,0.015,0.1,-0.027702847407270192,-0.006742979007506493,-0.00041554271110905285,-0.0010970032085472227,-0.008255524927162769,0.2,0.015,0.1,-0.005137665184780113,-0.005256214023134522,-7.706497777170169e-05,-0.010197098290445966,-0.01553037729135219,0.002,8e-05,0,-0.5567002758103528,-0.0012618077518982253,-4.4536022064828224e-05,0.0,-0.0013063437739630535,0.2,0.02,0.0,0.003691049068270966,-0.0002967583019287644,7.382098136541933e-05,-0.0,-0.00022293732056334506,-0.026281070115672607,0.0,0.026281070115672607,-0.033714895037532465,0.0,0.033714895037532465,-0.6309038759491127,0.0,0.6309038759491127,-0.0014837915096438219,0,0.0014837915096438219,-0.008255927115309035,0.01553016349242527,0.00022293732056334506,0.4,0.033770084381103516,0.8742287158966064,STABILIZE
0.2,0.015,0.1,-0.028884950352523846,-0.007066946666413694,-0.0004332742552878577,-0.0005611982255171971,-0.00806141914721875,0.2,0.015,0.1,-0.005987583438479497,-0.005081052368426491,-8.981375157719245e-05,-0.009078131153921897,-0.01424899727392558,0.002,8e-05,0,-0.577680240310898,-0.0012542417797359578,-4.6214419224871846e-05,0.0,-0.0013004561989608295,0.2,0.02,0.0,0.003837088523271638,0.0008730652806726695,7.674177046543276e-05,0.0,0.0009498070511381022,-0.025405261842132452,0.0,0.025405261842132452,-0.03533473333206847,0.0,0.03533473333206847,-0.6271208898679789,0.0,0.6271208898679789,0.004365326403363347,0,-0.004365326403363347,-0.008060333502428359,0.014249611426600892,-0.0009498070511381022,0.4,0.03345441818237305,0.9076769351959229,STABILIZE
0.2,0.015,0.1,-0.03016550919159816,-0.007430281189946538,-0.0004524826378739724,-0.0017692142399291296,-0.009651978067749641,0.2,0.015,0.1,-0.006841095897399452,-0.004952398418086214,-0.00010261643846099178,-0.005977697746343029,-0.011032712602890234,0.002,8e-05,0,-0.5992763268009277,-0.0012530856867094247,-4.794210614407422e-05,0.0,-0.001301027792853499,0.2,0.02,0.0,0.004189613370665433,0.0020454809749096423,8.379226741330867e-05,0.0,0.002129273242322951,-0.02476199209043107,0.0,0.02476199209043107,-0.03715140594973269,0.0,0.03715140594973269,-0.6265428433547123,0.0,0.6265428433547123,0.01022740487454821,0,-0.01022740487454821,-0.009650008553949617,0.011034435323431478,-0.002129273242322951,0.4,0.034468650817871094,0.9421329498291016,STABILIZE
0.2,0.015,0.1,-0.03145232836273153,-0.007696919408412883,-0.00047178492544097287,-0.001666690076826873,-0.00983539441068073,0.2,0.015,0.1,-0.008064692903962027,-0.007318765339494085,-0.0001209703935594304,-0.013170308156441438,-0.020610043889494955,0.002,8e-05,0,-0.6204177702488662,-0.001264544312414795,-4.9633421619909305e-05,-0.0,-0.0013141777340347043,0.2,0.02,0.0,0.005130101069277702,0.005625388697346426,0.00010260202138555404,0.0,0.00572799071873198,-0.036593826697470425,0.0,0.036593826697470425,-0.03848459704206442,0.0,0.03848459704206442,-0.6322721562073975,0.0,0.6322721562073975,0.02812694348673213,0,-0.02812694348673213,-0.009825275595234958,0.02061486967744978,-0.00572799071873198,0.4,0.033437252044677734,0.9755876064300537,STABILIZE
0.2,0.015,0.1,-0.03315176915390388,-0.010164085197532216,-0.0004972765373085582,-0.009649680936418183,-0.02031104267125896,0.2,0.015,0.1,-0.009755538685495078,-0.010112679811300896,-0.00014633308028242617,-0.017374907960708813,-0.027633920852292135,0.002,8e-05,0,-0.6423285241358846,-0.0013104473566047832,-5.138628193087077e-05,-0.0,-0.001361833638535654,0.2,0.02,0.0,0.0072153667712502,0.012471642651180045,0.000144307335425004,0.0,0.012615949986605049,-0.05056339905650448,0.0,0.05056339905650448,-0.05082042598766108,0.0,0.05082042598766108,-0.6552236783023916,0.0,0.6552236783023916,0.06235821325590022,0,-0.06235821325590022,-0.020280955100440548,0.027656010129416046,-0.012615949986605049,0.4,0.03344011306762695,1.0090172290802002,STABILIZE
0.2,0.015,0.1,-0.034236949085504724,-0.006489317043653228,-0.0005135542362825708,0.0007896785187903112,-0.006213192761145488,0.2,0.015,0.1,-0.011114113139046655,-0.008124201434041004,-0.00016671169708569982,-0.008589688279407207,-0.01688060141053391,0.002,8e-05,0,-0.6642035169289447,-0.0013081126864591768,-5.3136281354315586e-05,-0.0,-0.0013612489678134923,0.2,0.02,0.0,0.00768737212181892,0.00282256635691983,0.0001537474424363784,0.0,0.0029763137993562084,-0.04062100717020502,0.0,0.04062100717020502,-0.03244658521826614,0.0,0.03244658521826614,-0.6540563432295884,0.0,0.6540563432295884,0.014112831784599149,0,-0.014112831784599149,-0.006209034620931337,0.016882131303379504,-0.0029763137993562084,0.4,0.033445119857788086,1.0425050258636475,STABILIZE
0.2,0.015,0.1,-0.0353764608646986,-0.006817280215553158,-0.000530646912970479,0.0007770222248537419,-0.006570904903669895,0.2,0.015,0.1,-0.012672391136141613,-0.00932260460479172,-0.0001900858670421242,-0.012698074189000581,-0.022210764660834423,0.002,8e-05,0,-0.6856566333537725,-0.0012834611176059908,-5.4852530668301805e-05,-0.0,-0.0013383136482742926,0.2,0.02,0.0,0.007377665466987651,-0.0018528611017079501,0.00014755330933975303,-0.0,-0.0017053077923681972,-0.046613023023958595,0.0,0.046613023023958595,-0.03408640107776579,0.0,0.03408640107776579,-0.6417305588029953,0.0,0.6417305588029953,-0.00926430550853975,0,0.00926430550853975,-0.006574496134799643,0.02220970190357243,0.0017053077923681972,0.4,0.03343009948730469,1.0758943557739258,STABILIZE
0.2,0.015,0.1,-0.03659323770519943,-0.007271645915336789,-0.0005488985655779914,0.00047344388175624196,-0.007347100599158538,0.2,0.015,0.1,-0.014520057904622559,-0.011041941350887244,-0.00021780086856933837,-0.018208834031166733,-0.029468576250623317,0.002,8e-05,0,-0.7072295820214931,-0.0012892326582813055,-5.6578366561719454e-05,-0.0,-0.001345811024843025,0.2,0.02,0.0,0.006133496478610421,-0.007435345612428149,0.0001226699295722084,-0.0,-0.007312675682855941,-0.05520970675443622,0.0,0.05520970675443622,-0.03635822957668394,0.0,0.03635822957668394,-0.6446163291406527,0.0,0.6446163291406527,-0.03717672806214074,0,0.03717672806214074,-0.0073662199228400425,0.02946380283502642,0.007312675682855941,0.4,0.033466339111328125,1.1093685626983643,STABILIZE
0.2,0.015,0.1,-0.037663158875330664,-0.0063642256955378645,-0.0005649473831299599,0.003969682118112223,-0.0029594909605556016,0.2,0.015,0.1,-0.016305150424551135,-0.010618288525731608,-0.000244577256368267,-0.009871786623613342,-0.020734652405713216,0.002,8e-05,0,-0.7292385998574422,-0.0013091652053946815,-5.8339087988595385e-05,-0.0,-0.0013675042933832767,0.2,0.02,0.0,0.004672062351429352,-0.008693067194287632,9.344124702858704e-05,-0.0,-0.008599625947259045,-0.05309144262865804,0.0,0.05309144262865804,-0.03182112847768932,0.0,0.03182112847768932,-0.6545826026973407,0.0,0.6545826026973407,-0.04346533597143815,0,0.04346533597143815,-0.002975219688955413,0.020732401330618006,0.008599625947259045,0.4,0.03362298011779785,1.142986536026001,STABILIZE
0.2,0.015,0.1,-0.037788554393360006,-0.000749986699729124,-0.0005668283159004,0.028136839851631585,0.02682002483600206,0.2,0.015,0.1,-0.01785432819970456,-0.009265584170314247,-0.0002678149229955684,0.002528433891967132,-0.007004965201342684,0.002,8e-05,0,-0.7505863462880495,-0.0012768020854141684,-6.004690770304397e-05,0.0,-0.0013368489931172125,0.2,0.02,0.0,0.0034333574378101785,-0.007408655625842292,6.866714875620357e-05,-0.0,-0.007339988477086089,-0.04632792085157124,0.0,0.04632792085157124,-0.00374993349864562,0.0,0.00374993349864562,-0.6384010427070842,0.0,0.6384010427070842,-0.03704327812921146,0,0.03704327812921146,0.026815490330646532,0.0070223036108382365,0.007339988477086089,0.4,0.03343939781188965,1.1764307022094727,STABILIZE
0.2,0.015,0.1,-0.03851781138086048,-0.004366114964744201,-0.0005777671707129072,0.006324370569765318,0.00138048843430821,0.2,0.015,0.1,-0.02029668276669694,-0.014622555569479273,-0.0003044502415004541,-0.019453352393411213,-0.03438035820439094,0.002,8e-05,0,-0.7716903080329643,-0.0012635096374692119,-6.173522464263715e-05,0.0,-0.001325244862111849,0.2,0.02,0.0,0.002146507514824051,-0.007704464684510113,4.293015029648103e-05,-0.0,-0.007661534534213632,-0.07311277784739637,0.0,0.07311277784739637,-0.021830574823721006,0.0,0.021830574823721006,-0.6317548187346059,0.0,0.6317548187346059,-0.03852232342255056,0,0.03852232342255056,0.0013573727865757626,0.034381278593120325,0.007661534534213632,0.4,0.033405303955078125,1.209827184677124,STABILIZE
0.2,0.015,0.1,-0.037321130123752974,0.007150685590926427,-0.0005598169518562946,0.041714332347628016,0.048305200986698146,0.2,0.015,0.1,-0.022542998532781015,-0.01342270356939774,-0.0003381449779917152,-0.012283733436316521,-0.026044581983705975,0.002,8e-05,0,-0.7926994282115103,-0.0012553853588539536,-6.341595425692083e-05,0.0,-0.0013188013131108746,0.2,0.02,0.0,-0.0005305366159477415,-0.01599649094400777,-1.061073231895483e-05,-0.0,-0.016007101676326723,-0.0671135178469887,0.0,0.0671135178469887,0.035753427954632135,0.0,-0.035753427954632135,-0.6276926794269768,0.0,0.6276926794269768,-0.07998245472003884,0,0.07998245472003884,0.048268796811241056,0.026111988577402732,0.016007101676326723,0.4,0.03347039222717285,1.2433178424835205,STABILIZE
0.2,0.015,0.1,-0.03431799890010566,0.017964452452516624,-0.0005147699835015849,0.07541548728767487,0.09286516975668992,0.2,0.015,0.1,-0.024552636277546967,-0.012021466604041582,-0.0003682895441632045,-0.0029551879721116192,-0.015344944120316405,0.002,8e-05,0,-0.8133845629914808,-0.0012373655779762127,-6.507076503931846e-05,0.0,-0.0013024363430155313,0.2,0.02,0.0,-0.0044700062476612495,-0.023565541968259246,-8.940012495322499e-05,-0.0,-0.02365494209321247,-0.060107333020207904,0.0,0.060107333020207904,0.08982226226258311,0.0,-0.08982226226258311,-0.6186827889881064,0.0,0.6186827889881064,-0.11782770984129623,0,0.11782770984129623,0.09283341681670969,0.015535887040317692,0.02365494209321247,0.4,0.033434152603149414,1.2767667770385742,STABILIZE
0.2,0.015,0.1,-0.032464956390397606,0.011074067608911602,-0.0004869743458559641,0.05212767682553674,0.06271477008859237,0.2,0.015,0.1,-0.025627145219783494,-0.006421431030517537,-0.0003844071782967524,0.012518140087716761,0.005712301878902472,0.002,8e-05,0,-0.8345286169612474,-0.0012636012501653937,-6.676228935689979e-05,0.0,-0.0013303635395222934,0.2,0.02,0.0,-0.0053921000746996964,-0.005510574813522551,-0.00010784200149399394,0.0,-0.005618416815016545,-0.032107155152587684,0.0,0.032107155152587684,0.05537033804455801,0.0,-0.05537033804455801,-0.6318006250826969,0.0,0.6318006250826969,-0.027552874067612754,0,0.027552874067612754,0.06271750981652212,-0.0056821424159524,0.005618416815016545,0.4,0.033466339111328125,1.31026291847229,STABILIZE
0.2,0.015,0.1,-0.03084011326137011,0.009660622348079316,-0.0004626016989205516,0.031136511755089115,0.04033453240424788,0.2,0.015,0.1,-0.026871321237124077,-0.00739733850199969,-0.00040306981855686117,0.005571734484567926,-0.002228673835988625,0.002,8e-05,0,-0.8545061445008786,-0.0011877783495582335,-6.836049156007029e-05,0.0,-0.0012561388411183039,0.2,0.02,0.0,-0.0058478339485211195,-0.002709598709908131,-0.00011695667897042239,0.0,-0.0028265553888785536,-0.03698669250999845,0.0,0.03698669250999845,0.04830311174039657,0.0,-0.04830311174039657,-0.5938891747791167,0.0,0.5938891747791167,-0.013547993549540656,0,0.013547993549540656,0.04033400429092166,0.0022382111599344463,0.0028265553888785536,0.4,0.03363847732543945,1.343858003616333,STABILIZE
0.2,0.015,0.1,-0.02982329409327428,0.005209357270787475,-0.0004473494113991142,0.030559186843253202,0.03532119470264156,0.2,0.015,0.1,-0.027080328958573194,-0.0010707861609460356,-0.0004062049343785979,0.03781408764635284,0.03633709655102821,0.002,8e-05,0,-0.8778275913706722,-0.0011948019139327837,-7.022620730965378e-05,0.0,-0.0012650281212424376,0.2,0.02,0.0,0.0036698878043019377,0.048761092011326335,7.339775608603875e-05,0.0,0.04883448976741237,-0.005353930804730178,0.0,0.005353930804730178,0.026046786353937375,0.0,-0.026046786353937375,-0.5974009569663918,0.0,0.5974009569663918,0.24380546005663167,0,-0.24380546005663167,0.03516625348853301,-0.03648706615447317,-0.04883448976741237,0.4,0.03903818130493164,1.3829288482666016,STABILIZE
0.2,0.015,0.1,-0.028697430356799836,0.006730444932227852,-0.0004304614553519975,0.0006968189419726124,0.006996802418848466,0.2,0.015,0.1,-0.027155955062975266,-0.0004520949690687718,-0.000407339325944629,0.036078548205708195,0.035219113910694794,0.002,8e-05,0,-0.8977452879792203,-0.00119068547869245,-7.181962303833762e-05,0.0,-0.0012625051017307876,0.2,0.02,0.0,0.009047629822851158,0.0321482923225807,0.00018095259645702316,0.0,0.03232924491903772,-0.002260474845343859,0.0,0.002260474845343859,0.033652224661139256,0.0,-0.033652224661139256,-0.595342739346225,0.0,0.595342739346225,0.1607414616129035,0,-0.1607414616129035,0.006897968925542401,-0.03523860458992596,-0.03232924491903772,0.4,0.033455848693847656,1.4163689613342285,STABILIZE
0.2,0.015,0.1,-0.027651564148553513,0.006258506125154089,-0.0004147734622283027,-0.03305870682883473,-0.027214974165908942,0.2,0.015,0.1,-0.027419111563900634,-0.0015747392543422221,-0.0004112866734585095,0.028528538783988918,0.026542512856188187,0.002,8e-05,0,-0.9178414129426673,-0.0012025603292651133,-7.342731303541339e-05,0.0,-0.0012759876423005267,0.2,0.02,0.0,0.014433585691071373,0.032229779990297705,0.0002886717138214275,0.0,0.032518451704119135,-0.00787369627171111,0.0,0.00787369627171111,0.03129253062577044,0.0,-0.03129253062577044,-0.6012801646325566,0.0,0.6012801646325566,0.1611488999514885,0,-0.1611488999514885,-0.02728951933551762,-0.02646586371174038,-0.032518451704119135,0.4,0.033422231674194336,1.4497761726379395,STABILIZE
0.2,0.015,0.1,-0.027054571093678335,0.0035689683621393737,-0.000405818566405175,-0.020509058453994214,-0.017345908658260016,0.2,0.015,0.1,-0.028236162388201525,-0.004884526743446762,-0.00042354243582302286,0.0019018473342549203,-0.0034062218450148637,0.002,8e-05,0,-0.9377355821617179,-0.0011893213824519988,-7.501884657293744e-05,0.0,-0.0012643402290249363,0.2,0.02,0.0,0.021454525786284345,0.041972871991835976,0.0004290905157256869,0.0,0.04240196250756166,-0.024422633717233806,0.0,0.024422633717233806,0.017844841810696867,0.0,-0.017844841810696867,-0.5946606912259994,0.0,0.5946606912259994,0.20986435995917987,0,-0.20986435995917987,-0.01733331593616228,0.0034697338652033448,-0.04240196250756166,0.4,0.03345465660095215,1.4832301139831543,STABILIZE
0.2,0.015,0.1,-0.025754530687134108,0.007739412922283294,-0.0003863179603070116,-0.0038934228125195817,0.003459672149456701,0.2,0.015,0.1,-0.028287161380500518,-0.00030360768637296563,-0.00042430742070750775,0.01843859702999693,0.017710681922916457,0.002,8e-05,0,-0.9573234569473097,-0.0011661072261488865,-7.658587655578478e-05,0.0,-0.0012426931027046714,0.2,0.02,0.0,0.027281856015840097,0.03469131778828408,0.000545637120316802,0.0,0.03523695490860088,-0.001518038431864828,0.0,0.001518038431864828,0.03869706461141647,0.0,-0.03869706461141647,-0.5830536130744433,0.0,0.5830536130744433,0.1734565889414204,0,-0.1734565889414204,0.0034060392609716406,-0.017721074519034277,-0.03523695490860088,0.4,0.03359532356262207,1.5168259143829346,STABILIZE
0.2,0.015,0.1,-0.025139002840090165,0.003677074690529686,-0.00037708504260135244,-0.004624997296913041,-0.0013250076489847067,0.2,0.015,0.1,-0.02532945842460344,0.01766889139697619,-0.00037994187636905156,0.05591509409219395,0.07320404361280108,0.002,8e-05,0,-0.9777233742082974,-0.001218661670784201,-7.821786993666379e-05,-0.0,-0.0012968795407208647,0.2,0.02,0.0,0.03482064983776445,0.0450356683176035,0.000696412996755289,-0.0,0.04573208131435879,0.08834445698488094,0.0,-0.08834445698488094,0.01838537345264843,0.0,-0.01838537345264843,-0.6093308353921004,0.0,0.6093308353921004,0.22517834158801747,0,-0.22517834158801747,-0.0016126961409805086,-0.07319827086544885,-0.04573208131435879,0.4,0.03347921371459961,1.5503153800964355,STABILIZE
0.2,0.015,0.1,-0.02626665049690202,-0.006742694937745951,-0.00039399975745353026,-0.04032371291760354,-0.04746040761280302,0.2,0.015,0.1,-0.026520267681998347,-0.007120365570889776,-0.0003978040152299752,-0.02004704769659874,-0.02756521728271849,0.002,8e-05,0,-1.000068802305835,-0.0013361301644612212,-8.000550418446682e-05,-0.0,-0.001416135668645688,0.2,0.02,0.0,0.04773676632537212,0.0772310683485595,0.0009547353265074424,0.0,0.07818580367506694,-0.035601827854448875,0.0,0.035601827854448875,-0.033713474688729754,0.0,0.033713474688729754,-0.6680650822306106,0.0,0.6680650822306106,0.3861553417427975,0,-0.3861553417427975,-0.04727355031627458,0.027884456873167682,-0.07818580367506694,0.4,0.033447980880737305,1.5837550163269043,STABILIZE
0.2,0.015,0.1,-0.02307366263093022,0.019026889784542457,-0.00034610493946395326,0.03786831126569773,0.05654909611077623,0.2,0.015,0.1,-0.028776509063836993,-0.013444854130850885,-0.0004316476359575549,-0.035531763017247864,-0.0494082647840563,0.002,8e-05,0,-1.0222630948592555,-0.0013225492109137568,-8.178104758874045e-05,-0.0,-0.0014043302585024973,0.2,0.02,0.0,0.05615545940430129,0.050166662720443456,0.0011231091880860259,0.0,0.05128977190852948,-0.06722427065425442,0.0,0.06722427065425442,0.09513444892271228,0.0,-0.09513444892271228,-0.6612746054568784,0.0,0.6612746054568784,0.2508333136022173,0,-0.2508333136022173,0.05676485634021611,0.049160227670260556,-0.05128977190852948,0.4,0.03356289863586426,1.6173198223114014,STABILIZE
0.2,0.015,0.1,-0.015570845106303109,0.04479778147794724,-0.00023356267659454662,0.12284401270320187,0.16740823150455458,0.2,0.015,0.1,-0.0321032370050731,-0.019863208835734437,-0.0004815485550760965,-0.04479974779846812,-0.06514450518927865,0.002,8e-05,0,-1.044326541079285,-0.0013173630295166283,-8.354612328634281e-05,-0.0,-0.0014009091528029711,0.2,0.02,0.0,0.060147425750766745,0.02383521063510959,0.001202948515015335,-0.0,0.025038159150124924,-0.09931604417867218,0.0,0.09931604417867218,0.22398890738973617,0.0,-0.22398890738973617,-0.6586815147583142,0.0,0.6586815147583142,0.11917605317554794,0,-0.11917605317554794,0.16754337078096215,0.0647961529659866,-0.025038159150124924,0.4,0.03349637985229492,1.6508142948150635,STABILIZE
0.2,0.015,0.1,-0.008454643803880005,0.04260795498677178,-0.00012681965705820008,0.10387450072649668,0.14635563605621027,0.2,0.015,0.1,-0.039131799398178874,-0.04208322071569217,-0.000586976990972683,-0.12495602497601349,-0.16762622268267835,0.002,8e-05,0,-1.0662762939676573,-0.0013142321911552444,-8.53021035174126e-05,-0.0,-0.001399534294672657,0.2,0.02,0.0,0.06531190990948389,0.03092213095343276,0.001306238198189678,-0.0,0.03222836915162244,-0.21041610357846083,0.0,0.21041610357846083,0.2130397749338589,0.0,-0.2130397749338589,-0.6571160955776222,0.0,0.6571160955776222,0.1546106547671638,0,-0.1546106547671638,0.1468074361400529,0.1672306773001444,-0.03222836915162244,0.4,0.03340315818786621,1.6842658519744873,STABILIZE
0.2,0.015,0.1,0.0011047784218444039,0.05210914734522259,1.6571676327666056e-05,0.1419042783571055,0.19402999737865576,0.2,0.015,0.1,-0.05036275157944924,-0.06122078596613278,-0.0007554412736917386,-0.2307987568595623,-0.29277498409938685,0.002,8e-05,0,-1.0877073214591937,-0.001168221826535504,-8.70165857167355e-05,0.0,-0.0012552384122522394,0.2,0.02,0.0,0.06851514742081204,0.01746109456389175,0.0013703029484162408,-0.0,0.01883139751230799,-0.30610392983066387,0.0,0.30610392983066387,0.2605457367261129,0.0,-0.2605457367261129,-0.584110913267752,0.0,0.584110913267752,0.08730547281945875,0,-0.08730547281945875,0.19447589308896746,0.2924789876288652,-0.01883139751230799,0.4,0.03668999671936035,1.7209162712097168,STABILIZE
0.2,0.015,0.1,0.008235065788271236,0.04266032298036279,0.00012352598682406854,0.14479040704204346,0.18757425600923033,0.2,0.015,0.1,-0.056021094739711536,-0.03385371926061393,-0.000840316421095673,-0.07481766923938918,-0.10951170492109878,0.002,8e-05,0,-1.1073540093518857,-0.0011754562024288173,-8.858832074815086e-05,0.0,-0.001264044523176968,0.2,0.02,0.0,0.07256096709236419,0.0242060333670973,0.0014512193418472839,-0.0,0.025657252708944582,-0.16926859630306965,0.0,0.16926859630306965,0.21330161490181393,0.0,-0.21330161490181393,-0.5877281012144087,0.0,0.5877281012144087,0.12103016683548648,0,-0.12103016683548648,0.1878051671245389,0.10911523373693569,-0.025657252708944582,0.4,0.033428192138671875,1.7543902397155762,STABILIZE
0.2,0.015,0.1,0.01389316733523981,0.03366260223670758,0.00020839751002859713,0.041244680630535414,0.0751156803772716,0.2,0.015,0.1,-0.057178290418435744,-0.006884679873552341,-0.0008576743562765362,0.02425152021345077,0.01650916598362189,0.002,8e-05,0,-1.1273342346033832,-0.001188713863930792,-9.018673876827066e-05,0.0,-0.0012789006026990627,0.2,0.02,0.0,0.07777819884367995,0.031039668652705306,0.001555563976873599,-0.0,0.032595232629578905,-0.0344233993677617,0.0,0.0344233993677617,0.16831301118353786,0.0,-0.16831301118353786,-0.594356931965396,0.0,0.594356931965396,0.15519834326352652,0,-0.15519834326352652,0.07507068612118514,-0.01671257267178529,-0.032595232629578905,0.4,0.03361654281616211,1.7880034446716309,STABILIZE
0.2,0.015,0.1,0.02129804187163126,0.042930217133614584,0.0003194706280744689,-0.008826883664766685,0.03442280409692237,0.2,0.015,0.1,-0.058892455108062285,-0.00993797558173133,-0.0008833868266209342,0.0345620234875458,0.023740661079193537,0.002,8e-05,0,-1.1468149866060202,-0.0011294086203476165,-9.174519892848162e-05,0.0,-0.0012211538192760981,0.2,0.02,0.0,0.08154204927538651,0.021821155172516194,0.0016308409855077303,-0.0,0.023451996158023923,-0.04968987790865664,0.0,0.04968987790865664,0.2146510856680729,0.0,-0.2146510856680729,-0.5647043101738083,0.0,0.5647043101738083,0.10910577586258097,0,-0.10910577586258097,0.0343775334394183,-0.023806167793114168,-0.023451996158023923,0.4,0.03449726104736328,1.8225734233856201,STABILIZE
0.2,0.015,0.1,0.028538027182499426,0.04307760961984253,0.00042807040773749135,-0.0018326472508695337,0.041673032776710486,0.2,0.015,0.1,-0.06262557862339989,-0.022211928692032624,-0.0009393836793509983,0.06456796151658062,0.04141664914519699,0.002,8e-05,0,-1.1654205250431406,-0.0011070217509393603,-9.323364200345126e-05,0.0,-0.0012002553929428117,0.2,0.02,0.0,0.08558970515280259,0.024083383083809404,0.001711794103056052,-0.0,0.025795177186865456,-0.11105964346016312,0.0,0.11105964346016312,0.21538804809921264,0.0,-0.21538804809921264,-0.5535108754696801,0.0,0.5535108754696801,0.12041691541904702,0,-0.12041691541904702,0.041585896608125006,-0.041504140643115,-0.025795177186865456,0.4,0.03361368179321289,1.8560876846313477,STABILIZE
0.2,0.015,0.1,0.034845951283016964,0.037726691221174,0.0005226892692452545,-0.04373000930704311,-0.005480628816623853,0.2,0.015,0.1,-0.06362370371500867,-0.005969627492528182,-0.00095435555572513,0.16529944377005948,0.15837546072180617,0.002,8e-05,0,-1.1837969965960853,-0.0010990675489512484,-9.470375972768683e-05,0.0,-0.0011937713086789352,0.2,0.02,0.0,0.09021324485814378,0.027652655934451327,0.0018042648971628755,0.0,0.029456920831614202,-0.02984813746264091,0.0,0.02984813746264091,0.18863345610586998,0.0,-0.18863345610586998,-0.5495337744756242,0.0,0.5495337744756242,0.13826327967225663,0,-0.13826327967225663,-0.005862796146349548,-0.1583617740252247,-0.029456920831614202,0.4,0.03344011306762695,1.8895375728607178,STABILIZE
0.2,0.015,0.1,0.04153511892452806,0.03994988195113211,0.0006230267838679209,-0.008825166089269221,0.03174774264573081,0.2,0.015,0.1,-0.06646909384273382,-0.016993594091156274,-0.0009970364076410073,0.05051186662395549,0.032521236125158205,0.002,8e-05,0,-1.2020153487073302,-0.0010880591654957705,-9.616122789658643e-05,0.0,-0.0011842203933923568,0.2,0.02,0.0,0.09441171931686186,0.025074653228864287,0.0018882343863372373,0.0,0.026962887615201526,-0.08496797045578137,0.0,0.08496797045578137,0.19974940975566052,0.0,-0.19974940975566052,-0.5440295827478853,0.0,0.5440295827478853,0.12537326614432143,0,-0.12537326614432143,0.03167650449886916,-0.03259062786969548,-0.026962887615201526,0.4,0.033487796783447266,1.9230353832244873,STABILIZE
0.2,0.015,0.1,0.04805953778564485,0.039016504786075434,0.0007208930667846726,0.015149754634170405,0.054887152487030515,0.2,0.015,0.1,-0.06708458606628968,-0.0036806887781648703,-0.0010062687909943452,0.010092443725485102,0.005405486156325886,0.002,8e-05,0,-1.2201570959147596,-0.0010848898297514894,-9.761256767318077e-05,0.0,-0.0011825023974246702,0.2,0.02,0.0,0.09869289185995779,0.025601726770363317,0.001973857837199156,-0.0,0.027575584607562473,-0.01840344389082435,0.0,0.01840344389082435,0.19508252393037717,0.0,-0.19508252393037717,-0.5424449148757448,0.0,0.5424449148757448,0.12800863385181657,0,-0.12800863385181657,0.05487493872530566,-0.005528099909979892,-0.027575584607562473,0.4,0.03344440460205078,1.9564836025238037,STABILIZE
0.2,0.015,0.1,0.054477822880483404,0.03835201602225555,0.0008171673432072511,-0.013700333222031373,0.02546885014343142,0.2,0.015,0.1,-0.06546118451061671,0.009700523045290323,-0.0009819177676592505,0.05892252899659786,0.06764113427422894,0.002,8e-05,0,-1.238347111587334,-0.0010869317305344792,-9.906776892698672e-05,0.0,-0.001185999499461466,0.2,0.02,0.0,0.10308882147471038,0.026267571559461824,0.0020617764294942075,0.0,0.028329347988956033,0.04850261522645161,0.0,-0.04850261522645161,0.1917600801112777,0.0,-0.1917600801112777,-0.5434658652672396,0.0,0.5434658652672396,0.1313378577973091,0,-0.1313378577973091,0.025313731078272915,-0.067699338197871,-0.028329347988956033,0.4,0.03347039222717285,1.989940881729126,STABILIZE
0.2,0.015,0.1,0.05994731723779044,0.03271170976875852,0.0008992097585668566,-0.031005469783132053,0.002605449744193321,0.2,0.015,0.1,-0.06633433008596173,-0.0052220704110251814,-0.000995014951289426,0.05081308944891402,0.04459600408659942,0.002,8e-05,0,-1.2563213660505967,-0.0010749962554153912,-0.00010050570928404774,0.0,-0.001175501964699439,0.2,0.02,0.0,0.10853513845993326,0.032573091567643354,0.0021707027691986653,0.0,0.03474379433684202,-0.026110352055125907,0.0,0.026110352055125907,0.1635585488437926,0.0,-0.1635585488437926,-0.5374981277076956,0.0,0.5374981277076956,0.16286545783821677,0,-0.16286545783821677,0.002478673531324086,-0.04460322999948123,-0.03474379433684202,0.4,0.033440589904785156,2.0233821868896484,STABILIZE
0.2,0.015,0.1,0.06647599421550907,0.03906591905607122,0.000997139913232636,0.004007001046779386,0.04407006001608325,0.2,0.015,0.1,-0.06627361240796148,0.00036331892389928483,-0.0009941041861194222,0.018952543354318233,0.018321758092098097,0.002,8e-05,0,-1.2747016658924804,-0.0010998297331908443,-0.00010197613327139843,-0.0,-0.0012018058664622427,0.2,0.02,0.0,0.11363514976532575,0.030517152176692965,0.0022727029953065153,0.0,0.03278985517199948,0.0018165946194964241,0.0,-0.0018165946194964241,0.1953295952803561,0.0,-0.1953295952803561,-0.5499148665954221,0.0,0.5499148665954221,0.15258576088346482,0,-0.15258576088346482,0.04402111068415727,-0.01843905701329967,-0.03278985517199948,0.4,0.03342390060424805,2.056819200515747,STABILIZE
0.2,0.015,0.1,0.07238377566991593,0.035321162002386906,0.0010857566350487389,-0.0138262949824632,0.022580623654972442,0.2,0.015,0.1,-0.06400542594222311,0.013560925065737684,-0.0009600813891333466,0.0913245071238083,0.10392535080041264,0.002,8e-05,0,-1.2931634671993786,-0.0011037853716311893,-0.00010345307737595029,-0.0,-0.0012072384490071396,0.2,0.02,0.0,0.11865133863206906,0.029990550761596964,0.0023730267726413813,0.0,0.032363577534238346,0.06780462532868842,0.0,-0.06780462532868842,0.17660581001193454,0.0,-0.17660581001193454,-0.5518926858155946,0.0,0.5518926858155946,0.1499527538079848,0,-0.1499527538079848,0.022308556396529483,-0.10398409212537844,-0.032363577534238346,0.4,0.03345179557800293,2.090254545211792,STABILIZE
0.2,0.015,0.1,0.07791308757900753,0.031811605911348705,0.001168696313685113,-0.021131168966512678,0.011849133258521136,0.2,0.015,0.1,-0.06335399888512902,0.0037478335751313097,-0.0009503099832769352,0.023289764429351295,0.02608728802120567,0.002,8e-05,0,-1.31237386286858,-0.0011052252910979552,-0.0001049899090294864,-0.0,-0.0012102152001274417,0.2,0.02,0.0,0.12387954781160944,0.030079281613353305,0.002477590956232189,0.0,0.03255687256958549,0.01873916787565655,0.0,-0.01873916787565655,0.1590580295567435,0.0,-0.1590580295567435,-0.5526126455489776,0.0,0.5526126455489776,0.15039640806676652,0,-0.15039640806676652,0.011780615667414491,-0.02611830105072305,-0.03255687256958549,0.4,0.03476285934448242,2.1250557899475098,STABILIZE
0.2,0.015,0.1,0.08393964134167996,0.03586741004198997,0.0012590946201251993,-0.007076680342795608,0.03004982431931956,0.2,0.015,0.1,-0.0629919993837602,0.0021544625771053837,-0.000944879990756403,-0.021431009050673328,-0.020221426464324347,0.002,8e-05,0,-1.3308964730310762,-0.0011023846793852831,-0.0001064717178424861,-0.0,-0.0012088563972277692,0.2,0.02,0.0,0.12813591852695302,0.02533205539184449,0.0025627183705390607,-0.0,0.02789477376238355,0.010772312885526918,0.0,-0.010772312885526918,0.17933705020994983,0.0,-0.17933705020994983,-0.5511923396926416,0.0,0.5511923396926416,0.12666027695922244,0,-0.12666027695922244,0.03009445312856954,0.020154947798651755,-0.02789477376238355,0.4,0.03360462188720703,2.1586761474609375,STABILIZE
0.2,0.015,0.1,0.08942330885080592,0.032751642651150624,0.0013413496327620887,0.00048538172256330504,0.03457837400647602,0.2,0.015,0.1,-0.06116059093746818,0.010938233377832146,-0.0009174088640620227,0.0494240708910653,0.05944489540483542,0.002,8e-05,0,-1.3493768320547659,-0.0011037542188719021,-0.00010795014656438129,-0.0,-0.0012117043654362833,0.2,0.02,0.0,0.13264312034967132,0.026919623264652144,0.0026528624069934266,-0.0,0.02957248567164557,0.054691166889160724,0.0,-0.054691166889160724,0.1637582132557531,0.0,-0.1637582132557531,-0.551877109435951,0.0,0.551877109435951,0.1345981163232607,0,-0.1345981163232607,0.03443863194499324,-0.05952596213738045,-0.02957248567164557,0.4,0.033486366271972656,2.1921212673187256,STABILIZE
0.2,0.015,0.1,0.09548848701300218,0.036251346324394786,0.0014323273051950326,-0.008066793045252372,0.029616880584337445,0.2,0.015,0.1,-0.06052898932403188,0.003775059563861967,-0.0009079348398604783,0.011306293404012917,0.014173418128014405,0.002,8e-05,0,-1.3677371792795956,-0.00109739118634963,-0.00010941897434236765,0.0,-0.0012068101606919977,0.2,0.02,0.0,0.13601975163867053,0.020182000758073793,0.0027203950327734107,-0.0,0.022902395790847203,0.018875297819309834,0.0,-0.018875297819309834,0.18125673162197392,0.0,-0.18125673162197392,-0.548695593174815,0.0,0.548695593174815,0.10091000379036896,0,-0.10091000379036896,0.029591872271984575,-0.014225557719013413,-0.022902395790847203,0.4,0.033461809158325195,2.225611925125122,STABILIZE
0.2,0.015,0.1,0.10262340369233608,0.03455360051704168,0.0015393510553850412,-0.0009833017860948858,0.03510964978633183,0.2,0.015,0.1,-0.06016356588405511,0.0017697046976166586,-0.0009024534882608266,-0.03300216993130342,-0.03213491872194759,0.002,8e-05,0,-1.390372023480392,-0.0010961800949199176,-0.00011122976187843137,0.0,-0.001207409856798349,0.2,0.02,0.0,0.14096604815432803,0.023954358757392036,0.0028193209630865607,-0.0,0.0267736797204786,0.008848523488083293,0.0,-0.008848523488083293,0.17276800258520839,0.0,-0.17276800258520839,-0.5480900474599588,0.0,0.5480900474599588,0.11977179378696018,0,-0.11977179378696018,0.03517674825057803,0.03206145492488611,-0.0267736797204786,0.4,0.04129767417907715,2.2668962478637695,STABILIZE
0.2,0.015,0.1,0.10783606228483256,0.031132133600760892,0.0016175409342724884,-0.0011047971263995816,0.031644877408633795,0.2,0.015,0.1,-0.057811567184621125,0.01404710023499281,-0.0008671735077693169,0.03188931527911937,0.04506924200634286,0.002,8e-05,0,-1.4086676947536065,-0.001092692475991466,-0.00011269341558028854,0.0,-0.0012053858915717546,0.2,0.02,0.0,0.14475495559774448,0.022628908192674466,0.0028950991119548897,-0.0,0.025524007304629358,0.07023550117496405,0.0,-0.07023550117496405,0.15566066800380446,0.0,-0.15566066800380446,-0.546346237995733,0.0,0.546346237995733,0.11314454096337233,0,-0.11314454096337233,0.03155581551508781,-0.04513164464554228,-0.025524007304629358,0.4,0.03348731994628906,2.3003556728363037,STABILIZE
0.2,0.015,0.1,0.11283422446321281,0.02984682311203196,0.0016925133669481922,-0.01701163662725728,0.014527699851722874,0.2,0.015,0.1,-0.0533775355957577,0.026478083700128465,-0.0008006630339363654,0.07374701768521034,0.09942443835140244,0.002,8e-05,0,-1.4270584202012633,-0.001098213122640281,-0.00011416467361610108,0.0,-0.001212377796256382,0.2,0.02,0.0,0.14712516162890243,0.014153826471866965,0.002942503232578049,-0.0,0.017096329704445013,0.13239041850064232,0.0,-0.13239041850064232,0.1492341155601598,0.0,-0.1492341155601598,-0.5491065613201405,0.0,0.5491065613201405,0.07076913235933482,0,-0.07076913235933482,0.014404884271813771,-0.09944230645750946,-0.017096329704445013,0.4,0.033492088317871094,2.3338918685913086,STABILIZE
0.2,0.015,0.1,0.11715163311821197,0.02582725902287363,0.0017572744967731795,-0.019729810156935118,0.007854723362711688,0.2,0.015,0.1,-0.050160517255603124,0.019244591511229814,-0.0007524077588340468,0.025880319850110935,0.044372503602506705,0.002,8e-05,0,-1.4452609318970469,-0.0010888961921395389,-0.00011562087455176375,0.0,-0.0012045170666913027,0.2,0.02,0.0,0.1504382688202782,0.019819406602413433,0.003008765376405564,-0.0,0.022828171978818996,0.09622295755614907,0.0,-0.09622295755614907,0.12913629511436814,0.0,-0.12913629511436814,-0.5444480960697694,0.0,0.5444480960697694,0.09909703301206715,0,-0.09909703301206715,0.007777966323533562,-0.044386022517558125,-0.022828171978818996,0.4,0.033432960510253906,2.36729097366333,STABILIZE
0.2,0.015,0.1,0.1220019701696685,0.027032240104006,0.0018300295525450275,-0.026830767369169912,0.0020315022873811164,0.2,0.015,0.1,-0.04511038124657034,0.028145773727841425,-0.0006766557186985551,0.07209168063887682,0.09956079864801969,0.002,8e-05,0,-1.4650085324169408,-0.0011005871820216338,-0.00011720068259335528,-0.0,-0.001217787864614989,0.2,0.02,0.0,0.1531055463331702,0.014865458912976094,0.003062110926663404,-0.0,0.017927569839639498,0.1407288686392071,0.0,-0.1407288686392071,0.13516120052003,0.0,-0.13516120052003,-0.5502935910108169,0.0,0.5502935910108169,0.07432729456488046,0,-0.07432729456488046,0.0019023447693961347,-0.09956335025175429,-0.017927569839639498,0.4,0.03588557243347168,2.403205156326294,STABILIZE
0.2,0.015,0.1,0.12639251981707378,0.026240470722453387,0.0018958877972561066,-0.025085807671655233,0.0030505508480542613,0.2,0.015,0.1,-0.03959866954550243,0.032941185304202,-0.0005939800431825365,0.09127761507993985,0.12362482034095931,0.002,8e-05,0,-1.483388142182126,-0.0010984720608238213,-0.00011867105137457009,-0.0,-0.0012171431121983914,0.2,0.02,0.0,0.15479249059201777,0.010082157130568165,0.0030958498118403557,-0.0,0.013178006942408522,0.16470592652101002,0.0,-0.16470592652101002,0.13120235361226693,0.0,-0.13120235361226693,-0.5492360304119106,0.0,0.5492360304119106,0.05041078565284082,0,-0.05041078565284082,0.002941780337918319,-0.12362745647005147,-0.013178006942408522,0.4,0.03346395492553711,2.4366867542266846,STABILIZE
0.2,0.015,0.1,0.13026315903456678,0.02315066815801238,0.001953947385518502,-0.024108810533104538,0.0009958050104263462,0.2,0.015,0.1,-0.03547866674130957,0.024642135929095244,-0.0005321800011196435,0.029796086794269646,0.05390604272224525,0.002,8e-05,0,-1.5017292436653338,-0.0010969990490748687,-0.00012013833949322671,-0.0,-0.0012171373885680953,0.2,0.02,0.0,0.157179484640709,0.014276842663779135,0.0031435896928141797,-0.0,0.017420432356593317,0.12321067964547622,0.0,-0.12321067964547622,0.1157533407900619,0.0,-0.1157533407900619,-0.5484995245374343,0.0,0.5484995245374343,0.07138421331889568,0,-0.07138421331889568,0.0009286432792844894,-0.053907241547413276,-0.017420432356593317,0.4,0.033438682556152344,2.4700875282287598,STABILIZE
0.2,0.015,0.1,0.1336292766035671,0.020138388024288894,0.0020044391490535063,-0.029281903259980025,-0.007139076086637625,0.2,0.015,0.1,-0.032699958228078516,0.01662411044735449,-0.0004904993734211777,-0.031304713258947604,-0.015171102185014291,0.002,8e-05,0,-1.520138110294239,-0.0011013426942493227,-0.00012161104882353914,-0.0,-0.0012229537430728619,0.2,0.02,0.0,0.1602654995736528,0.018462624936427575,0.003205309991473056,0.0,0.02166793492790063,0.08312055223677245,0.0,-0.08312055223677245,0.10069194012144446,0.0,-0.10069194012144446,-0.5506713471246614,0.0,0.5506713471246614,0.09231312468213787,0,-0.09231312468213787,-0.007114623637298417,0.015182584739712183,-0.02166793492790063,0.4,0.033429861068725586,2.5035343170166016,STABILIZE
0.2,0.015,0.1,0.1367254176822571,0.018521621244002574,0.0020508812652338566,-0.022095026170541834,-0.0015225236613054041,0.2,0.015,0.1,-0.028039835629751084,0.027877613946893448,-0.00042059753444626625,0.023991245155541324,0.051448261567988506,0.002,8e-05,0,-1.5384219866665456,-0.0010937713251209945,-0.00012307375893332365,-0.0,-0.001216845084054318,0.2,0.02,0.0,0.16247110078957253,0.01319426644274923,0.0032494220157914507,-0.0,0.01644368845854068,0.13938806973446724,0.0,-0.13938806973446724,0.09260810622001286,0.0,-0.09260810622001286,-0.5468856625604972,0.0,0.5468856625604972,0.06597133221374614,0,-0.06597133221374614,-0.001581761039848309,-0.051446474404765734,-0.01644368845854068,0.4,0.033432722091674805,2.5369794368743896,STABILIZE
0.2,0.015,0.1,0.13956492525614655,0.016971994891475075,0.0020934738788421984,-0.030083997677626623,-0.011018528907309349,0.2,0.015,0.1,-0.022963457879981004,0.030341971272956337,-0.00034445186819971504,0.006551741178068445,0.036549260582825066,0.002,8e-05,0,-1.5568653932834202,-0.0011023791792681523,-0.00012454923146267363,-0.0,-0.001226928410730826,0.2,0.02,0.0,0.16446734833826757,0.01193175306525557,0.0032893469667653512,-0.0,0.015221100032020922,0.15170985636478168,0.0,-0.15170985636478168,0.08485997445737536,0.0,-0.08485997445737536,-0.5511895896340762,0.0,0.5511895896340762,0.05965876532627785,0,-0.05965876532627785,-0.01105657954827072,-0.03653776781804307,-0.015221100032020922,0.4,0.03346109390258789,2.5704262256622314,STABILIZE
0.2,0.015,0.1,0.14184844536727909,0.013571351195850631,0.0021277266805091863,-0.0378232652094714,-0.022124187333111583,0.2,0.015,0.1,-0.016697097880370423,0.037242050928190704,-0.00025045646820555633,0.01272583868575547,0.04971743314574062,0.002,8e-05,0,-1.5757587241629467,-0.0011228630191406277,-0.00012606069793303574,-0.0,-0.0012489237170736633,0.2,0.02,0.0,0.16643277336075277,0.011680857593161393,0.0033286554672150555,0.0,0.015009513060376449,0.1862102546409535,0.0,-0.1862102546409535,0.06785675597925316,0.0,-0.06785675597925316,-0.5614315095703138,0.0,0.5614315095703138,0.05840428796580696,0,-0.05840428796580696,-0.02217485515246691,-0.049694855093046754,-0.015009513060376449,0.4,0.03365206718444824,2.604092836380005,STABILIZE
0.2,0.015,0.1,0.1444234431300204,0.015422644070680622,0.0021663516469503058,-0.023039011279610777,-0.005450015561979851,0.2,0.015,0.1,-0.01108403908460846,0.033618750745119295,-0.00016626058626912688,0.02669388424070686,0.06014637439955703,0.002,8e-05,0,-1.5943049991106728,-0.0011108071684351845,-0.00012754439992885384,-0.0,-0.0012383515683640383,0.2,0.02,0.0,0.168214202175676,0.010669656862368121,0.0033642840435135204,-0.0,0.014033940905881642,0.16809375372559648,0.0,-0.16809375372559648,0.07711322035340311,0.0,-0.07711322035340311,-0.5554035842175923,0.0,0.5554035842175923,0.053348284311840605,0,-0.053348284311840605,-0.005506015673799322,-0.06014127380125389,-0.014033940905881642,0.4,0.03339242935180664,2.637486219406128,STABILIZE
0.2,0.015,0.1,0.147319329066093,0.017311440453248905,0.002209789935991395,-0.008382706129084542,0.011138524260155758,0.2,0.015,0.1,-0.006113737448279974,0.02971217883280235,-9.170606172419961e-05,0.03900187355228876,0.06862234632336692,0.002,8e-05,0,-1.6126091244521745,-0.0010942101411906791,-0.00012900872995617397,0.0,-0.001223218871146853,0.2,0.02,0.0,0.16983949420737232,0.009715902783107943,0.0033967898841474465,-0.0,0.01311269266725539,0.14856089416401175,0.0,-0.14856089416401175,0.08655720226624453,0.0,-0.08655720226624453,-0.5471050705953395,0.0,0.5471050705953395,0.04857951391553971,0,-0.04857951391553971,0.011080337265395162,-0.06863176570439729,-0.01311269266725539,0.4,0.03345632553100586,2.6709344387054443,STABILIZE
