Mode,Time,Freq,North-Vision,East-Vision,Down-Vision,Yaw-Vision,North-Desired,East-Desired,Down-Desired,Roll-UAV,Pitch-UAV,Yaw-UAV,Roll-Control,Pitch-Control,Yaw-Control,Thrust-Control,northVraw,eastVraw,downVraw,yawVraw,zGyro
GUIDED_NOGPS,0.0036971569061279297,272.2159916926272,258.39086663045947,-21.926831190297378,-3.010093089201787,2.53696800482997,259.7887868412471,-31.51286428132616,-17.222568334930358,-3.407291520766459,3.080361101049214,92.74789689060101,2.0143000085907867,0.27782668972732777,-0.12684840024149852,0.4928937623771357,258.39086663045947,-21.926831190297378,-3.010093089201787,-3.2643574433413676,-5.901465289847479
GUIDED_NOGPS,0.006734371185302734,329.84460522176784,257.6503276328375,-20.960703414238317,-1.8782887274344267,0.7886103719035257,259.78875754664017,-31.512769973728485,-17.22254331303247,-3.407291520766459,3.080361101049214,92.74789689060101,0.6631814888677031,0.1995119638610645,-0.03943051859517629,0.49232787270720096,256.9097886352156,-19.994575638179256,-0.7464843656670662,-3.4671917771027267,-5.901465289847479
GUIDED_NOGPS,0.010116815567016602,296.3125397386083,257.5293594372935,-19.949163623678878,-1.0351604522996984,0.6758263115825256,259.7885548484232,-31.51211743102771,-17.222369164976463,-3.407291520766459,3.080361101049214,92.74789689060101,0.7312890738931904,0.12244809433259878,-0.033791315579126284,0.4919063956436616,257.2874230462055,-17.92608404256,0.6510960979697581,-3.9105518387280824,-5.901465289847479
GUIDED_NOGPS,0.048165321350097656,26.28932457503886,257.1378495154052,-17.92731222754988,0.5999041817392068,0.5734646908708904,259.7880118008859,-31.510369207921077,-17.22189951987064,-3.256604100741049,2.956695403484255,92.5883709923462,0.7087551468986749,0.1308763845562649,-0.02867323454354452,0.4910890981491951,255.96331974974038,-15.86127700191039,1.8951008129149285,-3.714441332817188,-5.67228217179515
GUIDED_NOGPS,0.08850336074829102,24.797091253066895,256.84512144204217,-15.812462671043752,1.7893242934341613,0.29486213310263043,259.78696841605546,-31.507010258023822,-17.220990994156587,-2.8257457360563016,2.6545654006433264,92.39045943095591,0.8119843872704308,0.14663671352219176,-0.014743106655131523,0.4904948423562046,255.6742091485901,-13.650026968660868,2.821775969417798,-3.628419724436398,-5.099324376664327
GUIDED_NOGPS,0.12868309020996094,24.892750526721862,255.97873257660794,-12.976046183040964,2.8929368561097757,0.007138063267959113,259.78527156772765,-31.5015476249186,-17.219503171356045,-2.3056874486887144,2.2773588122192634,92.20213745516031,0.9634887303976468,0.20134739752920808,-0.0003569031633979557,0.4899437799862671,254.0589223032883,-9.416834578551638,3.961933785996601,-3.654716517761898,-4.870141258611998
GUIDED_NOGPS,0.16709613800048828,26.036214655948353,255.48932102812446,-10.03609776530461,3.706398724016251,-0.2608068123364121,259.78277489549816,-31.4935101332049,-17.217298581817833,-1.935369746372844,1.9373968184524568,92.09312763600691,1.1127228587475708,0.22661124444633027,0.013040340616820606,0.48953815134708295,254.4627308927982,-7.041431748701324,4.335486416634356,-3.8894738218045433,-4.8128454790989155
GUIDED_NOGPS,0.208207368850708,24.327075104545482,254.7439812937389,-7.108254691933619,4.26563713613116,-0.5325684892475058,259.7793387087935,-31.48244807954842,-17.214242682464707,-0.7789354235983228,1.0664109887707252,91.65335907610647,1.2555964807135713,0.27323285249580964,0.02662842446237529,0.48926006009070205,253.5607243742777,-4.866497748547889,4.499491205762524,-4.183757637573294,-6.0733526283867265
GUIDED_NOGPS,0.25153350830078125,23.08672581959092,254.1961525137096,-4.7586396357798515,4.469901034900689,-0.8377839726672185,259.7748298909024,-31.4679329237305,-17.210203836540288,0.21457003259019355,0.33018404436140436,91.183257646102,1.3630724942750494,0.3061112050324824,0.04188919863336093,0.4891599475642795,253.22417584959393,-2.3679894100903343,4.574725482305189,-4.145610913721697,-6.760901982543714
GUIDED_NOGPS,0.30304527282714844,19.41672569034558,253.59404006417958,-1.471913132644629,4.494866711953763,-1.191100925707515,259.7691218030073,-31.44955697969753,-17.20505329335592,0.802190883700894,-0.45174972556084825,90.65467613642389,1.5306875667674986,0.34769938124291355,0.05955504628537575,0.48915003999734513,252.66364690093994,2.818747760704342,4.410383447793579,-4.759873687737198,-7.677634454753031
GUIDED_NOGPS,0.34964418411254883,21.4625839200917,253.0180900159267,2.053376705655632,4.444574947540118,-1.578778265725601,259.7620941882149,-31.426933106610335,-17.1986651680376,0.9603212889309135,-0.6242967924989136,90.39331894783335,1.7091619259404756,0.39184101899658413,0.07893891328628005,0.48917837994221114,251.17917206202375,5.709371766352893,4.348615912521588,-4.288077013622015,-6.64631042351755
GUIDED_NOGPS,0.3887195587158203,25.597187808956537,252.40917539452457,5.666623789136075,4.306236077329694,-1.9256428023511314,259.75363307558797,-31.399694399893598,-17.19091642127283,1.1532868328667618,-0.8047573272815263,90.1283895703069,1.8951737646721756,0.4403299748306234,0.09628214011755658,0.48925142375069874,251.41815778578749,8.471751840350995,4.159708871673918,-4.776798466891805,-6.41712730546522
GUIDED_NOGPS,0.43412303924560547,22.02647817205035,251.73843107484262,9.420301234702464,4.30950183952105,-2.198526679315865,259.7436306841763,-31.36749388228527,-17.181686839057548,1.206718122083302,-0.8825790085807707,89.90684555438837,1.9828095132075374,0.48549796443829774,0.10992633396579327,0.4892544056607107,250.20700277586806,14.079780097403509,4.420180734367647,-5.437640077770254,-4.92743703812508
GUIDED_NOGPS,0.47870492935180664,22.435071916470985,250.8317397388052,13.084561050835319,4.451106446679774,-2.4673606210742727,259.7319853270478,-31.330004194885966,-17.170859012443003,1.3516817368625353,-0.8902311149678592,89.69627082227687,1.978439263923368,0.5425048209897443,0.12336803105371363,0.4891890172704386,248.69071916940683,16.70215121475146,4.773429733997761,-5.474591571400893,-3.9534087864026803
GUIDED_NOGPS,0.5230233669281006,22.570286224728655,249.70223790111635,17.474225370154063,5.058144236309889,-2.6907348858752065,259.7186013153201,-31.286917288208375,-17.15831831728264,1.3902081659279328,-0.5500212066785224,89.59544356974914,1.9735400274559376,0.6087458728193699,0.13453674429376034,0.4888917687232037,247.0161377124958,21.640744798307228,5.980822240564263,-6.193386218247468,-2.46371851906254
GUIDED_NOGPS,0.5637257099151611,24.57465607349598,248.88079299182627,20.800647387286485,5.936948075451085,-2.8682570144952675,259.7033888621913,-31.23794411322667,-17.14395289397901,1.4291191132992607,-0.17627768424621457,89.52221711165744,1.9697463636723742,0.6523933102279267,0.14341285072476337,0.488459549515285,247.07194751557338,24.059046148800782,7.056592251791233,-6.800995345576595,-1.776169164905552
GUIDED_NOGPS,0.606060266494751,23.625223195426255,247.80724895168115,23.99676065446776,7.254328435535107,-3.0098759138587794,259.68626398697137,-31.18281431242592,-17.127653627230657,1.298842326226259,0.5085317028129559,89.47086091928811,1.965185500420121,0.7128328340744347,0.15049379569293897,0.4878090089686171,246.050437585062,26.29049101629527,8.725570814249828,-7.007702737443168,-1.088619810748564
GUIDED_NOGPS,0.6420309543609619,27.80778614617588,246.60297112323423,26.86526721595644,9.771833868185654,-3.1220842256069874,259.6671484191136,-31.121275910851477,-17.109314125779004,1.3433013081943412,0.8598347988097454,89.44745386100247,1.960309943203067,0.7800043081507756,0.15610421128034938,0.48655942600301766,244.18561363363338,30.246264482773274,13.533338538515906,-7.174434235854292,-0.34377467707849396
GUIDED_NOGPS,0.6873869895935059,22.05427461208007,245.4617420215587,29.493649376547438,12.867059427729288,-3.20435966959983,259.6459695022453,-31.053095007158397,-17.088830702155263,1.311871018789764,1.125546019552755,89.45101238956005,1.956249694879383,0.8349603267091822,0.1602179834799915,0.48502205493505773,242.98457366102923,31.944192630573784,16.34226893042214,-7.305362078064775,0.0
GUIDED_NOGPS,0.7338950634002686,21.510244062546477,244.33200055416643,31.89170506069441,16.17556729063183,-3.26266118377893,259.62266009819956,-30.978055464660862,-17.066102352427304,1.496381108698254,1.3119067705612009,89.50102986485206,1.9522333768379105,0.892166537206158,0.1631330591889465,0.48337916517847046,241.3674303755342,33.4846580687362,18.65109440295745,-7.266502158430114,1.0313240312354819
GUIDED_NOGPS,0.7747542858123779,24.47513567135438,242.8523399637777,33.430828761026625,18.711921591408643,-3.2863975955776783,259.59715849104595,-30.895958602381548,-17.04103073594657,1.702635746159714,1.3146459965834933,89.58164658762571,1.9473180693829752,0.9718150009867659,0.16431987977888393,0.4821235238363224,239.67364456362984,34.86363558376989,21.142401440846356,-7.0241101676874536,1.432394487827058
GUIDED_NOGPS,0.8207437992095947,21.75017631196847,241.17785971755112,34.84857217834742,20.93205303177444,-3.267318617691161,259.5694082911221,-30.806622886101064,-17.013520155094955,1.9509340399440105,1.153184593472623,89.69015780296971,1.942893295299118,1.0541249826078438,0.16336593088455806,0.4810272134065653,237.6780363539293,36.19742288253617,23.002663251519525,-6.6324769547345,2.7501974166279517
GUIDED_NOGPS,0.8624422550201416,23.98622921944608,239.11783489008076,36.510813537712885,23.152243935229222,-3.1978314415477813,259.53935833906473,-30.709883619407353,-16.98347753503171,2.1342896144393566,1.0711133605708674,89.83947256841536,1.9381081971658436,1.1601428892584862,0.15989157207738908,0.47993213926486955,233.88548949628174,38.47138214683258,25.311667113321803,-6.145528675595685,3.495042550298022
GUIDED_NOGPS,0.9074258804321289,22.235143187336323,236.8797828065498,38.039174141670095,24.68605577381291,-3.1038180728923455,259.50696260984097,-30.60559263474509,-16.95081240344032,2.327333171942131,0.965183743289728,89.9929127681197,1.933979220425695,1.2681466452052699,0.1551909036446173,0.4791815659113734,231.7943132433745,39.44871739564152,25.743836956597416,-5.690684379457593,3.8388172273765155
GUIDED_NOGPS,0.9419682025909424,28.9605877316541,234.57670121769766,39.418739113277404,25.617357319485663,-2.9666625573707686,259.47218011677944,-30.493617984465093,-16.915436870275418,2.484474053516145,0.7547797659074852,90.13789719363156,1.9306638297239973,1.3861082800006062,0.14833312786853844,0.47873360290511946,229.85202243127364,40.3361177973581,25.796567888537783,-5.271918358152362,4.870141258611998
GUIDED_NOGPS,0.9914052486419678,20.231160675094902,232.36072728167005,40.387236573809275,25.73676032569179,-2.8576721441281934,259.43497481560155,-30.373843631873726,-16.877265607509656,2.6235275269509075,0.6202311223954635,90.39566170271867,1.9283535342393217,1.4816207731003201,0.14288360720640966,0.4786929870333993,228.5937748834917,41.37687452842819,25.66987613194019,-5.169052424241102,4.354479242994256
GUIDED_NOGPS,1.0325148105621338,24.330179649749695,230.00968314832124,41.55386278677753,25.550393545221613,-2.6847676822991207,259.39531550845265,-30.24616914228232,-16.83621582888061,2.6181957105300664,0.6234203938510363,90.5339320522764,1.9270664445433934,1.5987901447113617,0.13423838411495603,0.4788066953129489,225.9228156871853,42.948596034546284,25.184736615186896,-4.870258734029392,4.1252961249419275
GUIDED_NOGPS,1.0775213241577148,22.22277324771245,228.2210815812798,42.64944438538638,25.261182694643598,-2.559555797468214,259.3531757479333,-30.11050937405656,-16.792207269637682,2.5066089890688636,0.717972089913698,90.7153282162536,1.9269974696116643,1.6744979060549565,0.1279777898734107,0.47897330501785934,224.9424816610744,43.62286259318465,24.928935336803725,-4.875798615204829,3.724225668350351
GUIDED_NOGPS,1.120924949645996,23.044740037471087,226.6755909837491,43.63246128445913,25.020296513691175,-2.4268268513040674,259.30853374113036,-29.966794169665906,-16.745162166288967,2.2553216337490403,0.8517178660331258,90.89531736126177,1.927725527354387,1.744634133388515,0.12134134256520338,0.4791172706600099,224.066860255721,44.32592522564644,24.947217589082904,-4.580856787942139,3.380450991271857
GUIDED_NOGPS,1.1669468879699707,21.732482888335053,225.1015666385195,44.474275997752834,25.05215280821261,-2.3054613847859806,259.2613722536484,-29.814968046732996,-16.695005236348173,2.0147700551440075,0.938530957766163,91.08906933744753,1.9283202444148886,1.8177977156850178,0.11527306923929903,0.4791264209777196,221.98190070512547,45.47404017442738,25.280305498751208,-4.811293664793766,3.8388172273765155
GUIDED_NOGPS,1.2089228630065918,23.82951259281985,223.62888547309635,45.30435929168859,25.317881254193633,-2.1816806956630947,259.21167851364083,-29.654989889083055,-16.641663658081495,1.7943331702012506,1.1776964348565064,91.25535712298066,1.9294675312416942,1.8868409883204524,0.10908403478315475,0.4790202275438624,221.23036905637602,46.11311247499192,25.726120674746777,-4.808942746827455,3.4377467707849396
GUIDED_NOGPS,1.254361867904663,22.012952796817434,222.13823733927225,46.12177516337425,25.917242075034448,-2.0643834451441214,259.1594441158409,-29.486832637793285,-16.58506705025452,1.6944410132595795,1.308814188971066,91.44263407983324,1.9307218093581993,1.9554829845845099,0.10321917225720607,0.4787488454373555,218.46957501806466,46.77817284070344,26.74530005160535,-4.897022709328823,4.18259190445501
GUIDED_NOGPS,1.2915143966674805,26.922115100709913,220.6471460835196,46.714867167253225,26.66653712169767,-1.9263985845598763,259.1046649255932,-29.310482982242302,-16.525147451879114,1.6331970548496024,1.683884849175619,91.60955707295918,1.9328520461667915,2.0277588084283376,0.09631992922799382,0.4784041577132116,217.48702538231115,47.25331618606428,27.528190638740867,-4.853868543965518,4.18259190445501
GUIDED_NOGPS,1.3368809223175049,22.046044194016357,218.88494525136994,47.16899789310575,27.550424529471357,-1.8123143858420196,259.0473409828848,-29.125941051159522,-16.461839301960318,1.6057435363675592,1.9283852376162713,91.80127365277227,1.9357484147949835,2.0602187367231783,0.090615719292101,0.4779938680842842,215.25585609497256,47.47550465254949,28.37778289806785,-4.33403682305466,4.1252961249419275
GUIDED_NOGPS,1.3814125061035156,22.462225602082185,217.2826014950373,47.50296943238473,28.33716742823572,-1.6604751756177722,258.98747640637623,-28.933220103674564,-16.395079419243242,1.5053842585196826,2.244108170679172,92.03463389595493,1.9412067696227995,2.055409945222621,0.08302375878088862,0.4776338765762605,213.97018192346235,47.78008745854037,29.105528747898447,-4.308045510715559,4.411775022507339
GUIDED_NOGPS,1.4195129871368408,26.25295903358057,215.39644942721196,47.93738715291598,29.43592560852994,-1.5116850685840988,258.925079297433,-28.732346220366676,-16.32480698195995,1.5018734345645903,2.4244418133536105,92.18689247293285,1.946542289574085,2.050655314479346,0.07558425342920494,0.4771196337047551,211.79960871724933,48.55656934765802,30.82446517962352,-4.512702381913712,4.469070802020421
GUIDED_NOGPS,1.4589004516601562,25.39078636721351,213.6648177801933,48.3531486055476,30.53317856869202,-1.3795604178000325,258.86016164415673,-28.52335799431412,-16.25096350757636,1.5373510379392232,2.593054424525484,92.34772293731913,1.9512691939342837,2.0463981535692253,0.06897802089000163,0.4766079289618658,209.81141678297124,48.722789010444366,31.669541778554095,-4.131149255385239,4.698253920072751
GUIDED_NOGPS,1.5103442668914795,19.44300793146767,211.8653772908135,48.750695148875714,31.70093918915798,-1.2413560380929094,258.7927392254161,-28.3063062221436,-16.17349283253914,1.5987209279620225,2.857113379819585,92.60535084262285,1.9562025034498214,2.0419098924440418,0.062067801904645475,0.4760627839891514,208.48982293541232,48.97272708852473,32.60881060929634,-3.9194087180927113,4.354479242994256
GUIDED_NOGPS,1.5539164543151855,22.952931841190797,209.87613828499988,49.00332636093962,32.79507658209925,-1.049412851547758,258.7228315148784,-28.08125359507966,-16.092341092022593,1.7085482353817119,2.976382996879994,92.81806342394455,1.9630351732801072,2.035616915875091,0.052470642577387906,0.47555629116293907,205.3096610659044,49.31446298384972,34.10687735844733,-3.8045369188300384,4.640958140559668
GUIDED_NOGPS,1.591353178024292,26.72041791425113,207.76262769165177,49.217344888558124,33.830787857452904,-0.8965860714441785,258.65046158504066,-27.848274389994067,-16.007456699675558,1.713356688557401,3.0033421804208573,92.87388656003107,1.9684596525502613,2.030557078747153,0.04482930357220893,0.47508087772143576,203.40262895672194,49.364844593299864,34.77667560461504,-3.3776123984963817,4.010704565915763
GUIDED_NOGPS,1.6299338340759277,25.923730175408235,205.80124660483108,49.4273814135776,34.68868192342459,-0.7824063225381759,258.57565601126066,-27.607454160455273,-15.918790327368294,1.7910508374182363,3.0476333958674515,93.01572226833555,1.9725032443671577,2.026748340336734,0.0391203161269088,0.47469626387460356,201.9927032831459,49.602836663583176,35.18249280721141,-3.102088969827392,3.7815214478634336
GUIDED_NOGPS,1.6665232181549072,27.33710054813627,203.8323471188427,49.532131843786566,35.11969301388129,-0.6685493404543574,258.4984447757884,-27.35888942777776,-15.826294884939383,1.956723265595831,2.862519047660827,93.15966850509358,1.9765276054305096,2.0229262163656716,0.03342746702271787,0.4745270060505897,199.96691935302945,49.62871427447661,35.39991062981741,-2.579332347689231,3.323155211758775
GUIDED_NOGPS,1.7130541801452637,21.495251810359406,201.87248089194009,49.69777330597046,35.31796716653552,-0.598906084968078,258.41886117179706,-27.1026873720715,-15.729925499942615,2.1680595637997806,2.504319168149617,93.31506896908971,1.9789853527456174,2.0205764640633577,0.0299453042484039,0.47447605366676093,198.69049180089922,49.86176897985153,35.371498062577736,-2.451945598538259,1.5469860468532228
GUIDED_NOGPS,1.7583374977111816,22.087025208136957,199.94883880358185,49.90495015944949,35.031427564665904,-0.5227804495981607,258.33694170741444,-26.838965523291307,-15.629639497393885,2.3053583189480844,2.224130721130531,93.37080331271702,1.981668521800841,2.017997717351221,0.026139022479908038,0.4746694664689701,195.69145062411337,50.22436722402025,34.322874001602564,-1.901279221282138,1.2032113697747289
GUIDED_NOGPS,1.7995717525482178,24.258413774356423,198.12587887219777,50.19625585527854,34.38638395785667,-0.4878482812930521,258.252726009754,-26.567851452286313,-15.525396379518085,2.3672436748098082,1.8903133362957971,93.37676606786243,1.9828985909708776,2.016810805290761,0.024392414064652604,0.4750441098313126,194.28782929980153,50.50263136196375,33.46477980938971,-1.7392726434124057,0.2291831180523293
GUIDED_NOGPS,1.8449485301971436,22.039556928768103,196.4674308242598,50.60204940807165,33.49388437379516,-0.4861634391020247,258.16625672894617,-26.2894824618493,-15.417157805495997,2.2641180636263707,1.7063448590441481,93.38987320087969,1.9829579008218314,2.0167535013300006,0.024308171955101238,0.4755444789103544,193.70046304345578,51.07914963823089,32.69399931039319,-1.9070864512679435,-0.11459155902616465
GUIDED_NOGPS,1.8970043659210205,19.215158442557986,194.73310811018536,51.173440370073514,32.28627590428283,-0.5247229936290593,258.0775794421695,-26.004005277766165,-15.30488757121119,2.2135663394752254,1.7356625922827815,93.33058715888397,1.9816000972220031,2.0180636541491515,0.026236149681452964,0.476204418262253,191.29530578265732,51.93854011002586,30.700048593065578,-1.8033257906257774,-1.8334649444186344
GUIDED_NOGPS,1.933568000793457,27.35742751850765,193.1157675451578,51.846747265636374,31.136854251571563,-0.5983700019035014,257.9867425576819,-25.711575739865292,-15.188551588996901,2.1416273720420658,1.6673186522305763,93.27700432484522,1.979004260065231,2.020558341834101,0.029918500095175073,0.4768372970797158,190.6037889757615,52.52255204865233,30.01651485125591,-1.8350000372060151,-1.7188733853924698
GUIDED_NOGPS,1.990074872970581,17.717819607313036,191.88113190826414,52.50501888826913,30.047691012405448,-0.6948093498465031,257.89379721885183,-25.412358493066982,-15.068117867382949,2.014591616451941,1.8243132183459638,93.10524555778692,1.9756001174650326,2.0238098888405407,0.03474046749232516,0.4774420955601058,189.51827243964493,53.05396450612914,29.42650959289483,-1.8148851750037096,-3.20856365273261
GUIDED_NOGPS,2.0327131748199463,23.436186559533322,190.59849197085398,53.30754121723147,29.531188766385927,-0.8784154302771997,257.79879720818957,-25.106526678432846,-14.9435564908426,1.9508751295624192,1.9014247734149385,92.92893788474137,1.9691036758950433,2.029952578934282,0.04392077151385999,0.47776262737138575,187.87462961275077,54.34610709691286,29.150541855007024,-2.479116470778905,-4.5263665815335035
GUIDED_NOGPS,2.084479570388794,19.32155574698612,189.12946564765826,54.089865256902755,29.296584574098247,-1.104619703663468,257.7017988513782,-24.794261624215206,-14.81483959953949,1.9167534254597396,1.895830848484698,92.64038971306502,1.9610722089654888,2.037433982880379,0.0552309851831734,0.4779442879131811,186.35533142747704,54.869524167666185,29.312702274392866,-2.858260626442771,-6.474423084978302
GUIDED_NOGPS,2.125011920928955,24.67542461127551,187.69676620039337,55.1604548355022,29.36162133620894,-1.449610893320098,257.60286092130525,-24.475752536906523,-14.681941369074496,1.7930271099658974,2.0772406728402366,92.26880693164881,1.948764352013019,2.0486593390524366,0.0724805446660049,0.4779782186473583,184.13180854633282,56.26573324192747,29.62161987922691,-3.5952089569408088,-8.766254265501596
GUIDED_NOGPS,2.1576528549194336,30.644884121927696,186.07340206567181,56.0562596935002,29.562265844867806,-1.7970156938360704,257.5020445420934,-24.151196192288786,-14.544837990232637,1.7081505903059704,2.1731843401114057,92.04145725493576,1.9362989926027108,2.059736206974005,0.08985078469180352,0.4779464480824498,182.48696830215385,57.03352167090687,29.75247538098362,-3.4660578644670608,-9.339212060632418
GUIDED_NOGPS,2.191566228866577,29.494979044190035,184.42398887848464,57.10059007100285,29.75804320380145,-2.1109618490501005,257.39941309313207,-23.820796626482924,-14.403507648729969,1.5838854369196376,2.303868057048552,91.74241791269426,1.9249729298018943,2.0695489147846318,0.10554809245250503,0.4779192245737343,181.2712065037089,58.002515300174146,29.9000343511938,-3.4209193304961047,-10.427831871380983
GUIDED_NOGPS,2.2319087982177734,24.794452687644462,182.85615032990123,58.028787301885636,29.892965040097888,-2.4790272055099942,257.29503211310845,-23.48476482699821,-14.257930504960472,1.3165756317457278,2.510515430387288,91.12321345310842,1.911620865505534,2.0808128960583807,0.12395136027549972,0.4779245522274708,180.03543686983377,59.05032493457582,30.026385388116218,-3.984559686918587,-12.032113697747288
GUIDED_NOGPS,2.275808334350586,22.78410985990472,181.24058007418725,59.071915619834165,30.07937916774902,-2.9411149476951826,257.1889692040387,-23.143318423781675,-14.108088673742952,1.0125006258169318,2.757094650934857,90.59120318846696,1.8947463915585443,2.0945842679735565,0.14705574738475913,0.477906266079254,178.27748014890727,60.162906624752466,30.311717763937015,-3.9182099926815965,-12.719663051904275
GUIDED_NOGPS,2.316118001937866,24.811026323572907,179.4685496382005,60.59773998418308,30.55784690724538,-3.482077843282002,257.0812939352993,-22.796681380267522,-13.953966204067925,0.7676512573983741,2.9337758499506315,90.20042074529385,1.8748350525347235,2.1101782716977384,0.1741038921641001,0.4777440934443433,175.27165636639918,62.57998839322088,31.33543756968288,-5.095678088037275,-13.178029288008934
GUIDED_NOGPS,2.359323024749756,23.148395072630137,177.69730125466768,62.234571828297646,31.223370685488533,-4.013519510326215,256.9720777476581,-22.445083684426493,-13.795549058844514,0.3208387447512402,3.2451872260999615,89.42135570818385,1.855111411544091,2.124937818109974,0.20067597551631075,0.4774905401278335,173.63072638448958,63.96082046691953,32.022956722845656,-5.110995600925378,-14.152057539731334
GUIDED_NOGPS,2.393479585647583,29.296992980127825,175.88440567348147,63.95561278136429,32.11387875770422,-4.603103941284914,256.8613938573056,-22.08876103981534,-13.632825094647345,0.08960281713248414,3.4585853876596087,89.0050283575149,1.8330432171841753,2.1406561420521086,0.2301551970642457,0.4771266480738242,172.20672859777784,65.3260294839524,32.98324198058406,-5.57047062432008,-14.209353319244416
GUIDED_NOGPS,2.444697856903076,19.527464034638484,173.88017000349697,65.26515186270413,32.936015518733306,-5.0808396900074255,256.7493171598861,-21.72795455662616,-13.465784041463433,-0.2018666277859103,3.697674025121789,88.2246655844626,1.8150190631718084,2.1528817497110078,0.2540419845003713,0.47679910021990163,170.01425851991127,66.50860563724042,33.80184785277014,-5.384780918712565,-15.355268909506062
GUIDED_NOGPS,2.480562448501587,27.887474152432496,171.47443982360704,66.93422167281558,34.07073247729159,-5.7987072304239575,256.6359241345291,-21.36291044273586,-13.294417482439082,-0.3207445628458881,3.7191652153452344,87.64151769350525,1.7876982782775352,2.1703840163743693,0.28993536152119787,0.4763174250201347,166.24882924945774,68.96802989725388,35.42710759852053,-4.338883477976978,-14.78231111437524
GUIDED_NOGPS,2.5154037475585938,28.707856785966065,169.66987440021876,68.14822181058274,34.88535434993708,-6.282451446867317,256.5212927478803,-20.99387969475554,-13.118718833626772,-0.46032209321689027,3.66881434144437,87.20615460561947,1.7691292854118297,2.1815846340707354,0.3141225723433659,0.4759979634082181,166.24882924945774,68.96802989725388,35.42710759852053,-4.338883477976978,-14.495832216809829
GUIDED_NOGPS,2.5470194816589355,31.641274008358604,167.6004170801431,69.95576014002732,35.80377458408047,-6.753768705322244,256.4055023581327,-20.6211177890799,-12.93868332373206,-0.5905272700253127,3.7113420874246312,86.78631653771713,1.7509160120821021,2.192033928549433,0.33768843526611225,0.47562877104609375,163.2834397841112,71.93122062557411,36.557108555200315,-6.108667715163392,-14.152057539731334
GUIDED_NOGPS,2.590385913848877,23.089013420823747,165.33061824144312,71.31023231838252,36.22724992765156,-7.1669375384943645,256.2886336190584,-20.244884372936646,-12.754307973860465,-0.6847703802757074,3.69361390454704,86.16060290785227,1.734852290810051,2.200815129741113,0.3583468769247182,0.475509221049244,160.85773440427783,73.03144643231946,36.6975336292338,-7.1393538418619755,-13.06343772898277
GUIDED_NOGPS,2.628955125808716,25.912198979402717,163.21928501262124,73.14505442522521,36.714554981828165,-7.6785157104131745,256.17076838403887,-19.865442955435896,-12.565591577264364,-0.7686592972703329,3.648176924867176,85.65382336200483,1.7148375711961326,2.2111940533254413,0.38392578552065876,0.47535992672045374,159.45759237580177,74.47249621778192,36.88902276105035,-5.476532093377102,-11.860226359208042
GUIDED_NOGPS,2.6697030067443848,24.548909894354864,161.49991958555194,74.44661239864287,36.798136644632145,-8.098808819069099,256.0519896100971,-19.483060598619595,-12.372534679089883,-0.8462570764308477,3.502433921470621,85.2772545424945,1.6982918751139626,2.219309635730451,0.40494044095345494,0.475414664338139,157.6520021141111,75.83589454582709,36.80785354361226,-6.312139418291352,-10.771606548459477
GUIDED_NOGPS,2.7085139751434326,25.770819764798407,159.21884280861596,76.28415389536202,36.74070407183434,-8.51622636167237,255.9323812619283,-19.098007608510915,-12.1751395561238,-0.8010529635129993,3.500554338788398,84.9177202147742,1.6817689313553816,2.227000243746639,0.4258113180836185,0.47554207818602096,154.84344536477795,78.54407092247689,36.525235910840394,-8.535628247702476,-9.281916281119337
GUIDED_NOGPS,2.7435779571533203,28.524918389553864,157.5308439247493,77.6413454635937,36.619441788431025,-8.851316078733552,255.81202821593098,-18.710557226163665,-11.97341019654042,-0.8767041387600605,3.5897770999162746,84.58204373782476,1.6684401988730386,2.232906270137304,0.4425658039366776,0.4757035740075143,154.84344536477795,78.54407092247689,36.525235910840394,-8.535628247702476,-7.792226013779196
GUIDED_NOGPS,2.7846872806549072,24.328909512761022,155.76459241700312,79.31870822596444,36.354403997030595,-9.094679802285834,255.69101616423865,-18.320985318711703,-11.767352279648488,-0.9110574823251388,3.711389898748821,84.31337141663315,1.6587242159197133,2.2370455092328587,0.4547339901142917,0.4759391218616605,152.0264768655469,80.86798283293938,36.01274016941097,-6.948153009759807,-6.474423084978302
GUIDED_NOGPS,2.8326637744903564,20.849342850893763,154.04550644458018,80.40319980076147,36.127796740608964,-9.341050481266944,255.5694315187506,-17.92957007041831,-11.556973155638065,-0.9811289266288284,3.9494727908557175,84.10158774103856,1.6488577025720303,2.241106818223715,0.4670525240633472,0.4761576150518765,150.86216251368722,81.79754564686796,35.84541414157549,-8.168446473572487,-4.755549699585833
GUIDED_NOGPS,2.870363712310791,26.526752510814845,152.6875385244954,81.4876913755585,35.901189484187334,-9.570610073140315,255.44736131516336,-17.536591673725656,-11.342281825327436,-1.0373937838555722,4.199324952676192,83.93399538937395,1.6396369887785078,2.244773797501097,0.47853050365701577,0.4763782643452426,150.86216251368722,81.79754564686796,35.84541414157549,-8.168446473572487,-4.010704565915763
GUIDED_NOGPS,2.9051718711853027,28.736966873351374,151.89128195427728,81.79754564686802,35.84541414157551,-9.704920726476004,255.3248931170017,-17.142332020304153,-11.12328891990999,-0.9719934418922307,4.299776971686392,83.8349508162196,1.6342299222116863,2.24686672066384,0.48524603632380026,0.47651564846925726,150.86216251368722,81.79754564686796,35.84541414157549,-8.168446473572487,-3.20856365273261
GUIDED_NOGPS,2.933480739593506,35.341883078582384,151.0950253840591,81.79754564686802,35.84541414157551,-9.775064366763681,255.20211491965003,-16.747074392101887,-10.900006680701118,-0.9368225567000136,4.456911876844883,83.7922006622045,1.6314025141543702,2.247944301804568,0.4887532183381841,0.4766272895888617,150.86216251368722,81.79754564686796,35.84541414157549,-8.168446473572487,-1.604281826366305
GUIDED_NOGPS,2.9750027656555176,24.088029220555466,150.86216251368717,81.79754564686802,35.84541414157551,-9.791976569171265,255.07911505438352,-16.351103152394025,-10.67244893888511,-0.7771604281877658,4.456017122063611,83.76934001905245,1.6307204370717934,2.2482025282950557,0.4895988284585633,0.4767410684597697,150.86216251368722,81.79754564686796,35.84541414157549,-8.168446473572487,-0.2291831180523293
GUIDED_NOGPS,3.012770891189575,26.485713022777073,150.86216251368714,81.79754564686802,35.84541414157551,-9.801197770875472,254.95598209239932,-15.954703436832201,-10.440631095262042,-0.6625065249024046,4.461871021069135,83.80607960659795,1.630348481810192,2.2483430637297728,0.49005988854377364,0.4768569773815812,150.86216251368722,81.79754564686796,35.84541414157549,-8.168446473572487,1.0313240312354819
GUIDED_NOGPS,3.050358772277832,26.61107128128668,150.86216251368714,81.79754564686802,35.84541414157551,-9.741601214369547,254.83280474884776,-15.558160844493976,-10.204570099994674,-0.6348678442608306,4.555770327344355,83.90750791577264,1.632751679920374,2.247431547271256,0.48708006071847737,0.47697500787921493,150.86216251368722,81.79754564686796,35.84541414157549,-8.168446473572487,2.979380534680281
GUIDED_NOGPS,3.0906989574432373,24.794012981331946,150.86216251368714,81.79754564686802,35.84541414157551,-9.631475664077396,254.70967178686357,-15.161761128932167,-9.964284432355342,-0.5552962471518879,4.449168149873381,84.05519709619583,1.6371877817116502,2.2457270601996537,0.4815737832038698,0.4770951507130346,150.86216251368722,81.79754564686796,35.84541414157549,-8.168446473572487,4.068000345428845
GUIDED_NOGPS,3.1306495666503906,25.03583792947019,150.86216251368714,81.79754564686802,35.84541414157551,-9.46097200359023,254.5866719215971,-14.765789889224294,-9.719794080472848,-0.5295632426496003,4.480743687519527,84.2840220937696,1.644044110647639,2.2430365666041028,0.47304860017951156,0.4772173958889758,150.86216251368722,81.79754564686796,35.84541414157549,-8.168446473572487,5.901465289847479
GUIDED_NOGPS,3.1709351539611816,24.827328207222724,150.86216251368714,81.79754564686802,35.84541414157551,-9.238908507274205,254.46389372424542,-14.370532261022028,-9.471120521079353,-0.5189863211938653,4.525509174226613,84.57849203945635,1.652951936591935,2.239438837784461,0.4619454253637103,0.4773417326686726,150.86216251368722,81.79754564686796,35.84541414157549,-8.168446473572487,6.932789321082962
GUIDED_NOGPS,3.206772565841675,27.912714204904667,150.86216251368714,81.79754564686802,35.84541414157551,-8.979307785446682,254.34142552608375,-13.97627260760052,-9.218286699257273,-0.417764571880716,4.5727557271497075,84.85379647433206,1.6633340363371814,2.2350989844960125,0.44896538927233415,0.4774681495795836,150.86216251368722,81.79754564686796,35.84541414157549,-8.168446473572487,7.677634454753031
GUIDED_NOGPS,3.2410664558410645,29.16620192341124,150.86216251368714,81.79754564686802,35.84541414157551,-8.714741952662548,254.21935532249648,-13.58329421090787,-8.961317008186175,-0.20895044108971267,4.373514413305381,85.161571628522,1.6738795699336366,2.2305279854402205,0.4357370976331274,0.4775966344251191,150.86216251368722,81.79754564686796,35.84541414157549,-8.168446473572487,8.307888029396937
GUIDED_NOGPS,3.277667999267578,27.326948386172027,150.86216251368714,81.79754564686802,35.84541414157551,-8.451552663680218,254.09777067700844,-13.191878962614489,-8.700237268889655,-0.00031984495222700337,4.382245529498773,85.45901270649772,1.6843348233262647,2.2258328625065125,0.4225776331840109,0.4777271742947674,150.86216251368722,81.79754564686796,35.84541414157549,-8.168446473572487,8.250592249883855
GUIDED_NOGPS,3.315086841583252,26.733190987603173,150.86216251368714,81.79754564686802,35.84541414157551,-8.164135029831549,253.9767586253161,-12.802307055162508,-8.43507470998226,0.20254262975075646,4.153048713502063,85.67520185410696,1.6957119471613902,2.220537575194987,0.4082067514915775,0.4778597555742211,150.86216251368722,81.79754564686796,35.84541414157549,-8.168446473572487,8.479775367936185
GUIDED_NOGPS,3.3552958965301514,24.873559673832467,150.86216251368714,81.79754564686802,35.84541414157551,-7.852199317627685,253.85640557931882,-12.414856672815262,-8.165857947416345,0.56803876546134,3.967486134131157,86.14732502010575,1.7080112977768893,2.2145928923901352,0.39260996588138425,0.4779943639555041,150.86216251368722,81.79754564686796,35.84541414157549,-8.168446473572487,9.224620501606255
GUIDED_NOGPS,3.386691093444824,31.860716320407157,150.86216251368714,81.79754564686802,35.84541414157551,-7.513573906643953,253.73679723114995,-12.029803682706593,-7.892616964228999,0.7426703207567286,3.939180976436978,86.42873564409945,1.7213056790966443,2.2079075956816405,0.37567869533219767,0.47813098444709773,150.86216251368722,81.79754564686796,35.84541414157549,-8.168446473572487,9.224620501606255
GUIDED_NOGPS,3.423313617706299,27.312712449370302,150.86216251368714,81.79754564686802,35.84541414157551,-7.2454794247747945,253.61801845720822,-11.647421325890285,-7.615383090288912,0.9399937921873094,3.9638375324539004,86.77954099006047,1.7317884058649242,2.202444174186411,0.3622739712387397,0.47826960138406777,150.86216251368722,81.79754564686796,35.84541414157549,-8.168446473572487,9.167324722093172
GUIDED_NOGPS,3.4599170684814453,27.327660572575287,150.86216251368714,81.79754564686802,35.84541414157551,-6.934261888800271,253.50015322218874,-11.267979908389528,-7.334188982043283,1.022163849388619,3.8657180230452592,87.09962414513478,1.7439097111499977,2.1959136868549103,0.3467130944400136,0.4784101984381906,150.86216251368722,81.79754564686796,35.84541414157549,-8.168446473572487,8.995437383553925
GUIDED_NOGPS,3.4951462745666504,28.390726638914273,150.86216251368714,81.79754564686802,35.84541414157551,-6.652667606948112,253.38328448311435,-10.891746492246284,-7.049068602264715,1.1743059929855355,3.7290642938866987,87.36295525839546,1.7548329199839023,2.1898311888206843,0.33263338034740564,0.4785527586280799,150.86216251368722,81.79754564686796,35.84541414157549,-8.168446473572487,7.62033867523995
GUIDED_NOGPS,3.524643659591675,33.91254851228978,150.86216251368714,81.79754564686802,35.84541414157551,-6.398423346161905,253.26749409336682,-10.518984586570639,-6.760057199798091,1.209899069245824,3.6855807483094587,87.51182606154505,1.764658800615101,2.1841983475648203,0.3199211673080953,0.4786972643293132,150.86216251368722,81.79754564686796,35.84541414157549,-8.168446473572487,7.448451336700702
GUIDED_NOGPS,3.561972141265869,26.796897560726286,150.86216251368714,81.79754564686802,35.84541414157551,-6.202334283893695,253.15286270671797,-10.14995383859032,-6.467191289307491,1.365780101083088,3.6531253969208506,87.77976755249549,1.7722134097824989,2.179762811904811,0.3101167141946848,0.4788436972845585,150.86216251368722,81.79754564686796,35.84541414157549,-8.168446473572487,7.333859777674538
GUIDED_NOGPS,3.596440553665161,29.020902668705503,150.86216251368714,81.79754564686802,35.84541414157551,-5.979439297326056,253.03946968136097,-9.784909724700029,-6.170508631023063,1.4378382766616051,3.5329883458358498,87.91657624157084,1.780775542322328,2.1746248679541473,0.29897196486630284,0.4789920386137007,150.86216251368722,81.79754564686796,35.84541414157549,-8.168446473572487,6.760901982543714
GUIDED_NOGPS,3.6369428634643555,24.69343852109152,150.86216251368714,81.79754564686802,35.84541414157551,-5.779941056501056,252.9273929839415,-9.424103241510828,-5.870048210487928,1.784536437775631,3.181259216789581,88.32272661037648,1.7884160769974986,2.1699398401854952,0.28899705282505284,0.47914226882396826,150.86216251368722,81.79754564686796,35.84541414157549,-8.168446473572487,6.130648407899809
GUIDED_NOGPS,3.6745011806488037,26.62948713064899,150.86216251368714,81.79754564686802,35.84541414157551,-5.556173019822126,252.816709093589,-9.067780596899688,-5.565850218305075,2.160976230743654,2.9158623981918037,88.58281338378139,1.7969603111284334,2.1645880716707335,0.27780865099110635,0.4792943678200597,150.86216251368722,81.79754564686796,35.84541414157549,-8.168446473572487,6.187944187412891
GUIDED_NOGPS,3.709527015686035,28.55774114699294,150.86216251368714,81.79754564686802,35.84541414157551,-5.354837402576698,252.7074929059478,-8.716182901058652,-5.257956029884248,2.3929806813760623,2.671032132958581,88.78330675667794,1.8046245770378915,2.1596856351349545,0.26774187012883494,0.47944831491427015,150.86216251368722,81.79754564686796,35.84541414157549,-8.168446473572487,5.614986392282068
GUIDED_NOGPS,3.747189521789551,26.55900306476533,150.7147751442762,83.61518934065934,32.92219424567291,-5.14608935495166,252.5998176372084,-8.369545857544495,-4.946408185188831,2.7794748329674617,2.289465749409934,88.98466073340992,1.812547482416629,2.1545158137862264,0.25730446774758303,0.4810656987845691,150.12522566663253,87.25047672824189,27.075754453867702,-5.158343561371069,6.302535746439056
GUIDED_NOGPS,3.7878551483154297,24.595263086909863,151.00225641974458,85.31692682941933,29.835767220427417,-4.904591675434304,252.49375472813864,-8.02809945432795,-4.631250368482766,3.141826400276982,1.9351740187644408,89.25540260192005,1.8216833557231744,2.1484249379508533,0.24522958377171522,0.48276649120554493,152.2995688910292,86.90275811314794,26.586133065839004,-4.303061773440916,6.818197762056797
GUIDED_NOGPS,3.8283746242523193,24.68675287373235,151.30298021850507,86.66002509964022,26.397352006282674,-4.641236104258021,252.38937374811502,-7.692067654843257,-4.312527388077415,3.4286166520157084,1.594081735411703,89.4658270698698,1.831609219301091,2.141648825989974,0.23206180521290107,0.48464506030281995,152.3657815074897,85.82684045753066,25.53016849914125,-3.897687413797186,6.64631042351755
GUIDED_NOGPS,3.865668773651123,26.818657885482274,151.75025587873287,86.15448666168645,25.48747356848841,-4.365162055730344,252.28674229915367,-7.361668089037394,-3.9902851560784853,3.667577223430951,1.2281529632460946,89.7688552425866,1.8419728934478043,2.1343960895033334,0.2182581027865172,0.48526112063771654,153.09854081482612,85.73386141438056,24.346119140484916,-3.53105100559776,7.219268218648373
GUIDED_NOGPS,3.912644624710083,21.291639804460058,152.32197230885714,85.64454723419169,24.35821493213963,-4.105236772615072,252.18592591994184,-7.037111744419647,-3.6645706681328942,3.7391482144225763,0.830746090351719,90.10113711551854,1.8516912698534225,2.1274284903466594,0.20526183863075362,0.48598860719986375,153.72074466430854,85.37293983066373,23.19835715679267,-3.0475585922319652,7.104676659622208
GUIDED_NOGPS,3.9531748294830322,24.678037902813,153.32952827955864,85.53117717958553,23.231522364480636,-3.7838133905818303,252.08698798986887,-6.718602657110992,-3.335431983175683,3.7482908495134613,0.5503016179604631,90.34826018987877,1.8636562845047604,2.118626725717802,0.18919066952909153,0.48671652282617184,155.16300552014016,85.48673029371216,22.150090796164267,-2.9479255131899293,6.760901982543714
GUIDED_NOGPS,3.9907970428466797,26.584590421621073,154.30288056979936,85.10876010976598,21.773716500469387,-3.5197082641396604,251.98998963305755,-6.4063376028933305,-3.002918203176895,3.5402744501329613,0.262266884410619,90.57108828136127,1.8734437436451596,2.111241692343723,0.17598541320698302,0.48761168264817684,157.16633034223275,84.46661020492198,19.972701548451166,-3.7298069564320144,6.703606203030632
GUIDED_NOGPS,4.024261713027954,29.887158146759965,155.48816489777616,84.69193436904096,20.461518183672506,-3.269975410276173,251.89498962239526,-6.10050578825917,-2.667079452888469,3.430550022437645,-0.10041085111219546,90.79494773140844,1.882661969259098,2.1041323473351183,0.16349877051380868,0.48843570118171953,158.29220314737384,84.12246260848869,19.261762206402025,-2.911170168165711,6.875493541569879
GUIDED_NOGPS,4.062290668487549,26.30465785727277,156.94545062752462,84.11048661071206,19.253133182929137,-3.0665013991602104,251.8020442835652,-5.8012885414608775,-2.3279668595911485,3.3155426568627355,-0.32760092551424375,90.98691702822082,1.8901462379587173,2.0982496049182777,0.15332506995801054,0.48920944997873983,160.3849694635685,83.74238701872542,18.524935793934155,-4.253871913516761,6.703606203030632
GUIDED_NOGPS,4.107539176940918,22.102155778867992,158.43386660893105,83.58028459819187,18.602821852980032,-2.8335338997755635,251.7112073990776,-5.508859003560019,-1.9856325328413575,3.2788920752198587,-0.6416838928048273,91.3140899196536,1.8986860720215972,2.091415043367242,0.1416766949887782,0.4897057728070893,161.16282457134076,82.87600416736137,18.021767558603848,-4.391895077530606,6.474423084978302
GUIDED_NOGPS,4.149985313415527,23.57145105091604,159.752518411425,82.88867010678585,18.03461123598596,-2.553974165490998,251.62253011230095,-5.223381819476884,-1.6401295442181034,3.3650418915514644,-0.7518193591499607,91.5870037883198,1.9088923789937378,2.0830745706940768,0.1276987082745499,0.490162629609898,161.75626453260983,82.04761913427066,17.557130355419797,-4.048513238228381,6.531718864491385
GUIDED_NOGPS,4.190801382064819,24.50115662312779,160.91771569849936,81.65198036313608,17.387805936686117,-2.3069696408939424,251.5360608314931,-4.945012829039854,-1.2915119070698715,3.4781103371757363,-0.8008722303042584,91.84683784472543,1.9178723370853779,2.07557977423967,0.11534848204469712,0.490660341078122,162.99231677760454,80.03231778777604,16.584519896034635,-3.718460651961891,6.0733526283867265
GUIDED_NOGPS,4.228502988815308,26.53312921469148,162.1166457106055,80.54281417580273,16.79232096767027,-2.083573844644607,251.45184513383268,-4.673898758034866,-0.939834556261502,3.5086993393736385,-0.7280344526650078,92.07788948396862,1.9259632977201067,2.068700366856113,0.10417869223223036,0.4911339222380341,164.28685320790444,79.54850560536136,16.235312651556306,-4.537745983062763,5.901465289847479
GUIDED_NOGPS,4.2627763748168945,29.18609133735535,162.8788550409961,79.30588108523544,16.251255648939704,-1.869451968783688,251.36992566945003,-4.410176909254673,-0.5851533279210912,3.5061228639526627,-0.772508162228488,92.30254806614867,1.9336908958482646,2.0620169525604637,0.0934725984391844,0.4915817955115696,164.19601611552153,78.33681986256882,15.933934399228106,-3.567595828416401,6.245239966925974
GUIDED_NOGPS,4.295921802520752,30.177237047536135,163.57288548875968,78.38856853435034,15.97909610040704,-1.6751627662033841,251.2903420654587,-4.153974853548419,-0.22752493918691385,3.4798814906048854,-0.6559251573894213,92.50399083533986,1.9406793713327324,2.0558770173239798,0.0837581383101692,0.49189668948020304,164.6329768101586,77.28038013512072,15.76804125043664,-3.1097936909719976,6.245239966925974
GUIDED_NOGPS,4.3371007442474365,24.290304272791502,164.35617266338232,77.36946539099911,15.80330133757684,-1.5041934480012875,251.2131308299864,-3.905410120870897,0.1329930320457251,3.4539722352055,-0.4804529018567393,92.74586832441753,1.9468105875778152,2.050414810039398,0.07520967240006438,0.49216484584723447,165.67270040572308,76.49119617530765,15.707928363065713,-4.0225693147920225,5.67228217179515
GUIDED_NOGPS,4.377618789672852,24.686316978999905,164.83822561301065,76.31515648663009,15.740610167552598,-1.2825209298776863,251.13832525620643,-3.664589891332099,0.4963421673776054,3.3873187669728724,-0.37928451339648067,93.0115012114285,1.9547342804924095,2.043250502477543,0.06412604649388431,0.4923778659999125,165.40258152574614,75.17389314946175,15.745860889155384,-2.654740510893504,5.901465289847479
GUIDED_NOGPS,4.420649766921997,23.242420716062927,165.23990441848656,75.32227580763883,15.852860001876673,-1.0607530872798012,251.06595532636868,-3.431610686246529,0.8624632281586422,3.367595955414226,-0.336674911867885,93.27953149483812,1.9626321024765008,2.035990631765849,0.053037654363990064,0.492504801613141,166.29524723528405,74.30173809814696,16.104790753408864,-3.6370722453364124,6.130648407899809
GUIDED_NOGPS,4.454397678375244,29.645914616906982,165.6793946765634,73.77269778775285,16.248509293135246,-0.8052753801052791,250.996047615831,-3.206558059182555,1.2312961757410328,3.40815746068717,-0.4472853965254516,93.5301311354859,1.971693980355143,2.027513136875099,0.04026376900526396,0.4924913934413029,166.39346740590562,71.84246211564974,16.894876236841434,-2.772616848022949,6.932789321082962
GUIDED_NOGPS,4.497304439544678,23.306868192931763,165.81182463017393,72.08697717494748,16.703196439708723,-0.586886136329805,250.92862519709038,-2.9895062870120483,1.6027801917323607,3.317200898727168,-0.3825030265994376,93.83405406298395,1.9794092473239306,2.020170003147399,0.02934430681649025,0.49244979187601184,165.29512657821135,70.11673131104565,17.109922328875815,-1.5791154686107944,7.333859777674538
GUIDED_NOGPS,4.534535646438599,26.8652097051062,165.7484651285062,70.1970546123005,17.102687573432224,-0.31493945215995556,250.86370754381406,-2.78051806095948,1.9768536982487177,3.267857904615703,-0.3148215348554441,94.11354540382088,1.9889763806213185,2.01090259788253,0.01574697260799778,0.49243708306240824,165.35590289738434,68.63197041020605,17.303264154579363,-2.3325215089474653,7.047380880109126
GUIDED_NOGPS,4.571803331375122,26.839423064617275,165.40840132719364,68.47136344101001,17.30099852327138,-0.052192508202848015,250.80131043487086,-2.579644177651602,2.353454378167754,3.1986633925684194,-0.2760065302976137,94.40854810426289,1.9981773082304992,2.0018193718322177,0.002609625410142401,0.4925262279274482,163.70226251918328,66.66538860177822,17.4898090863589,-0.5075541794085012,7.7349302342661135
GUIDED_NOGPS,4.609954357147217,26.21734945181333,164.76275318841198,66.66036610539736,17.43602067228375,0.2251654297410532,250.74144585836228,-2.3869232301666585,2.7325191953818475,3.1109912978255476,-0.04926807547400604,94.79089526381104,2.0078442920682895,1.9920939930551897,-0.01125827148705266,0.49264824926154904,163.0670065413758,64.6837393042077,17.51498877591292,-2.20767570073086,8.995437383553925
GUIDED_NOGPS,4.647311210632324,26.775685303167652,163.8550485635903,64.65038583015671,17.600554655141448,0.5314320616876899,250.68412191565386,-2.202381299083868,3.113984415051199,3.1144881412371825,0.15963566152921405,95.086137020874,2.0184641830262726,1.9811925008226803,-0.026571603084384495,0.49275671487995487,161.85494428179723,62.602029584484136,17.796866103152446,-1.5357223445639647,9.281916281119337
GUIDED_NOGPS,4.6917524337768555,22.505494505494507,163.0969235188988,62.71426864129669,17.791829160868073,0.84820556629882,250.6293427254062,-2.026031643532889,3.4977856238568847,3.1399858777390746,0.49015828050221005,95.58351822642351,2.0293877244564684,1.9697389285184086,-0.042410278314941006,0.49285297823149443,161.50450135475376,60.857037035198196,18.06363260353878,-1.4113574297506943,9.453803619658583
GUIDED_NOGPS,4.732311010360718,24.657871840094064,162.2454785794079,60.15277062658969,18.27064954341044,1.2300750111060734,250.57710832760625,-1.8578743922431329,3.883857750254048,2.994204027641615,0.7985125066677248,95.97509297154033,2.04247352543575,1.9556928980753416,-0.061503750555303674,0.4928066041034218,161.0986781999298,56.99924526008669,18.95144992354002,-1.3959515089838277,9.396507840145501
GUIDED_NOGPS,4.769505023956299,26.892942556888492,161.6856292615974,57.62152883852716,18.881085568192606,1.5896471963778496,250.52741458759868,-1.6978962345931734,4.272135084724933,2.919541949163736,1.00797178351039,96.31733326028217,2.054712324209081,1.9422304757980868,-0.07948235981889248,0.49269552475826617,160.90301593013078,55.008304220296566,19.628174177498945,-1.278511050869298,9.797578296737077
GUIDED_NOGPS,4.802423477172852,30.38646111046714,161.01352048004364,54.219773830843316,20.03554644998617,1.9015598634752497,250.48025310011676,-1.5460701116602422,4.662551300032032,2.8489427660249573,1.2490412825535804,96.48142855509172,2.0652634021836658,1.9303682539915328,-0.09507799317376249,0.4923135024250229,159.70646263360712,50.65177201214666,21.527015248919472,-0.6864290890203364,8.938141604040842
GUIDED_NOGPS,4.842262506484985,25.109127589902002,160.48638386182017,51.357689320789156,21.209222896366374,2.160983377438744,250.43561109331384,-1.402354907269597,5.055039471471208,2.8263393221838577,1.5930971209541633,96.99164368609168,2.0739923185076266,1.9203729308923039,-0.10804916887193722,0.4919229082875524,159.21926119067982,48.4129917299242,22.47247926268064,-0.6880326254987637,8.422479588423101
GUIDED_NOGPS,4.87709379196167,28.715128777401997,160.0293358290054,49.159251823998375,22.15732459142694,2.4780164149086437,250.39347133279446,-1.2666951390438328,5.44953209712471,2.798744077276537,1.7247112377223124,97.3187619360111,2.0846018951930874,1.9079997886610205,-0.12390082074543218,0.4916461037528489,159.21926119067982,48.4129917299242,22.47247926268064,-0.6880326254987637,8.708958485988513
GUIDED_NOGPS,4.924535512924194,21.082625436047973,159.22102860245377,46.77552764938363,23.059187884891667,2.736205582573978,250.3538120256455,-1.139020649452391,5.845961118114435,2.8991884123239213,1.6894962764656076,97.70272102020337,2.093195110090478,1.897795609316239,-0.1368102791286989,0.49139338661661136,157.05714206717164,43.500599488302434,24.232605129313647,0.21756800262392062,7.62033867523995
GUIDED_NOGPS,4.962167739868164,26.578357381391427,158.23492645614135,44.329002953126896,23.830106230906683,3.067846263267646,250.31660672446762,-1.0192462968610414,6.2442579388548545,2.982860364090693,1.6747029404970062,97.93443518779605,2.1041705972606164,1.8845218011816032,-0.1533923131633823,0.4912070758539741,155.97250519856868,41.07341764115399,24.78523430072569,0.7367235481302856,6.302535746439056
GUIDED_NOGPS,4.991624116897583,33.96307572714906,157.1529466079972,41.06589018072939,24.73140539912144,3.285750719863159,250.2818242314061,-0.9072716465810515,6.644353447306294,3.002597262914503,1.6132175775885516,98.13509931542185,2.111343684890103,1.8756989762668819,-0.16428753599315796,0.4909564740240924,154.29656339288636,38.62365341273166,25.176376767324896,1.5402310669124972,5.958761069360562
GUIDED_NOGPS,5.031006574630737,25.39432211034892,155.9760375105729,38.62283481779423,25.113798245432644,3.426977577456624,250.24942850218235,-0.8029806619188093,7.046178035227889,2.9659919312748775,1.4957127106549446,98.32574355553525,2.115976357546271,1.8699381670075206,-0.1713488788728312,0.4909661898948976,153.33471570355835,36.17143339949695,25.379783668247253,1.7319618738577418,4.5263665815335035
GUIDED_NOGPS,5.066619396209717,28.087672186916137,154.51609326118756,36.20075876641357,25.280956820013348,3.5952704841548124,250.21937855012501,-0.7062413952250779,7.449661618430827,3.0267900063980995,1.3122586320251624,98.42496571360803,2.121480089375159,1.8630297530316677,-0.17976352420774064,0.4910843523992087,151.91953994375302,33.807189487012,25.286710024467805,1.9452584249928435,3.495042550298022
GUIDED_NOGPS,5.105571031570435,25.678206941306836,153.33269116711983,33.892060534856945,25.26554813432401,3.6944361506750134,250.19162835020117,-0.6169056789445904,7.8547336570313355,3.159286711673061,1.1292809590899884,98.48634179348976,2.1247145660112934,1.858936921234368,-0.18472180753375067,0.4912945927613537,151.14013159683304,31.6975587180618,25.13015071025688,2.1353320228302977,1.8334649444186344
GUIDED_NOGPS,5.149110555648804,22.972165930924188,152.0248007708977,31.6319096652131,25.124742099852735,3.7426652342078937,250.16612674304756,-0.5348088166652758,8.26132317570385,3.1556901901882264,0.9488059101553894,98.52097768277089,2.0889323140873945,1.859378710230578,-0.18713326171039468,0.49156829053792556,149.43305321745808,29.39098079056542,24.957365564833427,2.895851380036831,-0.4583662361046586
GUIDED_NOGPS,5.187610626220703,25.979931121627313,150.66997927731396,28.801229904457983,24.781667296247758,3.731799605005356,250.14281733900177,-0.459769274167769,8.669358783934168,3.1209714848634054,0.79889083511472,98.43924763916252,1.9338726209997934,1.8698909752543267,-0.18658998025026782,0.4919438457438432,147.5224559249675,25.31515020474666,24.25748561365288,3.0849573892391504,-2.291831180523293
GUIDED_NOGPS,5.221214294433594,29.768582723549827,149.34317336842304,26.04663307211334,24.38679262623799,3.6326571586692653,250.12163842213351,-0.39158837047466477,9.078768696272405,3.119028296044537,0.6146571544242042,98.25679279586397,1.7864841700291643,1.882791061766529,-0.1816328579334633,0.4923459880350172,146.70068615910378,23.433768221027876,23.945526700227592,3.1259794832047447,-4.640958140559668
GUIDED_NOGPS,5.261797189712524,24.64570112348987,148.1224850739076,23.441824136154825,23.908104668516824,3.4622727859821927,250.10252285427572,-0.3300499689001981,9.48948075258631,3.017504577664879,0.5482003742953322,98.03007149655457,1.6577540546732876,1.8962356540646972,-0.17311363929910964,0.49279068804203474,145.81609847117582,21.57655398268987,23.521301691669912,3.0671612599469285,-7.16197243913529
GUIDED_NOGPS,5.298982620239258,26.896909067590098,147.0189761886292,21.677596853539907,23.54773530632473,3.177451690175398,250.0853979790558,-0.27492016809944175,9.901422438314164,2.79625895563571,0.5148702250844336,97.61512384409795,1.5667548497736197,1.910082325881039,-0.15887258450876993,0.4931768435659947,145.62258717044122,20.022468356901893,23.17637752707659,2.726785190697811,-10.084057194302488
GUIDED_NOGPS,5.344935417175293,21.76383231544373,146.28110546052545,20.08968252336022,23.189463072032982,2.8228094023066013,250.070185525927,-0.2259469931177307,10.314520904718037,2.509951512893939,0.5569236998042021,97.1371813569263,1.4806600353524098,1.9246545803486976,-0.14114047011533007,0.4935625289163425,145.74369957693935,18.670025230488818,22.870709997352346,2.138357768431817,-12.08940947726037
GUIDED_NOGPS,5.391205787658691,21.621795499652034,145.63611827030982,18.18943408045723,22.875993795771695,2.28948463809158,250.05680151419926,-0.18286008644017215,10.728702989136828,2.0362593243767484,0.8376700879011136,96.47644251699762,1.3630548148199881,1.9439516118137916,-0.114474231904579,0.49392635459668255,144.29751997388928,15.875808653980894,22.58089386288606,1.3365079792503565,-14.839606893888321
GUIDED_NOGPS,5.4344117641448975,23.14520160912056,144.99063143027405,16.455500238052796,22.739170223190484,1.652652508106376,250.0451561570708,-0.14537039904092808,11.143895235239384,1.4529852883631662,1.0572647251418432,95.78422333518434,1.2542304767501906,1.9629957751210942,-0.08263262540531881,0.49420236250602445,143.47325195892506,14.820666829688607,22.765906809332943,0.9780192216923496,-16.443888720254627
GUIDED_NOGPS,5.47416615486145,25.15973534404674,143.97995553273043,14.427454063761884,22.89259938869371,0.9858076385213183,250.0351537656591,-0.11316988143252615,11.560023913277604,0.7546125329945256,1.280372214050075,95.12179060834148,1.1232908654826723,1.9803780475037727,-0.04929038192606591,0.49433371226229195,140.76271898345757,12.585886707616076,23.330997493862032,0.37238323380948657,-16.902254956359286
GUIDED_NOGPS,5.520491361618042,21.59107592362852,142.87843524393875,13.013682770907124,23.2936002658376,0.3279288888579672,250.02669265303217,-0.08593117471579603,11.977015040339559,-0.02019396120924516,1.7458636932516072,94.36241700660864,1.03936207197502,1.9940185495813472,-0.016396444442898363,0.494341707387251,140.11498572648276,11.634494775416618,23.783896494317734,-0.4576280158250654,-18.22005788516018
GUIDED_NOGPS,5.5538036823272705,30.023865596747292,141.56235745264664,11.673294321904123,23.850135377344827,-0.47319025910168594,250.0196650382398,-0.06330730162858345,12.394794400602578,-0.4973867550781992,2.22878079929484,93.7984414566515,0.9390364060139532,2.0076869519082905,0.023659512955084297,0.49427232951162886,139.16331062047885,10.7995014826796,24.43551214385462,-0.9676701987025211,-19.079494577856416
GUIDED_NOGPS,5.595380783081055,24.05915116472498,140.21484403293,10.684312207077356,24.453028999507683,-1.0667685724605018,250.01395695034466,-0.04493135759565803,12.813287565586393,-1.0871646252855145,2.739774144973351,92.9136929025139,0.8763930036312559,2.015969645899677,0.0533384286230251,0.49418012928303934,137.55995287530592,9.618940363135778,25.139678360350604,-1.7691821515895185,-18.162762105647097
GUIDED_NOGPS,5.6304731369018555,28.499334112467047,138.66811767242683,9.67258849069993,25.236482621739242,-1.7843072930319872,250.0094481324536,-0.03041620177771165,13.232419914406151,-1.3705474664020512,3.1631024395415714,92.23562587266089,0.7975963886037714,2.0238650135612084,0.08921536465159936,0.49399796864633344,135.73962015640936,8.599323626284338,26.134257361012402,-2.2774701271778213,-17.074142294898532
GUIDED_NOGPS,5.662134170532227,31.594558356057068,137.55915522929917,8.722364521704947,26.147723490724463,-2.3468674472658217,250.00601194574892,-0.01935414812120939,13.652116654025725,-1.6491009368885654,3.3921575291130033,91.73750017649186,0.7293461391333433,2.028188542984582,0.11734337236329109,0.49375219658165065,135.21790676781922,7.948829575694653,27.169234750810297,-2.8427469943576966,-16.615776058793873
GUIDED_NOGPS,5.712207794189453,19.97420780432981,136.2571480734101,7.866660451733497,27.20556920671638,-2.823979422911742,250.00351527351944,-0.01131665640752999,14.072302839510527,-2.0648088747771673,3.7822403047830098,90.9402258550546,0.6762265089687215,2.0308873932849294,0.1411989711455871,0.4934333668163971,133.60494994703737,7.051828153221426,28.31321550832636,-3.4092575792696493,-14.667719555349075
GUIDED_NOGPS,5.752914905548096,24.573072348802192,134.61196615532845,6.805606274233381,28.524287097712413,-3.542231516699391,250.0018184251917,-0.005854023302418909,14.492903394280894,-2.200582149863031,3.850700571494517,90.44604800822584,0.5930244883566194,2.0328186190486064,0.17711157583496956,0.49298430814828426,130.93740103007048,5.416161093783991,30.09041103400049,-4.141033601071513,-12.08940947726037
