Mode,Time,Freq,North-Vision,East-Vision,Down-Vision,Yaw-Vision,North-Desired,East-Desired,Down-Desired,Roll-UAV,Pitch-UAV,Yaw-UAV,Roll-Control,Pitch-Control,Yaw-Control,Thrust-Control,northVraw,eastVraw,downVraw,N-Velocity,E-Velocity,D-Velocity,N-Acceleration,E-Acceleration,D-Acceleration,yawVraw,yawRate,Landing-State,Q-Size
GUIDED_NOGPS,0.005439043045043945,184.2597197205992,4.813646013526661,41.488161617470915,88.65417376151524,-5.348489851496934,4.756072217853424,41.18637806862194,89.10018618534696,-0.08736916518101147,-0.07076236062691882,7.4998123785043385,0.06365329853075484,0.7447466844256043,-10.0,0.5008921907769299,3.67640594097386,42.902602589871506,85.7942043834201,4.925878345966339,11.524960398674011,-17.272751033306122,75.42941570281982,16.494683921337128,34.14221405982971,-5.587039640544628,2.213485871309066,False,1
GUIDED_NOGPS,0.015729665756225586,97.25471282491247,4.987020991620731,42.153618691900355,87.76349732752489,-5.404185989057724,4.897513847210907,41.52938037727569,88.53028818146787,-0.08736916518101147,-0.07076236062691882,7.4998123785043385,0.005695874070340504,0.19326998591829625,-5.402734753743217,0.5015343802723677,3.856077440925286,42.89184232290788,85.22226556036058,2.983842045068741,12.61553019285202,-19.468216598033905,35.99262833595276,14.489316940307617,-102.05453634262085,-5.511775051573709,0.04079031661013927,False,1
GUIDED_NOGPS,0.04858064651489258,30.446457607433217,5.000934741051087,42.317972815498756,87.40969157007466,-5.386320393299917,5.038469358203839,41.87181687403718,87.96027706257972,-0.19322647850648386,-0.12499299541976225,7.450134705123543,-0.03165580318115376,-0.23926749953866022,-3.008494369617177,0.5011033791877298,3.856077440925286,42.89184232290788,85.22226556036058,5.670398101210594,12.914952635765076,-21.120741963386536,78.26821804046631,20.843462646007538,0.5880763754248619,-5.511775051573709,1.098920021177341,False,1
GUIDED_NOGPS,0.06671667098999023,55.13887574275648,5.047121599309465,42.6775329726609,86.87921595921823,-5.39271559327621,5.178469793830816,42.21314053367543,87.39004408406907,-0.19322647850648386,-0.12499299541976225,7.450134705123543,-0.038145253582516706,-0.3032790122018907,-3.369699495623688,0.5010246441870935,4.386902342308666,43.79197589929707,83.66969356233568,2.7669470757246017,14.605759084224701,-18.581078946590424,89.69967365264893,34.44236218929291,56.07125163078308,-5.363790199261182,-0.03849985536065781,False,0
GUIDED_NOGPS,0.10157895088195801,28.692931269197356,5.054903834858324,42.955120173527604,86.46393930616007,-5.391632357042782,5.317064693090287,42.55282458711008,86.81948522052767,-0.15834475577608162,-0.09728430533919567,7.4797888251788,-0.03143416501380149,-0.24455667013041515,-3.22253432498623,0.5007150700753734,4.2432402187615565,44.28634721545464,83.30993938374006,2.7669470757246017,14.605759084224701,-18.581078946590424,89.69967365264893,34.44236218929291,56.07125163078308,-5.346718570765974,-0.03849985536065781,False,0
GUIDED_NOGPS,0.12865781784057617,36.93144316280708,5.08811345586554,43.30221739704572,85.93260767338234,-5.421516476482492,5.453821842944631,42.890362259183554,86.2485011124033,-0.2648833271104099,-0.0934670833668048,7.479612094034026,-0.03511900510788088,-0.2793541259498782,-3.7380025044213743,0.5006363878641341,4.154884612359476,45.38934996772156,81.5837817788638,3.9953846484422684,14.877772331237793,-20.31782567501068,-22.152672708034515,3.553195670247078,77.14646458625793,-5.225795337283568,-2.4240687142701987,False,0
GUIDED_NOGPS,0.1582317352294922,33.81548756399403,5.15746947037074,43.655571212265905,85.46134333383037,-5.445561979230405,5.588327030284225,43.22526650643314,85.67699701265087,-0.3869068444276562,-0.10107900903166667,7.55285050495678,-0.023817500208014316,-0.15479726418379966,-3.567085743046156,0.500436461927839,4.154884612359476,45.38934996772156,81.5837817788638,6.461304426193237,15.634365379810333,-16.638028621673584,28.37625741958618,14.494514465332031,108.09775590896606,-5.225795337283568,-2.0172259350374504,False,0
GUIDED_NOGPS,0.18922162055969238,34.70209984611057,5.264446727818181,44.06924837570938,84.89935044117397,-5.4928768498062475,5.720183793891514,43.55706975486316,85.10488273338316,-0.46173743647896387,-0.08279811443983333,7.626403958355001,-0.019162169550309027,-0.08700756478507793,-3.9535848303708416,0.5004166921915649,4.619534163215647,46.16776316707569,80.48299500438978,6.714420765638351,14.671887457370758,-16.34151041507721,10.003329813480377,4.134868085384369,124.18787479400635,-5.272007639440066,-3.296776925561537,False,0
GUIDED_NOGPS,0.22023367881774902,30.14405427548835,5.334208215294255,44.48426056652573,84.31890382977961,-5.533824088089115,5.84901317640508,43.885323637717065,84.5320725925219,-0.5597912053168438,-0.05133580852352162,7.727532592979856,-0.02683766901326421,-0.14634652444278232,-3.8145109223616362,0.5004325303050305,4.812474835511814,46.01273832270854,80.15151528858635,3.6726467311382294,16.22006595134735,-18.165522813796997,13.217122852802277,2.887650579214096,59.5198392868042,-5.262808989301536,-2.8878449622164113,False,0
GUIDED_NOGPS,0.25379395484924316,29.79946146030934,5.466208748429594,44.955345752190965,83.63360497168853,-5.60376902402169,5.974453476283718,44.209598733249614,83.95848536044859,-0.75976553719733,-0.06193594195026406,7.9874469041082286,-0.018455154346434455,-0.02744909280638772,-4.194110579181304,0.5006568277054647,4.781316748195117,46.79745660297101,79.42607293461216,7.766509801149368,16.770358383655548,-22.25213050842285,18.17442625761032,-7.047721743583679,3.808082640171051,-5.3783299640938536,-4.450765560365518,False,0
GUIDED_NOGPS,0.2863492965698242,30.72052500897232,5.575937712226846,45.42035246483569,82.97114769816308,-5.64943581185418,6.096159999770499,44.52948430249896,83.38404420665553,-0.8788584231129648,-0.026619808516478445,8.076810537887736,-0.02496059896546512,-0.061724556386068136,-3.950553427266282,0.5008339356976527,4.9508797838036624,47.288159466737966,78.39867304148547,5.759993568062782,15.534046292304993,-18.552181124687195,-97.61401414871216,-29.57194745540619,-2.2169142961502075,-5.5097967820001355,-2.331200980003062,False,0
GUIDED_NOGPS,0.3273892402648926,24.369478191653158,5.688206155629211,45.89037476652378,82.32951242011922,-5.696009466778079,6.213804812856846,44.84458802705881,82.80867664639666,-0.9142517697008833,-0.11603968463493335,8.22913570921007,-0.02699032624713094,-0.0477548205142782,-3.874398602056434,0.5009680344799912,5.145208576997353,47.808795760311696,77.7419919688316,5.601566657423973,15.371578931808472,-16.615279018878937,63.94346356391907,0.5995187908411026,94.02335286140442,-5.605844475897518,-2.191674302524865,False,0
GUIDED_NOGPS,0.35487937927246094,36.38393809800571,5.8252555566001565,46.4737021026139,81.65929239816066,-5.768595945523481,6.327076493246603,45.154535746850556,82.2323144873386,-0.9614024865321854,-0.2491333911320365,8.324375866996727,-0.026534630670774387,0.013962487864788358,-4.512071471862773,0.5011570167196108,4.22855734346432,49.20529370014576,78.05348226638623,8.407401293516159,14.980143308639526,-14.29654061794281,44.38667595386505,-2.161634713411331,42.93990135192871,-5.7687867621579,-3.0064243032838256,False,0
GUIDED_NOGPS,0.38962697982788086,28.78113784987408,5.921438592446226,46.90460952530467,81.17688198429758,-5.8256459980128374,6.435679882320102,45.45897119789537,81.65489377621142,-0.9207877271280567,-0.39484288391297634,8.458218546425003,-0.036854899154921864,-0.05940115665513644,-4.150452174019707,0.5009683282977617,4.403237675745694,49.38774515424842,77.76913840399243,8.407401293516159,14.980143308639526,-14.29654061794281,44.38667595386505,-2.161634713411331,42.93990135192871,-5.821851117565637,-3.0064243032838256,False,0
GUIDED_NOGPS,0.4254789352416992,27.895635055235207,5.998242765109798,47.39873037290658,80.59811385544737,-5.876356220532734,6.539335837098238,45.7575557500864,81.07635474545977,-0.8683731756024962,-0.4660676696910462,8.640220889691042,-0.04377869174525805,-0.08448008959498439,-4.0909634311534155,0.5009701596778499,5.352663966030809,49.498645612789005,75.86227532588796,2.867066115140915,14.675278961658478,-10.396969318389893,28.314965963363647,-16.74046516418457,139.3277883529663,-6.050075757600858,-1.405396585651337,False,0
GUIDED_NOGPS,0.4553360939025879,33.49869017954124,6.080285046701245,47.907804282106596,80.13439534444305,-5.957748691940807,6.63778098220654,46.04996814496082,80.49664175989362,-0.9126078285450259,-0.4996584333074631,8.705863276483095,-0.047456566548173616,-0.07357216536538289,-4.670446764104488,0.5007390317383107,5.352663966030809,49.498645612789005,75.86227532588796,3.095414489507675,15.306590497493744,-2.575051039457321,19.19587254524231,-2.7334485203027725,242.84391403198242,-6.050075757600858,-3.4207619344701934,False,0
GUIDED_NOGPS,0.4896368980407715,29.15667273763677,6.134374995115185,48.33558686478686,79.76844388656035,-6.030527765443323,6.7307674618392355,46.33590423347205,79.91570326333934,-0.9183627965292905,-0.5778562018978812,8.748467435204695,-0.054759854176067324,-0.11082712146799854,-4.464532509259815,0.5003094629438894,5.321828925146631,49.70758059105407,75.61719819619489,3.095414489507675,15.306590497493744,-2.575051039457321,19.19587254524231,-2.7334485203027725,242.84391403198242,-6.104202020814797,-3.4207619344701934,False,0
GUIDED_NOGPS,0.5236999988555908,29.360773937026615,6.264206957306982,48.855097181329256,79.3489365306894,-6.0730773773852675,6.818062691723326,46.61507671376182,79.33349172529053,-0.894022990535127,-0.6559180070351339,8.76880176213747,-0.04460577863124182,0.03518076078502133,-4.144178664243704,0.4999840125485518,4.632295564269726,51.169293956212755,76.5218717654179,9.368149191141129,15.382468700408936,-6.687451899051666,51.09391808509827,-8.332811295986176,41.34821891784668,-6.187450789195444,-0.8836361937982417,False,0
GUIDED_NOGPS,0.5560753345489502,30.891805500316703,6.32995843201898,49.350714270196754,79.04904291310008,-6.073274293727207,6.899449111082657,46.88721486893233,78.74996358755902,-0.8499733930304223,-0.7608381437012864,8.796262537695506,-0.06065973998026952,-0.06892792985351708,-3.64639182792625,0.49941596707646047,5.22806713024649,51.3509081662913,76.36752107130418,3.5088319331407547,14.156019687652588,0.6207579746842384,66.69673323631287,-4.414443671703339,53.72414588928223,-6.178762412699432,1.7962287611393408,False,0
GUIDED_NOGPS,0.5894520282745361,29.965949603126408,6.4960849295047,49.823319801316536,78.78404913176237,-6.09993414915233,6.974723934601984,47.15206430481837,78.16507921092577,-0.79031702671565,-0.7657390178741822,8.766645129907038,-0.04412951146598797,0.1302072717782315,-3.9800003823025363,0.4987745359267014,6.09922239025043,51.66866734373785,75.5505787557995,8.362243324518204,13.991786539554596,2.756856381893158,81.15376234054565,-2.7905695140361786,68.67308616638184,-6.274520430047556,0.010511661132649624,False,0
GUIDED_NOGPS,0.6274271011352539,26.33736256145881,6.6499335952672975,50.31051924543708,78.5193643233883,-6.130826882144772,7.04369890439105,47.40938668775947,77.57880282179177,-0.673241928091225,-0.7304609840893606,8.743580434853552,-0.05165925091054809,0.10869140814624863,-4.005128714928561,0.4981285061156692,5.819501376906475,52.201676939853634,75.29548325240316,8.362243324518204,13.991786539554596,2.756856381893158,81.15376234054565,-2.7905695140361786,68.67308616638184,-6.40091939265973,0.010511661132649624,False,0
GUIDED_NOGPS,0.6599316596984863,30.76739801794268,6.740276179477065,50.884204028300246,78.19174779141309,-6.148213878854181,7.106200041948649,47.65895948237201,76.99110245882905,-0.5825642299484299,-0.7586767089940948,8.679330552878534,-0.06733587616602511,0.02923252887560159,-3.9041868241357407,0.4976052351163758,5.560639212153292,53.57401538244591,75.35062203595845,4.110715910792351,13.902340829372406,-0.22702100686728954,-29.519760608673096,-10.921525955200195,-38.201314210891724,-6.3849855670974485,1.0121409736684484,False,0
GUIDED_NOGPS,0.6912837028503418,31.90239821103953,6.915094059705008,51.40568415320621,77.97995485159711,-6.140466352982176,7.162067400126704,47.90057568932137,76.40194991963153,-0.42848892937298805,-0.663238262278095,8.60362985875999,-0.053794076942731944,0.21364126248300414,-3.585707851814928,0.4968465470375248,6.6981172764831305,54.002938018984544,75.36558308761477,8.06790292263031,14.554515480995178,2.7969995513558388,10.14709547162056,-2.5584565475583076,20.912037789821625,-6.494757970419174,2.442319406619296,False,0
GUIDED_NOGPS,0.7332909107208252,23.810168259951407,7.144526735164262,51.91033983467111,77.8048803243433,-6.1575379171641265,7.211154815094327,48.134043583094034,75.81132070736604,-0.2753113717865798,-0.6852991329670015,8.489657907174573,-0.05534958180994104,0.2581212286485707,-3.8564699388238566,0.496008712871595,7.064861324469981,54.73824422854494,75.47498868139246,11.27447709441185,13.616552948951721,3.189978748559952,10.609518736600876,-14.82146829366684,-15.84370732307434,-6.457851300448089,0.5257564260435231,False,0
GUIDED_NOGPS,0.7588293552398682,39.15884604612081,7.245036344066844,52.3813788010989,77.74220004860742,-6.142312110512978,7.253329658301901,48.359186449769766,75.21919397742309,-0.1069630035582211,-0.549439306577749,8.386428135606293,-0.07327952925489349,0.14388071107352088,-3.4479126949105714,0.4949446435197554,7.350800322051869,53.76775154104037,74.40734501635316,1.7320908606052399,13.546071946620941,13.804967701435089,-4.423272609710693,-3.3892150968313217,95.87886929512024,-6.437126334817027,2.6125413811143536,False,0
GUIDED_NOGPS,0.7917745113372803,30.358528941292278,7.36575087232285,52.80268976914291,77.78191134410656,-6.077518989737582,7.28847258844514,48.57584232479369,74.62555248406804,-0.02606122710841834,-0.4545626429209828,8.208388155832509,-0.07554865005105332,0.17055704566580623,-2.858989346692642,0.49366962791322916,6.38524504183055,55.16072745851885,75.66236391627052,8.683663606643677,15.215854346752167,11.753883212804794,-48.896777629852295,-5.937786400318146,-48.374930024147034,-6.378597911799293,5.308846067775628,False,0
GUIDED_NOGPS,0.8255045413970947,29.654088984099378,7.620616055634808,53.33299541107818,77.78213655258207,-6.005226600395351,7.316477303429169,48.783863730748465,74.0303825270918,0.14489285828830017,-0.3352766974395894,8.071291745038367,-0.05524824227756357,0.43588491852828537,-2.744962572126524,0.49246872407318226,7.589931772385338,55.75764623928148,75.64422317904808,12.15895339846611,14.856213331222534,12.703204154968262,37.87287473678589,1.5548523515462875,92.63414144515991,-6.446404172606955,6.291615093578906,False,0
GUIDED_NOGPS,0.8587982654571533,30.036120937826727,7.901009801680299,53.90256530746337,77.81307985018906,-5.939968781992075,7.337250292332585,48.98311741512639,73.43367389846192,0.23455381874011538,-0.28393811415171744,7.895020784259616,-0.055401551178823734,0.5201992324658355,-2.781239414054845,0.49120173655355065,7.124842555615925,56.617497278167946,76.37439037218667,15.266066789627075,15.76172262430191,12.128400802612305,20.982667803764343,-7.894455641508102,11.357656121253967,-6.111956760754089,4.7843584027312875,False,0
GUIDED_NOGPS,0.8961601257324219,26.77124183006536,8.146218215695825,54.490264210036564,77.9723746197967,-5.846507895671428,7.350710587371535,49.17348408810153,72.83541982897343,0.27139287091540226,-0.21023802512975265,7.6346283598893425,-0.07286023340900942,0.4475300808462867,-2.5007212444376985,0.48967138511153585,7.92409824174052,56.694397068552995,76.55344257695404,11.018489301204681,18.177765607833862,19.36718225479126,-13.737727701663971,11.458340287208557,266.4424180984497,-6.020774027158779,6.3499829020180725,False,0
GUIDED_NOGPS,0.9261295795440674,33.3702283395656,8.401666646132645,55.12180089798827,78.16625920588803,-5.750934487292627,7.356789515863783,49.3548581603019,72.23561693489982,0.36274483679532454,-0.0987304911742401,7.51100022836482,-0.0695773184082345,0.5877115438421632,-2.1868129947475996,0.48806965762316823,8.808703353371467,57.984491946916805,77.08436987492453,9.387000650167465,18.167540431022644,19.58468109369278,-48.74809980392456,9.71221923828125,107.64819383621216,-6.00312069729361,6.361924207121371,False,0
GUIDED_NOGPS,0.9610421657562256,28.64726934950687,8.668864303341488,55.70101930531008,78.34547720103788,-5.639644644600126,7.35543045219278,49.52714748058151,71.63426516464395,0.4615250602844588,-0.06285140074245733,7.2819327590755165,-0.08118363292031938,0.5775644078542072,-2.1073323485730246,0.4864897939838396,9.813516699550867,58.61907520822986,77.39659023678348,9.507273882627487,18.255777657032013,16.43245965242386,7.470180094242096,8.5395947098732,-39.529454708099365,-5.878237142820247,7.269532550637359,False,0
GUIDED_NOGPS,1.0060694217681885,22.210887523829697,8.887753296504373,56.3209273410568,78.55908184718528,-5.536498913422611,7.346588569771736,49.69027307379258,71.03136774538896,0.5329388502034675,0.01291791543290396,6.984382398073081,-0.10654851971912577,0.4396750370082911,-2.4032588569914903,0.4848297428736716,9.221642727705571,58.61961882975908,77.92899381059144,6.796829402446747,18.266065418720245,17.540499567985535,-75.35722255706787,2.949024550616741,39.19844329357147,-5.410271711666876,5.185646103734699,False,0
GUIDED_NOGPS,1.0273222923278809,47.064082855507806,9.107681327455058,56.94271944895581,78.77906731229402,-5.431952703779957,7.33023059300769,49.84416887855762,70.42693112974929,0.466878861376691,0.022039312904338644,6.818670482864348,-0.08164421093733883,0.8182657570406147,-1.2982840313993278,0.4831666490968986,9.221642727705571,58.61961882975908,77.92899381059144,6.796829402446747,18.266065418720245,17.540499567985535,-75.35722255706787,2.949024550616741,39.19844329357147,-5.410271711666876,5.185646103734699,False,0
GUIDED_NOGPS,1.060840129852295,29.83889303880767,9.323882357615963,57.354349771843694,78.9541628230735,-5.322181541732198,7.306334549265579,49.98878148504157,69.82096494242148,0.5360180915803797,0.08945744215888997,6.485136123993346,-0.10996654713442855,0.6044374656677245,-1.8820748406216898,0.48158005869192677,9.333442689369985,59.120169366647865,78.27587523034761,13.263466954231262,19.850845634937286,13.433055579662323,-30.03508746623993,4.278842732310295,-28.840214014053345,-5.103148370118203,6.377307500679532,False,0
GUIDED_NOGPS,1.0951650142669678,29.13985979977351,9.588306446163019,58.0040940276055,79.16317483523831,-5.161033030941698,7.2748895208323106,50.124069872723965,69.21348192683521,0.5741359899560458,0.16891799533296714,6.267392254574278,-0.11348065239698742,0.7164271902508456,-1.2155242801025579,0.4799197929871068,9.586553429461667,60.229643019280815,79.23117917553921,10.924115777015686,21.216002106666565,13.084983825683594,0.128914974629879,16.678498685359955,-10.173632949590683,-4.90129972337138,8.16425061964224,False,0
GUIDED_NOGPS,1.127734661102295,30.705007320644217,9.862293803354051,58.728112582219,79.38348218158924,-4.957676390634837,7.2358953968808315,50.250005148171,68.60449789180416,0.5030174989969343,0.15829064787125044,5.976914127570568,-0.1224361354264144,0.7997003207725726,-0.4810861709695984,0.47823307998818537,10.160673652551786,62.02555183223794,80.14571908474056,10.396251827478409,22.4494531750679,11.207427084445953,5.310212075710297,26.75202786922455,-92.12472438812256,-4.528885234171909,10.075320473938882,False,0
GUIDED_NOGPS,1.17087984085083,23.181403163584513,10.19829911380041,59.4416242550256,79.62171735985781,-4.8298319125776334,7.189362625434198,50.36657028280773,67.99403165817701,0.5711341218158251,0.25360951291592204,5.652419097179255,-0.13925011762855688,0.7910808872803589,-1.7054343966595684,0.47649578572687346,10.345571209439527,62.36934888897879,80.37584859603069,15.02969115972519,23.172059655189514,11.945207417011261,59.27929878234863,10.478424280881882,-32.990455627441406,-4.415562760744081,4.903286510333196,False,0
GUIDED_NOGPS,1.201178789138794,33.00886153652433,10.644353294999917,60.32664155701672,79.91365914647473,-4.64234720571464,7.135311965329649,50.47375985069017,67.38210500548828,0.641790507788903,0.359642810334228,5.435347147619788,-0.11961006526203816,1.2788525302004898,-0.3275671302947649,0.47465745973112994,11.40319396192081,62.913191615146665,80.72102317202429,14.914610981941223,23.346713185310364,13.003300130367279,53.38558554649353,9.269069880247116,-3.599625825881958,-4.033049820724306,6.244760422759441,False,0
GUIDED_NOGPS,1.2346148490905762,29.91166926966332,10.885191564316822,61.08793826750291,80.22794172611978,-4.4958576882657235,7.073774238182676,50.571579766277424,66.76874261860937,0.5168900400880533,0.36972955899530885,5.156759953074246,-0.17100462878786615,0.8627778289932075,-0.951130561246053,0.47276604245794834,11.402323302991439,65.35551321265407,82.21219304975045,8.22344720363617,24.069175124168396,12.510785460472107,-66.06600880622864,24.931322038173676,-24.742071330547333,-3.9528592575532864,5.783360226870747,False,0
GUIDED_NOGPS,1.2773897647857666,23.380924243268854,11.169353827955565,61.901015848749516,80.55824408965863,-4.340733959813327,7.004790080351084,50.66004702220382,66.15397203439939,0.5519813108877574,0.4328827687217161,5.012743279990412,-0.19190327976192306,0.8473127373129754,-1.152678600796398,0.4708266445284007,12.107962638988367,65.94811109027583,82.51166848158168,8.22344720363617,24.069175124168396,12.510785460472107,-66.06600880622864,24.931322038173676,-24.742071330547333,-3.8595004802136357,5.783360226870747,False,0
GUIDED_NOGPS,1.3088603019714355,31.779604640061827,11.47457486897608,62.9040782277498,80.93321080252835,-4.104659715836777,6.928409694899081,50.739189427051045,65.53782358835615,0.5853233062079977,0.5182166442517695,4.748713353000284,-0.1973481422755533,1.109531548804904,0.536120338614289,0.4688056326861192,12.248746286429032,66.68509847897306,82.9348940881017,5.478241667151451,25.633233785629272,12.16127872467041,-44.14758384227753,27.007251977920532,-23.734530806541443,-3.3148640501138495,7.957925972741788,False,0
GUIDED_NOGPS,1.3408451080322266,31.27137169527161,11.743032270083992,63.693664416265065,81.2139833337209,-3.90691944675564,6.844692603561331,50.80904534312026,64.92033036126709,0.6231128218949742,0.6206961088675533,4.452676305785829,-0.22048421135353713,1.0735968581020094,0.13450348740548135,0.46696750556392613,12.248746286429032,66.68509847897306,82.9348940881017,9.399701654911041,26.62530243396759,9.373501688241959,23.735228180885315,13.428893685340881,-26.78852677345276,-3.3148640501138495,8.075085061348663,False,0
GUIDED_NOGPS,1.3683481216430664,36.363749859115856,11.956841894423617,64.49656200780892,81.5113286565427,-3.724695184657556,6.753707398707032,50.86966342420429,64.30152812586017,0.580229585912755,0.6960915789075621,4.181448213184153,-0.2393446943898253,1.0988787744544661,0.40544802467265395,0.4650972016198196,12.204271899824583,67.58287310259163,83.57974530447169,6.938840448856354,27.648338675498962,9.432239830493927,-18.154071271419525,8.578454703092575,-79.35376167297363,-2.867543216296949,6.339462276262138,False,0
GUIDED_NOGPS,1.402268886566162,29.48481930082318,12.140033163313237,65.21512026819114,81.78430385071375,-3.5596026286819167,6.655531495303983,50.92110235335965,63.68145529345485,0.6287696059099199,0.8385741808316411,4.003074407914685,-0.26746189368920187,0.9587235475421835,-0.18458446362006042,0.46326209071477353,12.204271899824583,67.58287310259163,83.57974530447169,6.938840448856354,27.648338675498962,9.432239830493927,-18.154071271419525,8.578454703092575,-79.35376167297363,-2.867543216296949,6.339462276262138,False,0
GUIDED_NOGPS,1.440234899520874,26.34182859583234,12.425242894516508,66.18068624527547,82.10541105050389,-3.3365410633789656,6.550250882882661,50.96343058067879,63.060152860612995,0.551886755456435,0.960803030710811,3.668370379148319,-0.28437716477484665,1.1083689932397303,0.346969478606471,0.46131939549744033,13.707060705141249,70.62050412287721,84.3093790490176,7.137778401374817,29.651308059692383,9.154141694307327,-65.71544408798218,8.02420973777771,-17.635220289230347,-2.2742031469616,7.389663625306835,False,0
GUIDED_NOGPS,1.471299171447754,32.19453484801965,12.685746498912373,67.13066543485755,82.4551314289193,-3.107065284406665,6.437959877500286,50.99672606106214,62.437664355789806,0.5418639864579702,1.0287856110672404,3.5959037796017763,-0.30290143736055664,1.2414403768144844,1.0897734976492166,0.4593252173610206,13.707060705141249,70.62050412287721,84.3093790490176,6.330331414937973,30.801507830619812,11.700920015573502,15.42636752128601,14.844325184822083,11.439874768257141,-2.2742031469616,8.251959640095313,False,0
GUIDED_NOGPS,1.507530689239502,27.60700063845612,12.889951823387506,68.0335007964316,82.7670300814287,-2.926432159228177,6.318760873704889,51.0210759919903,61.81403578598475,0.46642561429223717,1.162538324097544,3.318631609914874,-0.33605659348170613,1.0848808746829968,0.2422293027281075,0.4573935481093051,13.735366671714775,71.22490221969386,84.43927494132205,4.48429062962532,31.489548087120056,10.420902818441391,-57.23499059677124,20.526644587516785,-126.31926536560059,-2.29958913335183,6.212945401605522,False,0
GUIDED_NOGPS,1.5479459762573242,24.743842509837236,13.057005044156144,69.03390365885458,83.10991298904997,-2.7250333824583137,6.192764096499389,51.03657655129613,61.18931558339251,0.4295679925401443,1.1545322751732312,3.2269813568672925,-0.36765109073871105,1.0063149496653891,0.3533933054298424,0.4553872937794965,13.044222790416509,74.15187027495986,85.37560372415281,4.48429062962532,31.489548087120056,10.420902818441391,-57.23499059677124,20.526644587516785,-126.31926536560059,-1.6819652909677945,6.212945401605522,False,0
GUIDED_NOGPS,1.5702447891235352,44.85598785104699,13.316191364549644,70.24525105346595,83.40472232823431,-2.468484863487049,6.06008735330566,51.0433326349369,60.563554552053915,0.3359001656447646,1.091435734672594,3.0590628636698214,-0.37064404782540417,1.6586078100289963,3.1267347079231915,0.45350545797234243,13.678178799248364,74.62359929338368,85.41453744699291,5.118535086512566,32.66183137893677,3.887254372239113,34.14158821105957,26.0689377784729,-128.2092571258545,-1.5281327939652187,7.072328767599812,False,0
GUIDED_NOGPS,1.612030267715454,23.93503655050018,13.422575383160492,70.99202181913901,83.5871852342195,-2.3319711833833763,5.920855785928599,51.041457594766435,59.93680581450681,0.34560778544605675,1.2009884471433077,2.9921167645199414,-0.42233775679499663,0.9762688164694304,-0.09259391543009343,0.4518079622096827,13.3884344817365,74.54777368540911,85.47285374307003,5.465688928961754,33.4813266992569,5.135408788919449,19.00772750377655,18.49527209997177,-53.69929075241089,-1.3369173415344229,5.026703332880271,False,0
GUIDED_NOGPS,1.637906551361084,38.64863071762928,13.677502384710804,72.1792751395061,83.88219954516994,-2.1064977428898146,5.775201622520203,51.03107297630721,59.30912475843708,0.19745308494225236,1.124188519455215,2.7869884679412986,-0.4310497674799013,1.5831509670913302,2.2188447930077615,0.4499116637857652,13.927934629199136,75.17135202564153,85.49203473427394,5.465688928961754,33.4813266992569,5.135408788919449,19.00772750377655,18.49527209997177,-53.69929075241089,-1.2203755543308352,5.026703332880271,False,0
GUIDED_NOGPS,1.6728200912475586,28.64844336980725,13.94455819495815,73.0432785269327,84.10117004816016,-1.9609644480353758,5.623263929543634,51.01230825652252,58.680568983329536,0.04313947479780054,1.1239445536357986,2.504325144565141,-0.4629509006896516,1.4170530135671267,0.5095926544603193,0.448146401636434,15.486298024224702,76.96531315568441,85.81382228994792,9.918976575136185,34.40333008766174,6.571993976831436,47.578027844429016,10.15736535191536,27.14402675628662,-0.9666924211819872,4.51815177983004,False,0
GUIDED_NOGPS,1.7064530849456787,29.73882216140331,14.148660646022783,74.14548716013279,84.32217594815806,-1.792577705067156,5.46518836373729,50.98530058158859,58.05119824711883,0.041719862667495694,1.210433744991789,2.3371983129811564,-0.4954012723274042,1.3796763245561254,0.9755822056373589,0.4463766337327317,14.466850598932496,78.67112526674771,86.1349238348953,5.501772090792656,35.03246307373047,3.055236302316189,-28.9534330368042,12.526611983776093,-61.247795820236206,-0.541285847992631,2.76003675491984,False,0
GUIDED_NOGPS,1.7421691417694092,27.998798421927464,14.269552400778961,75.23413673284374,84.49271887313502,-1.6331001129475748,5.3011269240788765,50.950194504666705,57.4210744128404,-0.05924554110836662,1.2361424703060113,2.2150209563250263,-0.5318331309218316,1.2100192209003224,0.770664980581164,0.4446963786005747,14.435336672659492,79.48428096537174,86.21690918647373,1.0555380024015903,35.95395088195801,0.533074326813221,-48.97589087486267,14.4952192902565,-156.01571798324585,-0.5291912225263385,2.9611751538061375,False,0
GUIDED_NOGPS,1.7723369598388672,33.15183610237278,14.416096542781773,76.32255805101084,84.64377117899028,-1.5039900024369313,5.13123770374948,50.90714172367535,56.79026139528142,-0.10571596042616485,1.2771205103966201,2.211853882984256,-0.5571998595794783,1.386489063990299,0.7849084061505269,0.443064445934522,14.829281958432723,79.568005614632,86.28050860282293,1.8843784928321838,36.59699857234955,-0.6484516430646181,5.644422024488449,13.024432957172394,-151.2149691581726,-0.41455796613974716,0.7928468647511991,False,0
GUIDED_NOGPS,1.811551809310913,25.502714863344785,14.550766117768474,77.33118309459205,84.78305990278695,-1.3740369423503236,4.955684642097625,50.85630081906234,56.158825107631706,-0.19694978537778704,1.3350930216375727,2.1292115822348636,-0.5906214844418034,1.2661483541228737,0.5020224947024775,0.4414332569089282,14.951406332192375,79.9895528292474,86.32274120361345,2.3861732333898544,36.793312430381775,0.030769722070544958,-18.54138970375061,-2.5706052780151367,-34.63570773601532,-0.297780943021481,1.7512522856199242,False,0
GUIDED_NOGPS,1.8502311706542969,25.8572467788669,14.715606982822795,78.68934233785735,84.94677669416733,-1.1982857212218367,4.774637276603374,50.79783699157696,55.526833408134664,-0.2531240358763222,1.2471573242814205,2.1366652396100516,-0.6274319273705593,1.3546291439663367,1.0971038799240391,0.4397507319706341,15.052824936999427,83.31511428914484,86.16601991154013,1.1503223329782486,37.619757652282715,-0.41738618165254593,19.638454914093018,5.350714176893234,-31.649956107139587,0.06601266813444057,1.737417417290946,False,0
GUIDED_NOGPS,1.8729727268218994,43.9769750982962,14.771936517503972,79.98927217812663,85.08393637272673,-1.0575345210289475,4.588270494842357,50.73192180004206,54.8943560467382,-0.2953761730514029,1.2294686284349683,2.1506203833014457,-0.6597627428222949,1.4780701517711095,1.8425208766657102,0.4381565637662786,14.854321570301401,84.33929400202163,86.30256589833873,-3.5084985196590424,38.76146674156189,-0.7365712895989418,-126.17146968841553,17.29605942964554,-113.12766075134277,0.07396258822752577,0.8208368732482056,False,0
GUIDED_NOGPS,1.906919240951538,29.46555575850393,14.773508100636967,80.94044757734761,85.13409337042984,-0.9785085061403663,4.396764286449873,50.65873289912625,54.26146461174569,-0.3282997125632742,1.2166704547559513,2.2154544598939108,-0.6932957903422743,1.194210137179685,0.34356773178183564,0.4367065795204216,15.55760125016306,86.71591835176105,86.10696331638148,-3.5084985196590424,38.76146674156189,-0.7365712895989418,-126.17146968841553,17.29605942964554,-113.12766075134277,0.18451547507695856,0.8208368732482056,False,0
GUIDED_NOGPS,1.940859317779541,29.473838067263504,14.88049371630516,82.17485260560065,85.17301927408981,-0.9090196597155707,4.20030349508496,50.57845377711596,53.628232476466856,-0.34079911882695624,1.1954164001627525,2.2977336934002346,-0.7238091466512498,1.4200734939418975,0.28249206951335293,0.4352775382105631,15.55760125016306,86.71591835176105,86.10696331638148,-0.064910389482975,38.57910931110382,-4.888495057821274,-31.356507539749146,-6.445898115634918,-54.40455675125122,0.18451547507695856,-2.641582705135013,False,0
GUIDED_NOGPS,1.9842987060546875,23.02070835414414,14.996083194261857,83.4002818669745,85.16331929614762,-0.8385072260461187,3.999077570394432,50.49127349368762,52.99473474586874,-0.4080951050892407,1.1510645667872748,2.4214843414429947,-0.7616484369964517,1.3378409209241482,0.14104649793239565,0.4339172592744191,16.780350303821702,87.69026804770576,85.72906439166147,-2.2738156840205193,38.810995221138,-6.444864720106125,-43.09706687927246,8.804327994585037,-75.85268020629883,0.2081709702402436,-2.047168203698317,False,0
GUIDED_NOGPS,2.012478828430176,35.492312248783584,15.141733611494944,84.91807101845211,85.23028384034455,-0.7672656180749787,3.7932803199770024,50.39738641767979,52.36104820322663,-0.4223169463233824,0.9518119404421355,2.499012111164517,-0.7967818541558009,1.6804949081377352,0.5511551007909202,0.43244187706284987,16.780350303821702,87.69026804770576,85.72906439166147,-2.745792269706726,39.73512053489685,-3.2729238271713257,-1.0898038744926453,0.8152958005666733,-33.09735655784607,0.2081709702402436,-3.8776729885268972,False,0
GUIDED_NOGPS,2.0448741912841797,30.873159816276058,15.179045058125173,85.93030950897229,85.12994103718579,-0.7762298238202809,3.583109661347299,50.296991964865256,51.72725125677498,-0.4211899651103303,0.9565132450252198,2.630916510972392,-0.8293407714721859,1.4116801524852924,-0.5764767324170313,0.43128844344478445,16.446944791903224,89.19126298864595,85.52240956051779,-3.316844254732132,40.550804138183594,-9.300201386213303,-24.255482852458954,-10.655505210161209,-79.14867997169495,0.20982522427727107,-4.951425256716623,False,0
GUIDED_NOGPS,2.077805519104004,30.370839156281907,15.262499054575985,87.19183216188512,85.09987013664315,-0.7729080038874375,3.36876737389999,50.190294335723195,51.09342388635832,-0.4770487462465755,0.9529912152910205,2.7901751780759327,-0.8626218876516719,1.5209874403802985,-0.42337384858017557,0.4299913902545346,15.504218880093305,91.85723035980699,85.57951803922592,1.2388529255986214,40.655121207237244,-5.781061574816704,37.72718012332916,3.97358201444149,-7.728900760412216,0.014943784789591734,-4.474212319125702,False,0
GUIDED_NOGPS,2.1118593215942383,29.36694113034224,15.262495341888716,88.49679637866622,85.02884681712233,-0.7808838796549625,3.150458850873795,50.0775022532113,50.45964759008225,-0.6021223699150556,0.8558954338450877,2.9440819650779457,-0.9005353491179472,1.3811866660789993,-0.5621006109526139,0.4287715912399,15.306094135819684,93.33982484399016,85.32173794978014,-3.697589412331581,40.41467010974884,-7.6704636216163635,-53.35850119590759,-10.97300872206688,-50.9505569934845,-0.12214377796696481,-4.6906277167512025,False,0
GUIDED_NOGPS,2.1477725505828857,27.84877498174092,15.213671307017071,89.81415363724075,84.96176168599722,-0.7916496897579794,2.9283928513156052,49.95882870053791,49.8260053309643,-0.646418281116704,0.8462146545527996,3.1173156261101562,-0.9386855675366498,1.301902774765515,-0.5949029241500203,0.4275375332576278,15.050951117486324,93.97325940528454,85.27962415710168,-6.081172078847885,40.54062366485596,-7.110264897346497,-59.295654296875,-5.7874977588653564,-99.63126182556152,-0.24380463322652535,-4.355678654948362,False,0
GUIDED_NOGPS,2.182281970977783,28.979797142304395,15.19562995871001,91.16566202239015,84.88958250081647,-0.8088191243373203,2.7027812520445273,49.834490658934115,49.19258148358491,-0.6778034272397356,0.8262181018188237,3.2771572071706756,-0.9751170004817304,1.3914782322906065,-0.6842192062503234,0.4263164517751933,15.050951117486324,93.97325940528454,85.27962415710168,-4.041581600904465,40.91782867908478,-7.343676686286926,5.218009650707245,-4.9199428409338,66.7635977268219,-0.24380463322652535,-4.732118554638091,False,0
GUIDED_NOGPS,2.2270257472991943,22.351978171896317,15.19565938586415,92.42642026059444,84.78343952468624,-0.8534752469487601,2.473838799615967,49.70470884542594,48.55946178073835,-0.6494631581043545,0.8858186526814723,3.4461913690803856,-1.0138122995267032,1.3586917526993778,-0.9114398606352001,0.42513287942678923,15.285564321648733,96.63600713060454,84.63528415172456,-2.4228235706686974,40.30061364173889,-7.233995199203491,-5.236740782856941,-19.489657878875732,-31.62551522254944,-0.41843415345495555,-5.350267323110347,False,0
GUIDED_NOGPS,2.277027130126953,20.003262098139555,15.175612309646914,94.20540478280185,84.66662527562973,-0.8760653473991797,2.241782862285687,49.56970745060643,47.92673326008364,-0.8352096723351752,0.8336822179211782,3.636643723566787,-1.0654063991018954,1.3263075419776436,-0.7070088132625106,0.4239546170240533,15.025830186797505,99.40093390437929,83.99569259789851,-4.603544250130653,39.80992138385773,-6.342058628797531,-67.29760766029358,-19.7961688041687,60.06619334220886,-0.7980724818393095,-3.5433369362020657,False,1
GUIDED_NOGPS,2.284604549407959,131.9544453533002,15.109352756085016,96.10830944172837,84.53174511507342,-0.9276825310040603,2.0068331819738887,49.42971387640781,47.29448421079547,-0.8352096723351752,0.8336822179211782,3.636643723566787,-1.090035293712839,2.390295579458209,-3.2168639917715436,0.4229367586610675,14.899466223876482,99.81369779362421,83.95969821943882,-6.804770231246948,40.1459664106369,-6.7614153027534485,-67.09733009338379,-11.548971384763718,13.968952000141144,-0.8442460012362667,-4.945051409560531,False,0
GUIDED_NOGPS,2.3147170543670654,33.215369508061706,15.006482908657079,96.45516224262016,84.40630522236611,-0.9965652429412343,1.7692116262292785,49.28495847387361,46.66280412021516,-0.8634612023721991,0.8101439452982863,3.8244141615869,-1.123310343089871,1.3683121266700913,-1.5138213274383387,0.42183344126411093,14.899466223876482,99.81369779362421,83.95969821943882,-5.188118293881416,40.37107825279236,-6.969074904918671,27.640309929847717,-20.926450192928314,4.7797054052352905,-0.8442460012362667,-4.393087174145699,False,0
GUIDED_NOGPS,2.346853494644165,31.120093783851964,14.936075412273308,97.61264893095617,84.26383946621894,-1.05832118520016,1.5291419401931243,49.13567428093076,46.031783620501585,-0.9076507120331834,0.7779051322507087,4.015740993730474,-1.1561673262503687,1.4324215612198963,-1.4031972180314813,0.4207579806067049,14.898480499894795,101.55328252759335,83.59701819576256,-5.188118293881416,40.37107825279236,-6.969074904918671,27.640309929847717,-20.926450192928314,4.7797054052352905,-1.0058898937723288,-4.393087174145699,False,0
GUIDED_NOGPS,2.389960289001465,23.20217732834731,14.880502270857717,98.87426209796749,84.05788429983498,-1.122650486461243,1.2868494985633596,48.98209676016178,45.4015144352821,-0.9159870646368897,0.8103896186649951,4.169466353832658,-1.196525236458316,1.3943667969829725,-1.2714523591078506,0.419776252316037,14.773628221912231,102.18081391199583,83.53819131172827,-3.9754334837198257,40.04737436771393,-11.028596758842468,-15.56607186794281,-28.135380148887634,-50.55743455886841,-1.1378574243288158,-4.21765632663486,False,0
GUIDED_NOGPS,2.4151878356933594,39.64820206450637,14.759751948633475,100.18383777127357,83.89118518284221,-1.1624855037326831,1.0425610575586202,48.8244635365769,44.77208932630346,-1.0075585570656045,0.8821083124974215,4.23079291484291,-1.231631385435426,1.4430448431014222,-1.3355915630159252,0.41877265287067705,14.501074673863716,102.94252023754869,83.38141023377425,-7.549275457859039,39.69961404800415,-7.76958167552948,-50.372493267059326,-29.033684730529785,-12.12671548128128,-1.19470893424239,-2.341369424129919,False,0
GUIDED_NOGPS,2.451880693435669,27.255739601135897,14.639428191917801,101.20726505540122,83.69614310782039,-1.2562383151523804,0.7965045068823233,48.66301413538613,44.143602040082776,-1.1135566896818554,0.9422403908157146,4.345203279195678,-1.2663837998078709,1.3644103513297996,-1.769382767094468,0.41778892852336363,14.052270312429194,105.84482093943248,82.8286401300189,-6.2917910516262054,39.97806012630463,-9.67341884970665,8.698731660842896,-17.414388060569763,-40.29470086097717,-1.6325994691423036,-5.017764322804018,False,0
GUIDED_NOGPS,2.487940549850464,27.73460292270052,14.497866410049458,102.6490959245958,83.46480892318534,-1.3091940089449015,0.5489086216867722,48.49798971977149,43.51614725455842,-1.13817045029476,1.046341224946583,4.393376603411778,-1.3093912693276357,1.3481145259392373,-1.3726723282736022,0.41688139206798913,13.455644531183733,107.51600130954141,82.58492224767127,-5.965130776166916,39.230990409851074,-10.060827434062958,-61.502283811569214,-28.698191046714783,-37.30224072933197,-1.8042766042212648,-1.4881910715531739,False,0
GUIDED_NOGPS,2.5180649757385254,33.20274848801495,14.371603447839199,104.06200513220313,83.23600193975793,-1.3866591734988962,0.3000028145371605,48.32963282865906,42.889820525740966,-1.2286834768455341,0.9627599866297255,4.463211018806927,-1.3473240105155941,1.4298823711021933,-1.8624249904091,0.41598929251054334,13.455644531183733,107.51600130954141,82.58492224767127,-4.848145693540573,39.03190195560455,-9.819581359624863,-22.757260501384735,-29.057013988494873,-48.93062114715576,-1.8042766042212648,-3.1590689993932672,False,0
GUIDED_NOGPS,2.5503756999969482,30.95290245450386,14.256259814044903,105.18109002134298,83.0148267236469,-1.459868218058022,0.05001688737567633,48.15818711449111,42.26471823436413,-1.2157490195482341,0.9109384876231925,4.504342844875567,-1.3817348415564232,1.452151947431888,-1.7917281079964331,0.41507719715002506,13.497933238430647,109.11079482732767,82.05467478377734,-4.848145693540573,39.03190195560455,-9.819581359624863,-22.757260501384735,-29.057013988494873,-48.93062114715576,-1.8753660925774276,-3.1590689993932672,False,0
GUIDED_NOGPS,2.583765745162964,29.952468007312614,14.128214477781789,106.39425634583591,82.77644241286501,-1.4934829590591843,-0.20081921651437185,47.98389708099835,41.640937532535716,-1.205682387928693,0.8792488644735663,4.5279560894967705,-1.4210855873217225,1.4301302119310209,-1.2939155318569207,0.4141951790431613,13.826901806528877,109.46434306314131,81.95988435514202,-6.568111479282379,38.36667835712433,-10.284040123224258,-15.526330471038818,-29.45016622543335,14.939062297344208,-1.842662099997317,-0.4640110356989319,False,0
GUIDED_NOGPS,2.6153693199157715,31.64819775294464,13.998435018210992,107.67143164546202,82.52821091967623,-1.526180698411794,-0.4522756605445952,47.807007820971876,41.01857629038848,-1.3125355748516652,0.7157167401054186,4.499875901158378,-1.4600589735014817,1.4556588537265835,-1.329516454040766,0.4133419610254321,13.61068878588371,111.14639606420434,81.42181829878088,-6.019803136587143,37.16476559638977,-9.341331571340561,-30.336028337478638,-33.23772847652435,34.795936942100525,-1.9160460544012852,-0.20124448026184413,False,0
GUIDED_NOGPS,2.6497979164123535,29.047231225241696,13.818926492876988,108.90934730486705,82.25917747661963,-1.539546126024817,-0.7041229628573706,47.62776475403546,40.39773304273114,-1.2794329563174927,0.5643712740421605,4.489466692863279,-1.503358166503636,1.3588911177558838,-1.0788655041567041,0.4125229351639984,13.275075584536028,112.64046502088502,80.93763064564273,-8.69884043931961,36.44847869873047,-10.077275335788727,-68.25621128082275,-34.552520513534546,-24.445167183876038,-1.9861373942953087,1.1426625803345127,False,0
GUIDED_NOGPS,2.691141366958618,24.190557484456647,13.623132296498193,110.22908988276832,81.93769849479168,-1.5425049254540453,-0.956132244361795,47.44641336441762,39.77850693569926,-1.3146944482379181,0.46933324716625274,4.416689746596324,-1.549886370738672,1.3216435289966635,-0.9541645316024815,0.411788170871513,13.012360701342438,114.04888146450435,80.36543193191409,-8.892413973808289,35.97584366798401,-11.760056763887405,-32.27073848247528,-33.83569419384003,30.36675751209259,-2.094828918955594,2.1441487790628586,False,0
GUIDED_NOGPS,2.721316337585449,33.14581044878735,13.446838933571335,111.49800313611466,81.59686688674611,-1.5683955578822582,-1.2080754767696238,47.26319893872372,39.160997673406214,-1.2784886826647384,0.438256740216341,4.36829871010043,-1.5879029055514877,1.398837956784568,-1.2836295995962466,0.41113219174066157,13.169600381154822,114.86760642108692,80.30873588706483,-8.272894471883774,35.658204555511475,-13.564261794090271,-77.56317853927612,-27.378326654434204,-78.35530042648315,-1.9805390078412473,0.10489441673505925,False,0
GUIDED_NOGPS,2.754974603652954,29.712488399934827,13.315294478683743,112.46788396209973,81.3125722946916,-1.5564150521024709,-1.45972573063119,47.07836630370814,38.54530546459408,-1.2895292565712408,0.4685557795396349,4.329763636576864,-1.6224682364967946,1.4738881765438534,-0.7915575431037443,0.41035416859147494,12.983729886447676,116.24320704793172,79.96360904423642,-6.491941213607788,35.865938663482666,-12.424588203430176,-23.739835619926453,-19.928818941116333,-43.36792230606079,-2.015646354617148,2.3733394052006327,False,0
GUIDED_NOGPS,2.792748212814331,26.48002777865463,13.247210896014822,113.62828629766051,80.99153497596002,-1.5350191923165153,-1.7108574233713263,46.89215956404642,37.931530969284566,-1.3425579915135735,0.4203826154060936,4.27472170337667,-1.662511864738783,1.5678124755849938,-0.6937521653714284,0.4096389667447875,12.826789691679355,118.0181117248399,79.44820179937551,-1.1556405574083328,36.29850149154663,-12.578120827674866,60.837602615356445,-28.561648726463318,-34.456777572631836,-1.9327292170009258,2.9131928614433864,False,0
GUIDED_NOGPS,2.8194632530212402,37.4407855389422,13.057110739619256,115.10928516757424,80.63842447499297,-1.522118567844508,-1.9612465673253396,46.704821840107364,37.31977524543002,-1.274127179992862,0.35744220876101457,4.249993857260286,-1.7111020284067522,1.4187917462327042,-0.7190566046235822,0.40902959872127964,11.971772199566917,119.88948675335806,78.64441232718389,-5.846909061074257,36.19234263896942,-9.718801081180573,-30.717140436172485,-23.15465658903122,1.2236511334776878,-1.9028429691532511,2.3340399908202603,False,0
GUIDED_NOGPS,2.851438522338867,31.275102527775708,12.922750457258939,116.12850876420978,80.39821131935332,-1.4990875995614033,-2.210671017774862,46.51659500572518,36.71013969556427,-1.3552875431357732,0.46504159385081045,4.143322524123965,-1.7469244155181092,1.5077132637845827,-0.613063937164357,0.4081783272775639,12.131607079990545,120.96253301377713,78.26200378350559,-5.2001953125,35.242605209350586,-6.7116789519786835,50.7345974445343,-30.698910355567932,62.4625563621521,-1.790861766137581,2.4723615667967738,False,0
GUIDED_NOGPS,2.9006669521331787,20.31553148824458,12.635512986870665,117.43905396832558,79.97281756031535,-1.4562701009050545,-2.4589107209838392,46.327719425971615,36.10272601345358,-1.4142143598698236,0.6451424231240868,3.9728000213054266,-1.8057255933615368,1.2439889631773702,-0.5257640256359604,0.4076415593217221,11.6614436232836,122.92969369978584,77.59868801600217,-13.361260294914246,35.61990261077881,-15.352670848369598,-48.32178354263306,-27.834153175354004,-106.72105550765991,-1.6602157566182365,3.5195768425137066,False,0
GUIDED_NOGPS,2.9195847511291504,52.88493254318497,12.443612729829518,118.7501105594616,79.6511092895503,-1.4162833767915892,-2.7057479622344616,46.13843369492806,35.49763613074762,-1.4249832203134065,0.7471882774492804,3.891504121596173,-1.83919469229354,1.4707885185142184,-0.0021713102554039576,0.4070081399232368,11.217624278860445,123.52210400567449,77.11647102573897,-5.436640605330467,34.18029248714447,-6.8403273820877075,27.472537755966187,-31.251341104507446,61.85047626495361,-1.6701105610145457,3.2903194085881133,False,0
GUIDED_NOGPS,2.952523708343506,30.36138578026146,12.345471265081327,119.43516577566574,79.36820281533195,-1.3828728063357087,-2.950967613863048,45.94897437345774,34.894972163630364,-1.5347891833919396,0.8508627050046991,3.7323666903504,-1.8695680071916139,1.575578891440718,-0.42534881385558476,0.40625104089419417,11.338260772708573,123.86557446337899,77.16446940187637,-3.809250146150589,33.84276032447815,-13.064487278461456,31.551849842071533,-33.04973840713501,-64.12023305892944,-1.5593564520128191,2.8093940497398795,False,0
GUIDED_NOGPS,2.9910173416137695,25.981218563393544,12.142599025361452,120.659144588766,79.04330400430287,-1.3309752308603786,-3.1943573832960332,45.75957572697776,34.294836359471006,-1.4815941760319993,1.0377178976760304,3.6174871773790165,-1.9211455128040438,1.3756735716725614,-0.2582729802843542,0.4055630264470502,11.09808172344564,124.71925511791602,76.76991371135432,-6.938279420137405,33.09371769428253,-7.99948051571846,-69.10771131515503,-29.503822326660156,-8.327887952327728,-1.5829228925053542,3.936494577659047,False,0
GUIDED_NOGPS,3.0200705528259277,34.42694858493663,11.975587806468196,122.06831981454997,78.68443843501207,-1.291747687838879,-3.435708061085876,45.57046946323134,33.69733104347492,-1.6204777485111577,1.0293963793894276,3.5319283858540285,-1.965207538744137,1.4722627760380358,-0.23562075120503423,0.40498105922404626,11.187036172410247,125.12158342087545,76.6583756821214,-3.3047594130039215,32.91468620300293,-7.646874338388443,-1.8477216362953186,-36.2158328294754,10.03824770450592,-1.4236651111150542,2.311434625988457,False,0
GUIDED_NOGPS,3.059192180633545,25.563489644916316,11.806971100811406,123.05607694877033,78.35732956839853,-1.2302228202421903,-3.6748137689469242,45.38188447005989,33.10255856533458,-1.611291357520902,1.1617206223878467,3.449750537968197,-2.0093534059085876,1.4327155038231798,-0.10883730006288506,0.40430414942951826,10.947908322120995,125.79359031275993,76.43996655681974,-6.099981814622879,32.251936197280884,-11.208388209342957,-71.14589214324951,-29.678812623023987,-89.58818912506104,-1.4182653739694422,4.289542360101952,False,0
GUIDED_NOGPS,3.0868852138519287,36.12198251733196,11.616497874879965,124.17610434043623,78.0257609899024,-1.1743527129571936,-3.911472207791464,45.194046553175085,32.51062124588051,-1.6735939952522312,1.352659094244082,3.2708922161544813,-2.050037993907359,1.4284030609987137,0.10539248372105992,0.40368295079864763,10.816451261402708,126.40620453662856,76.15011406933954,-6.338579952716827,31.11581802368164,-8.9606374502182,-32.39192068576813,-25.486844778060913,-108.9111328125,-1.3374768432707156,3.4645549729941996,False,0
GUIDED_NOGPS,3.1197502613067627,30.427241797064863,11.456125016617777,125.04188547477801,77.75117300373188,-1.1241517330203918,-4.145484905765564,45.00717817393111,31.921621323732175,-1.7225978277827223,1.4462601133516424,3.1608807070706133,-2.0873854250956945,1.4677238668365762,-0.06586225585811611,0.40293316316210875,10.816451261402708,126.40620453662856,76.15011406933954,-6.338579952716827,31.11581802368164,-8.9606374502182,-32.39192068576813,-25.486844778060913,-108.9111328125,-1.3374768432707156,3.4645549729941996,False,0
GUIDED_NOGPS,3.1533758640289307,29.74493826635179,11.252887492696342,126.08963913663834,77.38320391958324,-1.086262735471805,-4.3766574662850495,44.8214981870967,31.33566090194895,-1.8785675453574908,1.4049984069670665,3.0365851379981326,-2.1309248948026034,1.3864035010684843,-0.2005296848560758,0.4023734509017613,10.816451261402708,126.40620453662856,76.15011406933954,-7.914285361766815,31.474092602729797,-12.905436754226685,-8.947402983903885,-24.842457473278046,-176.8942356109619,-1.3374768432707156,2.2427107566636697,False,0
GUIDED_NOGPS,3.1876680850982666,29.16457949448945,11.051845857384688,127.11309512188603,77.02011101892715,-1.0484352628814257,-4.6047998160713295,44.63722157862738,30.75284189468102,-1.9388606133689552,1.481068891796143,2.9537313148278814,-2.1729292432734453,1.3865416790425042,-0.18747438475478562,0.4018071706973572,10.816451261402708,126.40620453662856,76.15011406933954,-7.914285361766815,31.474092602729797,-12.905436754226685,-8.947402983903885,-24.842457473278046,-176.8942356109619,-1.3374768432707156,2.2427107566636697,False,0
GUIDED_NOGPS,3.2207231521606445,30.255166593330497,10.845464077942825,128.0704956680281,76.69488771441902,-0.9869331994106455,-4.829726453187526,44.454559203437405,30.17326597382035,-2.043221421575107,1.4980927114155766,2.8445257680660747,-2.2140251046182646,1.3735482227694789,0.15053494564284975,0.40117518788763257,10.816451261402708,126.40620453662856,76.15011406933954,-8.643059432506561,30.104410648345947,-10.979904234409332,-20.871305465698242,-46.430763602256775,-23.577502369880676,-1.3374768432707156,3.941642405859121,False,0
GUIDED_NOGPS,3.2550058364868164,29.17553439388986,10.648257812584255,128.9539172431854,76.38765780468547,-0.9268308122956617,-5.0512566950741835,44.27371752317215,29.597034515651565,-2.2161929740979183,1.4525921255990675,2.7110092301706654,-2.2539392419205564,1.3839189036798214,0.14632062371926402,0.40050906854290536,10.816451261402708,126.40620453662856,76.15011406933954,-8.643059432506561,30.104410648345947,-10.979904234409332,-20.871305465698242,-46.430763602256775,-23.577502369880676,-1.3374768432707156,3.941642405859121,False,0
GUIDED_NOGPS,3.289415121078491,29.064743016721064,10.369232808333026,129.79772205533618,76.07166038568128,-0.8763679841957982,-5.269214926585379,44.09489834397999,29.024248547502943,-2.1659067735507573,1.498596010980042,2.674584685100634,-2.2956422055159837,1.2296279493586546,0.060651661496097686,0.39986594971706313,10.816451261402708,126.40620453662856,76.15011406933954,-14.36658501625061,28.46883237361908,-11.850424110889435,-66.46098494529724,-46.85913920402527,-59.70180630683899,-1.3374768432707156,3.248205742826284,False,0
GUIDED_NOGPS,3.3328707218170166,23.01489769154371,10.18688039398441,130.56434930488734,75.8180097583188,-0.8452136695261887,-5.4834308480245095,43.91829855428457,28.45500869439728,-2.3430983157635783,1.4811732656243972,2.5671539203059726,-2.335476472812984,1.3833519023077838,-0.22025359398240663,0.3990701767787519,10.816451261402708,126.40620453662856,76.15011406933954,-8.254841715097427,27.510833740234375,-8.666938543319702,-11.258035898208618,-45.54876089096069,8.683884143829346,-1.3374768432707156,2.0393019602085776,False,0
GUIDED_NOGPS,3.3611226081848145,35.40512889774281,9.98086077818597,131.35972069806567,75.46292934175798,-0.8040506437800145,-5.693739723180354,43.744109862556954,27.889415125702868,-2.4178997727892075,1.4105436667994706,2.4855026373164666,-2.3711666209301825,1.3484930960715473,0.1009657194942461,0.3985417369475903,10.816451261402708,126.40620453662856,76.15011406933954,-9.415145218372345,27.234938740730286,-14.973175525665283,-26.793479919433594,-35.15732288360596,-151.48431062698364,-1.3374768432707156,2.589073064569601,False,0
GUIDED_NOGPS,3.389251470565796,35.556399518489,9.823361880670975,131.87029826034964,75.18602153166141,-0.7745455046925459,-5.899982627362839,43.57251853508772,27.32756750178443,-2.4592343700988324,1.355723181138773,2.409777824092416,-2.3990305047482043,1.44745383539469,-0.04447593038959774,0.39786433536063837,10.816451261402708,126.40620453662856,76.15011406933954,-9.415145218372345,27.234938740730286,-14.973175525665283,-26.793479919433594,-35.15732288360596,-151.48431062698364,-1.3374768432707156,2.589073064569601,False,0
GUIDED_NOGPS,3.423736572265625,29.00203981441146,9.731096303792391,132.3373254050228,74.90803042581186,-0.7640129157620678,-6.102006695439163,43.40370513375898,26.769564920653977,-2.4492588788160288,1.3048884310238955,2.3641925012415164,-2.428943608333447,1.5457501222177992,-0.3351859041189417,0.39717264155771614,10.816451261402708,126.40620453662856,76.15011406933954,-5.229758471250534,25.649425387382507,-15.656852722167969,-12.087467312812805,-51.08848810195923,-43.52236092090607,-1.3374768432707156,1.3270523948805868,False,0
GUIDED_NOGPS,3.462777853012085,25.616103873895334,9.60132829703302,132.94395801094473,74.6266190748485,-0.7634415788971333,-6.2996653698695475,43.237844253816725,26.21550586462189,-2.490714285096598,1.2936175516763166,2.3232231056090757,-2.4666685747940007,1.4638774082991093,-0.4522534048242633,0.3964750475599576,10.816451261402708,126.40620453662856,76.15011406933954,-5.958430841565132,24.9713733792305,-12.854933738708496,40.6999945640564,-47.8740394115448,6.9390468299388885,-1.3374768432707156,0.15657632375043012,False,0
GUIDED_NOGPS,3.4939138889312744,32.12302979244849,9.34137633448235,133.63830733540425,74.30381150815626,-0.7362559314321386,-6.492818648743297,43.07510426164281,25.665488146947624,-2.562451121619007,1.206347584320829,2.2905963591609826,-2.5044936339068338,1.2267694390310542,-0.0932348379954605,0.39589922070087924,10.816451261402708,126.40620453662856,76.15011406933954,-13.271728157997131,22.984643280506134,-13.06300014257431,-19.928647577762604,-38.372477889060974,-156.16177320480347,-1.3374768432707156,1.637116943102955,False,0
GUIDED_NOGPS,3.5240554809570312,33.190399696132815,9.129368506203548,134.03867637178917,74.07363270424581,-0.7353584085523314,-6.681333333814633,42.91564703252711,25.119608858490892,-2.5826599438257825,1.2567619576366336,2.288908662105755,-2.5310188021497324,1.3074401058311953,-0.42920482370188395,0.39515075316353254,10.816451261402708,126.40620453662856,76.15011406933954,-13.47004920244217,21.825625002384186,-12.63190358877182,2.1571923047304153,-53.459376096725464,63.62299919128418,-1.3374768432707156,0.633046691712523,False,0
GUIDED_NOGPS,3.5575923919677734,29.817680304269008,8.92946489188091,134.3835271473663,73.86255263006409,-0.7364261465196781,-6.86508327853873,42.75962768843967,24.57796431436242,-2.5852697164189617,1.1701656176880384,2.23425583624484,-2.5593405676285705,1.3260839902803645,-0.4545024767442319,0.39435647288703457,10.816451261402708,126.40620453662856,76.15011406933954,-13.47004920244217,21.825625002384186,-12.63190358877182,2.1571923047304153,-53.459376096725464,63.62299919128418,-1.3374768432707156,0.633046691712523,False,0
GUIDED_NOGPS,3.594358444213867,27.20217912964524,8.722404004799271,134.77401229972818,73.61629118997979,-0.7318777847275454,-7.043949636107506,42.60719433580287,24.040650000574942,-2.5862938179076407,1.1531349678794347,2.216399800763723,-2.5908960835294663,1.3079387876128639,-0.3897115227813303,0.393628346845152,10.816451261402708,126.40620453662856,76.15011406933954,-12.827755510807037,20.08637636899948,-13.402415812015533,-39.40141499042511,-46.64488136768341,-7.0696815848350525,-1.3374768432707156,0.7930571598724415,False,0
GUIDED_NOGPS,3.6247329711914062,32.925166223143286,8.530297026561579,135.1165253998801,73.3656006626031,-0.7261012991245855,-7.217821107485708,42.45848780326343,23.507760520694106,-2.5081620033313956,1.1972714368526456,2.2265362283788446,-2.617586497258766,1.3173690798016713,-0.35944707494365064,0.39294302450638896,10.816451261402708,126.40620453662856,76.15011406933954,-12.200114130973816,18.930447101593018,-14.372867345809937,35.25197505950928,-55.45380115509033,-72.01235890388489,-1.3374768432707156,0.9452298792380646,False,0
GUIDED_NOGPS,3.6588051319122314,29.353993015459768,8.365464636861477,135.34958983755482,73.15482277717742,-0.724492664737322,-7.386594189446699,42.313641379464734,22.979389542489457,-2.536804828502667,1.109741281978463,2.2171752406779306,-2.643680307123047,1.3620329430395572,-0.41585276214022515,0.3921707652402575,10.816451261402708,126.40620453662856,76.15011406933954,-12.200114130973816,18.930447101593018,-14.372867345809937,35.25197505950928,-55.45380115509033,-72.01235890388489,-1.3374768432707156,0.9452298792380646,False,0
GUIDED_NOGPS,3.6921072006225586,30.033109927249814,8.116003821641412,135.61372746649343,72.93079101659337,-0.7340603823986382,-7.550173422608438,42.17278055081879,22.45562974458531,-2.5076271141420188,1.1137503895778487,2.250583830342579,-2.6723218479221456,1.1949247914656707,-0.555668471728124,0.3914371988972085,10.816451261402708,126.40620453662856,76.15011406933954,-16.871561110019684,17.090032994747162,-13.789892196655273,-38.10085356235504,-48.19667935371399,-11.710423231124878,-1.3374768432707156,0.003587540186282669,False,0
