Mode,Time,Freq,North-Vision,East-Vision,Down-Vision,Yaw-Vision,North-Desired,East-Desired,Down-Desired,Roll-UAV,Pitch-UAV,Yaw-UAV,Roll-Control,Pitch-Control,Yaw-Control,Thrust-Control,northVraw,eastVraw,downVraw,N-Velocity,E-Velocity,D-Velocity,N-Acceleration,E-Acceleration,D-Acceleration,yawVraw,yawRate,Landing-State,Q-Size
GUIDED_NOGPS,0.029337167739868164,34.107519536808894,-11.04860687663565,32.76003290841829,49.62655959067581,-5.467149563432731,-11.539680109314684,32.61084230127028,49.80716048020187,0.6008529152247853,0.1302270280776812,6.420760310405506,-0.230407979185018,1.276397604974977,-10.0,0.5003616141358347,-10.32772633779117,35.04787794126098,50.73933789263652,16.782093048095703,0.2068276284262538,-12.275989353656769,66.8809711933136,-0.7087684236466885,-70.5070972442627,-5.314657654484828,0.9056152089388138,False,1
GUIDED_NOGPS,0.04380965232849121,69.11029823694183,-9.836276388639762,33.04016916806978,49.330208214450884,-5.531954803818221,-10.855040403191488,32.61899677366865,49.51853899064853,0.6008529152247853,0.1302270280776812,6.420760310405506,-0.9834308750672354,2.727881084454843,-4.206435421771337,0.5003772939986451,-9.766035276137499,35.20365720476685,50.35491144983202,22.5843146443367,-0.24901009164750576,-9.659117460250854,12.626497447490692,-1.2080652639269829,77.06981897354126,-5.261812965083716,1.2322993149591155,False,1
GUIDED_NOGPS,0.056395769119262695,79.47972409611157,-9.714217308588989,33.08538239386774,49.28143201502601,-5.478887038757832,-10.155480270166862,32.63050362132293,49.255697169227524,0.6937225704826255,0.18674911129578456,6.350769654433093,-0.5069204844391302,-3.116512895287522,-2.449690528781657,0.4999491366682579,-9.766035276137499,35.20365720476685,50.35491144983202,22.5843146443367,-0.24901009164750576,-9.659117460250854,12.626497447490692,-1.2080652639269829,77.06981897354126,-5.261812965083716,1.2322993149591155,False,0
GUIDED_NOGPS,0.08387446403503418,36.404780710510096,-9.471430572031315,33.167261623487896,49.24527655692595,-5.4280145347954605,-9.445540863384302,32.6456113116896,49.016635178896124,0.6937225704826255,0.18674911129578456,6.350769654433093,-0.31023997894547645,-1.1736956274196377,-2.8848456655741,0.4995428232719803,-8.64632525800712,35.11899531938347,50.06349603550059,20.6432968378067,1.0358933359384537,-6.522819399833679,60.884612798690796,23.64867329597473,79.37033772468567,-5.256972614953169,2.3841244873434944,False,0
GUIDED_NOGPS,0.10879349708557129,40.13265589268115,-9.00573939021614,33.28407249122708,49.14464024050217,-5.392342912023978,-8.729509348681628,32.66454300851291,48.799415616208044,0.3696945542758125,0.03459178653622048,6.275214101834412,-0.36863516337072755,-0.6959030802845239,-2.9493491160579275,0.49930896798031316,-7.50872622367303,35.20585972378265,49.59697069416055,20.6432968378067,1.0358933359384537,-6.522819399833679,60.884612798690796,23.64867329597473,79.37033772468567,-5.175063686665883,2.3841244873434944,False,0
GUIDED_NOGPS,0.1573784351348877,20.584328775728547,-8.561694172499514,33.40789629497137,49.11256612209391,-5.3576019197454325,-8.011424259078227,32.687497224734855,48.60216273880908,-0.6280222338043324,0.0018188780419530733,6.363130589283524,-0.2295819478086675,-0.4244428712101785,-3.071668989182024,0.49897662497401196,-6.0844471942276375,35.38458110388398,49.19825391100025,19.51035112142563,2.055017277598381,-1.3268876820802689,24.587945640087128,28.124675154685974,236.44952774047852,-5.03601353683858,1.8169788758378396,False,0
GUIDED_NOGPS,0.17331552505493164,62.779583894626555,-7.687140458854921,33.63531574476478,49.102153083014215,-5.3805110917619485,-7.295080849262284,32.71464847540505,48.42306169293277,-1.1852984354027305,0.11745094579176078,6.45029917101852,-0.8203708055551704,0.739963487189325,-3.5158705324922974,0.4986383833484172,-5.313225472935376,35.58374744108446,48.827226341709036,19.114011526107788,3.7385348230600357,8.029307425022125,118.28844547271729,19.85660344362259,119.36328411102295,-4.922690475164221,-1.2164430308009309,False,0
GUIDED_NOGPS,0.20594501495361328,30.649362796679526,-7.394573849862406,33.764464214073975,49.255909811577624,-5.3813244670191365,-6.5840364500780035,32.74614793059071,48.260357740896076,-1.8858493807863705,0.13789500931850476,6.617976046274101,-0.360584832438429,-0.9401433881872785,-3.233775071447512,0.49800286056131876,-5.226201758147235,35.92278867688893,48.21785938860168,17.222386598587036,3.310384601354599,13.452009856700897,24.099135398864746,-40.482789278030396,167.93158054351807,-4.852549768025792,-1.7675744100238449,False,0
GUIDED_NOGPS,0.23980307579040527,29.541096758744064,-6.816235962297513,33.93655905047004,49.44873397048062,-5.4607076270377854,-5.881615823012849,32.782124068286535,48.112355488595014,-2.47259187223785,0.16559430788896257,6.8146829330495295,-0.3797018238694048,-0.3066855059207091,-3.746643200407252,0.4973175979815283,-4.991265490558986,35.945504193504114,48.08683430764344,17.116066813468933,2.7670593932271004,20.194678008556366,-56.19586706161499,-63.77868056297302,160.66367626190186,-4.828076245578655,-6.498694476382645,False,0
GUIDED_NOGPS,0.2748093605041504,28.569801578922274,-6.183731489661817,34.069288375116926,49.78531556330987,-5.544165977487367,-5.190916514684771,32.82268332732467,47.97741811300033,-2.7143365995135196,0.310371800013313,6.975921928125551,-0.2828728868077493,-0.17893010094745512,-3.801684465709538,0.496369479608982,-4.3851728250809785,35.81315088894514,47.86872326328351,19.35257315635681,0.45804521068930626,30.34249246120453,50.807809829711914,-36.31988763809204,259.2217206954956,-4.78321121437142,-6.692119457261882,False,0
GUIDED_NOGPS,0.3068270683288574,31.240626256908342,-5.421024964313607,34.1493601263088,50.183527859315845,-5.602736831448208,-4.514814211329437,32.86791076028461,47.85396658965316,-2.8525576436431868,0.5220489139846756,7.216333060965775,-0.1558393780970132,0.12363670237368335,-3.727848344892719,0.4953201905474152,-3.7380398162808905,36.01029186960181,47.84540714735521,28.34942638874054,-3.354242816567421,33.597755432128906,51.221466064453125,-51.14051103591919,181.91579580307007,-4.771633962650025,-4.845283263240978,False,0
GUIDED_NOGPS,0.34552597999572754,25.84163442344185,-4.755023506268887,34.186031216543846,50.690087574909846,-5.658243688389469,-3.8559680932874674,32.91787068640314,47.74047892016066,-2.643091109724528,0.6773585578091857,7.4346617653325255,-0.07941311021634163,-0.060577331505222945,-3.6823213197704057,0.4940709802483439,-1.8290783118575553,36.225423946009414,49.13303253121341,19.456644356250763,-6.144334375858307,36.88969612121582,20.733286440372467,-84.9640965461731,27.230477333068848,-5.050449430866206,-3.9908056806180494,False,0
GUIDED_NOGPS,0.38019418716430664,28.851419766674002,-3.9824305400332696,34.192431039230435,51.477139347323075,-5.73496272407464,-3.2168261894916643,32.972607344484274,47.63548935969172,-2.283081656970088,0.7994543790820989,7.638382402611911,0.01883581576081099,0.1995051574682699,-3.883610404829536,0.49227624395899955,-0.9745335910382005,36.38013836911264,49.86945012328887,18.065769970417023,-9.134818613529205,51.46028995513916,39.57231640815735,-99.5027482509613,134.32652950286865,-5.241102063057082,-4.215941949153187,False,0
GUIDED_NOGPS,0.41922569274902344,25.623458977335208,-3.3695417077105954,34.16868503737201,52.417595346129964,-5.810486480417894,-2.5996307319542353,33.03214554580916,47.537587644472566,-1.9039459669923193,0.956767135963274,7.852973285955372,0.04468250536178219,-0.08216427816606577,-3.8724573449773243,0.49018425812263133,-0.45558043056877395,36.380115472809564,50.97755239039665,13.267865777015686,-9.76216197013855,59.11741852760315,17.788168787956238,-43.530428409576416,163.7096881866455,-5.420832218510261,-4.212467090412943,False,0
GUIDED_NOGPS,0.44678664207458496,36.28573158809942,-2.6701612076696333,34.15485706554539,53.45081746082608,-5.896915484041433,-2.006423510254038,33.096491327045996,47.44541821928245,-1.704784694427329,1.1133027987438013,7.986513729512876,0.1260878023763442,0.19845709811710507,-4.1669002606084895,0.4879202668711681,0.13484718302741294,36.68221130012316,51.65864745701828,13.267865777015686,-9.76216197013855,59.11741852760315,17.788168787956238,-43.530428409576416,163.7096881866455,-5.477603460179129,-4.212467090412943,False,0
GUIDED_NOGPS,0.4810347557067871,29.20316100957354,-2.2344361354711024,34.07281340771881,54.57297429837619,-5.975398559031776,-1.4390512260238015,33.16563260316003,47.35767946494932,-1.5538121140040713,1.0202859742536885,8.140737693424471,0.18192024610864907,-0.36198481845040625,-4.043824679656194,0.48548071829094264,-0.6956421132070746,36.665857259998425,52.87504530129393,13.708297908306122,-13.045382499694824,70.60843110084534,-5.565519630908966,-46.62914574146271,194.57827806472778,-5.987542875081331,-3.904382016389409,False,0
GUIDED_NOGPS,0.5157928466796875,28.773634997839046,-1.6578450227454558,33.983059185305315,55.77773357819457,-6.112468942002098,-0.899170847437361,33.23953982032339,47.27312292584543,-1.3714445690608499,1.0317726448903575,8.258015456568176,0.2488996240736475,-0.021280109231597608,-4.4560135257207465,0.4828784329776237,-0.6956421132070746,36.665857259998425,52.87504530129393,16.978922486305237,-13.486610352993011,70.93654274940491,-6.479985266923904,-29.11546230316162,81.82424902915955,-5.987542875081331,-7.089388872599211,False,0
GUIDED_NOGPS,0.5487914085388184,30.308511637653826,-1.1091596512749804,33.81992066939414,57.20886748986857,-6.200489095855348,-0.3882549636968875,33.31816660882509,47.19055253738305,-1.2268959949954008,1.0821457169060247,8.315365139934187,0.4366367503683447,-0.03251185817507969,-4.253202335477467,0.4798245488980356,0.563617784166127,35.347037264569224,56.568877550653255,12.32205331325531,-14.263525605201721,74.96283054351807,-66.09752774238586,-39.86731469631195,77.96982526779175,-6.175371928484403,-3.2803050706044052,False,0
GUIDED_NOGPS,0.5965826511383057,20.927363263513985,-0.5403677321116783,33.61254000711195,58.792346600045654,-6.314676499376323,0.09240286047987745,33.401450435980905,47.10882385351011,-0.9715369931566034,0.9962866105009678,8.4593241832969,0.3870790374139705,0.03019317149495373,-4.2695839629459496,0.4764497349073232,1.4693207177608207,34.70564177711391,59.74697351039627,14.90386426448822,-15.274029970169067,79.38798666000366,63.11805248260498,-36.50943338871002,146.39012813568115,-6.4231563759381665,-4.797064262134803,False,0
GUIDED_NOGPS,0.6284096240997314,31.42412754543956,-0.03003238518887868,33.38565082635048,60.53575620739217,-6.416898008470212,0.5416827303724041,33.48931325904335,47.02684327420584,-0.7653320346491846,0.8977794878569282,8.512095932371711,0.6526803645859363,0.009054007218754934,-4.489984919693121,0.47276442369456595,2.283881360270493,34.44693229899376,63.08154467666762,9.738537669181824,-15.675364434719086,81.14805221557617,-72.61184453964233,-8.71366485953331,-127.81620025634766,-6.696908890362931,-3.34235861987444,False,0
GUIDED_NOGPS,0.6521346569061279,42.15719856872914,0.2643517543397528,33.168019016033924,61.85218379307007,-6.417724120434377,0.9586330667701137,33.58166217811156,46.94356727297645,-0.4893524782627072,0.8464042990239732,8.57215890838551,0.8227138364804131,-0.5178434964434229,-3.8575628081748565,0.46993657405115086,2.492365052548976,34.16328871098672,64.32857287492459,11.903487145900726,-16.936759650707245,77.75760293006897,7.9412102699279785,-13.90586942434311,-35.9011709690094,-6.764536955993901,1.1028714990556052,False,0
GUIDED_NOGPS,0.6829428672790527,32.46214572078696,0.5907265331328608,32.951513133399914,63.19547135913376,-6.425668858504485,1.3424652514851836,33.67839008904123,46.858001624350784,-0.12403860988538519,0.7090449259467856,8.595157862868236,0.6860912892310925,-0.27670248569754535,-3.906807303249411,0.4670384686184807,2.8715626990960406,33.98667386882145,65.603011367058,11.903487145900726,-16.936759650707245,77.75760293006897,7.9412102699279785,-13.90586942434311,-35.9011709690094,-6.814039824761678,1.1028714990556052,False,0
GUIDED_NOGPS,0.7166488170623779,29.67318004952246,1.1215525366406902,32.66130794043359,64.90126914938152,-6.442874964634917,1.6925482728652934,33.77937633635458,46.76920063137597,0.5575192602833154,0.481597652233804,8.538945405999032,0.8699714964445249,0.22790972541300408,-3.9679671545510042,0.4634004485706382,3.1211308644789684,33.38552911568864,68.30741418064528,15.321151912212372,-18.377868831157684,77.34684348106384,51.337575912475586,-0.8846803568303585,-30.848094820976257,-6.922591971551411,2.21567153184347,False,0
GUIDED_NOGPS,0.750028133392334,29.96316669286051,1.6547945221655915,32.365135827925556,66.76224990857715,-6.469637379170796,2.008403371306393,33.88448736615024,46.6762663531131,0.9547823256791506,0.26316409379112365,8.451202234600109,0.9381683273627831,0.3205825343178758,-4.042355919341454,0.4594390555408782,3.1211308644789684,33.38552911568864,68.30741418064528,14.275674521923065,-18.197892606258392,85.08082032203674,63.45934271812439,0.9217372164130211,119.43023204803467,-6.922591971551411,1.6225601024343654,False,0
GUIDED_NOGPS,0.7837615013122559,29.648010178836504,2.100716595839093,32.07697405440164,68.58902673478006,-6.476607854526678,2.2896986847654865,33.993577379013175,46.578347832132856,1.17550501134999,0.014764145914543487,8.330996027849762,0.9399687671591018,0.2196785787700845,-3.927307962711877,0.4555302888100861,2.7066673827475722,33.63613779184875,69.4154080415712,11.101920157670975,-18.49958300590515,82.23928809165955,-11.563055217266083,12.811581790447235,19.32828426361084,-7.072009206035491,3.1408582209621323,False,0
GUIDED_NOGPS,0.8171052932739258,29.99445064218084,2.5963176441711013,31.782707133502615,70.51070770226012,-6.441490143622847,2.5362438942733903,34.10648898292467,46.474640322011204,1.6032545727453242,-0.0710154311418597,8.181381587854279,1.0203465117753276,0.415630306718018,-3.654392385067876,0.45141535338691097,3.4835413540206916,32.84670995914765,73.46406607002521,13.49332183599472,-16.690559685230255,78.96955013275146,23.876585066318512,12.248165905475616,21.541257202625275,-7.124926887205197,5.972875778223798,False,0
GUIDED_NOGPS,0.851524829864502,29.05709159178923,3.106108798905868,31.453079882953105,72.59184441755157,-6.401967391862947,2.7479848694475066,34.223053846172164,46.36438451482502,1.6880509444042096,-0.23746321252227637,8.008240561262687,1.115896349434697,0.5174865268618627,-3.611251886855989,0.44696043592378565,4.5205510229031,31.828888317697448,78.82847276665436,13.49332183599472,-16.690559685230255,78.96955013275146,23.876585066318512,12.248165905475616,21.541257202625275,-7.135162641831716,5.972875778223798,False,0
GUIDED_NOGPS,0.8848700523376465,29.992520290321426,3.6470862675503506,31.11937653760154,74.7220581296993,-6.3585918034283235,2.924998314004579,34.34309335025929,46.24686576864778,1.701551667072386,-0.4597190088575193,7.825265769813568,1.2079422367039503,0.6966600043866845,-3.555839816408463,0.44238876241393243,4.784654833691118,31.331454354934337,82.78185949794238,15.529002249240875,-15.565121173858643,72.28503823280334,10.727031528949738,8.368784934282303,-52.03965902328491,-7.052649132347242,5.79457027484603,False,0
GUIDED_NOGPS,0.9196665287017822,28.741496039251157,4.1330288513652365,30.788562627130865,76.89103294030008,-6.328372236005619,3.06748641127348,34.46641924281571,46.121413335045204,1.6518667366155975,-0.5649591505584576,7.616425051977613,1.2050294484570885,0.6583377485278189,-3.6231561493079583,0.4377143396632717,5.260190808617509,30.68717648871823,85.34390352422449,12.93758749961853,-14.449752867221832,74.46196675300598,10.282611101865768,36.86244785785675,-30.528900027275085,-6.9323584466816275,4.296848954966573,False,0
GUIDED_NOGPS,0.9591472148895264,25.33220592853864,4.728145527035851,30.491781750961703,78.89657585351883,-6.27095067099565,3.175771469707973,34.592834290507085,45.987399586570895,1.6617408422779087,-0.558162578725766,7.4529120307948,1.1105257325361042,0.88927683033836,-3.4707803616383712,0.4333316068250741,5.260190808617509,30.68717648871823,85.34390352422449,19.93081271648407,-11.77898496389389,61.85903549194336,50.066834688186646,14.80933278799057,-187.48866319656372,-6.9323584466816275,6.019955845285873,False,0
GUIDED_NOGPS,0.9986085891723633,25.345676923448792,5.389039376554542,30.15566573029256,81.0740519631835,-6.212977419515588,3.250290568399482,34.72213293194499,45.84423924426205,1.62672609094125,-0.6793039877838757,7.186837742808722,1.2369725339570652,1.1057266836793715,-3.43377360988278,0.42857918847430043,4.653800639679348,30.29378600760635,87.88465938370945,23.069970309734344,-11.826139688491821,57.70798325538635,45.68343162536621,16.238130629062653,-113.1851315498352,-6.871693717243607,5.667874961497348,False,0
GUIDED_NOGPS,1.0303363800048828,31.522136796458714,6.01262174663924,29.856607427273715,83.03924662742335,-6.158459776433166,3.2915902025898536,34.854101930596876,45.69138860513506,1.6654105748529098,-0.600549291971837,7.062427127737409,1.4228763997044462,1.3944724591274675,-3.348838869302874,0.4242490066080515,5.268759215897086,29.40230323272622,91.46116356830674,27.190527319908142,-10.838589817285538,58.94100069999695,66.76411628723145,12.02167347073555,-77.69799828529358,-6.596320934690755,4.542849316981983,False,0
GUIDED_NOGPS,1.0605921745300293,33.05933539315215,6.6141929455941435,29.59696955825947,84.64865863141648,-6.073060315446976,3.300320929184119,34.98852102769594,45.52834476968121,1.6654105748529098,-0.600549291971837,7.062427127737409,1.4201049927769478,1.526433348894769,-3.0800217696046843,0.4206092877415188,6.244285917793557,28.93915062232657,93.68392736344762,31.441715359687805,-10.945850610733032,54.228025674819946,191.835618019104,17.450514435768127,-169.75512504577637,-6.402746258532007,6.264422402945792,False,0
GUIDED_NOGPS,1.0975430011749268,27.06439103081142,7.347896210315307,29.302296650482166,86.49692968969113,-5.966296841983173,3.2772320122633136,35.1251635951511,45.35464486936232,1.9227441416920754,-0.19509541569855504,6.642248404150211,1.3683351139746573,1.6530528429611024,-3.007482443043438,0.41644254235684625,7.8110454487356495,28.373680647141036,96.90384204400343,32.533180713653564,-10.141187161207199,51.962924003601074,64.42502737045288,18.610429763793945,-26.916152238845825,-6.1428503052992,6.929066830419264,False,0
GUIDED_NOGPS,1.1277711391448975,33.085935158160446,8.177857774591352,29.010186520000328,88.50115527534462,-5.84192730794329,3.223166068597159,35.26379728845689,45.1698652941064,1.9720892702376556,0.008574872281074578,6.427942681204598,1.6454968034859074,2.342646017434586,-2.6804298860005598,0.41195998164451847,8.048556181068772,28.470677457753105,99.98724839798379,36.392948031425476,-9.415329247713089,49.305105209350586,93.94540786743164,15.156678855419159,-115.22599458694458,-5.797996064023639,7.018840702435796,False,0
GUIDED_NOGPS,1.1618237495422363,29.37290521376799,8.969218471421984,28.751356305304512,90.34923700735327,-5.7577848728772185,3.139053713156903,35.404184699603434,44.97362091980334,2.103914695983252,0.29498930686794517,6.241301785718476,1.487997221353437,2.184176454743667,-2.961140106672027,0.40774755147280367,7.517800501688557,28.224153897969686,102.74226894580727,41.608622670173645,-9.287389367818832,48.82768392562866,184.9098563194275,15.895037353038788,-53.99549603462219,-5.600490120918684,4.131328711941422,False,0
GUIDED_NOGPS,1.1947317123413086,30.391304977900152,9.828929370066481,28.443353057290363,92.41969560400533,-5.664967705370101,3.025908204628079,35.546084009986316,44.76556433580051,2.262980623686152,0.6346863640001492,5.9650167918100525,1.6839892060612494,2.534562567444862,-2.8332313106838787,0.4030654304712035,7.186099991148383,27.81680702204488,103.6354083499131,41.608622670173645,-9.287389367818832,48.82768392562866,184.9098563194275,15.895037353038788,-53.99549603462219,-5.523672867636247,4.131328711941422,False,0
GUIDED_NOGPS,1.228837013244629,29.32567033735361,10.61984659816976,28.19332939352799,94.31908758954343,-5.544520203512205,2.8848200909232347,35.68924964331656,44.54538507239849,2.2571433732667296,1.0078354998921073,5.710652009382315,1.5575755084350267,2.4671710051756537,-2.6218238301684624,0.39869020699266366,6.868954191450057,27.67743527434905,104.18698824909872,42.14510917663574,-6.932162493467331,48.15918803215027,145.22767066955566,21.97120636701584,1.159842312335968,-5.345371051174046,5.817745533586707,False,0
GUIDED_NOGPS,1.2618739604949951,30.271325158598987,11.395155300168213,27.928823699563146,96.11852512070477,-5.423403886271496,2.716951854694761,35.8334329185305,44.31280882834668,2.3024341442096725,1.2425924100383248,5.476452933592217,1.6553014179996879,2.6353892439326456,-2.5210735784364298,0.3944892127834897,6.930397082035782,27.404739655688992,105.65368701774219,40.06839096546173,-7.065550982952118,37.23699450492859,114.48253393173218,10.287214815616608,-180.34883737564087,-5.098588553975212,5.106465855120858,False,0
GUIDED_NOGPS,1.2955641746520996,29.687251827891536,12.10746709803693,27.712599352570077,97.71842028482183,-5.271335019907317,2.5235325588475703,35.97838270269978,44.06759669833895,2.1526049801421574,1.408664511004071,5.174721216157264,1.5674828917108856,2.61653078936871,-2.2583889302032127,0.3906546636364785,7.6905780325564805,27.692888070931268,106.4382865446998,37.12548911571503,-6.139728799462318,31.409871578216553,116.94183349609375,21.675390005111694,-196.48001194000244,-5.0095099034291035,7.254221827839129,False,0
GUIDED_NOGPS,1.3286161422729492,30.258222295966583,12.840030263408483,27.531533714987894,99.19784109990441,-5.072496087175543,2.305852492051983,36.123846063941244,43.80954440050936,2.1140953063845678,1.5470431830931772,4.98042538615885,1.5441732854695513,2.8321535924604655,-1.8432343817500756,0.38703290495613063,8.831211200830356,27.426453550821346,107.11397698801844,35.52723526954651,-3.314841538667679,23.80286008119583,172.6232647895813,11.149293929338455,-223.0151653289795,-4.931153230367436,10.19419223248014,False,0
GUIDED_NOGPS,1.362727403640747,29.31972541837348,13.768150769037911,27.38221259206517,100.65285803650282,-4.872526941384662,2.065257814256423,36.269568924326826,43.53848150392775,2.008846573586314,1.6328248095398368,4.7028285690429605,1.521201293996266,3.338349913882327,-1.7502847752921615,0.38342498930588625,14.352195422505396,27.82599070233411,108.92333937957827,35.52723526954651,-3.314841538667679,23.80286008119583,172.6232647895813,11.149293929338455,-223.0151653289795,-4.823551684658193,10.19419223248014,False,0
GUIDED_NOGPS,1.3971385955810547,29.063736020067353,14.478612793875199,27.239200774149786,102.13427295653835,-4.653990044145616,1.8031452022001524,36.415296712793555,43.25427065609544,1.9084107762753921,1.6685301570346072,4.456482428700818,1.4868521563465222,3.0131870367477234,-1.5210106776829095,0.3797318045118707,9.993971376925648,27.099380431244036,111.09032990842547,34.336692094802856,-1.2767191044986248,22.825923562049866,92.05619096755981,10.537565499544144,-220.04973888397217,-4.0891412505585585,9.450094348826024,False,0
GUIDED_NOGPS,1.431046485900879,29.495601296756,15.21998285375937,27.126011582386774,103.44784848691202,-4.45890897050096,1.5209564949261285,36.560775018053434,42.956806810440874,1.9047115885095955,1.8025962049930853,4.195922237809056,1.4632792107878465,3.243464509578672,-1.525654394571172,0.37634549857206273,9.993971376925648,27.099380431244036,111.09032990842547,39.003363251686096,-0.29045608825981617,18.46768707036972,207.47556686401367,0.6062114611268044,55.91133236885071,-4.0891412505585585,8.275902868230792,False,0
GUIDED_NOGPS,1.4652235507965088,29.262858259146597,15.887313742406407,27.06001537935815,104.54594955079656,-4.277567018891496,1.220173339293762,36.705750241503374,42.64601645381531,1.8893590308026993,1.9873444977488792,3.938299455147223,1.372157497587824,3.2133063429916793,-1.5052974869367715,0.37335847935313593,10.083578814684639,27.395048106581598,111.48842823122965,36.80632412433624,0.9977889247238636,10.240134596824646,110.34889221191406,-6.0876622796058655,-161.8844509124756,-3.943925209651548,7.456870979192469,False,0
GUIDED_NOGPS,1.5026404857635498,26.731487205633982,16.548800789765163,26.97784099206361,105.58321858813062,-4.086474267882217,0.9023118354915809,36.84997025013513,42.321856833988406,1.969031266480194,2.246862657905391,3.677252186390274,1.3681037938432563,3.1612906199215436,-1.4270650515561873,0.3704468857777732,9.973926378007958,27.26329601158866,112.15660067551154,35.779690742492676,0.3616531612351537,4.395013302564621,107.59621858596802,17.44910180568695,-71.97588086128235,-3.6858895914587104,7.313348214162991,False,0
GUIDED_NOGPS,1.5322909355163574,33.73172595160162,17.43909528700329,26.944170986960085,106.64011383124776,-3.8709192086836546,0.568917182550134,36.99318502944522,41.984315187143935,2.0547674294801905,2.5761983714275387,3.4827783445866167,1.4129732025513229,3.9135397993801186,-0.8705730341687639,0.36750443523797094,12.873179206859543,28.241023416549808,113.23669549823188,40.111902356147766,1.2001953087747097,0.41370484977960587,247.3165988922119,-5.683308839797974,-157.62966871261597,-3.4367536448262896,7.858953116573717,False,0
GUIDED_NOGPS,1.5652077198028564,30.381398717902286,18.054901179740828,26.939841595256034,107.31805180706166,-3.6406225996162718,0.2215583238546479,37.13514733634487,41.63340796537547,1.8789698861882869,2.689606405519607,3.1353334516972384,1.2874463641653802,3.5780493243121714,-0.7892409862563305,0.36527326225304546,10.644718147847826,27.602017065853218,114.28240343420475,42.0657217502594,1.7995301634073257,-4.165700823068619,230.41999340057373,1.2440826743841171,-139.24297094345093,-2.781759931928923,9.353943214558816,False,0
GUIDED_NOGPS,1.5990018844604492,29.594248096692937,18.7513981948285,26.93712404133926,108.09562753670495,-3.385398800364351,-0.1381774073420985,37.27561335206994,41.26918006418197,1.7575075649608922,2.914791552595992,2.9383420448541964,1.2843158294507244,3.825318196102912,-0.5203947882774538,0.3628090333599024,10.820807468257655,27.980546882890778,114.56408937325241,42.0657217502594,1.7995301634073257,-4.165700823068619,230.41999340057373,1.2440826743841171,-139.24297094345093,-2.415494800003862,9.353943214558816,False,0
GUIDED_NOGPS,1.6332149505615234,29.232469804364342,19.338969527557214,26.969949254241165,108.79516313400805,-3.161172934281131,-0.5086896424070666,37.41434333509081,40.891704049963494,1.5453981747202619,2.8743730544087955,2.7072598832031516,1.1961782322534398,3.696054128955854,-0.5838287533915312,0.3604694544750949,9.797627456239791,28.034611621584293,114.68148929523437,38.30375075340271,3.774625062942505,-6.989152729511261,156.60548210144043,12.85003274679184,-176.35643482208252,-2.275533047412263,7.172956237094317,False,0
GUIDED_NOGPS,1.6664848327636719,30.06109255622608,19.91101634487394,27.05054493239767,109.39162869138855,-2.9656422506431515,-0.8883703318142651,37.55110227402237,40.501079387516825,1.3079344819503096,3.0009915281293154,2.486812112646405,1.1031801718719472,3.83226296553027,-0.6025385292120604,0.35831213766174463,9.797627456239791,28.034611621584293,114.68148929523437,37.78185844421387,6.681329011917114,-11.155720800161362,175.69334506988525,-8.893299847841263,-147.40426540374756,-2.275533047412263,5.553015939093475,False,0
GUIDED_NOGPS,1.712857723236084,21.5682043740069,20.448696399005485,27.167880595222123,109.86378033440899,-2.731932712676312,-1.2756090996317333,37.6856605405339,40.09743166753114,1.1257846492868824,3.172390856482554,2.2576300242450933,0.9788659584555517,3.319481408983395,-0.629317349719875,0.35630220059566287,10.226096380697822,28.71155871879499,114.76604003043974,38.30524981021881,6.4918152987957,-12.893116474151611,205.9246063232422,-5.005059763789177,-116.35239124298096,-2.044192087726138,8.373496026186519,False,0
GUIDED_NOGPS,1.7343125343322754,46.616844866294706,21.36386432005563,27.27180022565219,110.65072983581597,-2.4983604035131264,-1.6687985980091042,37.817794542259044,39.680911834083716,1.1355526735736468,3.2195349565680975,2.1508739540743824,1.057325026821032,3.957672246667889,0.6944130759388443,0.3537743438064766,10.16855714282145,28.889283608846732,114.58291227434489,41.747769713401794,7.137175649404526,-12.99668401479721,251.36120319366455,-31.242167949676514,-241.5050983428955,-1.650540216761947,3.2884502846330568,False,0
GUIDED_NOGPS,1.7671985626220703,30.41179840048725,21.576728701943175,27.461842590264126,110.62206373604265,-2.333652891184212,-2.06633986166462,37.947287375705685,39.251695412135504,1.0771146422520754,3.2145286413498897,2.0184555825314643,0.8133022814451992,3.4045917701687376,-0.4000058698460558,0.35278519434066546,10.640097155831945,29.233746541586072,114.3023604542544,40.65648317337036,7.398213446140289,-15.856215357780457,177.60741710662842,-12.913502752780914,-45.46771049499512,-1.2987140977641447,6.85701260354386,False,0
GUIDED_NOGPS,1.8011534214019775,29.45789876600437,22.01742423222984,27.64582562825231,110.87295722815789,-2.133988790311431,-2.46664766237231,38.07392947916591,38.80998173502683,1.1230581231475778,3.3935306105795875,1.9072231771334562,0.8261080874443596,3.9276307937991586,-0.09902826160074207,0.3512051086247211,8.634341151119916,29.935425054214477,114.29559755288417,40.492185950279236,6.989675760269165,-17.140182852745056,275.40087699890137,-30.75084090232849,-118.13921928405762,-1.063290844900869,4.886036867584329,False,0
GUIDED_NOGPS,1.8346076011657715,29.89461380013257,22.4248596893233,27.83712054114789,111.07604931969566,-1.939024039199668,-2.868155863449452,38.19751928562592,38.3559931719731,1.0952194460293694,3.5407856471036543,1.8031556401747915,0.7884897043589376,3.935140069563397,-0.012176683295996193,0.3496939023834299,8.634341151119916,29.935425054214477,114.29559755288417,38.36756646633148,7.5086914002895355,-18.571074306964874,189.2404556274414,-25.907891988754272,-138.0676507949829,-1.063290844900869,4.899390314298526,False,0
GUIDED_NOGPS,1.8675258159637451,30.381398717902286,22.88757485901696,28.05816309747467,111.17044727504926,-1.712625656562574,-3.269322774243637,38.31786387567598,37.889974355560355,1.0642655623194006,3.5889826635384376,1.702286019129868,0.697979662874574,3.9809181084779928,0.3484732408414588,0.3483801619308996,9.640190696695058,30.345286452915524,113.29777788859074,40.17093777656555,8.31233337521553,-20.51902562379837,221.48261070251465,-25.770851969718933,-69.50979232788086,-0.6750400974210692,6.363122905320708,False,0
GUIDED_NOGPS,1.9017155170440674,29.251633690641412,23.279933037817145,28.29086231182682,111.18626138978178,-1.550467792926475,-3.668636504619979,38.43477963042032,37.412191409241025,0.8201307490819028,3.675761070717096,1.6294482414906175,0.6574268174668798,3.983670198943877,0.01721298720100528,0.3471909519676775,9.691413621426292,30.309516325323287,112.66094454900193,37.15576529502869,9.233535081148148,-21.235613524913788,179.2641043663025,0.31655654311180115,-26.70597732067108,-0.46538224778336,2.1837771097404493,False,0
GUIDED_NOGPS,1.937117338180542,28.255887900835354,23.69421320248145,28.529262647474884,111.07995148442104,-1.3368582481558215,-4.0646203194484976,38.54809288438708,36.92293117482956,0.6000525024314244,3.6236591070677693,1.5605818986886117,0.6228985585370999,3.9865525981704537,0.4091349318932349,0.34621580434772414,9.691413621426292,30.309516325323287,112.66094454900193,38.38714957237244,9.659214317798615,-28.09056043624878,210.49387454986572,-19.1520556807518,-196.59996032714844,-0.46538224778336,5.847533269217601,False,0
GUIDED_NOGPS,1.9685664176940918,31.801049343402177,24.189212958175208,28.80889954432909,110.88977237452232,-1.1775717186865775,-4.455837993091176,38.65764057843823,36.422500439998046,0.374314750362503,3.64363655661641,1.5731388813125629,0.47717786432295484,3.9910363786160765,0.30986646765307646,0.34540857898132993,12.550247164091006,31.15738381929384,112.30617234397522,38.76457214355469,10.15864759683609,-29.59577739238739,258.5268497467041,-25.97876787185669,-88.66517543792725,-0.5322034880793275,3.369987161953965,False,0
GUIDED_NOGPS,2.002415657043457,29.546507368480373,24.43651418355063,29.095547909586596,110.59167326702415,-0.9971022161049419,-4.840899163889365,38.76327091267951,35.91122516577191,0.24592448288259988,3.473873272012801,1.5368238327126629,0.4579773047387803,3.942443079348881,0.46080888133590125,0.34477861343044713,7.0844968887582,31.46401880994246,110.9098505201515,41.53527319431305,10.18882766366005,-30.26464283466339,281.5774440765381,-35.40041744709015,-158.30881595611572,-0.1428206750825169,4.6418938901363385,False,0
GUIDED_NOGPS,2.038811683654785,27.478406708595386,24.848350071658295,29.433492356985457,110.27542681633288,-0.8163241246321234,-5.218464688650808,38.864843999370336,35.38944971402556,0.055302147399315625,3.4426857744888766,1.5588212039866294,0.35191291770138483,3.9953917853707015,0.5037628919113829,0.34414954697551897,9.894466295241235,32.67911007248799,110.3682739982456,41.53527319431305,10.18882766366005,-30.26464283466339,281.5774440765381,-35.40041744709015,-158.30881595611572,-0.20769844377906335,4.6418938901363385,False,0
GUIDED_NOGPS,2.0693893432617188,32.708715453241,25.334280954423548,29.734768619309516,109.8892824462407,-0.6824423140924728,-5.587251997136956,38.96223251583375,34.857536074978114,-0.040912726406670596,3.4944673595774476,1.7220919668973182,0.31577154134658403,3.9965224640219894,0.4674149467705115,0.3436747152670611,8.696582595649408,32.778312180648605,110.00211105515763,49.65165853500366,7.745219022035599,-32.891061902046204,372.45068550109863,-63.97639513015747,-154.70314025878906,-0.14000735699190303,1.6600083221062527,False,0
GUIDED_NOGPS,2.1235034465789795,18.48061086461312,25.619529515349157,30.012601601001883,109.45229130550807,-0.5746150773653574,-5.946040446550558,39.05532235736635,34.31586309468889,-0.18166462242809187,3.391628402895739,1.771343073620105,0.503891978374864,3.688918429956208,0.05376130228233017,0.3431400863846161,7.043350204283092,32.70894770457198,109.69463395247742,49.65165853500366,7.745219022035599,-32.891061902046204,372.45068550109863,-63.97639513015747,-154.70314025878906,-0.07084950048354936,1.6600083221062527,False,0
GUIDED_NOGPS,2.1409409046173096,57.364279169003105,26.478183488781767,30.36556187444838,109.10837090385812,-0.37499729470066784,-6.29367667602212,39.14401329014819,33.76482570255325,-0.171794492149321,3.435680348277971,1.861539883756649,-0.29524664907159587,4.002018072393565,2.077215589775154,0.34262132754783625,3.664685598902154,33.03716911113765,109.29450966938083,55.72764873504639,6.696157157421112,-29.942351579666138,398.11487197875977,-66.82459115982056,-43.95492076873779,-0.09229706883133126,0.9361115766960976,False,0
GUIDED_NOGPS,2.1707329750061035,33.57296427628051,26.282291159176687,30.544770855423806,108.65078250787539,-0.38318310545295503,-6.62907996109784,39.22821960415273,33.20483413879816,-0.03378801200912749,3.6184301703713015,2.0249352976196904,0.4769181470395419,3.3083147871914456,-0.28491387442445715,0.34223687285794535,3.664685598902154,33.03716911113765,109.29450966938083,57.34954476356506,4.956841841340065,-30.24427592754364,309.318470954895,-63.051414489746094,-43.24382841587067,-0.09229706883133126,-0.4281649222742356,False,0
GUIDED_NOGPS,2.203993558883667,30.0779071768688,26.36967272480947,30.79404080358306,108.18686269213677,-0.3872626306278455,-6.951247568226467,39.30787076605676,32.63631318197784,-0.08148842566648337,3.668903987677226,2.1406564179628664,0.34452954649894496,3.881101404398466,-0.25689143279918936,0.3418266680828863,-2.855069595533222,34.464197350041744,108.42163816588635,68.5729444026947,2.8601227328181267,-30.6339293718338,341.6664123535156,-67.23143458366394,-81.51775598526001,-0.1641974481880893,-3.896944367270088,False,0
GUIDED_NOGPS,2.2375900745391846,29.764568963070197,26.584902918295494,31.061042279637636,107.59381261065107,-0.3352260228551708,-7.259260109246849,39.38291207215033,32.05970137646949,-0.09231491583118828,3.65896776998215,2.229284952632952,0.28840630082107627,3.9983810384315075,0.10805238201912876,0.3416561453322029,-5.81361889259153,34.65699642002566,106.24338801284298,77.04113721847534,3.07895764708519,-32.85064101219177,375.3652334213257,-76.39650702476501,-62.42330074310303,-0.26347911067119034,-0.6417206050716161,False,0
GUIDED_NOGPS,2.270726442337036,30.184186474952682,26.65013749407191,31.36298242035895,106.96541167394702,-0.2945247532474001,-7.552286895874513,39.45330530124668,31.475450259968913,-0.20310666730602464,3.5606158206983167,2.309834867618793,0.18404094751392908,3.859155884324579,0.06905045558798437,0.3415444143138979,-9.352872862025025,35.72436221574553,105.41377794385744,77.04113721847534,3.07895764708519,-32.85064101219177,375.3652334213257,-76.39650702476501,-62.42330074310303,-0.3753047486471503,-0.6417206050716161,False,0
GUIDED_NOGPS,2.3045458793640137,29.570671178793006,27.02674383150001,31.634651467255825,106.2383415862503,-0.2584066869582802,-7.829591294189921,39.51902936759216,30.88402359098612,-0.40992298110501246,3.4018470062243127,2.47185165048655,0.2267467619248106,3.999018035801921,0.05795040589589512,0.34161125243180157,-9.997347840792322,35.704666905461764,104.44910813017486,99.07845258712769,1.9011303782463074,-36.8937611579895,454.61034774780273,-75.14781951904297,45.30445039272308,-0.4941806354173527,-0.23628740612882923,False,0
GUIDED_NOGPS,2.337986946105957,29.907403578075197,27.259683959815256,31.906822234545597,105.39264590527564,-0.2438149428938417,-8.09053607912475,39.580080973776155,30.28589657634109,-0.5239743336395316,3.1731251018183304,2.624858773508825,0.1938426533121831,3.9992113388080375,-0.058879713120619695,0.3419057815348423,-17.204916324445364,36.120020945705065,102.37535662960349,108.2937479019165,1.3657107949256897,-39.052048325538635,346.57819271087646,-74.91148710250854,-4.384845495223999,-0.5548818275373193,-1.2686606807793246,False,0
GUIDED_NOGPS,2.375849962234497,26.4143234103118,27.129622300128307,32.160816427701356,104.43927617387654,-0.23339023737255804,-8.334588788949436,39.63647526364103,29.681555098659352,-0.4669368112629303,3.050512320602612,2.841523046152208,0.24704134259605906,3.430561406610363,-0.08480392286785585,0.3423780696904085,-25.226331478714403,36.89434716153721,98.8689374634523,106.68584108352661,-1.1605089530348778,-37.10113167762756,425.3061771392822,-87.60856986045837,21.507081389427185,-0.7610025090436903,-0.5990366185140908,False,0
GUIDED_NOGPS,2.406384229660034,32.75929831138604,27.05517358322105,32.3989419155406,103.45444808052213,-0.3125920715583579,-8.561327079760762,39.688246475192045,29.071494943867698,-0.4718584428076005,2.867604336941313,2.9622312718065507,0.18321676462895334,3.582415904991195,-0.7052534257252482,0.34294552986346016,-26.34709372677346,37.58103396168778,98.00072953746292,111.31877899169922,-3.4051861613988876,-37.636321783065796,335.1876497268677,-102.14463472366333,-65.88443517684937,-0.8868002639880147,-5.9503408497178105,False,0
GUIDED_NOGPS,2.441542863845825,28.445601898948794,27.070286927927796,32.58377700578318,102.51463031919162,-0.4081928524279337,-8.770444079968488,39.735448593507286,28.456221028689793,-0.46868939511527324,2.7049186224217183,3.0864553373361576,0.32143797679484565,3.7005765921981015,-0.7886599314670462,0.34338628307797003,-26.34709372677346,37.58103396168778,98.00072953746292,125.1667857170105,-5.074944347143173,-39.166271686553955,468.1734561920166,-76.49805545806885,-63.15397620201111,-0.8868002639880147,-6.322111888223012,False,0
GUIDED_NOGPS,2.475618600845337,29.34988489017333,27.230405258632462,32.77882425634174,101.40783778838583,-0.4872179864825461,-8.961753744783277,39.77815600364758,27.83624662814182,-0.4062039431019405,2.6873419843663364,3.184004952835926,0.28207800380329984,3.9977459008612986,-0.7555582173345403,0.3441591020453916,-29.510861682297303,38.342591854599036,96.2392905258826,133.36583375930786,-6.652636080980301,-43.988946080207825,370.9000825881958,-101.28320455551147,-143.6959743499756,-1.1124192226833125,-4.934009981880382,False,0
GUIDED_NOGPS,2.5077695846557617,31.107860951858253,27.66697142475892,32.95174024409012,100.30121220908389,-0.5784061543274912,-9.135196210702919,39.81646414356646,27.2120926030283,-0.2613255989656266,2.640890721594726,3.3510158846474316,0.2931996916924254,3.9972438520550115,-0.9214709445147391,0.3449384031840598,-28.79647341978179,38.82489963507341,96.05102948740856,150.48843622207642,-8.471737056970596,-45.88038921356201,451.42555236816406,-103.48519086837769,-119.73122358322144,-1.2699505128408477,-5.11741080637898,False,0
GUIDED_NOGPS,2.540961980819702,30.13084488121664,28.206795699837606,33.08267627089089,99.14230758629111,-0.6498322038375525,-9.290843150000885,39.850490157020054,26.584286627437496,-0.09859714240286617,2.67622435738826,3.463900982381171,0.379384934026676,3.995954223637124,-0.8147336757101935,0.34580541728743264,-29.476435746488114,38.935921555543345,95.48829442406834,160.83805561065674,-10.603386908769608,-50.66980719566345,427.07982063293457,-95.95327973365784,-164.43228721618652,-1.3816766844338617,-3.3903257577549706,False,0
GUIDED_NOGPS,2.5760834217071533,28.475342168151204,28.941667186419284,33.15554266600342,97.87928883533536,-0.6923268430570446,-9.42890312521229,39.88037354647703,25.953362416237177,0.03354823501666302,2.6241960317159223,3.527547032944877,0.48722957348761836,3.9944043659974304,-0.6571024073332304,0.3468672804019355,-34.47795971982006,38.8115556572058,92.87644622351931,179.74454164505005,-13.773733377456665,-49.320462346076965,502.6142120361328,-106.73298835754395,-130.14912605285645,-1.6344690155705768,-0.8477992584402425,False,0
GUIDED_NOGPS,2.608504295349121,30.852267043281255,29.846288486444415,33.20588894727874,96.53941288761462,-0.7696960773032334,-9.549726943622073,39.906276826028524,25.319858952570506,0.05418426421168139,2.5160171477637334,3.5423420764607707,0.5200967217187858,3.993373697719946,-0.9522845785661906,0.3481002716866947,-36.08003061235672,39.58188804584191,91.7508311319922,195.58459520339966,-16.630950570106506,-53.78096103668213,497.76291847229004,-92.4063503742218,-162.99697160720825,-1.9021380148239395,-2.4032477363590607,False,0
GUIDED_NOGPS,2.6434357166290283,28.62888891922515,30.730683323794494,33.22121775419922,95.20166931379715,-0.7930950642793252,-9.653813011751463,39.928386174298055,24.684319715351247,0.11127605457567258,2.4741811718803475,3.5799232713780618,0.5851695858066265,3.9922827340894846,-0.6068936150256237,0.34930320567678275,-38.85919931589261,39.93389793243617,90.28604319576922,206.75311088562012,-19.100812077522278,-54.07068133354187,525.7096290588379,-94.13625597953796,-92.9747998714447,-2.045784010055063,1.6287821913248355,False,0
GUIDED_NOGPS,2.678492307662964,28.528216673581685,32.11277922680828,33.16863272027469,93.72832113843262,-0.8187846387972197,-9.74181268984611,39.946912087351485,24.04729190675982,0.15231313845000502,2.499335477933035,3.6075676082700423,0.7117821409053784,3.9902360643592116,-0.6375587776830012,0.3507800599002777,-40.06695125533962,39.6673893491912,89.66083405000752,228.24525833129883,-22.32181280851364,-58.12356472015381,545.8734512329102,-104.31864261627197,-121.50676250457764,-2.146734170472989,1.5852867996382538,False,0
GUIDED_NOGPS,2.7105507850646973,31.20065461578517,33.59878557491937,33.07722152251756,92.21316632518442,-0.8896723585432098,-9.814535646362035,39.96209003160692,23.40932567973881,0.23926664926742416,2.370019292933772,3.569323458116437,0.8143864298170375,3.9878356938296444,-0.986193973197659,0.3523619366600299,-41.32081375561275,39.852250283439304,89.02839708773939,239.30885791778564,-24.63710606098175,-62.05352544784546,591.6718482971191,-107.57834911346436,-3.916049003601074,-2.165182380988622,-1.4194255807631317,False,0
GUIDED_NOGPS,2.743258237838745,30.599276292751256,35.09723500190543,32.9618663546394,90.80502227577384,-0.912571489282519,-9.872955212454354,39.97418109674462,22.770973365488533,0.371698601147403,2.4534701173261646,3.5462617512707117,0.8537544190467912,3.9869081977204437,-0.6852372087336009,0.3537204906574791,-41.20240301696049,40.44170148163117,89.20677744105573,252.66776084899902,-27.510035037994385,-63.26502561569214,534.7954273223877,-116.95176362991333,-51.83706283569336,-2.1887794088304915,1.8560006003397687,False,0
GUIDED_NOGPS,2.777751922607422,28.97259062776304,36.8430523164552,32.786529687208535,89.23139829016803,-0.9444063621899728,-9.918213736463475,39.983472648616996,22.132788700962838,0.49163957777845657,2.459251018684934,3.5093383889478575,0.9676255901048114,3.984592622465837,-0.7505500700172755,0.3554055289008805,-44.00474698020769,40.1575155250881,87.65819583396771,265.90659618377686,-29.896166920661926,-68.37152242660522,474.49588775634766,-110.28938293457031,-3.794962167739868,-2.240036341725067,1.2717982989292993,False,0
GUIDED_NOGPS,2.8112192153930664,29.885454519544552,38.74725827259814,32.56806877258905,87.58369463461464,-1.010541292943866,-9.951627938402577,39.99027898215844,21.49532605636484,0.7935909818447604,2.582055045197413,3.483054540361179,1.0817081426915423,3.9815418673358423,-1.0028851334566045,0.3572496645141884,-46.56265671679125,40.23895898261013,86.39847258371822,281.32641315460205,-32.3837548494339,-71.63046002388,535.9963417053223,-97.31557965278625,-65.30325412750244,-2.315177320761876,-0.8869401910875295,False,0
GUIDED_NOGPS,2.8602378368377686,20.401700504898194,40.691796847550954,32.31686885979195,85.92427340047465,-1.0445238641915733,-9.974694264445024,39.994941974295365,20.859139662642214,1.2917238817289305,2.7087236781196498,3.2498953608722156,1.0031519583479955,3.9823749174237055,-0.7650457362167941,0.35904039121721276,-48.21769726547281,40.472213809722454,85.75629400986557,294.11139488220215,-35.0568950176239,-75.55134296417236,405.4588317871094,-89.1819417476654,-50.70596933364868,-2.3117855485527983,1.1893425477216129,False,0
GUIDED_NOGPS,2.8794686794281006,52.01914920004961,42.78984106281598,32.03511598927106,84.13864205899957,-1.0818789498368084,-9.98909424141139,39.99783173685603,20.224782838983213,1.422914953655362,2.7391077746424517,3.2072568377613533,1.6879300734632126,3.968837317697232,-1.0526469566491552,0.36124827292016537,-51.41654852633478,40.98899529747713,84.47467105747754,311.7191791534424,-38.1136029958725,-82.65642523765564,486.7088317871094,-97.53726124763489,-137.39012479782104,-2.2222659368997535,0.6168318226229128,False,0
GUIDED_NOGPS,2.926837682723999,21.112870669129823,43.20867348092138,31.880306483541712,82.93483288256746,-1.1149162519636393,-9.996699831256553,39.99934726948052,19.59280722031235,1.6055700068739587,2.9611918023922392,3.08298133236956,0.9156345187727534,3.9829378775203086,-0.8071072211647488,0.3621495905324049,-54.50377780266801,41.474249033636454,83.27527521840128,311.7191791534424,-38.1136029958725,-82.65642523765564,486.7088317871094,-97.53726124763489,-137.39012479782104,-2.0972896171037325,0.6168318226229128,False,0
GUIDED_NOGPS,2.9466404914855957,50.51856669677808,45.87619104042284,31.503404620848897,80.91031828061195,-1.0846866744585022,-9.999578785557457,39.999917112530675,18.963761984785663,1.728803054643679,3.0637940503305248,3.017650146071565,1.9667657971888646,3.9634789114223863,-0.34589884822148653,0.3648422655762043,-56.13240662923232,41.3298541428463,82.43087968600246,343.6630964279175,-43.91939640045166,-93.0690348148346,562.1079921722412,-88.28158974647522,-88.65036964416504,-2.121628746388989,4.753754886381399,False,0
GUIDED_NOGPS,2.980503559112549,29.533400460501763,46.95889066572823,31.244007805232453,79.50061825847992,-1.1012609251333865,-10.000000000000004,40.000000000000014,18.338193081286835,1.7014799500861009,2.968089866567129,2.9116304556707457,1.2447914053066405,3.976810358303626,-0.7579232777528715,0.3662436029504912,-56.91833664194211,41.2426852288836,82.31740382942334,358.0451488494873,-45.398059487342834,-98.83504509925842,571.9317436218262,-73.2198417186737,-138.74598741531372,-2.116151460634655,1.7449107751406847,False,0
GUIDED_NOGPS,3.013287305831909,30.50646960847777,49.965750817771244,30.82964085230687,77.45108082281997,-1.0674200730043342,-10.0,40.0,17.71664245692252,1.6696557508654841,3.080082130510301,2.9130238142614284,1.6007673878975714,3.9708685150500287,-0.43404361311259,0.3689428803149698,-57.10987798348293,41.65615184995875,82.6878378688684,372.2771883010864,-47.262513637542725,-103.5692811012268,500.00762939453125,-73.1906533241272,-130.08925914764404,-1.9935626887818028,4.52480395719481,False,0
GUIDED_NOGPS,3.048372983932495,28.50533841689264,52.73943420991723,30.446978950408614,75.44713559098496,-1.0240089885035415,-10.0,40.0,17.09964728451802,1.71542762325809,3.015197040942472,2.878826764634467,1.5313474475429074,3.973267266360002,-0.36100365434574005,0.3715568492347657,-59.686912832321,42.27728455175436,81.66536083975981,372.2771883010864,-47.262513637542725,-103.5692811012268,500.00762939453125,-73.1906533241272,-130.08925914764404,-1.7793193374844167,4.52480395719481,False,0
GUIDED_NOGPS,3.0816733837127686,30.033970154383756,55.801682346837254,29.89748340135229,73.1915898177144,-1.0339016364255251,-10.0,40.0,16.48773919011355,1.728443615938607,3.072426769111186,2.8827904087871903,1.8965208138899892,3.966424921743866,-0.6784463778457192,0.37468966011414273,-64.41621033354163,42.46805390566831,79.32283392027531,398.0887174606323,-58.419424295425415,-114.46324586868286,453.74598503112793,-81.83135390281677,-226.98559761047363,-1.6558612976587244,0.3322776040637191,False,0
GUIDED_NOGPS,3.1235220432281494,23.897942555652417,58.87355010493681,29.258881660811824,70.96240187269014,-1.0514374013599084,-10.0,40.0,15.881443480458756,1.7854560587143498,3.093754461681374,2.909306056918826,1.8898390532478255,3.9659892020270613,-0.7147368737763895,0.3777511907273693,-67.48393531510006,42.78841807119588,77.93852272675262,414.97836112976074,-65.90256094932556,-114.45798873901367,511.45052909851074,-93.91052722930908,-98.38215112686157,-1.5341028362968454,-0.48627414402029423,False,0
GUIDED_NOGPS,3.1508889198303223,36.546254585377326,63.43628611105383,28.397328405188205,68.39055467954482,-1.0310746035047487,-10.0,40.0,15.281278370509341,1.90266914850435,3.1611479382218897,2.924559149995934,3.011501829763173,3.946448000274883,-0.46948825020531454,0.3815785475193374,-67.37653331203609,43.61586064962012,82.0732534410073,430.9748649597168,-73.27682971954346,-121.18313312530518,422.28832244873047,-74.27958846092224,-54.87602949142456,-1.194232261567948,0.8779312782939885,False,0
GUIDED_NOGPS,3.200913429260254,19.99220198572906,66.12358033533515,27.646683656240405,66.53657979061785,-1.016600430770778,-10.0,40.0,14.687754210922435,1.7001307742816116,3.0981422178928724,2.938149305453555,1.9910937104227329,3.9652979798490797,-0.5521409851479431,0.383891775981946,-67.37653331203609,43.61586064962012,82.0732534410073,462.921142578125,-83.89045000076294,-133.03509950637817,430.8006763458252,-80.31975626945496,-205.0123691558838,-1.194232261567948,1.1143573159186277,False,0
GUIDED_NOGPS,3.2151858806610107,70.08026733500418,69.51284975555397,26.775560181279257,64.24213580755219,-1.00310440450853,-10.0,40.0,14.101372715552088,1.697581192730493,3.1866211287314523,2.9696761780018646,4.069413313282075,3.9293606713666036,-0.4141475096917298,0.3872502219800791,-72.1622048451327,43.68189235246456,77.78032115105694,481.2485694885254,-87.33924627304077,-138.566792011261,466.94788932800293,-100.60683488845825,-281.84759616851807,-1.4673393717574712,1.6886968241675988,False,0
GUIDED_NOGPS,3.2488961219787598,29.669401844830514,69.9019918210669,26.325869032863377,63.08455403680323,-1.0004795023901154,-10.0,40.0,13.522626188945203,1.6088096509746603,3.0317914124178413,2.9820418086073497,1.9839768379000173,3.9659628434456367,-0.5846833679993376,0.3882744985390989,-72.1622048451327,43.68189235246456,77.78032115105694,481.2485694885254,-87.33924627304077,-138.566792011261,466.94788932800293,-100.60683488845825,-281.84759616851807,-1.4673393717574712,1.6886968241675988,False,0
GUIDED_NOGPS,3.292041063308716,23.17986581632089,74.10989564758508,25.344256098140157,60.635777466066585,-1.0293055577676107,-10.0,40.0,12.951996753836859,1.6200079595623078,3.008270588793845,2.9808693639476345,2.669882178251336,3.9526765703917355,-0.7511839748705721,0.3918661785927879,-72.1622048451327,43.68189235246456,77.78032115105694,499.798059463501,-91.06142520904541,-143.46895217895508,577.9480457305908,-117.49018430709839,-207.53324031829834,-1.4673393717574712,-1.4948067500945659,False,0
STABILIZE,3.3261780738830566,29.297402261757576,80.68616031727746,23.95009390993697,57.37928315197339,-1.061717410439138,-10.0,40.0,12.389955578646337,1.7682038546445438,2.858652093373542,2.9820509866740466,3.955017870045792,3.927390146427892,-0.8270652021347074,0.3971323125955607,-72.1622048451327,43.68189235246456,77.78032115105694,541.2809371948242,-100.99244117736816,-158.12832117080688,602.3935317993164,-126.5773057937622,-191.29372835159302,-1.4673393717574712,-1.9480487119065033,False,0
STABILIZE,3.3605782985687256,29.07461527797033,85.62858079681074,22.753640318495588,54.73050513480517,-0.9948429718699583,-10.0,40.0,11.836962104972443,1.9230224719007534,2.677085814997328,2.9759129944877323,3.645841354127604,3.9372928967066474,-0.20794709274019502,0.4012058853326317,-72.1622048451327,43.68189235246456,77.78032115105694,555.4882049560547,-105.51844835281372,-163.88928890228271,475.6470203399658,-85.93573570251465,-186.4462375640869,-1.4673393717574712,5.333635812481366,False,0
STABILIZE,3.4062843322753906,21.882487974373156,90.71209069496037,21.493586951099644,51.98796530461669,-0.9428368227750159,-10.0,40.0,11.293463275089422,1.588308411294044,1.806793783124881,2.8262716606223925,3.2704910246420953,3.9467188622875473,-0.3378167217184647,0.4054553758323971,-72.1622048451327,43.68189235246456,77.78032115105694,568.5486316680908,-110.24085283279419,-174.2672085762024,492.3840522766113,-102.77566909790039,-301.028847694397,-1.4673393717574712,4.240657842438524,False,0
STABILIZE,3.4257171154022217,51.46195845551698,95.59281728109485,20.25440381623779,49.24442629354681,-0.8710142784171727,-10.0,40.0,10.759892759442678,1.4549920833186807,0.7844167037681109,2.720140979647561,4.060343729047334,3.9387318773922644,0.21390619424275203,0.40981526662160056,-72.1622048451327,43.68189235246456,77.78032115105694,582.1948528289795,-113.28070163726807,-186.7039680480957,382.53748416900635,-110.28385162353516,-288.4743928909302,-1.4673393717574712,5.661562586043787,False,0
STABILIZE,3.46106219291687,28.29878217454374,97.75485544821711,19.459925999246693,47.368585977903685,-0.7958341020958848,-10.0,40.0,10.236670184143932,1.182917687590158,-2.177374447723797,2.4255570551790266,3.0826218621927914,3.9575657496314594,-0.05150461644881554,0.4124156528551226,-72.1622048451327,43.68189235246456,77.78032115105694,598.021125793457,-117.56213903427124,-202.5954008102417,418.1547164916992,-120.49227952957153,-336.3065242767334,-1.4673393717574712,6.891350952709276,False,0
STABILIZE,3.494617223739624,29.803061093978712,103.79274009894303,17.996975920652325,43.93871935480322,-0.7353195575657768,-10.0,40.0,9.724200358467492,1.229185602471236,-5.337616532107014,2.1766540762097724,4.0510041745380985,3.948337014221924,-0.0810075441837611,0.4181584723505484,-72.1622048451327,43.68189235246456,77.78032115105694,613.4456634521484,-121.52268886566162,-223.1351137161255,404.05378341674805,-111.66266202926636,-479.07772064208984,-1.4673393717574712,4.6599751084166545,False,0
STABILIZE,3.52701997756958,30.865889556105028,109.29252468289312,16.61048616031566,40.533586689828645,-0.69454409936556,-10.0,40.0,9.222872502345517,1.0897558283018882,-9.36536499839837,1.9157886612394752,4.0481932517143395,3.951218976059727,-0.16482507372672184,0.42388498936366653,-72.1622048451327,43.68189235246456,77.78032115105694,623.6827373504639,-124.47311878204346,-240.45727252960205,383.7743282318115,-108.14511775970459,-478.4575939178467,-1.4673393717574712,3.52116827659032,False,0
STABILIZE,3.560547351837158,29.834223647990214,114.70928674161416,15.24116548615751,37.18653112187457,-0.6544228190650431,-10.0,40.0,8.733059473863953,1.1633252899559765,-13.95369825261076,1.6654370418359434,4.045425424499554,3.9540527481070105,-0.15362518876924433,0.42952305913991673,-72.1622048451327,43.68189235246456,77.78032115105694,623.6827373504639,-124.47311878204346,-240.45727252960205,383.7743282318115,-108.14511775970459,-478.4575939178467,-1.4673393717574712,3.52116827659032,False,0
STABILIZE,3.5938193798065186,30.06173892476509,120.79060265281473,13.756031031683843,33.68312600797137,-0.6187915256271785,-10.0,40.0,8.255116996757778,1.5094750082239914,-18.47454155386061,1.418362419130137,4.042965682679991,3.9565677662175727,-0.15708863577529106,0.38465028453192385,-72.1622048451327,43.68189235246456,77.78032115105694,655.4019451141357,-130.06025552749634,-247.73850440979004,591.6630744934082,-132.02027082443237,-363.6939764022827,-1.4673393717574712,3.1453413863785995,False,0
STABILIZE,3.62811279296875,29.160726949121905,127.040838875142,12.22116534362547,30.03864326858105,-0.6730442760040997,-10.0,40.0,7.7893828879071805,1.9631276351597757,-22.35324205897077,1.1800910564908305,4.046710300640403,3.952737752835477,-0.7201309371248487,0.39730421971108626,-72.1622048451327,43.68189235246456,77.78032115105694,674.524450302124,-135.0143313407898,-262.09776401519775,695.1244831085205,-181.91837072372437,-428.06243896484375,-1.4673393717574712,-2.9687878265229397,False,0
STABILIZE,3.6610352993011475,30.379198203744615,134.32346458333032,10.535128744329915,25.889399058423972,-0.7269890228954056,-10.0,40.0,7.3361762848327885,2.2713426962209513,-24.859672182460745,0.9706058462736603,4.050430062240822,3.9489259692852956,-0.7637063401754343,0.41203947563415644,-72.1622048451327,43.68189235246456,77.78032115105694,737.2760772705078,-144.04382705688477,-295.2366828918457,991.190242767334,-163.20738792419434,-433.3529472351074,-1.4673393717574712,-2.855050235803418,False,0
STABILIZE,3.695613145828247,28.924040245222777,141.65141855598017,8.864777951219859,21.674918654770185,-0.7267317178094146,-10.0,40.0,6.895796873191813,2.2312198171587694,-26.5914393257608,0.761145982461613,4.050412328280574,3.9489441590015852,-0.4345466490893101,0.4270951099415771,-72.1622048451327,43.68189235246456,77.78032115105694,773.5824108123779,-149.49345588684082,-314.2918586730957,1025.7433891296387,-157.5128436088562,-522.4668025970459,-1.4673393717574712,1.0436001846552923,False,0
STABILIZE,3.728606700897217,30.313111602561325,149.69332808297395,7.0756245462377585,17.191124428404756,-0.564323815262809,-10.0,40.0,6.468524114272903,2.0208265119471047,-27.514756250594168,0.5824784256969816,4.039202581325547,3.960409386289886,0.6464933685181473,0.4432929110590239,-72.1622048451327,43.68189235246456,77.78032115105694,814.9209976196289,-156.54480457305908,-331.5133810043335,1234.0533256530762,-178.94647121429443,-557.0735454559326,-1.4673393717574712,12.014287382126797,False,0
STABILIZE,3.7611351013183594,30.74507044318365,157.77987875830217,5.26030524813733,12.49811435016889,-0.30726124837847146,-10.0,40.0,6.05461647249269,1.585325753060864,-26.92792518012689,0.4338682903137549,4.021393261571924,3.9784917036213514,1.3883126537942219,0.4603924691298417,-72.1622048451327,43.68189235246456,77.78032115105694,842.6082611083984,-163.3746862411499,-357.338809967041,1040.7605171203613,-180.5607557296753,-683.4656715393066,-1.4673393717574712,18.408710483092733,False,0
STABILIZE,3.796677827835083,28.13949306962577,,,,,-10.0,40.0,5.654310642890842,1.189459087824326,-25.15971214741565,0.36381829707292723,,,-10.0,1.0,-72.1622048451327,43.68189235246456,77.78032115105694,,,,,,,-1.4673393717574712,,False,0
STABILIZE,3.8301706314086914,29.860773732397373,,,,,-10.0,40.0,5.2678207786261595,0.5929054565169466,-21.310456587817413,0.24527006538274804,,,-10.0,1.0,-72.1622048451327,43.68189235246456,77.78032115105694,,,,,,,-1.4673393717574712,,False,0
