Mode,Time,Freq,North-Vision,East-Vision,Down-Vision,Yaw-Vision,North-Desired,East-Desired,Down-Desired,Roll-UAV,Pitch-UAV,Yaw-UAV,Roll-Control,Pitch-Control,Yaw-Control,Thrust-Control,northVraw,eastVraw,downVraw,yawVraw,zGyro
GUIDED_NOGPS,0.0026412010192871094,381.64731574158327,29.758818004746516,8.10042607647061,94.23991639712617,1.6984771616536496,27.954927460246637,6.311576551480236,92.57500528049164,0.32527938156795344,-0.44748005691679693,-38.35372517091268,2.0,2.0,-0.16984771616536498,0.4975026333250482,29.758818004746516,8.10042607647061,94.23991639712617,5.906522383462555,-2.9220847551671985
GUIDED_NOGPS,0.004628419876098633,505.09441233140655,30.024534891035742,8.50065315682303,94.20195907822792,0.9225887112462674,27.954843800379084,6.3115576630156145,92.5750080442578,0.32527938156795344,-0.44748005691679693,-38.35372517091268,0.7245579626276719,0.5592772059079124,-0.09225887112462675,0.49755957344904483,30.29025177732497,8.900880237175452,94.16400175932966,5.759508971265621,-2.9220847551671985
GUIDED_NOGPS,0.030361652374267578,38.87466286042653,30.370107565675443,8.686766443507631,94.28864822121763,0.9897383913588944,27.95426493253318,6.31142696803428,92.57502727958945,0.17751919118978338,-0.40820753640628143,-38.4843457086,0.11177839266670153,0.15081777314100553,-0.09897383913588945,0.4974295685875577,31.061252914954842,9.058993016876833,94.46202650719707,5.665796775823889,-3.7815214478634336
GUIDED_NOGPS,0.05292177200317383,44.3428764748171,30.780792023273655,8.809905809072076,94.39365353899609,0.9788307748470317,27.95271409127375,6.311076823919544,92.57507915372216,0.06576188842210257,-0.3640968940858697,-38.63393709670704,0.10998524057526964,0.187124329792476,-0.09788307748470318,0.4972721384220891,32.01284539606828,9.179323905765406,94.70866949233147,5.544269093308551,-3.4377467707849396
GUIDED_NOGPS,0.09897422790527344,21.718866185441026,31.167997425214804,9.041468291797452,94.47002416489006,0.9734253869678039,27.949734381150222,6.310404074238021,92.5751795039289,-0.07073906861463201,-0.29233551157113075,-38.98294951801093,0.11658507125294175,0.1626910159121195,-0.09734253869678039,0.49715773300855826,32.7168190329794,9.967718222698956,94.77550666846594,5.384417449760265,-3.4377467707849396
GUIDED_NOGPS,0.13199687004089355,30.28706358089324,31.775182481803462,9.465239454050632,94.66952359587879,0.8843954756599556,27.944888502627883,6.309309986861246,92.57534383975704,-0.10377726058904566,-0.11096496080331966,-39.10813322511893,0.16016481479835537,0.22761772602511404,-0.08843954756599556,0.4968587303658174,32.79474328768978,10.21928188773651,95.23741355206978,5.175630482454689,-3.323155211758775
GUIDED_NOGPS,0.17497491836547852,23.27401866669626,32.51029926852575,9.595607057665097,95.03232696502049,0.8441219808220403,27.937758478019106,6.3077001920872755,92.57558734526546,-0.09807061085707357,-0.015586064799145972,-39.230591686748085,0.12990016259307155,0.2527990186648126,-0.08441219808220403,0.4963148905703675,33.96583571093641,9.552718255247774,95.97801860503823,5.094633948420997,-3.0939720937064457
GUIDED_NOGPS,0.2184591293334961,22.999122653097036,33.20564363282754,10.039504443600851,95.25178888202622,0.797562116470983,27.927945377414616,6.305484620762303,92.57592488126151,-0.022604924604767103,0.12679563175211672,-39.34812558198567,0.17187744295876872,0.27667878199971774,-0.0797562116470983,0.49598620399885296,34.53797473646379,11.27847994655561,95.55933609222566,4.940618099799704,-1.5469860468532228
GUIDED_NOGPS,0.2588770389556885,24.750120968217814,33.55165505192095,10.48690371225796,95.56321104153011,0.7787755702448343,27.91506904461473,6.302577442402266,92.57637098753808,-0.007054971762814929,0.29989311588774986,-39.37541218771987,0.19161642098423137,0.2621553305207715,-0.07787755702448344,0.49551973991901194,33.74290249153537,11.41632024905094,96.26578028985092,4.84596324430256,-1.0313240312354819
GUIDED_NOGPS,0.2895965576171875,32.564977717045295,33.87538838166077,10.984222638518391,95.92310228126458,0.7774102334104402,27.898767823060595,6.298897003314457,92.57693988511065,0.06754623532212874,0.39382571933517335,-39.419538624852734,0.22837139730371692,0.28467136210464217,-0.07774102334104403,0.4949807564057691,34.33548568167847,12.454312854001115,96.57496286713824,4.764920898947064,-1.3178029288008934
GUIDED_NOGPS,0.3267202377319336,26.961399268482392,34.18353686045851,11.43122883177131,96.19061214427826,0.8154881656718417,27.87869828176545,6.294365764719131,92.57764547845423,0.12834548438411458,0.40596574025463633,-39.437245890275996,0.22995009744311304,0.2891903888508306,-0.08154881656718417,0.49458055000126394,34.33548568167847,12.454312854001115,96.57496286713824,4.764920898947064,0.0
GUIDED_NOGPS,0.36094021797180176,29.218825758631258,34.140360372170335,12.326235039973058,96.28034291010513,0.8564602730392982,27.85453494124586,6.288910240871117,92.57850135774055,0.1826429803256301,0.44816905224932196,-39.42933653121712,0.31256371508513026,0.25092260392392257,-0.08564602730392983,0.4944472376714531,33.74995326949552,14.027749296256523,96.42667243417262,4.5337386383151985,0.2864788975654116
GUIDED_NOGPS,0.40695643424987793,21.734284722330177,34.38765837203106,12.67847555639403,96.61949849837474,0.9125104631143893,27.825969999452973,6.282460937181427,92.57952080107498,0.19739466814855025,0.5168609050623749,-39.400123812136975,0.2598208736586172,0.28844839667061367,-0.09125104631143893,0.49394003345405035,35.77446473576743,13.039682528660476,97.25511403357366,4.554390215392201,0.6302535746439055
GUIDED_NOGPS,0.44367003440856934,27.246532717504987,35.06516567411963,13.665285329327792,96.63782617536842,0.992333634925593,27.79271305770376,6.2749522883388655,92.58071677673357,0.3433876004398324,0.36016206479370766,-39.3729225837674,0.36560380821583566,0.37084726605008383,-0.0992333634925593,0.49391433590204775,37.13043900197824,16.350369113719747,96.3574186748193,4.44134106733871,1.7188733853924698
GUIDED_NOGPS,0.48356199264526367,25.0731036626555,35.62415633817959,14.444496581271519,96.59431733690464,1.0940073272673496,27.754490846612267,6.266322596431639,92.58210194540015,0.3971951370301053,0.5338245336397478,-39.28219718102212,0.36756963861919517,0.3772658356823764,-0.10940073272673496,0.49398167691274325,37.13043900197824,16.350369113719747,96.3574186748193,4.44134106733871,2.2345354010102105
GUIDED_NOGPS,0.5239953994750977,24.738734487802578,36.23760385220356,15.197536572962642,96.67512200272532,1.2102723173114702,27.711046952020855,6.256513969068965,92.5836886624033,0.46730185285755577,0.4534122896543646,-39.19749942021937,0.39289266371695214,0.4096721486201651,-0.12102723173114703,0.49386284998951696,37.40272325179837,16.21951281245672,96.97898619624175,4.52960226401449,2.3491269600363753
GUIDED_NOGPS,0.5577783584594727,29.611798676955445,36.95615539392346,15.809877321997345,96.81189010056532,1.3577483007104783,27.662141540931447,6.245472257502683,92.58548897995344,0.5440488999404338,0.27847641741494017,-39.079910883468436,0.41235743006127973,0.4644408615515688,-0.13577483007104782,0.49366039831908215,37.34271097809499,17.089453041430037,97.11051292337264,4.59087389765035,3.666929888837269
GUIDED_NOGPS,0.5957827568054199,26.320174200066518,37.19986093487079,16.912296180005054,96.78865108262447,1.5139754626858264,27.607551087436793,6.233146994748862,92.5875146493798,0.6003499891862902,0.21819722322522733,-38.96918668683336,0.49301909399934946,0.41867695356702994,-0.15139754626858265,0.493698295350133,36.992992440504075,18.55177681869903,97.13891894386944,4.558288464119238,4.1252961249419275
GUIDED_NOGPS,0.6318929195404053,27.69669235391615,37.327526238449494,17.56931963772246,96.90025879509544,1.6946618483237739,27.547068098651685,6.219491333709413,92.58977712336748,0.6091293435906954,0.31405551313177127,-38.805036750510446,0.4787526539928804,0.41598647595069016,-0.1694661848323774,0.4935342774924081,37.76876551987174,19.635486402306785,96.91545723717418,4.644067054459669,4.354479242994256
GUIDED_NOGPS,0.6756136417388916,22.875567893625956,37.62830787373054,18.280888100377588,97.06089316406901,1.8877401279358372,27.480500840644236,6.204461985293696,92.59228755819456,0.6272477010246236,0.3190500889623431,-38.606387528689794,0.49850244993838083,0.4439535327323441,-0.18877401279358375,0.4932970915911883,38.63434717838346,19.908211426995376,97.16059051968716,4.797927379419178,5.213915935690491
GUIDED_NOGPS,0.7142243385314941,25.903557312252964,37.874632659047556,19.018627823285318,97.09721402875809,2.122002215549197,27.407673064367103,6.188019156540129,92.59505681596899,0.6784724656132796,0.2638205390033853,-38.400792004483236,0.5363863745827959,0.45647823420807193,-0.2122002215549197,0.49324676418081637,38.63434717838346,19.908211426995376,97.16059051968716,4.797927379419178,5.042028597151244
GUIDED_NOGPS,0.7489852905273438,28.77600389689689,38.43909097883194,20.019937418811004,96.95027750321815,2.341277614614554,27.328423731588746,6.170126488737802,92.59809546686576,0.7976557981745642,0.11452498346477724,-38.21173919844646,0.6091411352051489,0.5238662724736594,-0.23412776146145542,0.4934717269454714,40.165002577016935,22.09600101905846,96.37583029567287,5.141912792827376,5.042028597151244
GUIDED_NOGPS,0.7829060554504395,29.489379952331067,39.07349300613451,20.72878225888289,96.79765977357883,2.559546725328978,27.242606740824673,6.150750995548082,92.60141379136384,0.8304232038308772,0.2346048317154789,-38.02706795876224,0.6075439593001799,0.5640449998014057,-0.2559546725328978,0.4937056310266775,40.165002577016935,22.09600101905846,96.37583029567287,5.141912792827376,6.187944187412891
GUIDED_NOGPS,0.8210935592651367,26.192300246666875,39.384861426645344,21.378718444512902,96.79807790555593,2.7873784547840277,27.15009065326868,6.129863001126223,92.60502178248328,0.873230987567109,0.30332784726662004,-37.76086475095558,0.6179104930329247,0.5377545968326198,-0.2787378454784028,0.49371041581539105,39.325607622425885,22.88516733045683,96.91754789705972,5.290955349166043,6.589014644004467
GUIDED_NOGPS,0.8542370796203613,30.18092853236623,38.963140471810995,22.6435001228948,96.37632887623072,3.0487230110059884,27.05075841872411,6.107436078242979,92.6089291480222,0.9570569921161763,0.24906562284886527,-37.563745491509,0.741397117950302,0.4440138648656353,-0.3048723011005989,0.4943489004076872,36.5257424042117,26.232119818904852,95.05184537306108,5.714318344770278,6.531718864491385
GUIDED_NOGPS,0.8962388038635254,23.814629548667693,39.236955660375486,23.598506709621766,96.28437252113619,3.286425055214112,26.944507101535095,6.0834469864062095,92.61314531279383,1.124724155696532,0.3144232761298942,-37.33139611632351,0.7219467058129506,0.5351302214668714,-0.3286425055214112,0.4944931591874865,40.00342312120593,24.683244360630226,96.70080874421458,5.735839202217307,6.875493541569879
GUIDED_NOGPS,0.9281249046325684,31.367255975350744,39.16432857830643,24.444343772388684,96.32660384487882,3.5851521211633064,26.831247606517792,6.057875609982491,92.6176794208636,1.1619238205156543,0.35889655880655125,-37.182170143337075,0.7662316196813913,0.5057065069619499,-0.35851521211633064,0.49443661336397715,39.80186716667166,26.32518633289306,96.58698691438599,5.975302244339607,7.333859777674538
GUIDED_NOGPS,0.9707074165344238,23.49026350424239,39.361726648951446,25.47061854779802,96.23359890885621,3.8387363003115498,26.710904404891643,6.030704896318728,92.62254033778608,1.3154309347295159,0.28430235533354953,-36.710340675472594,0.7972305849109405,0.543845127471763,-0.383873630031155,0.4945834121433948,41.15199293024203,27.227374896105122,95.91080561555985,6.203130709888055,7.563042895726867
GUIDED_NOGPS,1.006460189819336,27.975268293659,39.75691695979409,26.488214484780876,96.02469602254146,4.1621578300142605,26.58341526021063,6.001920793863759,92.62773665284209,1.4246374419866745,0.2704940607093109,-36.50066411323696,0.8513792179762705,0.593629499955979,-0.4162157830014261,0.49490456094545093,41.30155917663909,27.973147015371122,95.87303346548603,6.450664602341171,7.16197243913529
GUIDED_NOGPS,1.0469987392425537,24.672811873150703,40.816150251255785,26.953271345364072,96.19317869797023,4.42377041261425,26.448730954294486,5.971512190289968,92.63327668127572,1.533408524684245,0.21510143998391906,-36.21067135655114,0.808991353765909,0.7016876857844376,-0.44237704126142496,0.49466014697495825,41.82190886152017,28.557404121820838,95.89425875020483,6.775171322240433,7.276563998161455
GUIDED_NOGPS,1.0916266441345215,22.41265362829967,41.27189579731969,27.81548455649973,96.03448108282205,4.754903949764504,26.30681501315999,5.939470850614897,92.63916846653133,1.656484051216232,0.07550603372719845,-35.82872034797486,0.8702376047840227,0.6618842099057103,-0.4754903949764504,0.49490703107556394,42.28215085152547,28.994310416308505,95.90732066847373,7.139370892368315,8.537071147449266
GUIDED_NOGPS,1.130547046661377,25.70228203054146,41.5784818938236,28.64770002524857,95.95745029799494,5.114800361879529,26.157643432952174,5.905791355322849,92.64541978249063,1.7873521832609687,0.1513975462556795,-35.543361874640894,0.9100830113457499,0.6739203047504162,-0.5114800361879529,0.49503195422674356,41.33479764919122,30.48626367663725,96.20183299025042,7.258798686031188,7.563042895726867
GUIDED_NOGPS,1.1699154376983643,25.401704225437413,41.68740240807042,29.380316897165727,96.03792001842177,5.4253659683783395,26.001204405875587,5.870471038486504,92.65203813570969,1.852367793474968,0.1250720762037463,-35.216776379476734,0.9282868941615374,0.6651102112847376,-0.542536596837834,0.49492117717593187,41.69659550147614,30.89045925569089,96.31315421769412,7.614244368294087,7.62033867523995
GUIDED_NOGPS,1.2088227272033691,25.710159496867682,41.79631013915724,30.051949996498866,96.15253185453346,5.753829994779914,25.837498046125546,5.8335099258885235,92.65903076765596,1.898567833351169,0.3556306611662273,-34.915284999323205,0.950884167043262,0.6780671968391528,-0.5753829994779914,0.4947597483696837,41.84609783207319,31.331312512036813,96.44609264604445,7.991210339467409,8.13600069085769
GUIDED_NOGPS,1.2403874397277832,31.688367419406017,41.8627038288648,30.684538129407933,96.28828583621691,6.055646035277435,25.666536115819373,5.794910673143164,92.66640465694533,1.9880524895450333,0.24485395745190616,-34.69562611561559,0.9860893296021587,0.6898504113152106,-0.6055646035277436,0.49456717823109264,42.15387731005798,31.720344786366184,96.57302865862205,8.30181798433481,7.7349302342661135
GUIDED_NOGPS,1.2831554412841797,23.389529566594543,41.8370491205713,31.22974500341947,96.42142743424658,6.299173478303147,25.488341750927646,5.754678503817885,92.67416652157918,2.0725124743872954,0.19453147152477943,-34.37878047020787,0.9811643060089598,0.6809326786263324,-0.6299173478303147,0.4943791086309989,42.15387731005798,31.720344786366184,96.57302865862205,8.30181798433481,7.333859777674538
GUIDED_NOGPS,1.309948444366455,37.33879338739974,42.06134641861888,31.64074679465019,96.39629485852262,6.6292865676161155,25.302949187205446,5.7128211475549575,92.68232282118137,2.0930803084123193,0.2579753911777353,-34.20002075925029,1.0088955086521734,0.7440271079115374,-0.6629286567616116,0.4944290419439881,42.456284139429144,32.54127263279086,96.07617011163069,8.531660887393622,7.62033867523995
GUIDED_NOGPS,1.3460228443145752,27.724886471050944,42.62234888192113,31.803676483707626,96.34534294973022,6.840705145702902,25.110403486123605,5.669348778193076,92.6908797592353,2.193463385200585,0.2889315160435256,-33.9063567758856,0.9774556239074769,0.7975471873484485,-0.6840705145702902,0.4945183052142576,44.501607817987335,31.70510770097806,96.05839467373211,9.090337307996997,7.16197243913529
GUIDED_NOGPS,1.387883186340332,23.89481120251578,43.26966367813496,31.943576802094306,96.23701974066117,7.104069792537203,24.910760260799954,5.624273951888964,92.69984328532095,2.2693813647121,0.35830126513170235,-33.61782226458758,0.980528747219726,0.8300968370537587,-0.7104069792537203,0.4946942353169897,45.08267181314237,32.030814103970215,95.90447660069914,9.408584181970316,6.302535746439056
GUIDED_NOGPS,1.426098346710205,26.173013921736256,43.71765418200297,31.9701186212662,96.22152339851571,7.393238436540759,24.704085401930556,5.577611545238989,92.70921909735189,2.258276117451894,0.5415701816019538,-33.42329506193103,0.9750012556491271,0.844294870850153,-0.739323843654076,0.49473154354825427,44.39382982939803,31.853053882225655,96.49554694789481,9.683209743679795,6.187944187412891
GUIDED_NOGPS,1.4679594039916992,23.896308703801825,44.18609596213655,31.957820713333557,96.30448324297116,7.6291742087235965,24.490454803720976,5.529378693400768,92.71901264381235,2.3400153391269636,0.4161796478281557,-33.18659485624424,0.9735060217411959,0.8696670114766122,-0.7629174208723597,0.4946217941012618,44.49608621072588,31.658855246702977,96.98782788089932,10.024206500709624,4.92743703812508
GUIDED_NOGPS,1.5096042156219482,24.016857535501604,44.726412734847585,32.142584010614186,96.14384573575859,7.8483702987879935,24.26995408981751,5.47959472821478,92.72922912599421,2.2600573027213864,0.5712765952930433,-32.95110700913512,0.9999134098911243,0.9075277357011333,-0.7848370298787994,0.4948780750853534,45.157868002984344,33.465089119194005,95.27298257556777,10.241240207569685,4.1252961249419275
GUIDED_NOGPS,1.551711082458496,23.756090101213772,44.85473780218159,32.42969587108961,96.13171294500337,8.059815630858417,24.042678339238442,5.42828111632597,92.7398735002341,2.27333775178883,0.497426882439573,-32.83107326466132,1.0220244117807638,0.8841119718969158,-0.8059815630858417,0.4949122408328461,45.143233154657345,33.14066700335518,95.99773071995605,10.65680544785268,4.18259190445501
GUIDED_NOGPS,1.5865957736968994,28.671944000109374,45.19455641504445,32.76198778327167,95.95466401421507,8.237432756437972,23.808731812305282,5.375461397305367,92.75095048015035,2.253787402506726,0.455870730868746,-32.73811780515203,1.0474669516137638,0.9396908951405144,-0.8237432756437972,0.4951944296989029,46.781764877456666,33.69227366488051,95.01923194675756,10.79727038361542,2.807493196141034
GUIDED_NOGPS,1.6333284378051758,21.431876711768794,45.516920912213415,32.71233542966516,95.97929305270084,8.354566441065636,23.568227676574022,5.321161121771686,92.7624645388801,2.1689760898090316,0.5219760764204797,-32.60910577701425,1.0094410664462283,0.9460671758200859,-0.8354566441065636,0.4951747572292689,46.00565231524287,31.604792114193092,96.6186921403237,10.966714799956822,2.0626480624709638
GUIDED_NOGPS,1.6776363849639893,22.55038522126701,45.955865056179974,32.91053795034385,95.82530863421013,8.480734311620274,23.321287732766372,5.265407789512943,92.77441991131629,2.2073133012900787,0.38377808417926146,-32.54910598025027,1.039801145740309,0.987374526025018,-0.8480734311620275,0.49542366691565926,46.69080693055868,32.649867850096456,96.21790578844588,11.124517140032518,1.432394487827058
GUIDED_NOGPS,1.7240839004516602,21.53509339412423,46.267869656364766,32.84272899660597,95.99260909027616,8.569270321654363,23.06804214070102,5.208230787608059,92.78682059634471,2.1070217917253733,0.41796318097517526,-32.47176433318363,1.0192665403576473,0.9987038554819334,-0.8569270321654363,0.4951913172591028,46.71789100390832,33.126044350504564,96.10948485589788,11.182287975149336,0.6875493541569879
GUIDED_NOGPS,1.763124942779541,25.620485129101027,46.75302664319047,32.685110973609284,96.04746963383543,8.63904777343149,22.808629145224867,5.149661328548476,92.79967035908102,2.122687470917032,0.18698219150121126,-32.4879655418949,1.008462386421346,1.055916382876218,-0.863904777343149,0.49512830108786837,47.569018088785846,32.352576888371765,96.27203343775238,11.37994778222515,0.7448451336700702
GUIDED_NOGPS,1.8057632446289062,23.456501800773996,47.144019420385305,32.52771365053931,96.0698131483322,8.658133301649977,22.54319480214428,5.089732388359762,92.81297273310784,1.932064788588204,0.2803000779233336,-32.517280713812596,1.006846837497369,1.0690921745845479,-0.8658133301649977,0.49511473937716344,48.736728763430804,32.90528704953065,95.13094951924144,11.537494172074771,-1.432394487827058
GUIDED_NOGPS,1.8426094055175781,27.147247284824793,47.81286353616277,32.77678401791111,95.54217573872674,8.638173825632022,22.271892704156343,5.02847864472322,92.8267310227117,1.7738627730936052,0.39669760043775215,-32.57292626498069,1.057577652448391,1.1486595062913612,-0.8638173825632022,0.49592683292597745,49.34987289413019,32.85014395105209,93.98050509229633,11.59893680820101,-2.177239621497128
GUIDED_NOGPS,1.8785889148712158,27.797097223142686,48.30594147199004,32.50653894330792,95.33530803690941,8.588676106300815,21.994883706780094,4.965936415097503,92.84094830512011,1.7147319044581006,0.27967106018945775,-32.69076751873092,0.999872113836802,1.1632007707448289,-0.8588676106300815,0.496258460402316,49.15619660969498,31.298642477080495,95.1835672793592,11.672450906097081,-2.979380534680281
GUIDED_NOGPS,1.9235031604766846,22.270443624392705,48.79360259314736,32.14105856862311,95.15012452160167,8.507064258429768,21.71233565428777,4.902143594840218,92.85562743273866,1.5538331381801103,0.3846465854209109,-32.855518511700794,0.9860888867117759,1.180005808962101,-0.8507064258429768,0.4965582543667055,49.15619660969498,31.298642477080495,95.1835672793592,11.672450906097081,-4.068000345428845
GUIDED_NOGPS,1.9638028144836426,24.81998236571611,48.842018901186364,32.5061501473927,94.72842105603429,8.361295098935093,21.42442310563607,4.837139595329537,92.87077103538792,1.3719359157942677,0.43366151700880334,-33.07001035730129,1.0661033122548649,1.1582662967348356,-0.8361295098935093,0.49721352496903043,47.811099628980855,34.17803478221973,94.16351610991552,11.256678042583575,-5.385803274229739
GUIDED_NOGPS,1.9997282028198242,27.84248957807812,48.763964894290304,32.873403222688566,94.3576677279489,8.189531743762245,21.131327060397393,4.77096528208581,92.88638152254062,1.30041913942918,0.47239829455629595,-33.30856495934774,1.0858096611183612,1.157300072870899,-0.8189531743762246,0.4977930706918876,48.34645872895045,34.741552426009946,93.27718287881436,11.137325083804507,-6.0733526283867265
GUIDED_NOGPS,2.0404977798461914,24.533975982545524,48.67839516480923,33.06505544266332,94.16676402396354,7.987352064847273,20.833234684691075,4.703662912893169,92.90246108555857,1.2005100137362894,0.5734020647853867,-33.63246960526267,1.0770436240436212,1.1646424581016415,-0.7987352064847273,0.49810354559239256,48.922024246724824,33.808405050925856,93.0259865723695,11.077574206925176,-7.505747116213785
GUIDED_NOGPS,2.076066732406616,28.12100407637846,48.6315606922152,33.56700795743239,93.73524788256562,7.7369046626745845,20.530339037114647,4.635276075921139,92.91901169992974,1.1692340439182722,0.5174039051013909,-33.94144345765196,1.1332861904893965,1.183785456529543,-0.7736904662674585,0.4987756457260462,48.922024246724824,33.808405050925856,93.0259865723695,11.077574206925176,-8.250592249883855
GUIDED_NOGPS,2.1067373752593994,32.61689205477747,48.34430902209357,34.070141746384344,93.41067453903354,7.475577300559089,20.222838794675095,4.565849627846255,92.93603512750533,1.0700774129728468,0.7047098902579431,-34.207240269203,1.1643754022689161,1.1593352825794148,-0.747557730055909,0.4992880408827077,47.719938259086824,33.814311421840266,93.56070056169875,10.704005375612438,-9.281916281119337
GUIDED_NOGPS,2.144256830215454,26.658429465789556,48.47206757813501,33.922476734419774,93.23291452685193,7.219471748066996,19.910937978720064,4.495429631973657,92.95353291873673,0.9586394615695037,0.7021084419578145,-34.51574966872872,1.0878215636876747,1.22235392252461,-0.7219471748066997,0.4995809275878272,48.449892409188074,33.43970972239688,93.2747160490074,10.548472041308294,-10.59971920992023
GUIDED_NOGPS,2.184626817703247,24.781121864180463,48.455339604668566,33.673620089405354,93.09087904211846,6.886669283967149,19.594845680869152,4.424063296358716,92.97150641491262,0.8641355234701792,0.7238075260641219,-35.060713387131116,1.0741317862310966,1.2180929165403356,-0.688666928396715,0.4998209410591912,48.262818861618186,33.49726920093783,92.56700545514695,10.137983803929245,-10.943493886998723
GUIDED_NOGPS,2.2163119316101074,31.569826431227327,48.23068576619629,33.63778485037208,92.96902435628644,6.487954002895953,19.274775788945142,4.351798911928631,92.98995675039598,0.8074540247040648,0.6626709296901608,-35.362850220161214,1.096212425690003,1.2052554713675847,-0.6487954002895954,0.5000313985911643,47.798755054363426,33.6292288557595,92.41671314320935,9.664455618412603,-11.860226359208042
GUIDED_NOGPS,2.2494993209838867,30.13972205055978,47.85928640665814,33.435771796312586,93.06695624108173,6.154489750384007,18.950946712905218,4.278685790604042,93.00888485486108,0.7283669441393699,0.8424679756279303,-35.9035109193865,1.0743614713358915,1.1865605630431364,-0.6154489750384008,0.49991289292066904,47.06502744903409,32.79833978062839,93.51564599634595,9.377310873131055,-12.662367272391194
GUIDED_NOGPS,2.285743236541748,27.597736544282142,47.72830424464759,33.23257746807021,93.05794532801119,5.790649526991331,18.62358111077227,4.204774203420646,93.0282914555306,0.6139072743585309,1.1087371374487651,-36.345752007766485,1.0715798234638187,1.2231357728184231,-0.579064952699133,0.4999555191912791,47.06502744903409,32.79833978062839,93.51564599634595,9.377310873131055,-13.06343772898277
GUIDED_NOGPS,2.3223814964294434,27.29884668454349,47.32691450754915,33.19360679768628,92.94352314904111,5.3785492808554825,18.292905614566077,4.1301153186507955,93.04817707941262,0.6026455730776492,1.3712277105547022,-36.82302855149405,1.0903078774818595,1.1918032724981384,-0.5378549280855482,0.5001569808955573,46.442943723695855,33.2448563704772,92.70260515415706,8.728547575116496,-12.891550390443523
GUIDED_NOGPS,2.369809627532959,21.088879615057795,47.01437954689883,33.13286620164219,92.8782259998125,4.932534580278309,17.95915055623462,4.054761139925118,93.06854205553766,0.5395862250914767,1.690450261793588,-37.50667926099355,1.0897221976519609,1.2034422727099348,-0.49325345802783094,0.5002854740835877,46.70014405836662,33.19356622071738,92.2405197090039,8.186857380194173,-13.750987083139758
GUIDED_NOGPS,2.410295009613037,24.70638408161823,47.0816808159676,32.74061874606468,93.05630366342507,4.350360318638802,17.622549693585256,3.978764444354119,93.08938651719568,0.594577678924836,1.8739505509219736,-38.037702563299945,1.0498001025226325,1.2593762391542898,-0.4350360318638802,0.5000496242806559,48.13526139970728,31.667991577872,93.3071014612722,7.580835447726423,-13.636395524113594
GUIDED_NOGPS,2.445457696914673,28.446373587618517,47.27371620088594,32.43884301663819,93.00689463512808,3.862686840886182,17.283339936216034,3.9021787206497947,93.11071040417316,0.5758348927903806,2.006561661865533,-38.473427651211736,1.048009390419722,1.301709073557546,-0.38626868408861825,0.5001557236535676,48.0252043736258,31.28946113349594,93.268600854861,7.080149820875198,-13.34991662654818
GUIDED_NOGPS,2.4829068183898926,26.706296600510655,47.46575158580429,32.1370672872117,92.9574856068311,3.44750226653621,16.9417610714469,3.8250581072472407,93.13251346499014,0.45581656960306194,2.1931824936709683,-38.9648734223725,1.0426824478224748,1.3199014026107616,-0.34475022665362104,0.5002625417872386,48.0252043736258,31.28946113349594,93.268600854861,7.080149820875198,-13.521803965087429
GUIDED_NOGPS,2.524139881134033,24.25616914473418,47.50824926534035,31.723956980717723,93.20523105720547,3.0033520459673233,16.598055490250953,3.7474573304262635,93.1547952591372,0.43350885160868297,2.168639489548997,-39.61339305387604,1.0235981367663365,1.3179961811171945,-0.30033520459673235,0.4999243463028976,46.65543212137612,31.179304838007344,93.94133240602888,6.490942028792574,-12.719663051904275
GUIDED_NOGPS,2.5622804164886475,26.22390616598517,47.63310498682573,31.452419221309007,93.31520430000543,2.5220319360108996,16.252467913185704,3.6694316424329867,93.17755515931259,0.3332652600898735,2.280909443370612,-40.039934952448746,1.0286225694809,1.3498711365038851,-0.25220319360108995,0.49979352628896073,47.32442266579354,31.835877423673807,92.79038592300373,5.736529520843744,-11.974817918234207
GUIDED_NOGPS,2.6095705032348633,21.150346176925908,47.14297919650237,31.645353083201666,93.15626625698785,2.0996042148347263,15.905245116324291,3.591036759601459,93.20079235365912,0.31907532864576044,2.2072970795908,-40.62977301369813,1.0785556076707614,1.2841715792269512,-0.20996042148347263,0.5000667891450069,45.68463244809042,32.63266088733529,92.51241124618419,5.045232704371783,-11.516451682129548
GUIDED_NOGPS,2.6554667949676514,21.79210158519034,46.632840176237,31.8565043563788,93.12582672266936,1.6124537978013262,15.55663565718677,3.5123288004752737,93.22450584800136,0.3457328099243797,2.169636270280996,-41.041544628190685,1.0921995493252608,1.2771696140718154,-0.16124537978013265,0.500148018687998,45.47450927229903,32.345217499381576,93.11640318326847,4.609620638623889,-9.797578296737077
GUIDED_NOGPS,2.689403533935547,29.474666554229735,46.07541956900211,32.06769306154308,93.07533865247963,1.1975190271143255,15.206889600671328,3.433364223929165,93.24869446808253,0.35402658056747927,2.1187953303071825,-41.305586081125035,1.1115519213585459,1.2595168987387955,-0.11975190271143255,0.5002600337234043,45.238101337451354,32.34540465931735,93.01616050391239,4.155195538209555,-8.537071147449266
GUIDED_NOGPS,2.727626085281372,26.175300644662038,45.730616064078745,32.1486985482791,92.98393695300103,0.948143276093086,14.85625824498555,3.3541997672906287,93.27335686180164,0.4547261939350929,2.051579011798264,-41.64432248282265,1.1026655229229414,1.2860164584733633,-0.09481432760930861,0.5004341298632009,44.931414596759296,31.584332271687437,93.4843239086359,3.7544535851709586,-7.505747116213785
GUIDED_NOGPS,2.771867275238037,22.60726894447768,45.2033098821961,31.92348121231811,93.31161788617436,0.717084520193283,14.50499384757764,3.274892384461527,93.29849150145047,0.5233748244573043,1.9319021447085931,-41.92309323870214,1.0715573861704695,1.263827773950264,-0.0717084520193283,0.4999803104229142,44.687891756380345,30.70979074386883,94.4287905888703,3.489555699160143,-5.156620156177409
GUIDED_NOGPS,2.80715012550354,28.350810785234852,45.026380222599684,31.42454471115884,93.77915224309353,0.496650995314456,14.153349351067696,3.19549918403969,93.32409668595061,0.5890307115451395,1.8071081852701132,-42.09803487391367,1.0261188510458255,1.30772834199196,-0.0496650995314456,0.4993174166642856,44.79998415010834,30.13797838153894,94.85008303077997,3.226125470733438,-4.010704565915763
GUIDED_NOGPS,2.8461368083953857,25.662181922749827,44.855368415644534,30.87257339247318,94.21781379233087,0.3841518888186528,13.801578109178962,3.116077367440548,93.3501705430905,0.5934884238347777,1.7617288353113718,-42.21812667499542,1.0096086831708526,1.3147492880240752,-0.038415188881865285,0.49869853512613943,44.61945023752328,29.58536090595326,95.3097109294552,3.0171759915121803,-2.979380534680281
GUIDED_NOGPS,2.8827836513519287,27.288545367008886,44.993266940652276,30.284487936228857,94.60200703629255,0.2973058745401281,13.449933612669028,3.0366841670187155,93.3767110317625,0.5678669435150319,1.6502708202273417,-42.29172196330231,0.9861473549021244,1.3700303049199243,-0.02973058745401281,0.4981620559932049,45.92759396249008,29.404977378095747,94.93712672372074,2.81783518299328,-1.3750987083139758
GUIDED_NOGPS,2.9232990741729736,24.68951389788206,45.049276268699145,29.493043436856293,95.15464099282352,0.2670144488971581,13.098669215261108,2.95737678418961,93.40371594419985,0.5021455826606998,1.5092278407534017,-42.31023177595304,0.9476155528954338,1.3748961402332238,-0.02670144488971581,0.4973736124270645,45.21146123699363,27.62710977482462,96.24749369129077,2.772766651261251,0.0
GUIDED_NOGPS,2.963042974472046,25.169398054523743,44.758127312994375,28.699893736575024,95.78805260985645,0.27929919755858074,12.748037859575327,2.8782123275510756,93.43118290821376,0.36995655606350597,1.5005616113571247,-42.27192807508761,0.9208108504671382,1.3442617632398308,-0.027929919755858075,0.49646469544753596,43.23214697785647,26.744042242462488,97.59584867403493,2.6952957711941763,1.3178029288008934
GUIDED_NOGPS,2.9966893196105957,29.728915192968778,44.65796919697179,27.83464628812876,96.40859778315776,0.3461347490799186,12.398291803059891,2.799247751004966,93.45910938943042,0.3248765604894813,1.4299792902478592,-42.20212695686467,0.8749970310353055,1.3788132092591772,-0.03461347490799186,0.495575767409409,44.299193569995424,25.811741139307628,97.95280889728647,2.922071176729729,2.635605857601787
GUIDED_NOGPS,3.0362138748168945,25.30607024127716,44.59391786346622,27.079922334799637,96.937217376724,0.45340243843091294,12.049682343922367,2.720539791878778,93.4874926935281,0.3304628548177584,1.1625509172588262,-42.02992422751031,0.8743191676839248,1.390470697096346,-0.045340243843091294,0.49482541297520616,44.299193569995424,25.811741139307628,97.95280889728647,2.922071176729729,4.010704565915763
GUIDED_NOGPS,3.0773818492889404,24.297058380545224,43.41217820721894,26.414171932343883,97.81861030052124,0.6150515209944327,11.702459547060954,2.6421449090472535,93.51632996847404,0.428361503656285,0.9792316281434459,-41.81707504240519,0.8636800366280758,1.2488251336366898,-0.061505152099443273,0.4935465795019292,40.01889568125369,26.076225365816992,99.34409134270696,2.1369062994839605,5.500394833255903
GUIDED_NOGPS,3.116056442260742,25.861073088922595,42.0541755101125,25.860096496153744,98.72335829060543,0.8428471379716295,11.356871969995709,2.564119221053976,93.54561820676166,0.5524133737136135,0.8497636848785617,-41.59735127190047,0.8544202924084763,1.1859441980693413,-0.08428471379716296,0.4922333898742343,38.42144775146142,24.856732593873918,100.77123364171176,2.554611937969076,7.047380880109126
GUIDED_NOGPS,3.1514413356781006,28.268837786105195,40.76291548002192,26.191145923526996,98.7037251483058,1.099787406943694,11.013166388799753,2.4865184442329973,93.57535424764744,0.6803471924578894,0.5689054524339912,-41.408021843202306,0.9568362083334132,1.1437048981980038,-0.1099787406943694,0.49230744364901247,36.77584682740356,28.399289379328735,97.49768296253671,2.7505588411989437,7.563042895726867
GUIDED_NOGPS,3.191314458847046,25.086900610678804,39.25824613150355,26.708655571531217,98.61269996135586,1.372407638407748,10.671587524030627,2.4093978308304465,93.60553477938808,0.8185833910697775,0.29813519595011784,-40.971361019374214,0.9892917362737582,1.09345863788288,-0.1372407638407748,0.4924892522270483,36.77584682740356,28.399289379328735,97.49768296253671,2.7505588411989437,9.11002894258009
GUIDED_NOGPS,3.218019485473633,37.46185312874011,37.75357678298518,27.22616521953544,98.52167477440591,1.7169110020570408,10.332377766661402,2.33281210712612,93.63615634147743,0.8713135186793337,0.20999224504133795,-40.78123587363774,1.0378592359065895,0.9893112221313292,-0.1716911002057041,0.4926717223506073,36.77584682740356,28.399289379328735,97.49768296253671,2.7505588411989437,9.568395178684748
GUIDED_NOGPS,3.2523624897003174,29.126302047165357,37.10496701221515,27.690778022237787,98.15239309837186,1.96761422491116,9.995776904012033,2.25681541155512,93.6672153268836,0.9482910846466996,-0.0025485143340610076,-40.386218713179225,1.0353453008341698,1.1145593055108387,-0.196761422491116,0.4932722333427676,36.77584682740356,28.399289379328735,97.49768296253671,2.7505588411989437,10.084057194302488
GUIDED_NOGPS,3.283597230911255,32.02394368347916,36.77584682740358,28.399289379328753,97.49768296253686,2.3007111930732242,9.662021845680577,2.181461232829445,93.69870798428599,0.9927247735705119,0.00010864269648551532,-40.11558612769581,1.0978215244286469,1.1525261585599786,-0.23007111930732244,0.4943015375326237,36.77584682740356,28.399289379328735,97.49768296253671,2.7505588411989437,10.485127650894066
GUIDED_NOGPS,3.314047336578369,32.856301309770004,36.77584682740358,28.399289379328753,97.49768296253686,2.618111027814529,9.33134634947438,2.1068023480595937,93.73063042031225,1.0692196906234812,-0.09689562488673964,-39.79202640633397,1.0198808067650489,1.2095021721203252,-0.2618111027814529,0.4943494211866631,36.77584682740356,28.399289379328735,97.49768296253671,2.7505588411989437,11.058085446024888
GUIDED_NOGPS,3.3528053760528564,25.805543421416925,36.77584682740358,28.399289379328753,97.49768296253686,2.9350700209449965,9.003980747341437,2.0328907608761977,93.76297860177539,1.1652673048360815,-0.26211918156981745,-39.46914628879454,1.021481430713386,1.2139268687052864,-0.29350700209449965,0.4943979434588578,36.77584682740356,28.399289379328735,97.49768296253671,2.7505588411989437,11.287268564077218
GUIDED_NOGPS,3.3785741329193115,38.81889530579002,42.92771679531356,22.20943102348101,97.43270547301472,3.2608623536790002,8.680151671301523,1.9597776395516089,93.7957483579108,1.1785666436454483,-0.22288636153385266,-39.07263673200237,-0.0553640554882836,2.0,-0.32608623536790005,0.4945445643273441,67.53519666695344,-2.5500023999099737,97.17279551492611,9.713457336481055,10.828902327972559
GUIDED_NOGPS,3.420236587524414,24.008746472504136,42.53889116540002,22.035283506357352,97.09589006904261,3.534459698229167,8.360081779377495,1.8875132551215223,93.82893538261327,1.3573174967014423,-0.3942619976684079,-38.569340582631646,0.7831366701049178,1.432122405872541,-0.3534459698229167,0.495099567970356,34.831718677835894,27.528551793710445,95.81360594267619,5.340228653069898,10.485127650894066
GUIDED_NOGPS,3.4460384845733643,38.76902030743065,42.15006553548648,21.861135989233695,96.75907466507051,3.9671855777765552,8.043989481526594,1.8161469195065827,93.86253523667402,1.4262616396269625,-0.2268700693672626,-38.30458879002361,0.7743934078631236,1.425439374719814,-0.3967185577776555,0.4956551908574053,34.831718677835894,27.528551793710445,95.81360594267619,5.340228653069898,10.427831871380983
GUIDED_NOGPS,3.482318639755249,27.65997968846859,41.76123990557294,21.686988472110038,96.4222592610984,4.213050809297417,7.732088665571567,1.7457269236339847,93.89654335001777,1.4471522000902697,-0.13474554505918843,-37.982917615967274,0.7750471361253737,1.4261151468321687,-0.42130508092974167,0.49621142613337904,34.831718677835894,27.528551793710445,95.81360594267619,5.340228653069898,9.339212060632418
GUIDED_NOGPS,3.5180740356445312,27.91345725104984,41.37241427565941,21.51284095498638,96.08544385712631,4.522584229623411,7.424588423132008,1.6763004755590991,93.93095502393972,1.3950631497673425,0.16413029952905267,-37.67207912193458,0.7722037868598226,1.4239274920630083,-0.45225842296234114,0.4967682667502201,34.831718677835894,27.528551793710445,95.81360594267619,5.340228653069898,8.36518380891002
GUIDED_NOGPS,3.55214786529541,29.35728034380665,34.368857362588734,27.35583641258299,95.48807422112249,4.842401016266305,7.121692775555573,1.6079136385870711,93.96576543334263,1.3376530619158582,0.42298208935466525,-37.351289042281174,1.6165049604453832,0.3843928934684113,-0.48424010162663056,0.4977165368183302,32.51741210160008,26.664974888073054,94.18594733490707,6.4433243286586155,9.167324722093172
GUIDED_NOGPS,3.58197283744812,33.53886996433655,32.70823387127314,27.437211925965528,95.19578213220964,5.148268794818473,6.823600399849262,1.5406112693944305,94.00096962897385,1.3493929831603464,0.528027624025111,-37.150098990089276,1.0201252379202261,0.9292121360106811,-0.5148268794818474,0.4982077812451463,26.52860122125793,27.935429360623147,94.35214549811195,6.386543585568614,8.938141604040842
GUIDED_NOGPS,3.626635789871216,22.39530127879969,31.04761037995754,27.518587439348067,94.9034900432968,5.391551732485102,6.530504354610578,1.4744369561507025,94.03656253966231,1.253538428513505,0.9685771733684607,-36.73642175281829,1.0204185141658786,0.9360020728710026,-0.5391551732485101,0.4986996087445483,26.52860122125793,27.935429360623147,94.35214549811195,6.386543585568614,7.792226013779196
GUIDED_NOGPS,3.665572166442871,25.68811474907826,29.297197570645846,27.636486320437307,94.53570331095052,5.7659115137554595,6.242591805958895,1.4094329566400248,94.07253897455564,1.2574625856350887,0.9659582227085839,-36.43252956117149,1.0331159426491354,0.8489615770682701,-0.576591151375546,0.49930525349540766,26.079654631277442,28.11804619915664,93.97467228094479,6.859161777177281,8.479775367936185
GUIDED_NOGPS,3.7020645141601562,27.41034773459505,27.546784761334152,27.75438520152655,94.16791657860423,6.0782418011846095,5.960043753466572,1.3456401363827393,94.10889362535708,1.2553498160257335,1.2275901129698032,-36.074928176986305,1.041169442474194,0.7837661979003401,-0.607824180118461,0.4999114655701293,26.079654631277442,28.11804619915664,93.97467228094479,6.859161777177281,8.537071147449266
GUIDED_NOGPS,3.739365577697754,26.816943192353186,26.31054108693266,27.761785493280975,94.1993628647402,6.383419039374443,5.683034756090308,1.2830979067570212,94.14562106856268,1.3976010986525311,1.0446723109115728,-35.80539866705385,1.03361713365829,0.8021375538050086,-0.6383419039374444,0.4999193873057337,26.336193729592633,26.701976346845186,94.34317876558683,7.72206341652326,8.193296470370772
GUIDED_NOGPS,3.772956371307373,29.7787275735007,26.272059588599596,27.515094890525383,94.19756951823516,6.671137823695063,5.411732658102352,1.2218441631204744,94.18271576769814,1.4598036314238372,1.0880491347830312,-35.54519919552763,1.0011395307010456,0.9429510055904138,-0.6671137823695064,0.4999777193741945,26.336193729592633,26.701976346845186,94.34317876558683,7.72206341652326,7.333859777674538
GUIDED_NOGPS,3.8112730979919434,26.10752233045968,25.826877295540477,27.205641442859484,94.19802717438998,6.932617322983551,5.146298315021795,1.1619152229317642,94.22017207555604,1.5564417368345262,1.1729885135276636,-35.23421385242778,0.988797335841692,0.889607539872084,-0.6932617322983551,0.5000332173517491,24.302689755962334,26.38816212229366,94.3544337788861,8.252860449319064,7.906817572805361
GUIDED_NOGPS,3.8402247428894043,34.54604157743881,25.47148432047745,26.859664627486886,94.27397947397824,7.207611000057194,4.886885319545641,1.1033457638721842,94.25798423643272,1.6660034139285256,1.246331298278672,-35.01917559169368,0.9687269342630959,0.8928519120751792,-0.7207611000057195,0.49997600714368173,24.302689755962334,26.38816212229366,94.3544337788861,8.252860449319064,7.104676659622208
GUIDED_NOGPS,3.876875877380371,27.29262944188861,29.7522640894858,22.893545249488202,94.97666576468218,7.437964887983577,4.633639727480286,1.046168761967298,94.29614638836539,1.7581452271529365,1.1888021090035357,-34.80385729320361,0.47816834811933545,1.5841612214410379,-0.7437964887983578,0.4989792209355248,47.48355347631916,8.28744930916322,97.48810373446454,13.172892277400415,6.41712730546522
GUIDED_NOGPS,3.912618398666382,27.98198715083426,33.98173603883111,19.21063984195181,95.60565075845773,7.691769138403228,4.38669978367264,0.9904154297085483,94.33465256536915,1.9085936972791016,1.0486696791233228,-34.63211218652364,0.3663980996194417,1.7710385112291567,-0.7691769138403228,0.4980935027103671,47.48355347631916,8.28744930916322,97.48810373446454,13.172892277400415,5.443099053742821
GUIDED_NOGPS,3.9528281688690186,24.880199311899396,30.176951685451893,18.085587148784345,96.54116411314294,7.882885185137935,4.146195647941369,0.9361151541748711,94.37349669967406,1.9690701131810984,1.1462064880183973,-34.400428754782226,0.5999781678239386,0.773991601756463,-0.7882885185137936,0.49674849887979666,7.312271962696537,21.076712881007857,99.02074553901282,7.282412768806434,5.385803274229739
GUIDED_NOGPS,3.9834890365600586,32.6272947912129,26.778868126798738,17.023297300527183,97.47442646516829,8.08946591209362,3.912249121008216,0.8832954351542703,94.4126726239621,1.9262168659982037,1.23117596228406,-34.24436234734202,0.5401206339066402,0.5852574329556721,-0.8089465912093621,0.49540736923819073,7.312271962696537,21.076712881007857,99.02074553901282,7.282412768806434,4.870141258611998
GUIDED_NOGPS,4.019037246704102,28.13477418013268,23.143531971177136,14.63935375821473,99.64281918140777,8.203913133818185,3.684973370429148,0.8319818232654619,94.45217407360424,1.8921487361918263,1.1148031992053828,-34.14319700045038,0.3408135493435409,0.48345024047320145,-0.8203913133818186,0.4922140323382947,6.12600897785434,14.46844441073139,105.19639736008358,6.861181364252895,3.495042550298022
GUIDED_NOGPS,4.048708915710449,33.714914995378,14.872023071484174,15.875552778528364,101.18447790653158,8.310336137146846,3.464472656525672,0.7821978580794706,94.4919946888975,1.8441931242555207,1.1010525343022661,-34.05042595604868,0.7789620034627266,-0.5446494659277071,-0.8310336137146846,0.48996127517354887,6.12600897785434,14.46844441073139,105.19639736008358,6.861181364252895,2.5783100780887045
GUIDED_NOGPS,4.084082365036011,28.27779538176302,6.600514171791209,17.111751798842,102.7261366316554,8.387545440162269,3.2508420583160955,0.7339650062412453,94.53212801730196,1.7058530854239073,1.093160464159728,-33.95798276072714,0.800832339227487,-0.6956109021328065,-0.838754544016227,0.4877089870784698,6.12600897785434,14.46844441073139,105.19639736008358,6.861181364252895,2.7501974166279517
GUIDED_NOGPS,4.1065850257873535,44.4495501319401,6.36326157482277,15.790098104786704,103.96126699586952,8.47718903594579,3.04416719944669,0.6873025995912734,94.5725675156778,1.6647754739818044,1.023432983913772,-33.902350869937386,0.4229615431298818,0.21462483152205247,-0.847718903594579,0.4859169507797124,6.12600897785434,14.46844441073139,105.19639736008358,6.861181364252895,2.864788975654116
GUIDED_NOGPS,4.144977569580078,26.06193766466173,6.126008977854331,14.468444410731411,105.19639736008367,8.514388666271755,2.8445239741230495,0.6422277732871642,94.61330655252232,1.5853132666212875,0.8294246621907331,-33.855014243894615,0.4574752296338195,0.21464191050883397,-0.8514388666271755,0.484125363788658,6.12600897785434,14.46844441073139,105.19639736008358,6.861181364252895,1.8907607239317168
GUIDED_NOGPS,4.167926549911499,43.56994162009432,6.126008977854331,14.468444410731411,105.19639736008367,8.57955402690103,2.651978273041223,0.5987554039252849,94.65433841020699,1.6008494923838335,0.749130025525121,-33.84197541276906,0.586834742873862,0.2595211354033589,-0.8579554026901031,0.484186911575185,6.12600897785434,14.46844441073139,105.19639736008358,6.861181364252895,1.5469860468532228
GUIDED_NOGPS,4.201198101043701,30.06561771979499,6.126008977854331,14.468444410731411,105.19639736008367,8.606441214558636,2.4665857093190198,0.5568980476623508,94.6956562872145,1.5232400805573885,0.3414368877407062,-33.77036429441606,0.5865652455871477,0.2562725167477719,-0.8606441214558637,0.48424888839069624,6.12600897785434,14.46844441073139,105.19639736008358,6.861181364252895,1.5469860468532228
GUIDED_NOGPS,4.231704950332642,32.78926178693997,6.126008977854331,14.468444410731411,105.19639736008367,8.64811110753934,2.2883913444272963,0.5166658783370721,94.73725330037577,1.581716104806218,0.14111725778116407,-33.73643191461944,0.5886064881171581,0.26455207230951927,-0.864811110753934,0.48431128391043815,6.12600897785434,14.46844441073139,105.19639736008358,6.861181364252895,1.3750987083139758
GUIDED_NOGPS,4.263129234313965,31.830492524853913,6.126008977854331,14.468444410731411,105.19639736008367,8.678245829228208,2.1174294141210908,0.47806662559171187,94.77912248710697,1.6077190618632797,0.017579626263143442,-33.69633870419146,0.590052814390739,0.26984516615243204,-0.8678245829228208,0.48437408769053497,6.12600897785434,14.46844441073139,105.19639736008358,6.861181364252895,1.2032113697747289
GUIDED_NOGPS,4.294031620025635,32.370200581911355,6.126008977854331,14.468444410731411,105.19639736008367,8.708318310941399,1.9537230543710677,0.44110551299374023,94.8212568076466,1.691675960584488,-0.0984687028299582,-33.69457310029101,0.5916691110518965,0.2760099676480976,-0.87083183109414,0.48443728917134443,6.12600897785434,14.46844441073139,105.19639736008358,6.861181364252895,1.260507149287811
GUIDED_NOGPS,4.319731712341309,38.923726532847056,6.126008977854331,14.468444410731411,105.19639736008367,8.724755143677081,1.7972840272944666,0.40578519615738884,94.86364914729249,1.7067548838377604,-0.047615383138274514,-33.67190028734115,0.5939216971356049,0.28561178136102333,-0.8724755143677081,0.48450087768081324,6.12600897785434,14.46844441073139,105.19639736008358,6.861181364252895,0.5729577951308232
GUIDED_NOGPS,4.354179620742798,29.035769419811288,6.126008977854331,14.468444410731411,105.19639736008367,8.724113471141997,1.6481124470866746,0.37210570086534744,94.90629231863885,1.8158454913224404,-0.17758470497691997,-33.678064533067094,0.5941121961659136,0.2845449231513208,-0.8724113471141998,0.48456484243783277,6.12600897785434,14.46844441073139,105.19639736008358,6.861181364252895,0.11459155902616465
GUIDED_NOGPS,4.385712146759033,31.724319459046523,6.126008977854331,14.468444410731411,105.19639736008367,8.724105097525667,1.506196505952147,0.3400643611902723,94.94917906381328,1.751668927159295,-0.01853734685082617,-33.667949022906306,0.5958303597363886,0.29117939691564554,-0.8724105097525667,0.4846291725555944,6.12600897785434,14.46844441073139,105.19639736008358,6.861181364252895,-0.057295779513082325
GUIDED_NOGPS,4.418170690536499,30.81464066885111,6.126008977854331,14.468444410731411,105.19639736008367,8.715344279812985,1.3715122000360225,0.3096557576164827,94.99230205671385,1.7521980533765593,-0.14835512386726196,-33.69377055306354,0.5970596354492261,0.29536000999770645,-0.8715344279812985,0.4846938570449453,6.12600897785434,14.46844441073139,105.19639736008358,6.861181364252895,-0.17188733853924698
GUIDED_NOGPS,4.4472315311431885,34.48554162384378,6.126008977854331,14.468444410731411,105.19639736008367,8.698088001147655,1.2440230553550293,0.280871655161512,95.03565390524611,1.7312677924387017,-0.12417027778989306,-33.71744740382139,0.5986218128390789,0.3013550633143317,-0.8698088001147655,0.48475888481774365,6.12600897785434,14.46844441073139,105.19639736008358,6.861181364252895,-0.5156620156177409
GUIDED_NOGPS,4.4827330112457275,28.133641882147767,11.910400664616063,-2.1688349958100894,102.32579355961579,8.793224617342275,1.1236798537288166,0.2537009414977476,95.0792271535601,1.5967438016407154,0.07238911958814545,-33.695918647557505,-1.6824975580888888,1.1838661421635441,-0.8793224617342276,0.48913015039091645,35.047967411662995,-68.71795262197611,90.84337835774419,26.013518692803117,0.057295779513082325
GUIDED_NOGPS,4.513808250427246,32.19156970497038,6.749704377505606,-1.2373137033183788,98.49898828567385,8.806653243050288,1.0104203587115137,0.2281295650740276,95.12301428428744,1.5984557245231557,0.13946179068108222,-33.690003703736274,0.14226713362314442,-0.3306209579456043,-0.8806653243050289,0.4949360389979204,-19.67747245769795,19.126050873189943,86.06237099037374,7.918180640601125,1.2032113697747289
GUIDED_NOGPS,4.5492775440216064,28.217868675995696,1.5890080903951478,-0.30579241082666825,94.67218301173189,8.827649493949053,0.9041690415224934,0.2041404732372527,95.16700772077829,1.432537196092029,0.3855786927992061,-33.62535254814752,0.16306668340793407,-0.4549207816071941,-0.8827649493949054,0.5007422370635696,-19.67747245769795,19.126050873189943,86.06237099037374,7.918180640601125,1.1459155902616465
GUIDED_NOGPS,4.582450866699219,30.148604452239418,-3.57168819671531,0.6257288816650423,90.84537773778993,8.851583655846975,0.8048368069779599,0.1817135503540186,95.21119982933845,1.2128984827868117,0.49075955059258275,-33.57992154488318,0.20331874806751513,-0.6940025267796208,-0.8851583655846975,0.5065487331373227,-19.67747245769795,19.126050873189943,86.06237099037374,7.918180640601125,0.9167324722093172
GUIDED_NOGPS,4.613767147064209,31.944432597105866,-4.284293477927088,1.2626587203303146,87.99049289415946,8.908777274198865,0.712320719421939,0.1608255559321563,95.2555829214664,1.141229734712691,0.5419964280948449,-33.58017767697705,0.19946263395503228,-0.1901096849777929,-0.8908777274198866,0.5108976350409604,2.5629825717954513,17.65309360405775,90.9219731419312,10.321338516158555,2.177239621497128
GUIDED_NOGPS,4.651010990142822,26.855576898450504,-10.781290445900597,18.536867965537088,88.00621185099685,8.981853400262843,0.6265037286579229,0.141450062742436,95.30014925609026,0.4782367189144817,0.7621735524057297,-33.447815441051375,2.0,-1.0582932536331409,-0.8981853400262843,0.5109409061076401,2.5629825717954513,17.65309360405775,90.9219731419312,10.321338516158555,2.7501974166279517
GUIDED_NOGPS,4.68644118309021,28.229263696325212,-6.333199440001916,18.24227651171065,88.97813228130835,9.077304598702733,0.5472543958795484,0.1235573949401072,95.34489104180491,0.13781999729955363,0.8361015989912437,-33.3426271127386,0.7096536227237827,0.3228801551458228,-0.9077304598702733,0.5095501381407449,2.5629825717954513,17.65309360405775,90.9219731419312,10.321338516158555,2.979380534680281
GUIDED_NOGPS,4.712213039398193,38.81997315933176,-1.8851084341032363,17.94768505788421,89.95005271161985,9.186443218972247,0.4744266196024114,0.1071145661865387,95.38980043910894,-0.01758284125453011,0.9975999278123142,-33.23461108610943,0.6891656079211356,0.696904973369602,-0.9186443218972248,0.5081596215912336,2.5629825717954513,17.65309360405775,90.9219731419312,10.321338516158555,3.495042550298022
GUIDED_NOGPS,4.747014284133911,28.746223647778052,2.5629825717954438,17.653093604057773,90.92197314193135,9.294238534756333,0.4078593615949444,0.09208521777082268,95.43486956264178,0.10195208596645149,0.9429786915763108,-33.07348350849424,0.6888247257099481,0.7081663122125823,-0.9294238534756334,0.5067693446310656,2.5629825717954513,17.65309360405775,90.9219731419312,10.321338516158555,4.755549699585833
GUIDED_NOGPS,4.775268077850342,35.39975017723912,2.5629825717954438,17.653093604057773,90.92197314193136,9.44306446840359,0.3473763728098618,0.07842955673137197,95.48009048342064,0.3568747694513746,0.5959502267828913,-32.923451573185744,0.7212039283744336,0.1852039401218288,-0.944306446840359,0.5068371760122339,2.5629825717954513,17.65309360405775,90.9219731419312,10.321338516158555,5.213915935690491
GUIDED_NOGPS,4.806469440460205,32.05919131697623,2.5629825717954438,17.653093604057773,90.92197314193136,9.599590807090951,0.2927859193151505,0.06610429397754558,95.52545523107764,0.6258717914328362,0.4424297723558072,-32.73705229564151,0.7218832269459311,0.18618741965538135,-0.9599590807090952,0.5069052231337194,2.5629825717954513,17.65309360405775,90.9219731419312,10.321338516158555,6.245239966925974
GUIDED_NOGPS,4.836568593978882,33.23458237918275,2.5629825717954438,17.653093604057773,90.92197314193136,9.782489216002947,0.24388050822577156,0.05506258241126716,95.57095579609674,0.7741977269135669,0.6110434507447385,-32.51972933663004,0.722657272679453,0.1877239931039092,-0.9782489216002948,0.506973473981248,2.5629825717954513,17.65309360405775,90.9219731419312,10.321338516158555,7.104676659622208
GUIDED_NOGPS,4.86915135383606,30.69916414152504,2.5629825717954438,17.653093604057773,90.92197314193136,9.985437304208105,0.20043661363433785,0.04525395504859375,95.61658413205087,1.0024985608293886,0.443007563670908,-32.28041316849114,0.7232878059754855,0.18836312478541986,-0.9985437304208106,0.5070419164851793,2.5629825717954513,17.65309360405775,90.9219731419312,10.321338516158555,7.849521793292278
GUIDED_NOGPS,4.89488410949707,38.86817840627925,2.5629825717954438,17.653093604057773,90.92197314193136,10.216255627427167,0.16221440254287245,0.036624263141384006,95.66233215783892,1.059387526591542,0.37370526270078513,-32.191617294186386,0.7241253290002051,0.19052744049223388,-1.0216255627427167,0.5071105385238613,2.5629825717954513,17.65309360405775,90.9219731419312,10.321338516158555,7.964113352318443
GUIDED_NOGPS,4.927055597305298,31.094715615918393,2.5629825717954438,17.653093604057773,90.92197314193136,10.418651704384782,0.12895746079365722,0.02911561429881715,95.70819175992273,1.1908334499513797,0.4578284338396009,-31.828773739813215,0.724550973117187,0.19022558106096352,-1.0418651704384783,0.5071793279269871,2.5629825717954513,17.65309360405775,90.9219731419312,10.321338516158555,8.708958485988513
GUIDED_NOGPS,4.952054977416992,40.00671499427699,2.5629825717954438,17.653093604057773,90.92197314193136,10.672040249422981,0.10039251900073509,0.022666310609118057,95.75415479456424,1.188597736936964,0.44621220305211334,-31.666129860202286,0.7252456367269311,0.19171715490485486,-1.067204024942298,0.5072482724789493,2.5629825717954513,17.65309360405775,90.9219731419312,10.321338516158555,8.766254265501596
GUIDED_NOGPS,4.982350826263428,33.02159553445602,2.5629825717954438,17.653093604057773,90.92197314193136,10.904041830215895,0.07622917848118504,0.017210786761118868,95.80021309006243,1.2875305724653658,0.4596309634502496,-31.30368587189556,0.7256609669120493,0.19148258317126388,-1.0904041830215896,0.5073173599221966,2.5629825717954513,17.65309360405775,90.9219731419312,10.321338516158555,10.427831871380983
GUIDED_NOGPS,5.024016857147217,24.005311233717176,2.5629825717954438,17.653093604057773,90.92197314193136,11.196560552568325,0.056159637185999145,0.012679548165777987,95.84635844899036,1.2538152646183018,0.48224977521698154,-30.85686514167708,0.7262248777451115,0.19111105153630797,-1.1196560552568326,0.5073865779605885,2.5629825717954513,17.65309360405775,90.9219731419312,10.321338516158555,11.401860123103383
GUIDED_NOGPS,5.053512334823608,33.915564935432485,2.5629825717954438,17.653093604057773,90.92197314193136,11.618786780420043,0.03985841563186909,0.008999109077976186,95.89258265043225,1.2046593536570722,0.32403015064092866,-30.537178137574635,0.7268829578876859,0.19211466368963148,-1.1618786780420043,0.5074559142627513,2.5629825717954513,17.65309360405775,90.9219731419312,10.321338516158555,11.516451682129548
GUIDED_NOGPS,5.088747024536133,28.38861288968906,2.5629825717954438,17.653093604057773,90.92197314193136,11.940240523802316,0.026982082831978005,0.006091930717936123,95.93887745222048,1.0039219082193958,0.3401871765660054,-30.062360461948273,0.7273958483273278,0.19197493829221193,-1.1940240523802317,0.5075253564654337,2.5629825717954513,17.65309360405775,90.9219731419312,10.321338516158555,12.3185925953127
GUIDED_NOGPS,5.1130430698394775,41.17391133623905,2.5629825717954438,17.653093604057773,90.92197314193136,12.335322097215446,0.017168982227474316,0.0038763593929616036,95.98523459317266,0.9016472959178595,0.29423110250922085,-29.75725932681839,0.7278919158736382,0.19260602088217116,-1.2335322097215446,0.5075948921768619,2.5629825717954513,17.65309360405775,90.9219731419312,10.321338516158555,13.006141949469688
GUIDED_NOGPS,5.143241882324219,33.1204219902399,2.5629825717954438,17.653093604057773,90.92197314193136,12.628429860198173,0.010038957618775157,0.002266564618985001,96.03164579532861,0.81941133806323,0.15042616528965677,-29.40326769760955,0.7282927660947583,0.1922597288454292,-1.2628429860198174,0.5076645089800959,2.5629825717954513,17.65309360405775,90.9219731419312,10.321338516158555,14.495832216809829
GUIDED_NOGPS,5.177496433258057,29.19787540636682,2.5629825717954438,17.653093604057773,90.92197314193136,13.025571746002859,0.0051930790964149764,0.0011724772422212482,96.07810276618746,0.6878797705345028,-0.03253517922453261,-28.803143371470135,0.7288029572461775,0.1921762810202748,-1.302557174600286,0.5077341944363841,2.5629825717954513,17.65309360405775,90.9219731419312,10.321338516158555,14.610423775835994
GUIDED_NOGPS,5.207400321960449,33.485852973111065,2.5629825717954438,17.653093604057773,90.92197314193136,13.477777971630653,0.002213368972917351,0.0004997275607081519,96.12459720094459,0.6540433335513769,-0.11444835728002616,-28.442961883325978,0.729263038982533,0.19221006746940056,-1.3477777971630653,0.5078039360885198,2.5629825717954513,17.65309360405775,90.9219731419312,10.321338516158555,15.01149423242757
