E-kp,E-ki,E-kd,E-I-Tot,E-P,E-I,E-D,E-PID,N-kp,N-ki,N-kd,N-I-Tot,N-P,N-I,N-D,N-PID,D-kp,D-ki,D-kd,D-I-Tot,D-P,D-I,D-D,D-PID,Y-kp,Y-ki,Y-kd,Y-I-Tot,Y-P,Y-I,Y-D,Y-PID,errorN,desiredN,actualN,errorE,desiredE,actualE,errorD,desiredD,actualD,errorY,desiredY,actualY,roll,pitch,yaw-rate,thrust,dt,Time,Mode
0.16,0.015,0.11,-0.0009717477004527707,-0.004666796739040041,-1.457621550679156e-05,-0.0963023687754801,-0.10098374173002693,0.16,0.015,0.11,-0.0008083192192375956,-0.0038819350894103237,-1.2124788288563934e-05,-0.08010624105727991,-0.0840003009349788,0.002,8e-05,0,-0.021483071537577704,-0.001289649671275506,-1.7186457230062165e-06,-0.0,-0.0012913683169985123,0.2,0.02,0.0,-0.0006341195625669777,-0.0038066813862412878,-1.2682391251339556e-05,-0.0,-0.0038193637774926272,-0.024262094308814524,0.0,0.024262094308814524,-0.029167479619000257,0.0,0.029167479619000257,-0.644824835637753,0.0,0.644824835637753,-0.019033406931206438,0,0.019033406931206438,-0.10101164068948769,0.0839667499441393,0.0038193637774926272,0.4,0.03331613540649414,0.03366398811340332,STABILIZE
0.16,0.015,0.11,-0.001989878300199855,-0.004867951093109444,-2.9848174502997826e-05,-0.050217491534197196,-0.05511529080180964,0.16,0.015,0.11,-0.0017264599756470528,-0.004389873263707049,-2.5896899634705792e-05,-0.04527078675497279,-0.04968655691831455,0.002,8e-05,0,-0.042809234551638056,-0.0012745751697021243,-3.424738764131045e-06,-0.0,-0.0012779999084662553,0.2,0.02,0.0,-0.0012426463774334981,-0.003636909123387204,-2.4852927548669963e-05,-0.0,-0.003661762050935874,-0.027436707898169058,0.0,0.027436707898169058,-0.030424694331934024,0.0,0.030424694331934024,-0.6372875848510622,0.0,0.6372875848510622,-0.01818454561693602,0,0.01818454561693602,-0.05513105755473179,0.049669061914453395,0.003661762050935874,0.4,0.03346395492553711,0.06703448295593262,STABILIZE
0.16,0.015,0.11,-0.0029589172416819073,-0.004638419307610004,-4.438375862522861e-05,-0.031904696060214364,-0.036587499126449596,0.16,0.015,0.11,-0.002754452020807435,-0.004920605298945795,-4.1316780312111525e-05,-0.03381913479639889,-0.0387810568756568,0.002,8e-05,0,-0.06402644216587727,-0.0012694833669550719,-5.1221153732701826e-06,-0.0,-0.001274605482328342,0.2,0.02,0.0,-0.0017951087973543838,-0.0033055332525785846,-3.590217594708768e-05,-0.0,-0.003341435428525672,-0.030753783118411218,0.0,0.030753783118411218,-0.028990120672562524,0.0,0.028990120672562524,-0.6347416834775359,0.0,0.6347416834775359,-0.016527666262892923,0,0.016527666262892923,-0.03659868447281393,0.038770501152039366,0.003341435428525672,0.4,0.033426523208618164,0.10045051574707031,STABILIZE
0.16,0.015,0.11,-0.003952828285778378,-0.004752320298559207,-5.9292424286675666e-05,-0.024513552424071928,-0.02932516514691781,0.16,0.015,0.11,-0.0038671550150069117,-0.0053203161963139714,-5.800732522510367e-05,-0.027417388702972927,-0.032795712224512004,0.002,8e-05,0,-0.08520185896808743,-0.0012656107870181225,-6.816148717446996e-06,-0.0,-0.0012724269357355694,0.2,0.02,0.0,-0.0023525012401202205,-0.003331419139259609,-4.705002480240441e-05,-0.0,-0.0033784691640620134,-0.03325197622696232,0.0,0.03325197622696232,-0.029702001865995042,0.0,0.029702001865995042,-0.6328053935090612,0.0,0.6328053935090612,-0.016657095696298044,0,0.016657095696298044,-0.029334698315142644,0.03278718539256727,0.0033784691640620134,0.4,0.0334627628326416,0.13391757011413574,STABILIZE
0.16,0.015,0.11,-0.004939974914154408,-0.0047232746662682675,-7.409962371231613e-05,-0.01949140873467441,-0.024288783024654995,0.16,0.015,0.11,-0.004954983440266643,-0.005205014427014329,-7.432475160399965e-05,-0.02145979975475774,-0.02673913893337607,0.002,8e-05,0,-0.1062493997467207,-0.001258846878585214,-8.499951979737656e-06,-0.0,-0.0012673468305649516,0.2,0.02,0.0,-0.002849404816916593,-0.002971964863671644,-5.6988096338331854e-05,-0.0,-0.0030289529600099757,-0.03253134016883956,0.0,0.03253134016883956,-0.02952046666417667,0.0,0.02952046666417667,-0.629423439292607,0.0,0.629423439292607,-0.014859824318358219,0,0.014859824318358219,-0.024295717079871014,0.026732838668798727,0.0030289529600099757,0.4,0.03343939781188965,0.16736483573913574,STABILIZE
0.16,0.015,0.11,-0.005945441100872156,-0.004813125919712389,-8.918161651308234e-05,-0.0006005644662236318,-0.005502872002449104,0.16,0.015,0.11,-0.006024418149434459,-0.00511934064629131,-9.036627224151688e-05,-0.005086107316051215,-0.010295814234584044,0.002,8e-05,0,-0.12715918591398012,-0.0012511787455754058,-1.017273487311841e-05,0.0,-0.0012613514804485242,0.2,0.02,0.0,-0.0033943263493308303,-0.0032606466365047203,-6.788652698661661e-05,0.0,-0.003328533163491337,-0.03199587903932069,0.0,0.03199587903932069,-0.030082036998202433,0.0,0.030082036998202433,-0.6255893727877029,0.0,0.6255893727877029,-0.0163032331825236,0,0.0163032331825236,-0.005505801403104896,0.010294248002548306,0.003328533163491337,0.4,0.03342413902282715,0.20079588890075684,STABILIZE
0.16,0.015,0.11,-0.006917532616902119,-0.0046490516276828575,-0.00010376298925353178,0.0009003007977122187,-0.0038525138192241704,0.16,0.015,0.11,-0.007057523261936213,-0.004940850656180109,-0.00010586284892904319,-0.002265450158911057,-0.007312163664020209,0.002,8e-05,0,-0.14796395183779965,-0.0012437413207337456,-1.1837116147023972e-05,0.0,-0.0012555784368807697,0.2,0.02,0.0,-0.003930866690702708,-0.003207521753661147,-7.861733381405415e-05,0.0,-0.003286139087475201,-0.03088031660112568,0.0,0.03088031660112568,-0.02905657267301786,0.0,0.02905657267301786,-0.6218706603668728,0.0,0.6218706603668728,-0.016037608768305733,0,0.016037608768305733,-0.0038545604092601582,0.007311085023995741,0.003286139087475201,0.4,0.03345513343811035,0.2342526912689209,STABILIZE
0.16,0.015,0.11,-0.007912571175483378,-0.004754459433857539,-0.00011868856763225066,-0.0004767075532909105,-0.0053498555547807,0.16,0.015,0.11,-0.008052064986573616,-0.004752085478787102,-0.00012078097479860423,0.0006928304645858345,-0.004180035988999871,0.002,8e-05,0,-0.16878647090482518,-0.0012436681644283894,-1.3502917672386016e-05,0.0,-0.0012571710821007755,0.2,0.02,0.0,-0.0044079921133552795,-0.0028497306050358105,-8.81598422671056e-05,0.0,-0.002937890447302916,-0.029700534242419384,0.0,0.029700534242419384,-0.02971537146160962,0.0,0.02971537146160962,-0.6218340822141947,0.0,0.6218340822141947,-0.014248653025179052,0,0.014248653025179052,-0.00535089490539061,0.004178705426064019,0.002937890447302916,0.4,0.03348565101623535,0.2677791118621826,STABILIZE
0.16,0.015,0.11,-0.00892889043256599,-0.0048344909060334005,-0.00013393335648848986,-0.00033584619925789295,-0.0053042704617797835,0.16,0.015,0.11,-0.009007341335154354,-0.004544118187054071,-0.00013511012002731532,0.0031854160020866047,-0.0014938123049947813,0.002,8e-05,0,-0.18960649891448367,-0.001237975116758427,-1.5168519913158694e-05,0.0,-0.0012531436366715856,0.2,0.02,0.0,-0.004826641052821016,-0.002489319272171277,-9.653282105642033e-05,0.0,-0.0025858520932276973,-0.028400738669087943,0.0,0.028400738669087943,-0.03021556816270875,0.0,0.03021556816270875,-0.6189875583792135,0.0,0.6189875583792135,-0.012446596360856385,0,0.012446596360856385,-0.00530459484357372,0.0014926600014050244,0.0025858520932276973,0.4,0.033635616302490234,0.301433801651001,STABILIZE
0.16,0.015,0.11,-0.010125392139267405,-0.004803821137349277,-0.00015188088208901106,-0.0003494596559962878,-0.0053051616754345755,0.16,0.015,0.11,-0.010172276249426371,-0.004677083980301076,-0.00015258414374139556,0.002252533590213091,-0.00257713453382938,0.002,8e-05,0,-0.21411042958062107,-0.0012297569178426895,-1.7128834366449686e-05,0.0,-0.0012468857522091393,0.2,0.02,0.0,-0.005222450025130887,-0.0019864111944901948,-0.00010444900050261774,0.0,-0.0020908601949928126,-0.029231774876881722,0.0,0.029231774876881722,-0.03002388210843298,0.0,0.03002388210843298,-0.6148784589213447,0.0,0.6148784589213447,-0.009932055972450973,0,0.009932055972450973,-0.005305608334465978,0.0025762148608376814,0.0020908601949928126,0.4,0.03985166549682617,0.3412954807281494,STABILIZE
0.16,0.015,0.11,-0.011142453929615163,-0.004865752838590482,-0.00016713680894422743,-0.0002344536388349413,-0.005267343286369651,0.16,0.015,0.11,-0.011126420487385106,-0.004564747273304843,-0.00016689630731077658,0.0023619459164322195,-0.0023696976641834,0.002,8e-05,0,-0.2345566263821601,-0.001222715043835385,-1.876453011057281e-05,0.0,-0.0012414795739459578,0.2,0.02,0.0,-0.005563298884962355,-0.002038330319498359,-0.0001112659776992471,0.0,-0.002149596297197606,-0.028529670458155267,0.0,0.028529670458155267,-0.030410955241190512,0.0,0.030410955241190512,-0.6113575219176925,0.0,0.6113575219176925,-0.010191651597491793,0,0.010191651597491793,-0.005267764719825309,0.002368760682860023,0.002149596297197606,0.4,0.03344392776489258,0.3746910095214844,STABILIZE
0.16,0.015,0.11,-0.01223167558966492,-0.005214022786616452,-0.0001834751338449738,-0.0023414964119814158,-0.007738994332442841,0.16,0.015,0.11,-0.0121371125411112,-0.004838107422633612,-0.000182056688116668,0.0005038161137232089,-0.004516347997027071,0.002,8e-05,0,-0.2549755872806481,-0.0012218005217469166,-2.039804698245185e-05,0.0,-0.0012421985687293684,0.2,0.02,0.0,-0.0058490953219917504,-0.0017101077650909361,-0.00011698190643983501,0.0,-0.0018270896715307712,-0.030238171391460074,0.0,0.030238171391460074,-0.03258764241635283,0.0,0.03258764241635283,-0.6109002608734583,0.0,0.6109002608734583,-0.00855053882545468,0,0.00855053882545468,-0.007739668243705572,0.0045151930174919825,0.0018270896715307712,0.4,0.03342437744140625,0.4080986976623535,STABILIZE
0.16,0.015,0.11,-0.013393884496177474,-0.005546710814480758,-0.00020090826744266211,-0.0032731597265127613,-0.009020778808436181,0.16,0.015,0.11,-0.013191954674375356,-0.005034296532542572,-0.00019787932011563033,-0.001075951893750679,-0.006308127746408881,0.002,8e-05,0,-0.2752639643606482,-0.0012103435097522682,-2.202111714885186e-05,0.0,-0.00123236462690112,0.2,0.02,0.0,-0.006044101206332557,-0.0011633464103349333,-0.00012088202412665113,0.0,-0.0012842284344615844,-0.03146435332839108,0.0,0.03146435332839108,-0.034666942590504735,0.0,0.034666942590504735,-0.6051717548761341,0.0,0.6051717548761341,-0.005816732051674666,0,0.005816732051674666,-0.009021419170180395,0.006307211914280871,0.0012842284344615844,0.4,0.03352499008178711,0.4416332244873047,STABILIZE
0.16,0.015,0.11,-0.014499248154048771,-0.005285637897894242,-0.00021748872231073157,-0.0018731523187341973,-0.00737627893893917,0.16,0.015,0.11,-0.014207895051599882,-0.004858032848845632,-0.0002131184257739982,-0.0012017751609240714,-0.006272926435543702,0.002,8e-05,0,-0.2955157083538591,-0.0012104996485400022,-2.364125666830873e-05,0.0,-0.001234140905208311,0.2,0.02,0.0,-0.006150525699238117,-0.0006361269987484332,-0.00012301051398476233,0.0,-0.0007591375127331955,-0.0303627053052852,0.0,0.0303627053052852,-0.03303523686183901,0.0,0.03303523686183901,-0.6052498242700011,0.0,0.6052498242700011,-0.0031806349937421657,0,0.0031806349937421657,-0.007376627153734333,0.0062725169498033155,0.0007591375127331955,0.4,0.033460140228271484,0.4751012325286865,STABILIZE
0.16,0.015,0.11,-0.01555615849793787,-0.005055564447439844,-0.00023334237746906804,-0.0010332125413501784,-0.006322119366259091,0.16,0.015,0.11,-0.015191959457425394,-0.004707117356592447,-0.00022787939186138091,-0.0001226378778335386,-0.005057634626287367,0.002,8e-05,0,-0.3158660800054799,-0.001216785037739648,-2.5269286400438394e-05,0.0,-0.0012420543241400863,0.2,0.02,0.0,-0.006166449516878655,-9.521134739158008e-05,-0.00012332899033757312,0.0,-0.00021854033772915322,-0.029419483478702792,0.0,0.029419483478702792,-0.031597277796499026,0.0,0.031597277796499026,-0.6083925188698239,0.0,0.6083925188698239,-0.0004760567369579004,0,0.0004760567369579004,-0.006322161388700429,0.005057582097156176,0.00021854033772915322,0.4,0.033449411392211914,0.508551836013794,STABILIZE
0.16,0.015,0.11,-0.016587319215468795,-0.004933977722593989,-0.0002488097882320319,-0.00027862395995642043,-0.005461411470782441,0.16,0.015,0.11,-0.016161653864539702,-0.004639868956492225,-0.0002424248079680955,-0.00030796873390909435,-0.005190262498369415,0.002,8e-05,0,-0.33634325763268075,-0.0012247598327364893,-2.690746061061446e-05,-0.0,-0.0012516672933471037,0.2,0.02,0.0,-0.006197170159726137,-0.00018374314117126922,-0.00012394340319452275,0.0,-0.00030768654436579197,-0.028999180978076404,0.0,0.028999180978076404,-0.03083736076621243,0.0,0.03083736076621243,-0.6123799163682446,0.0,0.6123799163682446,-0.0009187157058563461,0,0.0009187157058563461,-0.005461494693935845,0.005190174926077594,0.00030768654436579197,0.4,0.033438682556152344,0.5419909954071045,STABILIZE
0.16,0.015,0.11,-0.017594691719449287,-0.004815656052867251,-0.0002639203757917393,0.0016401615800834262,-0.003439414848575565,0.16,0.015,0.11,-0.017257912670704676,-0.005240569237851283,-0.00025886869006057014,-0.0016512066365119082,-0.0071506445644237615,0.002,8e-05,0,-0.3575319989574951,-0.0012661365335351737,-2.860255991659961e-05,-0.0,-0.0012947390934517733,0.2,0.02,0.0,-0.006148289027618949,0.00029208996519764445,-0.000122965780552379,0.0,0.00016912418464526546,-0.03275355773657052,0.0,0.03275355773657052,-0.03009785033042032,0.0,0.03009785033042032,-0.6330682667675869,0.0,0.6330682667675869,0.0014604498259882222,0,-0.0014604498259882222,-0.003439232579973656,0.007150732231609076,-0.00016912418464526546,0.4,0.03346991539001465,0.5754730701446533,STABILIZE
0.16,0.015,0.11,-0.018563376925434447,-0.004612086821374255,-0.0002784506538815167,0.0038375864834993595,-0.0010529509917564122,0.16,0.015,0.11,-0.01849827453064538,-0.005905588887516696,-0.0002774741179596807,-0.003567574746015362,-0.00975063775149174,0.002,8e-05,0,-0.37880227270625294,-0.0012658956263286272,-3.0304181816500237e-05,-0.0,-0.0012961998081451275,0.2,0.02,0.0,-0.006062090706561251,0.0005130073966734096,-0.00012124181413122503,0.0,0.0003917655825421846,-0.03690993054697935,0.0,0.03690993054697935,-0.02882554263358909,0.0,0.02882554263358909,-0.6329478131643136,0.0,0.6329478131643136,0.002565036983367048,0,-0.002565036983367048,-0.0010525144708275645,0.009750684880589429,-0.0003917655825421846,0.4,0.033605098724365234,0.6090846061706543,STABILIZE
0.16,0.015,0.11,-0.019560375120193617,-0.004761483671866859,-0.00029340562680290423,0.0021515844681608003,-0.002903304830508963,0.16,0.015,0.11,-0.01968534740586312,-0.005669246085275637,-0.0002952802110879468,-0.0033219040523755038,-0.009286430348739088,0.002,8e-05,0,-0.4003716765327751,-0.001287644810589352,-3.2029734122622014e-05,-0.0,-0.0013196745447119742,0.2,0.02,0.0,-0.005978748696383501,0.00049753302303844,-0.00011957497392767003,0.0,0.00037795804911076994,-0.035432788032972735,0.0,0.035432788032972735,-0.02975927294916787,0.0,0.02975927294916787,-0.643822405294676,0.0,0.643822405294676,0.0024876651151921995,0,-0.0024876651151921995,-0.002902901630032344,0.009286556395521142,-0.00037795804911076994,0.4,0.03350210189819336,0.6426048278808594,STABILIZE
0.16,0.015,0.11,-0.020563416116179373,-0.004796658076577321,-0.0003084512417426906,0.0010612711307387435,-0.004043838187581268,0.16,0.015,0.11,-0.020768126938582734,-0.005177976983550844,-0.000311521904078741,-0.0019233355663880475,-0.007412834454017633,0.002,8e-05,0,-0.421620155418834,-0.0012701585512418653,-3.372961243350672e-05,-0.0,-0.001303888163675372,0.2,0.02,0.0,-0.00592315709347865,0.00033230684504746184,-0.00011846314186957301,0.0,0.00021384370317788882,-0.032362356147192774,0.0,0.032362356147192774,-0.029979112978608256,0.0,0.029979112978608256,-0.6350792756209326,0.0,0.6350792756209326,0.0016615342252373092,0,-0.0016615342252373092,-0.004043623219294303,0.00741295171914639,-0.00021384370317788882,0.4,0.03345799446105957,0.6760749816894531,STABILIZE
0.16,0.015,0.11,-0.021476993206179844,-0.004368800197126665,-0.00032215489809269765,0.002319631350477436,-0.002371323744741926,0.16,0.015,0.11,-0.021832009303922904,-0.0050875722895101505,-0.00032748013955884354,-0.0018283340084332997,-0.007243386437502294,0.002,8e-05,0,-0.44278422503009296,-0.0012651038497695757,-3.5422738002407437e-05,-0.0,-0.0013005265877719832,0.2,0.02,0.0,-0.005817970941083509,0.0006287609556280744,-0.00011635941882167019,0.0,0.0005124015368064042,-0.03179732680943844,0.0,0.03179732680943844,-0.027305001232041652,0.0,0.027305001232041652,-0.6325519248847878,0.0,0.6325519248847878,0.0031438047781403716,0,-0.0031438047781403716,-0.0023709262984099163,0.0072435165405262455,-0.0005124015368064042,0.4,0.03345823287963867,0.7095074653625488,STABILIZE
0.16,0.015,0.11,-0.022446098003357055,-0.004635725631932908,-0.0003366914700503558,0.0007362606409227067,-0.004236156461060557,0.16,0.015,0.11,-0.02281793754008196,-0.004716200775108917,-0.0003422690631012294,0.002166088821882095,-0.0028923810163280516,0.002,8e-05,0,-0.46374352046610523,-0.001253238341237532,-3.709948163728842e-05,0.0,-0.0012903378228748205,0.2,0.02,0.0,-0.0056699067924605405,0.000885333519838495,-0.00011339813584921081,0.0,0.0007719353839892842,-0.02947625484443073,0.0,0.02947625484443073,-0.028973285199580673,0.0,0.028973285199580673,-0.6266191706187659,0.0,0.6266191706187659,0.004426667599192475,0,-0.004426667599192475,-0.004235932983278829,0.0028927082928236164,-0.0007719353839892842,0.4,0.033448219299316406,0.7429566383361816,STABILIZE
0.16,0.015,0.11,-0.023483428594583276,-0.004880574723569951,-0.00035225142891874914,-0.0010866711160789058,-0.006319497268567606,0.16,0.015,0.11,-0.02374049781488065,-0.004340587654731854,-0.0003561074672232097,0.0064058288760543165,0.0017091337540992534,0.002,8e-05,0,-0.4847684119101929,-0.001236509780677991,-3.8781472952815434e-05,0.0,-0.0012752912536308065,0.2,0.02,0.0,-0.005480354288466422,0.0011147906554668163,-0.00010960708576932844,0.0,0.0010051835696974877,-0.027128672842074084,0.0,0.027128672842074084,-0.030503592022312193,0.0,0.030503592022312193,-0.6182548903389955,0.0,0.6182548903389955,0.0055739532773340815,0,-0.0055739532773340815,-0.006319663509752641,-0.0017085189610700168,-0.0010051835696974877,0.4,0.03400683403015137,0.7769458293914795,STABILIZE
0.16,0.015,0.11,-0.024522061373605224,-0.00493793814695377,-0.00036783092060407836,-0.0007078832237704363,-0.006013652291328285,0.16,0.015,0.11,-0.024641604943365956,-0.00428410440543736,-0.00036962407415048933,0.0056665995348409715,0.0010128710552531218,0.002,8e-05,0,-0.5054987404958654,-0.0012319691135021886,-4.0439899239669236e-05,0.0,-0.0012724090127418579,0.2,0.02,0.0,-0.005327002642195241,0.000911343449912222,-0.00010654005284390484,0.0,0.0008048033970683171,-0.026775652533983504,0.0,0.026775652533983504,-0.03086211341846106,0.0,0.03086211341846106,-0.6159845567510943,0.0,0.6159845567510943,0.00455671724956111,0,-0.00455671724956111,-0.006013732825660592,-0.0010123927879730154,-0.0008048033970683171,0.4,0.033653974533081055,0.8106820583343506,STABILIZE
0.16,0.015,0.11,-0.025514972545059092,-0.004708922770322971,-0.0003827245881758864,0.000370050670691275,-0.004721596687807582,0.16,0.015,0.11,-0.02547669121571938,-0.00396043158353353,-0.00038215036823579065,0.004966833008342352,0.000624251056573032,0.002,8e-05,0,-0.5266398455852508,-0.0012532821918932247,-4.2131187646820066e-05,0.0,-0.0012954133795400448,0.2,0.02,0.0,-0.0051959893973660696,0.0007766697433853113,-0.0001039197879473214,0.0,0.00067274995543799,-0.02475269739708456,0.0,0.02475269739708456,-0.029430767314518567,0.0,0.029430767314518567,-0.6266410959466123,0.0,0.6266410959466123,0.0038833487169265563,0,-0.0038833487169265563,-0.004721638986964521,-0.0006239310384367318,-0.00067274995543799,0.4,0.0337371826171875,0.8443880081176758,STABILIZE
0.16,0.015,0.11,-0.026455295557481048,-0.00449913795695756,-0.0003968294333622157,-0.000525675548944441,-0.005421642939264217,0.16,0.015,0.11,-0.02624000927817004,-0.0036522271843135424,-0.00039360013917255057,0.0058625892937831285,0.0018167619702970355,0.002,8e-05,0,-0.5475431617947895,-0.0012501941107235619,-4.380345294358316e-05,0.0,-0.001293997563667145,0.2,0.02,0.0,-0.0051085611019299135,0.0005228947357884037,-0.00010217122203859828,-0.0,0.0004207235137498054,-0.02282641990195964,0.0,0.02282641990195964,-0.02811961223098475,0.0,0.02811961223098475,-0.625097055361781,0.0,0.625097055361781,0.0026144736789420185,0,-0.0026144736789420185,-0.005421725834601114,-0.0018165145724738784,-0.0004207235137498054,0.4,0.03344011306762695,0.8778257369995117,STABILIZE
0.16,0.015,0.11,-0.027406007522964387,-0.004539007697300416,-0.0004110901128444658,0.00040802702093772,-0.004542070789207161,0.16,0.015,0.11,-0.026979949050482354,-0.0035327127920987203,-0.0004046992357572353,0.004826303327958148,0.0008888913001021924,0.002,8e-05,0,-0.5685028034002411,-0.0012508517042203755,-4.548022427201929e-05,0.0,-0.0012963319284923947,0.2,0.02,0.0,-0.005067852050514087,0.00024294779128015677,-0.00010135704101028174,-0.0,0.000141590750269875,-0.022079454950617,0.0,0.022079454950617,-0.028368798108127594,0.0,0.028368798108127594,-0.6254258521101878,0.0,0.6254258521101878,0.0012147389564007838,0,-0.0012147389564007838,-0.0045420896337435525,-0.0008887950025769109,-0.000141590750269875,0.4,0.03351259231567383,0.9113028049468994,STABILIZE
0.16,0.015,0.11,-0.0283623711410018,-0.004562420096211101,-0.000425435567115027,0.001302042117983519,-0.0036858135453426088,0.16,0.015,0.11,-0.027696197407840847,-0.0034169282873773377,-0.00041544296111761266,0.0037822698061490433,-5.010144234590718e-05,0.002,8e-05,0,-0.5893998612695686,-0.0012461415691758355,-4.715198890156549e-05,-0.0,-0.001293293558077401,0.2,0.02,0.0,-0.005072987264894377,-3.062251224992931e-05,-0.00010145974529788755,-0.0,-0.00013208225754781687,-0.02135580179610836,0.0,0.02135580179610836,-0.02851512560131938,0.0,0.02851512560131938,-0.6230707845879178,0.0,0.6230707845879178,-0.00015311256124964654,0,0.00015311256124964654,-0.0036858136792164505,5.009159267866709e-05,0.00013208225754781687,0.4,0.033538818359375,0.9448566436767578,STABILIZE
0.16,0.015,0.11,-0.02936764989560865,-0.00481034148745778,-0.0004405147484341297,0.0005169143890981066,-0.004733941846793804,0.16,0.015,0.11,-0.02848238836429469,-0.003761988361499858,-0.0004272358254644203,0.002132547123176357,-0.0020566770637879214,0.002,8e-05,0,-0.6101605493200906,-0.0012417699889202805,-4.8812843945607246e-05,-0.0,-0.0012905828328658878,0.2,0.02,0.0,-0.004855428815298191,0.00130129383422712,-9.710857630596383e-05,0.0,0.0012041852579211562,-0.02351242725937411,0.0,0.02351242725937411,-0.030064634296611124,0.0,0.030064634296611124,-0.6208849944601402,0.0,0.6208849944601402,0.006506469171135599,0,-0.006506469171135599,-0.004733708261442847,0.00205721463369396,-0.0012041852579211562,0.4,0.033437252044677734,0.9782965183258057,STABILIZE
0.16,0.015,0.11,-0.030459056022013608,-0.005224554198279273,-0.0004568858403302041,-0.002120463332832883,-0.007801903371442361,0.16,0.015,0.11,-0.029365880884051183,-0.004229273083198224,-0.0004404882132607677,-0.0011089473962598267,-0.0057787086927188185,0.002,8e-05,0,-0.6310859141164111,-0.00125211985543429,-5.0486873129312894e-05,0.0,-0.0013026067285636029,0.2,0.02,0.0,-0.0044043183817425915,0.002699328476929858,-8.808636763485182e-05,0.0,0.0026112421092950064,-0.0264329567699889,0.0,0.0264329567699889,-0.03265346373924546,0.0,0.03265346373924546,-0.6260599277171449,0.0,0.6260599277171449,0.01349664238464929,0,-0.01349664238464929,-0.007800541917477829,0.005780546355345577,-0.0026112421092950064,0.4,0.03342390060424805,1.0117361545562744,STABILIZE
0.16,0.015,0.11,-0.03158807739361724,-0.005387171986010205,-0.0004738211609042586,-0.003649883711044511,-0.009510876857958976,0.16,0.015,0.11,-0.030204565347991867,-0.004001817470315712,-0.000453068480219878,-0.0014435393668179534,-0.005898425317353543,0.002,8e-05,0,-0.652373103190692,-0.0012696587452434877,-5.218984825525536e-05,-0.0,-0.001321848593498743,0.2,0.02,0.0,-0.003926117433963985,0.0028521944029913835,-7.852234867927971e-05,0.0,0.002773672054312104,-0.025011359189473198,0.0,0.025011359189473198,-0.03366982491256378,0.0,0.03366982491256378,-0.6348293726217439,0.0,0.6348293726217439,0.014260972014956916,0,-0.014260972014956916,-0.009509408439901201,0.005900792400584234,-0.002773672054312104,0.4,0.033532142639160156,1.04530930519104,STABILIZE
0.16,0.015,0.11,-0.03262219966830742,-0.004942791593655013,-0.0004893329950246113,-0.001660984955878421,-0.0070931095445580464,0.16,0.015,0.11,-0.03106258317405496,-0.004101065610584002,-0.00046593874761082437,-0.0023415661384276133,-0.00690857049662244,0.002,8e-05,0,-0.6735606391474944,-0.0012658751433543278,-5.3884851131799555e-05,-0.0,-0.0013197599944861273,0.2,0.02,0.0,-0.0034106373137066065,0.0030797987668670476,-6.821274627413213e-05,0.0,0.0030115860205929155,-0.025631660066150013,0.0,0.025631660066150013,-0.030892447460343832,0.0,0.030892447460343832,-0.6329375716771639,0.0,0.6329375716771639,0.015398993834335238,0,-0.015398993834335238,-0.007091252519273334,0.006910476613505185,-0.0030115860205929155,0.4,0.03347492218017578,1.078725814819336,STABILIZE
0.16,0.015,0.11,-0.0336498572671978,-0.00491133271916398,-0.0005047478590079669,-0.0014357962567747018,-0.006851876834946649,0.16,0.015,0.11,-0.03188197890891496,-0.003916017442878497,-0.00047822968363372444,-0.002056242547358209,-0.00645048967387043,0.002,8e-05,0,-0.6943196889781539,-0.001240133396110726,-5.5545575118252315e-05,0.0,-0.0012956789712289783,0.2,0.02,0.0,-0.002907622806987519,0.0030049790024069168,-5.8152456139750376e-05,0.0,0.0029468265462671665,-0.024475109017990607,0.0,0.024475109017990607,-0.030695829494774875,0.0,0.030695829494774875,-0.6200666980553631,0.0,0.6200666980553631,0.015024895012034583,0,-0.015024895012034583,-0.006850185062390941,0.006452286246361329,-0.0029468265462671665,0.4,0.033478736877441406,1.112196683883667,STABILIZE
0.16,0.015,0.11,-0.03465210994208464,-0.004787941062131973,-0.0005197816491312695,9.027185635874153e-05,-0.005217450854904501,0.16,0.015,0.11,-0.032664123306386676,-0.0037364442829689454,-0.0004899618495958001,9.99242268428151e-05,-0.004126481905721931,0.002,8e-05,0,-0.7147199464366283,-0.0012181961796026302,-5.717759571493027e-05,0.0,-0.0012753737753175606,0.2,0.02,0.0,-0.0024935322522001164,0.0024727312038995727,-4.987064504400233e-05,0.0,0.0024228605588555705,-0.02335277676855591,0.0,0.02335277676855591,-0.029924631638324827,0.0,0.029924631638324827,-0.6090980898013151,0.0,0.6090980898013151,0.012363656019497862,0,-0.012363656019497862,-0.005216560294330307,0.004127607665126459,-0.0024228605588555705,0.4,0.0334925651550293,1.1457538604736328,STABILIZE
0.16,0.015,0.11,-0.035626005528477604,-0.0046619654800163805,-0.0005343900829271641,0.0023125033081920674,-0.0028838522547514774,0.16,0.015,0.11,-0.033483088006436026,-0.003920322891207255,-0.0005022463200965403,0.0012658175125373134,-0.0031567516987664815,0.002,8e-05,0,-0.7349492195460741,-0.0012104502556499778,-5.879593756368593e-05,0.0,-0.0012692461932136637,0.2,0.02,0.0,-0.0020433839482476256,0.0026935329146615334,-4.086767896495251e-05,-0.0,0.002652665235696581,-0.02450201807004534,0.0,0.02450201807004534,-0.02913728425010238,0.0,0.02913728425010238,-0.6052251278249889,0.0,0.6052251278249889,0.013467664573307666,0,-0.013467664573307666,-0.0028831101645379656,0.0031574294757029985,-0.002652665235696581,0.4,0.03342437744140625,1.179128885269165,STABILIZE
0.16,0.015,0.11,-0.036582382642995515,-0.004574973034820854,-0.0005487357396449327,0.0033369460717202035,-0.0017867627027455834,0.16,0.015,0.11,-0.034184878691220194,-0.003357120753139791,-0.0005127731803683029,0.0026484211551495627,-0.0012214727783585312,0.002,8e-05,0,-0.7550363031194117,-0.0012011196250568022,-6.0402904249552943e-05,0.0,-0.0012615225293063552,0.2,0.02,0.0,-0.001560151790504486,0.002889516668782336,-3.120303581008972e-05,0.0,0.002858313632972246,-0.02098200470712369,0.0,0.02098200470712369,-0.028593581467630337,0.0,0.028593581467630337,-0.6005598125284011,0.0,0.6005598125284011,0.014447583343911679,0,-0.014447583343911679,-0.0017864546419358095,0.0012219232858488337,-0.002858313632972246,0.4,0.033447265625,1.2125701904296875,STABILIZE
0.16,0.015,0.11,-0.037540738942810924,-0.0045879727912580695,-0.0005631110841421639,0.0014581477762527501,-0.0036929360991474827,0.16,0.015,0.11,-0.034758475556281365,-0.002746000428607245,-0.0005213771333442205,0.005570308089412556,0.0023029305274610903,0.002,8e-05,0,-0.7748826027692995,-0.001187636096543346,-6.199060822154397e-05,0.0,-0.0012496267047648899,0.2,0.02,0.0,-0.0009499383963653592,0.0036516200312331523,-1.8998767927307183e-05,0.0,0.003632621263305845,-0.01716250267879528,0.0,0.01716250267879528,-0.028674829945362936,0.0,0.028674829945362936,-0.593818048271673,0.0,0.593818048271673,0.01825810015616576,0,-0.01825810015616576,-0.003693669772600415,-0.0023017536049014546,-0.003632621263305845,0.4,0.03342151641845703,1.2459917068481445,STABILIZE
0.16,0.015,0.11,-0.03847016445011246,-0.004437442371060738,-0.0005770524667516869,0.0019465688933212552,-0.0030679259444911697,0.16,0.015,0.11,-0.035215462827099975,-0.002181836696577778,-0.0005282319424064996,0.007125059895783751,0.004414991256799474,0.002,8e-05,0,-0.7946546581951953,-0.0011799944672887946,-6.357237265561563e-05,0.0,-0.0012435668399444102,0.2,0.02,0.0,-0.0003911391045247895,0.0033349090850370924,-7.82278209049579e-06,0.0,0.0033270863029465966,-0.013636479353611113,0.0,0.013636479353611113,-0.027734014819129613,0.0,0.027734014819129613,-0.5899972336443973,0.0,0.5899972336443973,0.016674545425185462,0,-0.016674545425185462,-0.0030692106905571897,-0.0044140982244924385,-0.0033270863029465966,0.4,0.033512115478515625,1.279517650604248,STABILIZE
0.16,0.015,0.11,-0.0395243643314981,-0.004731867866278165,-0.0005928654649724715,0.00030428732170364477,-0.005020446009546992,0.16,0.015,0.11,-0.03578097170375042,-0.002538335783153475,-0.0005367145755562563,0.005012690019582058,0.001937639660872327,0.002,8e-05,0,-0.8155106152300614,-0.0011701722161081805,-6.524084921840491e-05,0.0,-0.0012354130653265854,0.2,0.02,0.0,0.00015240734833570394,0.0030496944169869297,3.048146966714079e-06,0.0,0.003052742563953644,-0.015864598644709217,0.0,0.015864598644709217,-0.02957417416423853,0.0,0.02957417416423853,-0.5850861080540902,0.0,0.5850861080540902,0.015248472084934649,0,-0.015248472084934649,-0.005020961507499459,-0.001936303470629153,-0.003052742563953644,0.4,0.03564596176147461,1.315162181854248,STABILIZE
0.16,0.015,0.11,-0.04050032767533348,-0.004650401615350421,-0.0006075049151300022,0.0001196468717624325,-0.005138259658717991,0.16,0.015,0.11,-0.036315029602671765,-0.0025447510211545348,-0.0005447254440400764,0.005742853676508586,0.002653377211313975,0.002,8e-05,0,-0.835032366058181,-0.0011627483521664506,-6.680258928465448e-05,0.0,-0.001229550941451105,0.2,0.02,0.0,0.0006905991975734251,0.003205561280646939,1.3811983951468502e-05,0.0,0.003219373264598407,-0.015904693882215843,0.0,0.015904693882215843,-0.029065010095940133,0.0,0.029065010095940133,-0.5813741760832253,0.0,0.5813741760832253,0.016027806403234694,0,-0.016027806403234694,-0.005139001708082689,-0.0026519397410673306,-0.003219373264598407,0.4,0.03357863426208496,1.3487892150878906,STABILIZE
0.16,0.015,0.11,-0.041452414728195,-0.00456793117710542,-0.000621786220922925,0.0001020606007028358,-0.005087656797325509,0.16,0.015,0.11,-0.0368670122325992,-0.0026483068506057417,-0.000553005183488988,0.003000585712599965,-0.00020072632149476443,0.002,8e-05,0,-0.8544591729994345,-0.0011650761980200404,-6.835673383995477e-05,0.0,-0.0012334329318599952,0.2,0.02,0.0,0.0011041002287783522,0.002479873356287731,2.2082004575567044e-05,-0.0,0.002501955360863298,-0.016551917816285885,0.0,0.016551917816285885,-0.02854956985690887,0.0,0.02854956985690887,-0.5825380990100202,0.0,0.5825380990100202,0.012399366781438655,0,-0.012399366781438655,-0.005087613239052076,0.00020182733545116608,-0.002501955360863298,0.4,0.03334856033325195,1.382093906402588,STABILIZE
0.16,0.015,0.11,-0.0424000709652176,-0.004534742340318989,-0.000636001064478264,0.00029202547282332965,-0.004878717931973923,0.16,0.015,0.11,-0.03719925591534196,-0.0015898586814251936,-0.0005579888387301294,0.004839019287969753,0.00269117176781443,0.002,8e-05,0,-0.8740076955381354,-0.0011692994435071262,-6.992061564305084e-05,0.0,-0.001239220059150177,0.2,0.02,0.0,0.0015357896762039941,0.002582160516956632,3.071579352407988e-05,-0.0,0.002612876310480712,-0.00993661675890746,0.0,0.00993661675890746,-0.028342139626993678,0.0,0.028342139626993678,-0.5846497217535631,0.0,0.5846497217535631,0.012910802584783158,0,-0.012910802584783158,-0.004879324226026753,-0.0026900723486467386,-0.002612876310480712,0.4,0.03343629837036133,1.4155347347259521,STABILIZE
0.16,0.015,0.11,-0.04337403648678617,-0.004636799708266317,-0.0006506105473017926,-0.0007431435000464351,-0.006030553755614544,0.16,0.015,0.11,-0.03738387694331459,-0.0008789332986496501,-0.0005607581541497188,0.005432842214525123,0.003993150761725754,0.002,8e-05,0,-0.893600039962997,-0.0011659264997279364,-7.148800319703976e-05,0.0,-0.0012374145029249762,0.2,0.02,0.0,0.0019719936536624315,0.0025958188850547063,3.943987307324863e-05,-0.0,0.002635258758127955,-0.005493333116560313,0.0,0.005493333116560313,-0.02897999817666448,0.0,0.02897999817666448,-0.5829632498639682,0.0,0.5829632498639682,0.01297909442527353,0,-0.01297909442527353,-0.006031458161060979,-0.003991784570414411,-0.002635258758127955,0.4,0.033608198165893555,1.449178695678711,STABILIZE
0.16,0.015,0.11,-0.04428902470271999,-0.0043744573050107215,-0.0006643353705407998,0.0014704212318711642,-0.003568371443680357,0.16,0.015,0.11,-0.03766255198216989,-0.0013323144912861823,-0.0005649382797325483,0.00494524306605014,0.00304799029503141,0.002,8e-05,0,-0.9129382737754926,-0.001155674421456102,-7.303506190203941e-05,0.0,-0.0012287094833581414,0.2,0.02,0.0,0.0023551000610995496,0.0022894866204633993,4.710200122199099e-05,-0.0,0.0023365886216853904,-0.00832696557053864,0.0,0.00832696557053864,-0.027340358156317007,0.0,0.027340358156317007,-0.5778372107280509,0.0,0.5778372107280509,0.011447433102316995,0,-0.011447433102316995,-0.0035689803468905543,-0.003047277290006289,-0.0023365886216853904,0.4,0.03346657752990723,1.4826090335845947,STABILIZE
0.16,0.015,0.11,-0.04518895223642752,-0.0043040176220751685,-0.0006778342835464128,0.0014263398961500378,-0.003555512009471543,0.16,0.015,0.11,-0.03799082028109581,-0.0015699847936922267,-0.0005698623042164371,0.0039946710285568105,0.0018548239306481469,0.002,8e-05,0,-0.9322184106006648,-0.0011526212603709667,-7.45774728480532e-05,0.0,-0.0012271987332190199,0.2,0.02,0.0,0.002756229676323842,0.002398066605358843,5.5124593526476843e-05,-0.0,0.0024531911988853196,-0.009812404960576417,0.0,0.009812404960576417,-0.0269001101379698,0.0,0.0269001101379698,-0.5763106301854833,0.0,0.5763106301854833,0.011990333026794213,0,-0.011990333026794213,-0.0035559000920819686,-0.001854079825232144,-0.0024531911988853196,0.4,0.03345441818237305,1.5160722732543945,STABILIZE
0.16,0.015,0.11,-0.0460514573105562,-0.004125892672911743,-0.0006907718596583431,0.0018185620149443582,-0.0029981025176257278,0.16,0.015,0.11,-0.03840843840066872,-0.001997724525112751,-0.0005761265760100307,0.0026632401333079557,8.938903218517428e-05,0.002,8e-05,0,-0.9514952129357137,-0.0011526601392996569,-7.611961703485711e-05,0.0,-0.001228779756334514,0.2,0.02,0.0,0.0032150360488052768,0.0027434416145590466,6.430072097610554e-05,0.0,0.002807742335535152,-0.012485778281954693,0.0,0.012485778281954693,-0.02578682920569839,0.0,0.02578682920569839,-0.5763300696498285,0.0,0.5763300696498285,0.013717208072795231,0,-0.013717208072795231,-0.0029981238323718395,-8.867125257220486e-05,-0.002807742335535152,0.4,0.0334475040435791,1.5495245456695557,STABILIZE
0.16,0.015,0.11,-0.04690969867438006,-0.004102747694808455,-0.0007036454801157008,0.001777163084498548,-0.003029230090425608,0.16,0.015,0.11,-0.038850600753900226,-0.002113718415259191,-0.0005827590113085034,-0.0021659356956240925,-0.004862413122191787,0.002,8e-05,0,-0.9706401356683086,-0.0011440078356640595,-7.76512108534647e-05,0.0,-0.0012216590465175241,0.2,0.02,0.0,0.0035908293272080317,0.0022455585801383197,7.181658654416063e-05,-0.0,0.0023173751666824803,-0.013210740095369943,0.0,0.013210740095369943,-0.025642173092552845,0.0,0.025642173092552845,-0.5720039178320298,0.0,0.5720039178320298,0.011227792900691598,0,-0.011227792900691598,-0.0030282771842929956,0.004863006642674191,-0.0023173751666824803,0.4,0.03346991539001465,1.5830013751983643,STABILIZE
0.16,0.015,0.11,-0.04776581076728577,-0.00409881714298916,-0.0007164871615092865,0.0022108787014116595,-0.002604425603086787,0.16,0.015,0.11,-0.03931824114195809,-0.00223892695268443,-0.0005897736171293713,-0.005589681771997259,-0.00841838234181106,0.002,8e-05,0,-0.9897127473827352,-0.001141426871908426,-7.917701979061881e-05,0.0,-0.0012206038916990447,0.2,0.02,0.0,0.0038850780183526355,0.0017609720583903383,7.770156036705271e-05,-0.0,0.0018386736187573911,-0.013993293454277689,0.0,0.013993293454277689,-0.02561760714368225,0.0,0.02561760714368225,-0.570713435954213,0.0,0.570713435954213,0.008804860291951691,0,-0.008804860291951691,-0.0026031318875158423,0.008418782474391916,-0.0018386736187573911,0.4,0.033418893814086914,1.616417646408081,STABILIZE
0.16,0.015,0.11,-0.04861830825185439,-0.004079590526777031,-0.0007292746237778159,0.001212094330083226,-0.003596770820471621,0.16,0.015,0.11,-0.03981830000866921,-0.002393010480843669,-0.0005972745001300381,-0.004360599284616381,-0.007350884265590088,0.002,8e-05,0,-1.0086979479580294,-0.0011356608936964135,-8.069583583664236e-05,0.0,-0.0012163567295330557,0.2,0.02,0.0,0.004301673418825943,0.0024919995073794648,8.603346837651887e-05,0.0,0.0025780329757559835,-0.014956315505272929,0.0,0.014956315505272929,-0.025497440792356444,0.0,0.025497440792356444,-0.5678304468482067,0.0,0.5678304468482067,0.012459997536897322,0,-0.012459997536897322,-0.0035951721534686464,0.007351666274255085,-0.0025780329757559835,0.4,0.03343462944030762,1.6498384475708008,STABILIZE
0.16,0.015,0.11,-0.049488674103793324,-0.0041599076695401985,-0.0007423301115568998,0.0005926895212977948,-0.0043095482597993034,0.16,0.015,0.11,-0.04041873097445849,-0.0028697557171527307,-0.0006062809646168774,-0.005341930111592875,-0.008817966793362483,0.002,8e-05,0,-1.0275477467633034,-0.001126156064783929,-8.220381974106428e-05,0.0,-0.0012083598845249932,0.2,0.02,0.0,0.004654461678136444,0.0021076863573521415,9.308923356272888e-05,-0.0,0.0022007755909148703,-0.017935973232204565,0.0,0.017935973232204565,-0.02599942293462624,0.0,0.02599942293462624,-0.5630780323919645,0.0,0.5630780323919645,0.010538431786760708,0,-0.010538431786760708,-0.004307926295345821,0.008818759300845594,-0.0022007755909148703,0.4,0.03347635269165039,1.6833648681640625,STABILIZE
0.16,0.015,0.11,-0.05052456939405543,-0.0040687683941799425,-0.0007578685409108315,0.00016806693067799845,-0.004658570004412776,0.16,0.015,0.11,-0.04121647472165942,-0.0031333616204052353,-0.0006182471208248914,-0.004473311215010777,-0.008224919956240903,0.002,8e-05,0,-1.0506138479121192,-0.0011324820207879469,-8.404910783296954e-05,0.0,-0.0012165311286209163,0.2,0.02,0.0,0.005026841356407603,0.001828281632115084,0.00010053682712815206,-0.0,0.001928818459243236,-0.01958351012753272,0.0,0.01958351012753272,-0.02542980246362464,0.0,0.02542980246362464,-0.5662410103939735,0.0,0.5662410103939735,0.00914140816057542,0,-0.00914140816057542,-0.004657257678304852,0.008225663115546055,-0.001928818459243236,0.4,0.040735483169555664,1.7241075038909912,STABILIZE
0.16,0.015,0.11,-0.05134467877380338,-0.003509920653981703,-0.0007701701816070507,0.0021284089695493887,-0.002151681866039365,0.16,0.015,0.11,-0.04180291845753007,-0.0025098737214335923,-0.000627043776862951,-0.0017036188834113784,-0.004840536381707922,0.002,8e-05,0,-1.071895259017386,-0.001138507652589109,-8.575162072139089e-05,0.0,-0.0012242592733105,0.2,0.02,0.0,0.0052705948867782714,0.0013040265906236713,0.00010541189773556544,-0.0,0.0014094384883592368,-0.01568671075895995,0.0,0.01568671075895995,-0.021937004087385643,0.0,0.021937004087385643,-0.5692538262945545,0.0,0.5692538262945545,0.0065201329531183565,0,-0.0065201329531183565,-0.002151131009776964,0.004840781207001263,-0.0014094384883592368,0.4,0.037384748458862305,1.7614467144012451,STABILIZE
0.16,0.015,0.11,-0.05207076476630876,-0.0034724004192628923,-0.0007810614714946313,0.0022664389527909824,-0.001987022937966541,0.16,0.015,0.11,-0.04227526216344071,-0.002258914921056204,-0.0006341289324516107,-0.00015705656498373588,-0.0030501004184915505,0.002,8e-05,0,-1.0908043199668223,-0.0011303728457515265,-8.726434559734578e-05,0.0,-0.0012176371913488722,0.2,0.02,0.0,0.005413778118463151,0.0008559411675510124,0.00010827556236926302,-0.0,0.0009642167299202754,-0.014118218256601275,0.0,0.014118218256601275,-0.021702502620393076,0.0,0.021702502620393076,-0.5651864228757633,0.0,0.5651864228757633,0.0042797058377550615,0,-0.0042797058377550615,-0.0019867951053013115,0.003050248830577313,-0.0009642167299202754,0.4,0.03345632553100586,1.7949485778808594,STABILIZE
0.16,0.015,0.11,-0.05282081744439046,-0.0031017490242926165,-0.0007923122616658569,0.0035046043861347064,-0.000389456899823767,0.16,0.015,0.11,-0.04273862692477287,-0.001916187007063869,-0.0006410794038715931,0.001694611762565257,-0.0008626546483702052,0.002,8e-05,0,-1.1125319653001513,-0.0011231494913996002,-8.900255722401212e-05,0.0,-0.0012121520486236123,0.2,0.02,0.0,0.005479337762164023,0.0003388921318870359,0.00010958675524328046,-0.0,0.00044847888713031635,-0.011976168794149181,0.0,0.011976168794149181,-0.019385931401828854,0.0,0.019385931401828854,-0.5615747456998,0.0,0.5615747456998,0.0016944606594351793,0,-0.0016944606594351793,-0.00038943138757601065,0.0008626661657592031,-0.00044847888713031635,0.4,0.03869056701660156,1.8336102962493896,STABILIZE
0.16,0.015,0.11,-0.05343032785696661,-0.0028485359089213892,-0.0008014549178544991,0.004851470305463334,0.001201479478687446,0.16,0.015,0.11,-0.043202176631308514,-0.0021663911844521295,-0.0006480326494696277,0.0026478957464981163,-0.0001665280874236408,0.002,8e-05,0,-1.1322370942659306,-0.0011511445557531087,-9.057896754127445e-05,-0.0,-0.0012417235232943832,0.2,0.02,0.0,0.0055535790242859625,0.0004337064976957425,0.00011107158048571925,-0.0,0.0005447780781814617,-0.013539944902825809,0.0,0.013539944902825809,-0.017803349430758682,0.0,0.017803349430758682,-0.5755722778765543,0.0,0.5755722778765543,0.0021685324884787123,0,-0.0021685324884787123,0.0012014857805872593,0.00016648261367078912,-0.0005447780781814617,0.4,0.03423571586608887,1.8678383827209473,STABILIZE
0.16,0.015,0.11,-0.054024275872408836,-0.0028415227762366773,-0.0008103641380861325,0.00457266905858213,0.0009207821442593204,0.16,0.015,0.11,-0.04379342998647093,-0.002828631179059402,-0.0006569014497970638,0.0008149740037797834,-0.0026705586250766826,0.002,8e-05,0,-1.1519021733780266,-0.001176002965341849,-9.215217387024213e-05,-0.0,-0.001268155139212091,0.2,0.02,0.0,0.0056146092912298905,0.0003649706898840619,0.00011229218582459782,-0.0,0.00047726287570865967,-0.017678944869121263,0.0,0.017678944869121263,-0.017759517351479234,0.0,0.017759517351479234,-0.5880014826709244,0.0,0.5880014826709244,0.0018248534494203093,0,-0.0018248534494203093,0.0009208672002861524,0.002670529297086141,-0.00047726287570865967,0.4,0.03344392776489258,1.9013538360595703,STABILIZE
0.16,0.015,0.11,-0.0546194981246169,-0.0028474564928647255,-0.0008192924718692535,0.00249284933656676,-0.0011738996281672191,0.16,0.015,0.11,-0.0443594356717696,-0.0027076886954802075,-0.000665391535076544,-0.0009809864270064353,-0.004354066657563186,0.002,8e-05,0,-1.1712838338607332,-0.001158987982624401,-9.370270670885866e-05,-0.0,-0.0012526906893332596,0.2,0.02,0.0,0.00574987644679384,0.0008088729439992214,0.0001149975289358768,-0.0,0.0009238704729350982,-0.016923054346751298,0.0,0.016923054346751298,-0.017796603080404535,0.0,0.017796603080404535,-0.5794939913122005,0.0,0.5794939913122005,0.004044364719996107,0,-0.004044364719996107,-0.0011735922826475891,0.0043541495093329784,-0.0009238704729350982,0.4,0.03344583511352539,1.9347507953643799,STABILIZE
0.16,0.015,0.11,-0.05518419300034616,-0.002700224563701459,-0.0008277628950051924,0.0029436687638782484,-0.000584318694828403,0.16,0.015,0.11,-0.04508737696028684,-0.003480826606843789,-0.0006763106544043026,-0.005189448090315858,-0.009346585351563949,0.002,8e-05,0,-1.1905797027987357,-0.001153348062904577,-9.524637622389887e-05,-0.0,-0.0012485944391284758,0.2,0.02,0.0,0.0058912442146903995,0.0008449800409844529,0.000117824884293808,0.0,0.0009628049252782608,-0.02175516629277368,0.0,0.02175516629277368,-0.016876403523134118,0.0,0.016876403523134118,-0.5766740314522885,0.0,0.5766740314522885,0.004224900204922264,0,-0.004224900204922264,-0.0005836294908122342,0.009346628412890396,-0.0009628049252782608,0.4,0.03346061706542969,1.9682042598724365,STABILIZE
0.16,0.015,0.11,-0.055711138794659214,-0.0025229360857508317,-0.0008356670819198882,0.0023558972660354715,-0.0010027059016352487,0.16,0.015,0.11,-0.04570999279268077,-0.0029809896350994143,-0.0006856498918902116,-0.004350840091140904,-0.00801747961813053,0.002,8e-05,0,-1.2098915948724551,-0.00115577991898648,-9.679132758979642e-05,-0.0,-0.0012525712465762764,0.2,0.02,0.0,0.006071782352298766,0.0010804863307149735,0.00012143564704597533,0.0,0.001201921977760949,-0.01863118521937134,0.0,0.01863118521937134,-0.015768350535942697,0.0,0.015768350535942697,-0.57788995949324,0.0,0.57788995949324,0.005402431653574867,0,-0.005402431653574867,-0.0010019499272622282,0.008017574127850135,-0.001201921977760949,0.4,0.03341794013977051,2.001608371734619,STABILIZE
0.16,0.015,0.11,-0.05624116778567436,-0.0025048868299584414,-0.0008436175167851154,0.0014122286060154984,-0.0019362757407280586,0.16,0.015,0.11,-0.04637444625578323,-0.003140169230475268,-0.0006956166938367484,-0.003992436886095828,-0.007828222810407844,0.002,8e-05,0,-1.229416035103265,-0.001153392409318901,-9.835328280826121e-05,-0.0,-0.0012517456921271623,0.2,0.02,0.0,0.006219275367569085,0.0008713044892928355,0.00012438550735138171,0.0,0.0009956899966442171,-0.019626057690470426,0.0,0.019626057690470426,-0.01565554268724026,0.0,0.01565554268724026,-0.5766962046594505,0.0,0.5766962046594505,0.004356522446464177,0,-0.004356522446464177,-0.0019356805110384875,0.007828370013783677,-0.0009956899966442171,0.4,0.03385567665100098,2.035513401031494,STABILIZE
0.16,0.015,0.11,-0.05679141431011385,-0.0026296185989020597,-0.0008518712146517077,0.0008711294289241875,-0.00261036038462958,0.16,0.015,0.11,-0.04699618748500522,-0.0029712905533239506,-0.0007049428122750782,-0.0005761560993610966,-0.004252389464960125,0.002,8e-05,0,-1.2489524295427357,-0.001167051128261345,-9.991619436341886e-05,0.0,-0.0012669673226247638,0.2,0.02,0.0,0.006286134096031215,0.0003993958799695535,0.00012572268192062428,0.0,0.0005251185618901778,-0.01857056595827469,0.0,0.01857056595827469,-0.016435116243137874,0.0,0.016435116243137874,-0.5835255641306725,0.0,0.5835255641306725,0.001996979399847767,0,-0.001996979399847767,-0.002610212170833104,0.0042524804435272925,-0.0005251185618901778,0.4,0.033479928970336914,2.0689573287963867,STABILIZE
0.16,0.015,0.11,-0.05729674875523515,-0.0024172050915322197,-0.0008594512313285272,0.0017686949606031677,-0.0015079613622575793,0.16,0.015,0.11,-0.04767768200327987,-0.0032598451091719748,-0.000715165230049198,-0.0022595311287478166,-0.00623454146796899,0.002,8e-05,0,-1.2684329295391752,-0.0011647821613883038,-0.00010147463436313403,-0.0,-0.001266256795751438,0.2,0.02,0.0,0.006459778313098611,0.0010382571623177397,0.0001291955662619722,0.0,0.0011674527285797118,-0.020374031932324843,0.0,0.020374031932324843,-0.015107531822076373,0.0,0.015107531822076373,-0.5823910806941519,0.0,0.5823910806941519,0.005191285811588698,0,-0.005191285811588698,-0.001507396475253074,0.0062346780712624825,-0.0011674527285797118,0.4,0.03344917297363281,2.102405071258545,STABILIZE
0.16,0.015,0.11,-0.057838313297324334,-0.002592521503583466,-0.000867574699459865,0.000442437470061094,-0.003017658732982237,0.16,0.015,0.11,-0.04831033242532375,-0.0030285583636489506,-0.0007246549863798563,0.0018690241238074673,-0.0018841892262213395,0.002,8e-05,0,-1.2875725499338218,-0.001145290025177052,-0.00010300580399470575,0.0,-0.0012482958291717577,0.2,0.02,0.0,0.006665572147741663,0.0012314435772485233,0.00013331144295483327,0.0,0.0013647550202033566,-0.01892848977280594,0.0,0.01892848977280594,-0.016203259397396662,0.0,0.016203259397396662,-0.572645012588526,0.0,0.572645012588526,0.006157217886242616,0,-0.006157217886242616,-0.003017456233565359,0.0018845135041888365,-0.0013647550202033566,0.4,0.03342318534851074,2.1358368396759033,STABILIZE
0.16,0.015,0.11,-0.05835187660997792,-0.0024562342233017827,-0.0008752781491496688,0.0002731362618334862,-0.0030583761106179655,0.16,0.015,0.11,-0.04888646710966975,-0.002755496146346304,-0.0007332970066450462,0.0009347455234065842,-0.0025540476295847657,0.002,8e-05,0,-1.3068181105732202,-0.001150578797307084,-0.00010454544884585763,0.0,-0.0012551242461529416,0.2,0.02,0.0,0.006912180107242877,0.0014743238441617492,0.00013824360214485755,0.0,0.0016125674463066068,-0.0172218509146644,0.0,0.0172218509146644,-0.01535146389563614,0.0,0.01535146389563614,-0.575289398653542,0.0,0.575289398653542,0.007371619220808746,0,-0.007371619220808746,-0.0030580474840240716,0.002554441096138308,-0.0016125674463066068,0.4,0.03345370292663574,2.1694729328155518,STABILIZE
0.16,0.015,0.11,-0.05887998441619569,-0.002526895129180411,-0.0008831997662429353,-9.072200705736994e-05,-0.0035008169024807164,0.16,0.015,0.11,-0.0493526445240093,-0.0022305700157417784,-0.0007402896678601395,0.0037396983624005324,0.0007688386787986145,0.002,8e-05,0,-1.3259063266548914,-0.0011416684167897962,-0.00010607250613239133,0.0,-0.0012477409229221875,0.2,0.02,0.0,0.007162962764348492,0.0014999339795352803,0.00014325925528696983,0.0,0.0016431932348222502,-0.013941062598386116,0.0,0.013941062598386116,-0.01579309455737757,0.0,0.01579309455737757,-0.5708342083948981,0.0,0.5708342083948981,0.007499669897676401,0,-0.007499669897676401,-0.00350091750880844,-0.0007683804365221581,-0.0016431932348222502,0.4,0.03343915939331055,2.202723264694214,STABILIZE
0.16,0.015,0.11,-0.059338708383784834,-0.002172907121594671,-0.0008900806257567725,0.0018625337592650844,-0.001200453988086359,0.16,0.015,0.11,-0.04972149956982633,-0.0017472114223815746,-0.0007458224935473948,0.005013747070326441,0.0025207131543974713,0.002,8e-05,0,-1.3453875627317575,-0.0011534964270387474,-0.00010763100501854061,0.0,-0.001261127432057288,0.2,0.02,0.0,0.0074216448787812715,0.0015316733166196575,0.00014843289757562544,0.0,0.0016801062141952828,-0.010920071389884841,0.0,0.010920071389884841,-0.013580669509966694,0.0,0.013580669509966694,-0.5767482135193737,0.0,0.5767482135193737,0.0076583665830982865,0,-0.0076583665830982865,-0.0012007909052393151,-0.0025205526747440607,-0.0016801062141952828,0.4,0.033777713775634766,2.2365479469299316,STABILIZE
0.16,0.015,0.11,-0.05981500867588973,-0.0022783887553123163,-0.0008972251301383459,0.0005557452337725892,-0.002619868651678073,0.16,0.015,0.11,-0.05005250632669249,-0.0015833752052584783,-0.0007507875949003874,0.006873415577980879,0.004539252777822014,0.002,8e-05,0,-1.3646855413738233,-0.0011539017051625335,-0.00010917484330990587,0.0,-0.0012630765484724395,0.2,0.02,0.0,0.007681938602535531,0.0015563980935725285,0.00015363877205071063,0.0,0.0017100368656232392,-0.009896095032865489,0.0,0.009896095032865489,-0.014239929720701976,0.0,0.014239929720701976,-0.5769508525812668,0.0,0.5769508525812668,0.007781990467862642,0,-0.007781990467862642,-0.0026204851549788567,-0.004538896901841436,-0.0017100368656232392,0.4,0.033448219299316406,2.2699570655822754,STABILIZE
0.16,0.015,0.11,-0.060358016335405024,-0.002596170441880714,-0.0009053702450310754,-2.8704939587462344e-05,-0.0035302456264992513,0.16,0.015,0.11,-0.050438943855938556,-0.0018475939951889265,-0.0007565841578390783,0.0048363129970996,0.002232134844071595,0.002,8e-05,0,-1.3840118372042405,-0.0011550103646502591,-0.00011072094697633925,-0.0,-0.0012657313116265984,0.2,0.02,0.0,0.00801311372196858,0.0019792240521198726,0.00016026227443937158,0.0,0.002139486326559244,-0.01154746246993079,0.0,0.01154746246993079,-0.016226065261754463,0.0,0.016226065261754463,-0.5775051823251296,0.0,0.5775051823251296,0.009896120260599363,0,-0.009896120260599363,-0.0035306311079061656,-0.0022315250671728734,-0.002139486326559244,0.4,0.03346514701843262,2.3034181594848633,STABILIZE
0.16,0.015,0.11,-0.06096448622697089,-0.0029000438555510104,-0.0009144672934045633,-0.0018376034875520978,-0.005652114636507671,0.16,0.015,0.11,-0.050879899368145326,-0.0021085800656069596,-0.0007631984905221798,0.0026414889607237002,-0.0002302895954054392,0.002,8e-05,0,-1.4032569959850647,-0.00115034161727573,-0.00011226055967880519,0.0,-0.001262602176954535,0.2,0.02,0.0,0.0084109062407654,0.0023777267552028006,0.000168218124815308,0.0,0.002545944880018109,-0.013178625410043499,0.0,0.013178625410043499,-0.018125274097193816,0.0,0.018125274097193816,-0.575170808637865,0.0,0.575170808637865,0.011888633776014002,0,-0.011888633776014002,-0.005652066730708995,0.0002314623805044182,-0.002545944880018109,0.4,0.03345990180969238,2.336909770965576,STABILIZE
0.16,0.015,0.11,-0.061592010743209163,-0.0030005099655078965,-0.0009238801611481374,-0.001959875350250257,-0.00588426547690629,0.16,0.015,0.11,-0.05121050887001137,-0.001580810118761977,-0.0007681576330501706,0.002651682726655958,0.0003027149748438102,0.002,8e-05,0,-1.4224008116389464,-0.0011442025004786405,-0.00011379206493111573,-0.0,-0.0012579945654097563,0.2,0.02,0.0,0.008734175048421854,0.0019321382149449524,0.00017468350096843708,0.0,0.0021068217159133894,-0.009880063242262356,0.0,0.009880063242262356,-0.018753187284424353,0.0,0.018753187284424353,-0.5721012502393202,0.0,0.5721012502393202,0.009660691074724762,0,-0.009660691074724762,-0.005884316434296764,-0.0003017228194401551,-0.0021068217159133894,0.4,0.0334622859954834,2.3703532218933105,STABILIZE
0.16,0.015,0.11,-0.062198199232640396,-0.0028981819597057768,-0.0009329729884896059,-0.0029804340031294218,-0.006811588951324804,0.16,0.015,0.11,-0.05164286287597442,-0.002067080787799743,-0.0007746429431396163,-0.001313863306640039,-0.0041555870375793984,0.002,8e-05,0,-1.4420782116411095,-0.0011759685043197514,-0.00011536625693128876,-0.0,-0.0012913347612510402,0.2,0.02,0.0,0.008965666584665466,0.0013834488073076498,0.00017931333169330933,-0.0,0.001562762139000959,-0.012919254923748394,0.0,0.012919254923748394,-0.018113637248161105,0.0,0.018113637248161105,-0.5879842521598757,0.0,0.5879842521598757,0.0069172440365382485,0,-0.0069172440365382485,-0.006811087203132516,0.004156409361460027,-0.001562762139000959,0.4,0.03346586227416992,2.4038264751434326,STABILIZE
0.16,0.015,0.11,-0.0628151850909729,-0.0029385828488424164,-0.0009422277763645935,-0.0027121790083485735,-0.0065929896335555835,0.16,0.015,0.11,-0.052053521241714334,-0.001955885396722671,-0.000780802818625715,-0.001532239806946166,-0.004268928022294552,0.002,8e-05,0,-1.461453917332316,-0.0011535336600395985,-0.0001169163133865853,0.0,-0.0012704499734261837,0.2,0.02,0.0,0.009124699760966366,0.000946804853716159,0.00018249399521932732,-0.0,0.0011292988489354863,-0.012224283729516693,0.0,0.012224283729516693,-0.018366142805265103,0.0,0.018366142805265103,-0.5767668300197992,0.0,0.5767668300197992,0.004734024268580795,0,-0.004734024268580795,-0.006592636893817749,0.00426947274894408,-0.0011292988489354863,0.4,0.03359365463256836,2.437434434890747,STABILIZE
0.16,0.015,0.11,-0.06348433414338328,-0.0032003814839528973,-0.0009522650121507491,-0.0024825341570479183,-0.006635180653151565,0.16,0.015,0.11,-0.05236606943682588,-0.0014948440155070992,-0.0007854910415523882,0.0014483361170686854,-0.000831998939990802,0.002,8e-05,0,-1.4806012917897349,-0.0011447169815734636,-0.0001184481033431788,0.0,-0.0012631650849166424,0.2,0.02,0.0,0.009216053955829785,0.0005461568552424126,0.00018432107911659572,-0.0,0.0007304779343590083,-0.00934277509691937,0.0,0.00934277509691937,-0.020002384274705607,0.0,0.020002384274705607,-0.5723584907867318,0.0,0.5723584907867318,0.0027307842762120628,0,-0.0027307842762120628,-0.006635140991566822,0.0008323151795637906,-0.0007304779343590083,0.4,0.03345346450805664,2.47086501121521,STABILIZE
0.16,0.015,0.11,-0.0641770609690105,-0.003312062576957058,-0.0009626559145351575,-0.0016926776014118945,-0.0059673960929041096,0.16,0.015,0.11,-0.05271028835498466,-0.001645778039679726,-0.0007906543253247698,0.001900667560166741,-0.0005357648048377548,0.002,8e-05,0,-1.5001289382188796,-0.0011670687593095992,-0.00012001031505751038,-0.0,-0.0012870790743671095,0.2,0.02,0.0,0.009299731093147452,0.0005000959700200046,0.00018599462186294903,-0.0,0.0006860905918829537,-0.010286112747998287,0.0,0.010286112747998287,-0.02070039110598161,0.0,0.02070039110598161,-0.5835343796547996,0.0,0.5835343796547996,0.002500479850100023,0,-0.002500479850100023,-0.005967372705584733,0.0005360252310781739,-0.0006860905918829537,0.4,0.03346443176269531,2.504340887069702,STABILIZE
0.16,0.015,0.11,-0.06483689876198497,-0.003153600403861677,-0.0009725534814297744,-0.0006290066081517176,-0.00475516049344317,0.16,0.015,0.11,-0.05306067248158143,-0.0016746108436153937,-0.0007959100872237215,-0.00038641765191356367,-0.002856938582752679,0.002,8e-05,0,-1.5195343337992784,-0.0011593164257759072,-0.00012156274670394228,-0.0,-0.0012808791724798496,0.2,0.02,0.0,0.009220801630629388,-0.00047154010334776427,0.00018441603261258775,-0.0,-0.00028712407073517654,-0.01046631777259621,0.0,0.01046631777259621,-0.019710002524135482,0.0,0.019710002524135482,-0.5796582128879536,0.0,0.5796582128879536,-0.0023577005167388213,0,0.0023577005167388213,-0.0047552780514022175,0.0028567429072067197,0.00028712407073517654,0.4,0.0334773063659668,2.537885904312134,STABILIZE
0.16,0.015,0.11,-0.0654887029940089,-0.00311933719096891,-0.0009823305449101335,-0.0009085234665543489,-0.005010191202433392,0.16,0.015,0.11,-0.05349390131974561,-0.0020733017073079263,-0.0008024085197961841,-2.8193675924202578e-05,-0.002903903903028313,0.002,8e-05,0,-1.5388920338370258,-0.0011580009512953831,-0.00012311136270696206,0.0,-0.0012811123140023452,0.2,0.02,0.0,0.009110854512639556,-0.0006577169135596713,0.00018221709025279111,-0.0,-0.0004754998233068802,-0.01295813567067454,0.0,0.01295813567067454,-0.019495857443555687,0.0,0.019495857443555687,-0.5790004756476915,0.0,0.5790004756476915,-0.0032885845677983563,0,0.0032885845677983563,-0.005010357868473924,0.0029036163301623483,0.0004754998233068802,0.4,0.033432960510253906,2.571261167526245,STABILIZE
0.16,0.015,0.11,-0.06613341375841301,-0.003086270366060727,-0.0009920012063761952,-0.0006071282237232276,-0.00468539979616015,0.16,0.015,0.11,-0.054009693501113655,-0.002469129123155453,-0.0008101454025167048,-0.00211170731713761,-0.005390981842809768,0.002,8e-05,0,-1.5582308248788324,-0.0011571998833254371,-0.0001246584659903066,-0.0,-0.0012818583493157437,0.2,0.02,0.0,0.008971159811621157,-0.0008359089840218482,0.00017942319623242314,-0.0,-0.000656485787789425,-0.01543205701972158,0.0,0.01543205701972158,-0.019289189787879545,0.0,0.019289189787879545,-0.5785999416627186,0.0,0.5785999416627186,-0.004179544920109241,0,0.004179544920109241,-0.004685793038676337,0.005390640043450736,0.000656485787789425,0.4,0.033423423767089844,2.604670763015747,STABILIZE
