Mode,Time,Freq,time2delay,actualDelay,North-Desired,East-Desired,Down-Desired,Roll-UAV,Pitch-UAV,Yaw-UAV,Roll-Control,Pitch-Control,Yaw-Control,Thrust-Control,North-Pos,East-Pos,Down-Pos,Yaw-Ang,North-Vel,East-Vel,Down-Vel,Yaw-Vel,North-Acc,East-Acc,Down-Acc,North-Avg,East-Avg,Down-Avg,Yaw-Avg,North-Dif,East-Dif,Down-Dif,Yaw-Dif,North-One,East-One,Down-One,Yaw-One,North-Two,East-Two,Down-Two,Yaw-Two,Landing-State,Q-Size,Kalman-Time,Kalman-Dt
STABILIZE,0.03448009490966797,29.013876399053693,0.032784493764241536,0.0329289436340332,0.0,0.0,0.0,0.3085839979980622,-1.45258700295719,11.595198927485862,1.278029174904163,-0.6143178457738814,0.1457204165166946,0.4,-0.16629187739538112,-0.33501227056622707,0.3803340695875311,0.7262019634034405,7.4514321982860565,-0.2671534428372979,-8.92772525548935,16.094377722462077,395.5141067504883,-163.97627592086792,-91.8255090713501,0.0,0.0,0.0,0.0,0.0,0.0,0.0,0.0,0.0,0.0,0.0,0.0,0.0,0.0,0.0,0.0,False,0,3.5224123001098633,0.06484814453125
STABILIZE,0.0677499771118164,30.053553643209778,0.03220322926839193,0.03232550621032715,0.0,0.0,0.0,0.3032920954951832,-1.4594927510948958,11.69195111840003,0.6768764443075556,0.021239687225535105,0.231383501263814,0.4,0.005699312135756807,-0.34270612691694674,0.13184583871678407,1.1506708203096792,7.4514321982860565,-0.2671534428372979,-8.92772525548935,16.094377722462077,395.5141067504883,-163.97627592086792,-91.8255090713501,0.0,0.0,0.0,0.0,0.0,0.0,0.0,0.0,0.0,0.0,0.0,0.0,0.0,0.0,0.0,0.0,False,0,3.551255226135254,0.06484814453125
STABILIZE,0.1011965274810791,29.898449584773854,0.03239038785298665,0.032514095306396484,0.0,0.0,0.0,0.3186423586854051,-1.4682563106868454,11.586294068355457,0.5321649239172481,-0.09029078736293439,0.17699599550166828,0.5001223746112082,-0.07081749867287909,-0.3874677774180402,-0.061783751557933565,0.8758040083303337,-3.6849170923233032,-1.938401535153389,-5.73328472673893,-13.59440298151141,-107.46960639953613,72.75360226631165,-288.67225646972656,0.0,0.0,0.0,0.0,0.0,0.0,0.0,0.0,0.0,0.0,0.0,0.0,0.0,0.0,0.0,0.0,False,0,3.5797719955444336,0.0349189453125
STABILIZE,0.1346440315246582,29.8978102189781,0.032411845525105794,0.032534122467041016,0.0,0.0,0.0,0.3108216320031818,-1.4521917057589755,11.62936951012979,0.37374005551618267,-0.2531127230158454,0.14323372700764808,0.5001177961897774,-0.24193198645848396,-0.3465578021444342,-0.05941507037544555,0.7046364543886532,-7.425520569086075,0.9264776483178139,0.564225111156702,-5.616207995520787,-154.82020378112793,-133.31173658370972,-121.80061340332031,0.0,0.0,0.0,0.0,0.0,0.0,0.0,0.0,0.0,0.0,0.0,0.0,0.0,0.0,0.0,0.0,False,0,3.6086649894714355,0.029929931640625
STABILIZE,0.1680893898010254,29.899088977915913,0.03240969975789388,0.03253650665283203,0.0,0.0,0.0,0.3139472973221089,-1.4745200210425702,11.623416146494476,0.2761534917439931,-0.3486221451561521,0.11080427492922777,0.5001009483141238,-0.39810624901030256,-0.3066657038512004,-0.050923016234898505,0.5406811115735699,-7.425520569086075,0.9264776483178139,0.564225111156702,-5.616207995520787,-154.82020378112793,-133.31173658370972,-121.80061340332031,0.0,0.0,0.0,0.0,0.0,0.0,0.0,0.0,0.0,0.0,0.0,0.0,0.0,0.0,0.0,0.0,False,0,3.638209819793701,0.029929931640625
STABILIZE,0.20156502723693848,29.872470745760538,0.03240969975789388,0.03253817558288574,0.0,0.0,0.0,0.3145575853966201,-1.4662818524081829,11.632711180181218,0.11901196306713127,-0.23417264663987297,0.13582755718019837,0.5002096559244483,-0.4036629238775622,-0.40526123132298086,-0.10513613968573329,0.6635777046140852,-5.442696809768677,-3.5055547952651978,0.21634011063724756,3.4709441880759235,-196.26355171203613,-145.65733671188354,-87.10715770721436,0.0,0.0,0.0,0.0,0.0,0.0,0.0,0.0,0.0,0.0,0.0,0.0,0.0,0.0,0.0,0.0,False,0,3.6955907344818115,0.064843505859375
STABILIZE,0.23501968383789062,29.891844123264633,0.032381566365559895,0.03251075744628906,0.0,0.0,0.0,0.3065179191349862,-1.4542918822070485,11.66682626753814,0.18745815196500643,-0.4784778749447141,0.1518667423573556,0.5002801697042198,-0.5422102427523035,-0.48530664807260004,-0.14020543933182822,0.7412940631655561,-5.442696809768677,-3.5055547952651978,0.21634011063724756,3.4709441880759235,-196.26355171203613,-145.65733671188354,-87.10715770721436,0.0,0.0,0.0,0.0,0.0,0.0,0.0,0.0,0.0,0.0,0.0,0.0,0.0,0.0,0.0,0.0,False,0,3.7242205142974854,0.064843505859375
STABILIZE,0.26844215393066406,29.92020430437357,0.03237489064534505,0.03249478340148926,0.0,0.0,0.0,0.31574379715638096,-1.4663481265874732,11.614559098688263,0.1319439917776119,-0.4300714233557626,0.14214078600044977,0.50023884257857,-0.5483580161036272,-0.45955090551983885,-0.11938223355501187,0.6903563474059677,0.48144194297492504,1.1767457239329815,2.1943919360637665,-2.053589435291775,142.000150680542,97.71186709403992,104.02507781982422,0.0,0.0,0.0,0.0,0.0,0.0,0.0,0.0,0.0,0.0,0.0,0.0,0.0,0.0,0.0,0.0,False,0,3.7530388832092285,0.034917724609375
STABILIZE,0.3019063472747803,29.88247363921345,0.03239587148030599,0.03252363204956055,0.0,0.0,0.0,0.3121982886469096,-1.4660368193717086,11.67355229632331,0.13056817842207785,-0.22679048669268462,0.12614862206192715,0.5001425111252754,-0.45618069306081166,-0.42743875669181736,-0.07112134076739221,0.6083604383069128,3.02856732159853,0.41742967441678047,2.115248516201973,-2.044675184651262,-63.681817054748535,-120.86853981018066,93.00800561904907,0.0,0.0,0.0,0.0,0.0,0.0,0.0,0.0,0.0,0.0,0.0,0.0,0.0,0.0,0.0,0.0,False,0,3.7858636379241943,0.034919189453125
STABILIZE,0.3353574275970459,29.894826873458683,0.032379897435506184,0.03251242637634277,0.0,0.0,0.0,0.31752610300378403,-1.4654349089511012,11.602309154411845,0.13092113126892305,-0.03862767979785774,0.11106660779695637,0.500050889907671,-0.36907610465416363,-0.3973215776303141,-0.02527690723724535,0.5311733700413486,3.02856732159853,0.41742967441678047,2.115248516201973,-2.044675184651262,-63.681817054748535,-120.86853981018066,93.00800561904907,0.0,0.0,0.0,0.0,0.0,0.0,0.0,0.0,0.0,0.0,0.0,0.0,0.0,0.0,0.0,0.0,False,0,3.8147850036621094,0.034919189453125
STABILIZE,0.36879611015319824,29.904631530914898,0.03237965901692708,0.03250861167907715,0.0,0.0,0.0,0.3163747892418137,-1.474022591171923,11.621131448217108,-0.012743159468144574,-0.008280180662879135,0.10273044490327984,0.4,-0.337338389109998,-0.3143713072471432,0.0315843799934299,0.4878607714289514,0.665197940543294,2.9425617307424545,2.718460373580456,-0.6684692266869727,114.27255868911743,37.03317940235138,89.53827023506165,0.0,0.0,0.0,0.0,0.0,0.0,0.0,0.0,0.0,0.0,0.0,0.0,0.0,0.0,0.0,0.0,False,0,3.8433356285095215,0.074824951171875
STABILIZE,0.4022383689880371,29.90207317420937,0.03238848050435384,0.032506465911865234,0.0,0.0,0.0,0.3104745196551277,-1.46739656062507,11.699636788763588,-0.02091917017299056,0.1407081924786918,0.11381527593913988,0.4,-0.28060132821533745,-0.3718696041085143,0.06302430364976605,0.5414744493930252,2.2321792319417,-3.015528805553913,1.582002080976963,3.2051584755822784,21.18622064590454,-128.42040061950684,72.33423590660095,0.0,0.0,0.0,0.0,0.0,0.0,0.0,0.0,0.0,0.0,0.0,0.0,0.0,0.0,0.0,0.0,False,0,3.872002601623535,0.024942138671875
STABILIZE,0.4356672763824463,29.914442621781614,0.032389195760091145,0.03252100944519043,0.0,0.0,0.0,0.3190312525812727,-1.4622938757065416,11.593341969805264,-0.06242880600290663,0.07456903143001674,0.08111692155079636,0.4,-0.3605435145266496,-0.3023699598675655,0.13438743686542065,0.37672267007531596,-2.6312878355383873,0.6785688921809196,1.8246762454509735,-2.439465027876465,-97.18406796455383,100.31219720840454,71.07760310173035,0.0,0.0,0.0,0.0,0.0,0.0,0.0,0.0,0.0,0.0,0.0,0.0,0.0,0.0,0.0,0.0,False,0,3.9293980598449707,0.03491796875
STABILIZE,0.46911144256591797,29.899728398406033,0.032416375478108723,0.032555341720581055,0.0,0.0,0.0,0.3161652945333648,-1.4736433022295756,11.637558053170988,-0.07838401326092727,-0.000698217477491553,0.06893816574104046,0.4,-0.3707209147252849,-0.257204463002129,0.16152309611671933,0.3147754827409318,-1.2691954150795937,1.39121413230896,1.498671993613243,-1.8447600299566318,45.88108956813812,-37.93012797832489,61.898237466812134,0.0,0.0,0.0,0.0,0.0,0.0,0.0,0.0,0.0,0.0,0.0,0.0,0.0,0.0,0.0,0.0,False,0,3.9600424766540527,0.029929931640625
STABILIZE,0.5026452541351318,29.822768609438214,0.03243378003438314,0.03256511688232422,0.0,0.0,0.0,0.31538606599860153,-1.459135766989057,11.661255394496347,-0.11142414261774192,-0.06868105093359862,0.05220901127592904,0.4,-0.37674718712445526,-0.19449653527922717,0.19302916019418967,0.2303590028521595,-1.1878712102770805,2.371402084827423,1.871497742831707,-3.1770481917228564,-78.32145094871521,102.3982286453247,55.34408688545227,0.0,0.0,0.0,0.0,0.0,0.0,0.0,0.0,0.0,0.0,0.0,0.0,0.0,0.0,0.0,0.0,False,0,3.9866597652435303,0.069837158203125
STABILIZE,0.5361557006835938,29.84207755247243,0.03234389623006185,0.03247570991516113,0.0,0.0,0.0,0.31924218803274973,-1.461802849138241,11.606664253781375,-0.11286886240637208,-0.11398739089421549,0.03184777075931975,0.4,-0.4024154298927058,-0.12498387035444752,0.24392501173848302,0.12812431141169994,-1.1878712102770805,2.371402084827423,1.871497742831707,-3.1770481917228564,-78.32145094871521,102.3982286453247,55.34408688545227,0.0,0.0,0.0,0.0,0.0,0.0,0.0,0.0,0.0,0.0,0.0,0.0,0.0,0.0,0.0,0.0,False,0,4.015461206436157,0.069837158203125
STABILIZE,0.5695006847381592,29.988231508955064,0.03228190739949544,0.03241467475891113,0.0,0.0,0.0,0.3139956956156808,-1.4727562314111202,11.662112583237183,-0.16510308419098696,-0.20567736354684465,0.032121701681800875,0.4,-0.46009901388748864,-0.11218854185636665,0.29580569022096004,0.12906222662483274,-2.592971920967102,-0.4014309961348772,1.8155289813876152,1.6135618618114025,-25.892263650894165,-81.56493902206421,45.70678770542145,0.0,0.0,0.0,0.0,0.0,0.0,0.0,0.0,0.0,0.0,0.0,0.0,0.0,0.0,0.0,0.0,False,0,4.0441200733184814,0.029930908203125
STABILIZE,0.6029384136199951,29.9054844137695,0.03239467938741048,0.03252768516540527,0.0,0.0,0.0,0.31749606084360654,-1.4653706624842209,11.647734181260661,-0.0915960999498078,-0.09278166853553381,0.035906094511357796,0.4,-0.39674200776845264,-0.13930131124983086,0.3128350507134642,0.14749083207139738,1.719517633318901,-1.6099793836474419,1.4289358630776405,1.319131296434076,89.7142231464386,-0.941283255815506,35.94961166381836,0.0,0.0,0.0,0.0,0.0,0.0,0.0,0.0,0.0,0.0,0.0,0.0,0.0,0.0,0.0,0.0,False,0,4.07305908203125,0.03491796875
STABILIZE,0.6364684104919434,29.825525499900447,0.03241399129231771,0.03255939483642578,0.0,0.0,0.0,0.3181572018109226,-1.462210205889209,11.638221435294126,-0.12708860623016568,-0.06418100346570449,0.011939861783151123,0.4,-0.3724433931350789,-0.062112949056721184,0.31792346419940265,0.02756741367520813,-0.3161981701850891,1.3622946105897427,0.6408894434571266,-2.2429017885170186,-101.36333703994751,-32.11568892002106,-1.177738606929779,0.0,0.0,0.0,0.0,0.0,0.0,0.0,0.0,0.0,0.0,0.0,0.0,0.0,0.0,0.0,0.0,False,0,4.130083799362183,0.03491796875
STABILIZE,0.6707286834716797,29.187513047835104,0.032297404607137044,0.033306121826171875,0.0,0.0,0.0,0.3142671422743359,-1.4742103146523924,11.672494470775604,-0.050230260508970156,-0.10120001915954992,0.022707805376684768,0.4,-0.4202954294627773,-0.09902069601287392,0.3328388860719665,0.08112866617100524,-3.1504180282354355,-2.145359478890896,1.2436223216354847,3.02582993793289,-68.315589427948,-82.22450017929077,24.149981141090393,0.0,0.0,0.0,0.0,0.0,0.0,0.0,0.0,0.0,0.0,0.0,0.0,0.0,0.0,0.0,0.0,False,0,4.159226179122925,0.02993017578125
STABILIZE,0.7042903900146484,29.79522771025282,0.03241923650105794,0.032569169998168945,0.0,0.0,0.0,0.3181510653128402,-1.4671109733403989,11.651279049439898,-0.01964130557320629,-0.04754373483244568,0.017606202475608138,0.4,-0.3799481370242127,-0.07707923516914895,0.34029652164174545,0.05543503046556825,1.015176996588707,0.7463570218533278,1.0629571974277496,-0.8988689030295453,64.94861841201782,63.06833028793335,1.6211321577429771,0.0,0.0,0.0,0.0,0.0,0.0,0.0,0.0,0.0,0.0,0.0,0.0,0.0,0.0,0.0,0.0,False,0,4.1889214515686035,0.034918701171875
STABILIZE,0.7376394271850586,29.98480136687613,0.03232291539510091,0.0324397087097168,0.0,0.0,0.0,0.31729302279835736,-1.4620237630692088,11.668888130893837,0.0004460285800744571,-0.03650265720426791,0.021901548598779415,0.4,-0.41428407560658237,-0.08944434863683157,0.3529976356395806,0.07665562119954872,-2.556048519909382,-0.9781302884221077,1.1694802902638912,1.5023635006375387,-31.576403975486755,39.413413405418396,10.464814305305481,0.0,0.0,0.0,0.0,0.0,0.0,0.0,0.0,0.0,0.0,0.0,0.0,0.0,0.0,0.0,0.0,False,0,4.2165632247924805,0.06480078125
STABILIZE,0.7711434364318848,29.848661035162504,0.03241017659505208,0.03254818916320801,0.0,0.0,0.0,0.31635248440530545,-1.473513208470228,11.654979304422753,-0.00939227772705586,-0.1275030632148386,0.025213823436703874,0.4,-0.46591209688005825,-0.10016661542189176,0.38514165247648363,0.09290613900547184,-2.556048519909382,-0.9781302884221077,1.1694802902638912,1.5023635006375387,-31.576403975486755,39.413413405418396,10.464814305305481,0.0,0.0,0.0,0.0,0.0,0.0,0.0,0.0,0.0,0.0,0.0,0.0,0.0,0.0,0.0,0.0,False,0,4.245306968688965,0.06480078125
STABILIZE,0.8046178817749023,29.872257990997664,0.03235629399617513,0.03248739242553711,0.0,0.0,0.0,0.31634544077272386,-1.4695058084181345,11.665573781599088,0.005418600672751813,-0.1346902127274547,0.01641237070067996,0.4,-0.4539983410885813,-0.05400220732325432,0.41335617094413235,0.04873571662590711,0.4335313104093075,1.7354778945446014,1.0841861367225647,-1.4912696725998513,63.9487087726593,12.710069119930267,13.140000402927399,0.0,0.0,0.0,0.0,0.0,0.0,0.0,0.0,0.0,0.0,0.0,0.0,0.0,0.0,0.0,0.0,False,0,4.2739715576171875,0.0349189453125
STABILIZE,0.8384747505187988,29.537560123662843,0.032340319951375325,0.032984256744384766,0.0,0.0,0.0,0.3175366684526564,-1.463649774978495,11.670746796121726,-0.00807051867056517,-0.08996061166373542,0.015085825449941286,0.4,-0.44073826480668715,-0.06821467256681388,0.4231486805465965,0.04196068154127148,-2.117086760699749,0.5692337173968554,1.418435201048851,-0.665773596481492,-52.05581784248352,70.9722101688385,20.593470335006714,0.0,0.0,0.0,0.0,0.0,0.0,0.0,0.0,0.0,0.0,0.0,0.0,0.0,0.0,0.0,0.0,False,0,4.331486940383911,0.029929931640625
STABILIZE,0.8720312118530273,29.801578786565393,0.03245142300923665,0.03258252143859863,0.0,0.0,0.0,0.31796051370716744,-1.469953399252182,11.65147883247312,-0.006652938809445391,-0.1378265634404637,0.011554701410511105,0.4,-0.4620778050456535,-0.05188079701463939,0.43264359619012394,0.02422399481180047,-2.117086760699749,0.5692337173968554,1.418435201048851,-0.665773596481492,-52.05581784248352,70.9722101688385,20.593470335006714,0.0,0.0,0.0,0.0,0.0,0.0,0.0,0.0,0.0,0.0,0.0,0.0,0.0,0.0,0.0,0.0,False,0,4.360113620758057,0.029929931640625
STABILIZE,0.905447244644165,29.924473648537774,0.032340319951375325,0.03246665000915527,0.0,0.0,0.0,0.31549332131291186,-1.4704939446919651,11.683295561174333,-0.028606947652029733,-0.09482479110344487,0.010177473319063332,0.4,-0.4409183743905923,-0.03699536622357019,0.43520192705150734,0.017280051539337146,-0.0231636076932773,0.5478807725012302,1.0787381790578365,-0.17688825246520345,40.758684277534485,-35.994818806648254,23.99769425392151,0.0,0.0,0.0,0.0,0.0,0.0,0.0,0.0,0.0,0.0,0.0,0.0,0.0,0.0,0.0,0.0,False,0,4.388881683349609,0.034919189453125
STABILIZE,0.9388751983642578,29.91486933698505,0.032378466924031575,0.03251218795776367,0.0,0.0,0.0,0.3197356692002831,-1.46259547124708,11.664621823983518,-0.06963196529375927,-0.0626410426254914,0.002837250666043402,0.4,-0.4462254859541611,0.0009359237129074396,0.4440345540607137,-0.019356313688350266,-1.180510874837637,1.7260577529668808,1.2134666554629803,-1.657807293646216,-57.40897059440613,61.36395335197449,23.829203844070435,0.0,0.0,0.0,0.0,0.0,0.0,0.0,0.0,0.0,0.0,0.0,0.0,0.0,0.0,0.0,0.0,False,0,4.42194128036499,0.069837158203125
STABILIZE,0.9723360538482666,29.885028643087182,0.032405885060628255,0.032529592514038086,0.0,0.0,0.0,0.31956011199427264,-1.4675094721897868,11.6597629981627,-0.07875821802207444,-0.09231276400119318,-0.006970549882158686,0.4,-0.470113696008012,0.04891403029451759,0.4767779758577715,-0.06816734455558113,-1.180510874837637,1.7260577529668808,1.2134666554629803,-1.657807293646216,-57.40897059440613,61.36395335197449,23.829203844070435,0.0,0.0,0.0,0.0,0.0,0.0,0.0,0.0,0.0,0.0,0.0,0.0,0.0,0.0,0.0,0.0,False,0,4.450721263885498,0.069837158203125
STABILIZE,1.0057909488677979,29.890778999579535,0.032393487294514973,0.032547712326049805,0.0,0.0,0.0,0.3173674611881399,-1.4661847356559217,11.698377472635366,-0.08665763569371512,-0.11987910985952567,-0.002622015327703833,0.4,-0.49053291162375773,0.046442259272143606,0.5061970368127429,-0.04626984891054062,-1.0838634334504604,-0.6820156704634428,1.1836113408207893,1.6015117005682074,12.216825038194656,-55.76602816581726,20.695973932743073,0.0,0.0,0.0,0.0,0.0,0.0,0.0,0.0,0.0,0.0,0.0,0.0,0.0,0.0,0.0,0.0,False,0,4.479528427124023,0.029929931640625
STABILIZE,1.0392889976501465,29.853972411633237,0.032399924596150716,0.0325319766998291,0.0,0.0,0.0,0.32197479730928374,-1.4624395508349333,11.662436163449113,-0.06444621981221861,-0.05242253058513799,-0.005789292668295018,0.4,-0.4308281326182738,0.03450049150290708,0.5088007211649264,-0.06189908204645189,1.5185068361461163,-0.4960290156304836,1.3395635411143303,-0.7764076132751834,48.14683198928833,14.964213967323303,23.119919002056122,0.0,0.0,0.0,0.0,0.0,0.0,0.0,0.0,0.0,0.0,0.0,0.0,0.0,0.0,0.0,0.0,False,0,4.508233308792114,0.03491796875
STABILIZE,1.0726475715637207,29.975800976251225,0.032362969716389973,0.03248310089111328,0.0,0.0,0.0,0.32032466629449097,-1.4656138812516968,11.675713197421972,-0.05387433341996773,-0.05507346669626499,-0.0034712775867235092,0.4,-0.4162915587102821,0.034613429159001494,0.5119686385785431,-0.050141379920286784,-0.7423753850162029,-1.033688709139824,1.0594779625535011,1.0587995967143922,26.588916778564453,-5.187109485268593,4.990243911743164,0.0,0.0,0.0,0.0,0.0,0.0,0.0,0.0,0.0,0.0,0.0,0.0,0.0,0.0,0.0,0.0,False,0,4.566131591796875,0.0399072265625
STABILIZE,1.1062064170837402,29.801578786565393,0.0324590524037679,0.032596588134765625,0.0,0.0,0.0,0.3191047838365561,-1.4683354981925352,11.692235425024233,-0.03541092316081682,-0.012068131742807233,-0.010449685900899017,0.4,-0.3713935085365351,0.04460041959677243,0.5136896743923496,-0.08474976877333154,1.2791193090379238,0.444923946633935,0.9316187351942062,-1.6495420176985602,30.866047739982605,30.100426077842712,4.838130623102188,0.0,0.0,0.0,0.0,0.0,0.0,0.0,0.0,0.0,0.0,0.0,0.0,0.0,0.0,0.0,0.0,False,0,4.5948755741119385,0.02494091796875
STABILIZE,1.139660120010376,29.88992695528238,0.032337458928426106,0.032488346099853516,0.0,0.0,0.0,0.32197650485657625,-1.4642027001361486,11.67136065937338,0.007095025198670105,0.014892704687512227,-0.006747545242658583,0.4,-0.35992255269908924,0.035411673597580656,0.5068315636140098,-0.06601805638618988,-0.4629987757652998,-0.3679743967950344,1.0168693959712982,0.754181163859757,-53.23944687843323,-40.70521593093872,8.176199346780777,0.0,0.0,0.0,0.0,0.0,0.0,0.0,0.0,0.0,0.0,0.0,0.0,0.0,0.0,0.0,0.0,False,0,4.623559236526489,0.0349189453125
STABILIZE,1.175445795059204,27.943956241630413,0.03236869176228841,0.03489422798156738,0.0,0.0,0.0,0.31675968107371455,-1.4696920377947231,11.706153643005425,0.011367371539351445,0.03631023732205191,-0.0036814356805945497,0.4,-0.3515322741070096,0.02812643122452166,0.5076443302812232,-0.050506543524838604,-0.4629987757652998,-0.3679743967950344,1.0168693959712982,0.754181163859757,-53.23944687843323,-40.70521593093872,8.176199346780777,0.0,0.0,0.0,0.0,0.0,0.0,0.0,0.0,0.0,0.0,0.0,0.0,0.0,0.0,0.0,0.0,False,0,4.652563095092773,0.0349189453125
STABILIZE,1.2089269161224365,29.866940106670086,0.032433541615804036,0.03255128860473633,0.0,0.0,0.0,0.320342702262768,-1.4698798679968985,11.683905155557756,0.008468887554336287,-0.013735893538465053,0.000291804129973503,0.4,-0.3595716621339902,0.021612982925803333,0.5122774622621207,-0.03053819672952746,-1.2844409793615341,-0.3305073129013181,1.2107783928513527,0.9949160903553224,2.608121931552887,32.19597041606903,10.872496664524078,0.0,0.0,0.0,0.0,0.0,0.0,0.0,0.0,0.0,0.0,0.0,0.0,0.0,0.0,0.0,0.0,False,0,4.683547258377075,0.029929931640625
STABILIZE,1.2498159408569336,24.45658309037901,0.032392295201619466,0.04002690315246582,0.0,0.0,0.0,0.31950499023323653,-1.4653816548199163,11.703572685272807,7.577346266625021e-05,-0.00217304815785117,-0.004146460708370141,0.4,-0.3298301752306362,0.03294762061120981,0.5110228956787094,-0.05251456236900709,0.6631833035498857,0.6294282153248787,1.075990404933691,-1.224219841501225,39.90972936153412,-2.9106514528393745,10.375239700078964,0.0,0.0,0.0,0.0,0.0,0.0,0.0,0.0,0.0,0.0,0.0,0.0,0.0,0.0,0.0,0.0,False,1,4.710050344467163,0.034918212890625
STABILIZE,1.2833187580108643,29.847598986649967,0.032454522450764973,0.032605886459350586,0.0,0.0,0.0,0.32036084495275086,-1.468495794194619,11.697937779207548,0.022224059501042837,-0.022878388506279993,-0.0002784498249332268,0.4,-0.31652813076071684,0.01583059050733798,0.5066218135437983,-0.033063783836120894,-0.10373409604653716,-0.9073227643966675,0.7089462131261826,1.0018691162086895,-35.930973291397095,-26.756203174591064,12.404116988182068,0.0,0.0,0.0,0.0,0.0,0.0,0.0,0.0,0.0,0.0,0.0,0.0,0.0,0.0,0.0,0.0,False,1,4.7455995082855225,0.0349189453125
STABILIZE,1.3180508613586426,28.792597118203098,0.0324282964070638,0.03375506401062012,0.0,0.0,0.0,0.3197251571122637,-1.4687305819473382,11.70005769917119,0.002119692378730711,-0.02481626613061462,-0.0031636189836529655,0.4,-0.30898087003584984,0.031655281266927564,0.5176830308373678,-0.047325651475593304,0.1568028936162591,-0.09335590875707567,1.0980657301843166,-0.15265646217750392,28.597864508628845,-32.24887549877167,9.715564548969269,0.0,0.0,0.0,0.0,0.0,0.0,0.0,0.0,0.0,0.0,0.0,0.0,0.0,0.0,0.0,0.0,False,0,4.803317308425903,0.029929931640625
STABILIZE,1.3531277179718018,28.508244633851255,0.03233149846394857,0.03416800498962402,0.0,0.0,0.0,0.32007803243243005,-1.466493268107336,11.708477614870523,0.008986544498383146,-0.0052515064851636414,-0.0015230981435263727,0.4,-0.27891743731324736,0.017725868547721162,0.5160031291233079,-0.03898600568868721,0.8699076250195503,-0.7331995293498039,1.0300672613084316,0.3867210419378907,-0.2097811782732606,0.7576292846351862,9.822425991296768,0.0,0.0,0.0,0.0,0.0,0.0,0.0,0.0,0.0,0.0,0.0,0.0,0.0,0.0,0.0,0.0,False,0,4.831986665725708,0.034918212890625
STABILIZE,1.3865835666656494,29.892696276868694,0.032430442174275716,0.03254532814025879,0.0,0.0,0.0,0.3211822819221507,-1.4674091537863523,11.697131816885486,-0.011583405373162556,-0.003863472179015654,-0.003794815194754773,0.4,-0.28376358013126496,0.03581387655857394,0.5160686536350747,-0.05017683612307498,-1.0042804293334484,1.0369053110480309,0.9305223822593689,-0.6794880827263488,-33.484601974487305,32.21157789230347,17.715412378311157,0.0,0.0,0.0,0.0,0.0,0.0,0.0,0.0,0.0,0.0,0.0,0.0,0.0,0.0,0.0,0.0,False,0,4.860567331314087,0.029929931640625
STABILIZE,1.420130729675293,29.81005110127149,0.03240159352620443,0.03254556655883789,0.0,0.0,0.0,0.32108826009935726,-1.468929831372032,11.71337059163719,-0.020190062495719342,-0.025324613304864716,-0.0059301853755238925,0.4,-0.2881981623661209,0.053146275293649896,0.5129690495829946,-0.06065070121133494,-1.0042804293334484,1.0369053110480309,0.9305223822593689,-0.6794880827263488,-33.484601974487305,32.21157789230347,17.715412378311157,0.0,0.0,0.0,0.0,0.0,0.0,0.0,0.0,0.0,0.0,0.0,0.0,0.0,0.0,0.0,0.0,False,0,4.889434337615967,0.029929931640625
STABILIZE,1.4535455703735352,29.927676456317606,0.032301934560139973,0.032438039779663086,0.0,0.0,0.0,0.3227990090430339,-1.4665846218874847,11.708174525226104,-0.020099762822672066,-0.0015568523229183982,-0.004306862072846665,0.4,-0.2500963933347487,0.039068069518113153,0.5145916960274137,-0.05235891599747792,0.8227716200053692,-0.14505808940157294,1.0477717034518719,-0.6607010604448469,14.922219514846802,22.49857485294342,12.946315109729767,0.0,0.0,0.0,0.0,0.0,0.0,0.0,0.0,0.0,0.0,0.0,0.0,0.0,0.0,0.0,0.0,False,0,4.946880340576172,0.034918212890625
STABILIZE,1.4872515201568604,29.6641559341693,0.03234222730000814,0.03275728225708008,0.0,0.0,0.0,0.3210246539627115,-1.4692057069814772,11.709552515891154,-0.022159919975349867,-0.012264232217501116,-0.0038768743579483964,0.4,-0.256235619924975,0.05396544712833138,0.5178162537942088,-0.050040210730597834,-1.0134989395737648,0.9016094729304314,1.0907888412475586,0.07576927615472162,-33.14809799194336,6.577348709106445,11.27193421125412,0.0,0.0,0.0,0.0,0.0,0.0,0.0,0.0,0.0,0.0,0.0,0.0,0.0,0.0,0.0,0.0,False,0,4.97553825378418,0.029929931640625
STABILIZE,1.5209214687347412,29.700705995652143,0.032390864690144856,0.03271603584289551,0.0,0.0,0.0,0.31948674082154793,-1.4689471202883688,11.717936573097344,-0.016589466688826614,-0.029256000594293508,-0.0008079479512490073,0.4,-0.2520323194010428,0.03666799440861547,0.5158143770203156,-0.03457923632725765,-0.42311777360737324,-0.9504649788141251,0.9683382697403431,0.8245758682102587,-1.559343934059143,-26.620566844940186,6.991221755743027,0.0,0.0,0.0,0.0,0.0,0.0,0.0,0.0,0.0,0.0,0.0,0.0,0.0,0.0,0.0,0.0,False,0,5.004077911376953,0.0349189453125
STABILIZE,1.5543615818023682,29.902499536594757,0.03236988385518392,0.032524824142456055,0.0,0.0,0.0,0.3212623232014868,-1.4668832292202614,11.703419006016482,-0.00951995319316351,-0.0058717062942138685,-0.00347395160807743,0.4,-0.22920074544205354,0.04340266806759034,0.5154271916175509,-0.04774941722413157,0.7326330989599228,0.44136326760053635,0.872113648802042,-0.8461432577316318,0.06979592144489288,12.816542387008667,18.457548320293427,0.0,0.0,0.0,0.0,0.0,0.0,0.0,0.0,0.0,0.0,0.0,0.0,0.0,0.0,0.0,0.0,False,0,5.0328826904296875,0.03491796875
STABILIZE,1.5880982875823975,29.64360984090861,0.03240803082784017,0.03265690803527832,0.0,0.0,0.0,0.32087321586220763,-1.4681748820253342,11.721384111080908,0.007514040055053727,0.0033349300801738947,-0.0005549256394884331,0.4,-0.22217031046175822,0.038125027652311655,0.5171689217506118,-0.033043352798533064,-0.19022782798856497,-0.2660824451595545,1.0053172707557678,0.8017868886836583,-34.773749113082886,-24.660442769527435,17.655764520168304,0.0,0.0,0.0,0.0,0.0,0.0,0.0,0.0,0.0,0.0,0.0,0.0,0.0,0.0,0.0,0.0,False,0,5.061574220657349,0.02993017578125
STABILIZE,1.6214232444763184,30.00689665040278,0.03222826321919759,0.03236579895019531,0.0,0.0,0.0,0.32057375475578487,-1.4706113385683246,11.72042703082346,-0.0001659998721184636,-0.027158510661008373,-0.000742794763425295,0.4,-0.22564872416437493,0.035326476384495084,0.5212305048165858,-0.03386936619891982,-0.8152622729539871,-0.09894747054204345,1.3241345062851906,-0.1290344130155735,9.835110604763031,22.542154788970947,16.198712587356567,0.0,0.0,0.0,0.0,0.0,0.0,0.0,0.0,0.0,0.0,0.0,0.0,0.0,0.0,0.0,0.0,False,0,5.090221881866455,0.034918701171875
STABILIZE,1.6549098491668701,29.864175555017585,0.032363208134969075,0.03255152702331543,0.0,0.0,0.0,0.32187063692444107,-1.4690396480072812,11.713696733170059,0.012647458533580404,-0.02662627124933211,-0.0009637216696755675,0.4,-0.22988425698132087,0.03278406271722324,0.528468228161556,-0.0348572730646142,-0.8152622729539871,-0.09894747054204345,1.3241345062851906,-0.1290344130155735,9.835110604763031,22.542154788970947,16.198712587356567,0.0,0.0,0.0,0.0,0.0,0.0,0.0,0.0,0.0,0.0,0.0,0.0,0.0,0.0,0.0,0.0,False,0,5.123299837112427,0.034918701171875
STABILIZE,1.6982123851776123,23.09269995430245,0.03236821492513021,0.04223823547363281,0.0,0.0,0.0,0.3219934736077955,-1.469287775973223,11.73060145136584,0.008333635616645019,-0.023917399100774034,0.002022167027728332,0.4,-0.22171444010181476,0.021560837884623867,0.5315455885952844,-0.01984211350774216,-0.05885408027097583,-0.6113181356340647,1.0822306387126446,0.8226320390611555,-29.248249530792236,-9.038326889276505,14.692386984825134,0.0,0.0,0.0,0.0,0.0,0.0,0.0,0.0,0.0,0.0,0.0,0.0,0.0,0.0,0.0,0.0,False,1,5.152300596237183,0.039906982421875
STABILIZE,1.7315690517425537,29.978800506043214,0.032274754842122395,0.032422780990600586,0.0,0.0,0.0,0.32420912294152415,-1.4714367242408384,11.708856690369458,0.016631371956910116,-0.03470170256294496,0.0041948575086678905,0.4,-0.2152256013742681,0.017599869710800777,0.5378635677141894,-0.008948721754878451,-0.5559287965297699,0.5038398317992687,0.7841565646231174,-0.35261721372092947,1.5935152769088745,22.2848117351532,11.353017389774323,0.0,0.0,0.0,0.0,0.0,0.0,0.0,0.0,0.0,0.0,0.0,0.0,0.0,0.0,0.0,0.0,False,0,5.21012806892395,0.029929931640625
STABILIZE,1.7652208805084229,29.717751420595445,0.03238418896993001,0.03264188766479492,0.0,0.0,0.0,0.32263583155489406,-1.470996390482784,11.724689922639195,0.01914400322584197,-0.021005460334893637,0.00486485181588453,0.4,-0.19371687559155978,0.010413873113324963,0.5328850926754208,-0.005580018599941372,0.7102759554982185,-0.3663082607090473,0.8446097373962402,0.14346995112532934,22.07973748445511,-24.563297629356384,13.074614107608795,0.0,0.0,0.0,0.0,0.0,0.0,0.0,0.0,0.0,0.0,0.0,0.0,0.0,0.0,0.0,0.0,False,0,5.2387800216674805,0.0349189453125
STABILIZE,1.7985596656799316,29.99316371333362,0.0322904904683431,0.03241372108459473,0.0,0.0,0.0,0.323681810993258,-1.470924673496499,11.720328846854141,0.02138009590215976,-0.012608736984281462,0.006157459109378803,0.4,-0.1868875266458699,0.005578078481931843,0.5360810677857306,0.0008800744689029779,-0.10528047569096088,-0.22781589068472385,1.1380383744835854,0.3157234399910031,-12.401339411735535,8.487437665462494,13.536110520362854,0.0,0.0,0.0,0.0,0.0,0.0,0.0,0.0,0.0,0.0,0.0,0.0,0.0,0.0,0.0,0.0,False,0,5.267667293548584,0.034918212890625
STABILIZE,1.8321411609649658,29.77851615193468,0.03241995175679525,0.032605886459350586,0.0,0.0,0.0,0.32363677443341826,-1.4719679848922185,11.719348714708245,0.012628121789822446,-0.014788561443489983,0.004253114478438069,0.4,-0.1927255747235851,0.013475019435410948,0.535145717243164,-0.00861279401552706,-0.8279664441943169,0.5106767639517784,0.9015983901917934,-0.6088742253530248,-15.079647302627563,10.154235363006592,4.192499816417694,0.0,0.0,0.0,0.0,0.0,0.0,0.0,0.0,0.0,0.0,0.0,0.0,0.0,0.0,0.0,0.0,False,1,5.296361207962036,0.029929931640625
STABILIZE,1.8655264377593994,29.952040218804004,0.03234675725301107,0.032466888427734375,0.0,0.0,0.0,0.3228579194246252,-1.4716567843981596,11.73180441843341,0.014285134811676807,0.011047900756606867,0.0051079523141075184,0.4,-0.15801759179656968,0.004481177491560912,0.5386428785887448,-0.004324139402064877,0.9661335498094559,0.20653798710554838,1.2146741151809692,-0.4782649468056609,-5.21429143846035,18.22158992290497,15.452629327774048,0.0,0.0,0.0,0.0,0.0,0.0,0.0,0.0,0.0,0.0,0.0,0.0,0.0,0.0,0.0,0.0,False,0,5.353661775588989,0.03491796875
STABILIZE,1.899031639099121,29.847811390306212,0.03240779240926107,0.03254270553588867,0.0,0.0,0.0,0.32596373450627697,-1.470554989507672,11.725723842524806,0.0075719001081243995,0.00026585201665030095,0.005104461828254321,0.4,-0.16490685237631098,0.008887721918945124,0.5418136105220491,-0.00432711705415013,-0.8588597178459167,0.2986476290971041,1.138340588659048,-0.039148376486265235,-24.53504502773285,-3.3280156552791595,14.686772227287292,0.0,0.0,0.0,0.0,0.0,0.0,0.0,0.0,0.0,0.0,0.0,0.0,0.0,0.0,0.0,0.0,False,0,5.382316589355469,0.02993017578125
STABILIZE,1.9324579238891602,29.91486933698505,0.03234747250874837,0.03246736526489258,0.0,0.0,0.0,0.32491327275627013,-1.4719238021060248,11.73109322498608,-0.0015141573426496033,-0.02129582086088101,0.005067831764855329,0.4,-0.1718544054680473,0.013376235893574694,0.5419865208839123,-0.004495237603617963,-0.8588597178459167,0.2986476290971041,1.138340588659048,-0.039148376486265235,-24.53504502773285,-3.3280156552791595,14.686772227287292,0.0,0.0,0.0,0.0,0.0,0.0,0.0,0.0,0.0,0.0,0.0,0.0,0.0,0.0,0.0,0.0,False,0,5.410868167877197,0.02993017578125
STABILIZE,1.9657611846923828,30.027304682745932,0.032372268040974934,0.032483577728271484,0.0,0.0,0.0,0.3260823023214002,-1.4701263951372536,11.73072012590267,-0.0025102582964703964,-0.020925363542087797,0.006413890469025946,0.4,-0.16575705071017158,0.010555740670570803,0.5371834714200643,0.002227611591930937,-0.07306502666324377,-0.13607812579721212,0.8296946063637733,0.3756349779042989,24.384017288684845,8.65369662642479,14.827115833759308,0.0,0.0,0.0,0.0,0.0,0.0,0.0,0.0,0.0,0.0,0.0,0.0,0.0,0.0,0.0,0.0,False,0,5.439671993255615,0.0349189453125
STABILIZE,1.9993185997009277,29.801367040400166,0.0325041135152181,0.03263735771179199,0.0,0.0,0.0,0.3264830423266095,-1.4693528762137498,11.733460739307137,2.9333397306649113e-05,-0.002521560134468701,0.005556487467254799,0.4,-0.1494594444001606,0.014100574331706701,0.5454309661964304,-0.002052535067507823,0.5692221689969301,0.24327225983142853,1.4288630336523056,-0.29002738787934246,-10.05321517586708,2.6502735912799835,16.501568257808685,0.0,0.0,0.0,0.0,0.0,0.0,0.0,0.0,0.0,0.0,0.0,0.0,0.0,0.0,0.0,0.0,False,0,5.468314170837402,0.039906982421875
STABILIZE,2.0327274799346924,29.931734330509745,0.03239396413167318,0.03247547149658203,0.0,0.0,0.0,0.3259245676402552,-1.4700238355779978,11.739804277498786,0.00015647713285433734,-0.022632967217470205,0.008311177661580538,0.4,-0.14392570667809348,0.006612318905414003,0.5390517720514573,0.01168189329855214,-0.23621493019163609,-0.19538705237209797,0.8481170050799847,0.3901011851642536,-9.370704740285873,-11.003487557172775,16.66218340396881,0.0,0.0,0.0,0.0,0.0,0.0,0.0,0.0,0.0,0.0,0.0,0.0,0.0,0.0,0.0,0.0,False,0,5.526841163635254,0.02494091796875
STABILIZE,2.066183090209961,29.889500951349348,0.03239444096883138,0.03253650665283203,0.0,0.0,0.0,0.3271726779893692,-1.4711693863678559,11.731680621254702,0.0013719947418311539,-0.007074394646189753,0.009074596374188872,0.4,-0.131749784743361,0.008822431825004421,0.5365783936238092,0.015447299979248428,0.35042131785303354,0.1613678177818656,1.1319815181195736,0.2368891831473044,-1.3373520225286484,-11.124952882528305,15.253275632858276,0.0,0.0,0.0,0.0,0.0,0.0,0.0,0.0,0.0,0.0,0.0,0.0,0.0,0.0,0.0,0.0,False,0,5.554942607879639,0.039906982421875
STABILIZE,2.0996129512786865,29.914015918751605,0.03240087827046712,0.032523393630981445,0.0,0.0,0.0,0.3265088689794086,-1.4705283090812267,11.741494749318365,0.011303823863232613,-0.0035910771303655576,0.010095146981086866,0.4,-0.13339109420627576,0.0011756856115297245,0.5417241072835637,0.02048155708376806,-0.4646505694836378,-0.4339182283729315,1.0538282804191113,0.25494684261106937,-19.352467358112335,0.620332732796669,22.46791124343872,0.0,0.0,0.0,0.0,0.0,0.0,0.0,0.0,0.0,0.0,0.0,0.0,0.0,0.0,0.0,0.0,False,0,5.584084749221802,0.024942138671875
STABILIZE,2.1369130611419678,26.809915242320034,0.032410653432210286,0.03621172904968262,0.0,0.0,0.0,0.3262770694344513,-1.472160083962625,11.736494197072268,0.015147994526780983,-0.009228017689437148,0.010869184982434485,0.4,-0.13486146570034013,-0.00609861306435878,0.5379858528177162,0.024261623485124284,-0.4646505694836378,-0.4339182283729315,1.0538282804191113,0.25494684261106937,-19.352467358112335,0.620332732796669,22.46791124343872,0.0,0.0,0.0,0.0,0.0,0.0,0.0,0.0,0.0,0.0,0.0,0.0,0.0,0.0,0.0,0.0,False,0,5.6123151779174805,0.024942138671875
STABILIZE,2.1703855991363525,29.875662430907745,0.03220942815144857,0.03238487243652344,0.0,0.0,0.0,0.3273853743489917,-1.473023355840691,11.736632508402963,0.012410929290315433,-0.014943549173301379,0.009798140328953257,0.4,-0.12797218360043,-7.557366013125153e-05,0.5355361366822132,0.018843301745833357,0.06605595117434859,0.3888360224664211,1.1084051802754402,-0.3176441372103783,11.741311848163605,10.425685346126556,15.455707907676697,0.0,0.0,0.0,0.0,0.0,0.0,0.0,0.0,0.0,0.0,0.0,0.0,0.0,0.0,0.0,0.0,False,0,5.641083717346191,0.03491796875
STABILIZE,2.203784704208374,29.938784833257195,0.03224638303120931,0.03252243995666504,0.0,0.0,0.0,0.32710053411626094,-1.473336904212277,11.748709136629191,0.01435865065414087,-0.007680241364400465,0.0113025300290682,0.4,-0.11506832242944276,-0.008444226041212042,0.5397461259692631,0.02627708242728584,-0.10891167912632227,-0.10475476738065481,1.0784202255308628,-0.12509339386447615,-11.377634853124619,10.190989077091217,12.989693880081177,0.0,0.0,0.0,0.0,0.0,0.0,0.0,0.0,0.0,0.0,0.0,0.0,0.0,0.0,0.0,0.0,False,0,5.698501348495483,0.029930908203125
STABILIZE,2.2372796535491943,29.855247423267468,0.03242328961690267,0.0325467586517334,0.0,0.0,0.0,0.32745527706627847,-1.473162094058207,11.738759258555774,0.017604302096905375,-0.013490131156625918,0.01087594722537509,0.4,-0.11167260185608988,-0.010328670663167568,0.5397186413534789,0.024063645376729274,-0.10891167912632227,-0.10475476738065481,1.0784202255308628,-0.12509339386447615,-11.377634853124619,10.190989077091217,12.989693880081177,0.0,0.0,0.0,0.0,0.0,0.0,0.0,0.0,0.0,0.0,0.0,0.0,0.0,0.0,0.0,0.0,False,0,5.727020740509033,0.029930908203125
STABILIZE,2.2707457542419434,29.881196301098555,0.032406123479207356,0.0325469970703125,0.0,0.0,0.0,0.32713191029776073,-1.472916100526381,11.742847126774027,0.008537032692616343,-0.008591712352154208,0.010054927645258147,0.4,-0.1073637110253779,-0.00624646553085285,0.5397954269534767,0.019891963078628616,-0.040235917549580336,0.26730161625891924,1.0780264623463154,-0.2462719153957714,-0.409481767565012,0.6092732772231102,18.6942458152771,0.0,0.0,0.0,0.0,0.0,0.0,0.0,0.0,0.0,0.0,0.0,0.0,0.0,0.0,0.0,0.0,False,0,5.75585412979126,0.03491796875
STABILIZE,2.3042359352111816,29.86098632360584,0.03240063985188802,0.03252363204956055,0.0,0.0,0.0,0.3273787576032332,-1.4706917000127782,11.75014433012854,0.009696155351566224,-0.001288272067564781,0.012006473360668285,0.4,-0.10007130381550775,-0.012915996662972737,0.5362778155147745,0.02955089286316922,0.15819541877135634,-0.3990498371422291,0.6716751493513584,0.6075292116950612,9.929735213518143,-13.421173393726349,6.418569386005402,0.0,0.0,0.0,0.0,0.0,0.0,0.0,0.0,0.0,0.0,0.0,0.0,0.0,0.0,0.0,0.0,False,0,5.784578800201416,0.034919189453125
STABILIZE,2.3376641273498535,29.914015918751605,0.032347710927327473,0.03247213363647461,0.0,0.0,0.0,0.3277633826308695,-1.4710432413116221,11.743713707024973,0.01170421059227181,-0.003772470408597711,0.010377138399309531,0.4,-0.09721958642367065,-0.010278736134658645,0.5397827359729995,0.021332878634553864,-0.11344618396833539,0.1819389988668263,1.125576812773943,-0.5072945847995374,-14.603683352470398,6.125064566731453,12.12725043296814,0.0,0.0,0.0,0.0,0.0,0.0,0.0,0.0,0.0,0.0,0.0,0.0,0.0,0.0,0.0,0.0,False,0,5.813183784484863,0.03491796875
STABILIZE,2.371081829071045,29.92511415525114,0.032373936971028645,0.03250527381896973,0.0,0.0,0.0,0.32720618860498457,-1.4704472005848328,11.751133853784545,0.006982837904297469,-0.014070618185144684,0.010786840307859027,0.4,-0.09837905041263215,-0.011708367842363336,0.5357748403429528,0.02330343123751353,-0.3496305551379919,-0.07672187057323754,0.6715578958392143,0.13571391113702286,-11.857913434505463,-5.577050894498825,11.05048656463623,0.0,0.0,0.0,0.0,0.0,0.0,0.0,0.0,0.0,0.0,0.0,0.0,0.0,0.0,0.0,0.0,False,0,5.841875076293945,0.029929931640625
STABILIZE,2.4045605659484863,29.869492454832255,0.03240493138631185,0.03252243995666504,0.0,0.0,0.0,0.3282160961067945,-1.4702517931415469,11.751110801896097,0.008927065238712974,-0.005661705771631474,0.010921955260338189,0.4,-0.08597997383401054,-0.015457037181734919,0.5345000108055555,0.02389912239197663,0.4960193298757076,-0.23439277429133654,1.014511100947857,0.0665406367091898,10.062775760889053,8.19273442029953,13.039077818393707,0.0,0.0,0.0,0.0,0.0,0.0,0.0,0.0,0.0,0.0,0.0,0.0,0.0,0.0,0.0,0.0,False,1,5.871453285217285,0.034919189453125
STABILIZE,2.438009262084961,29.896105377202485,0.03235462506612142,0.03250551223754883,0.0,0.0,0.0,0.32764268038163075,-1.4708398297404026,11.750797466967922,0.003679637136044736,0.003416944800458095,0.009962436956400037,0.4,-0.07205996371742031,-0.0061358936645302875,0.5414299395478223,0.019037799264022354,0.16541769728064537,0.28940322808921337,1.1380009353160858,-0.1281379373467961,-10.37740558385849,-3.546084091067314,19.135543704032898,0.0,0.0,0.0,0.0,0.0,0.0,0.0,0.0,0.0,0.0,0.0,0.0,0.0,0.0,0.0,0.0,False,0,5.92876124382019,0.034917724609375
STABILIZE,2.4714202880859375,29.930239196209396,0.03238871892293294,0.032506465911865234,0.0,0.0,0.0,0.3261913719047088,-1.4712838987581593,11.756107939047608,0.0035980400042230514,-0.002448413316539698,0.010921091624947813,0.4,-0.0727370265593537,-0.01148802742041002,0.5411163664506362,0.02375165924792287,-0.28746745083481073,-0.3293253481388092,0.9180814027786255,0.3121347892319697,0.9248475544154644,-3.630739077925682,15.852905809879303,0.0,0.0,0.0,0.0,0.0,0.0,0.0,0.0,0.0,0.0,0.0,0.0,0.0,0.0,0.0,0.0,False,0,5.957460165023804,0.02993115234375
STABILIZE,2.5048694610595703,29.896105377202485,0.032399924596150716,0.03252434730529785,0.0,0.0,0.0,0.3266819715861861,-1.4703533922054508,11.755355764465259,0.00319216701769664,0.001851103685393385,0.010801933127381442,0.4,-0.06546836927186146,-0.00886588355936226,0.5400075784730451,0.023078683677586205,0.21715969778597355,0.14916217187419534,1.0396527126431465,-0.004698819968371677,13.719698786735535,8.15732330083847,14.821404218673706,0.0,0.0,0.0,0.0,0.0,0.0,0.0,0.0,0.0,0.0,0.0,0.0,0.0,0.0,0.0,0.0,False,0,5.986300945281982,0.034917724609375
STABILIZE,2.538421154022217,29.804967134482148,0.03239396413167318,0.03260636329650879,0.0,0.0,0.0,0.32603246328480023,-1.4705771876224745,11.760174462924704,0.005137225244829714,0.008741962005697252,0.010954344775784709,0.4,-0.058516007120466486,-0.012254829168494118,0.5380348779444697,0.02376105355273526,0.19485187949612737,-0.2111359965056181,0.8178925141692162,0.06774976695526719,-5.216187983751297,-9.738240391016006,9.3473881483078,0.0,0.0,0.0,0.0,0.0,0.0,0.0,0.0,0.0,0.0,0.0,0.0,0.0,0.0,0.0,0.0,False,0,6.015071868896484,0.034919189453125
STABILIZE,2.572036027908325,29.75000177323829,0.032396586736043294,0.0325472354888916,0.0,0.0,0.0,0.32666745743419984,-1.4705460248843865,11.758317505244106,0.00429186738418667,-0.0017611652469611363,0.011649767623587501,0.4,-0.06030638733004107,-0.014346965386471167,0.5383719314326616,0.02714728534565542,-0.32526582945138216,-0.13094848254695535,0.9683765470981598,0.2319613884241253,-6.704157590866089,4.029417410492897,14.426036179065704,0.0,0.0,0.0,0.0,0.0,0.0,0.0,0.0,0.0,0.0,0.0,0.0,0.0,0.0,0.0,0.0,False,0,6.043568134307861,0.02993017578125
STABILIZE,2.6056969165802,29.7061752353162,0.032228740056355794,0.03274989128112793,0.0,0.0,0.0,0.32695283127545943,-1.4700202070400012,11.760971887510303,0.006904200206807364,-0.005844169934658589,0.01125097228468542,0.4,-0.053497449723141216,-0.009660113694332251,0.534185467267889,0.025068551530712867,0.21832133643329144,0.269247149117291,0.8571470156311989,-0.08497609101142113,12.040670961141586,4.121018573641777,12.41382285952568,0.0,0.0,0.0,0.0,0.0,0.0,0.0,0.0,0.0,0.0,0.0,0.0,0.0,0.0,0.0,0.0,False,1,6.072599172592163,0.034917724609375
STABILIZE,2.6391401290893555,29.900581001603992,0.03242495854695638,0.03253769874572754,0.0,0.0,0.0,0.32614558829292856,-1.467582149671424,11.763773118843654,0.005246182248676578,0.011432032426639736,0.011197110498972228,0.4,-0.03435089803580364,-0.012149334780437985,0.5361526195719656,0.024716609427323465,0.029500911477953196,-0.054816220654174685,1.0089833289384842,-0.07741757956030289,-6.208094209432602,7.979311794042587,15.242157876491547,0.0,0.0,0.0,0.0,0.0,0.0,0.0,0.0,0.0,0.0,0.0,0.0,0.0,0.0,0.0,0.0,False,0,6.130194425582886,0.029929931640625
STABILIZE,2.6726737022399902,29.821708402656313,0.03241542180379232,0.03255653381347656,0.0,0.0,0.0,0.32574207352336887,-1.4688496833709903,11.761250217718981,0.007676048871616869,0.008942578413078738,0.010809028873270302,0.4,-0.03122259107603086,-0.012765872272440854,0.5344439350394379,0.022700154257991354,0.029500911477953196,-0.054816220654174685,1.0089833289384842,-0.07741757956030289,-6.208094209432602,7.979311794042587,15.242157876491547,0.0,0.0,0.0,0.0,0.0,0.0,0.0,0.0,0.0,0.0,0.0,0.0,0.0,0.0,0.0,0.0,False,0,6.158972501754761,0.029929931640625
STABILIZE,2.706543207168579,29.524876812614387,0.03233173688252767,0.032923221588134766,0.0,0.0,0.0,0.3249600168634024,-1.46859493865929,11.769916020228434,0.0019572154683396396,0.003561174031441171,0.010674511578573846,0.4,-0.0316691315166747,-0.008965340200092119,0.528388311684775,0.021953191950611916,-0.17834438476711512,0.2137575065717101,0.7336763199418783,-0.001383416796778398,2.3561667650938034,-3.798910975456238,8.83190929889679,0.0,0.0,0.0,0.0,0.0,0.0,0.0,0.0,0.0,0.0,0.0,0.0,0.0,0.0,0.0,0.0,False,0,6.189893484115601,0.03491796875
STABILIZE,2.7400546073913574,29.841652911377995,0.03238347371419271,0.032523393630981445,0.0,0.0,0.0,0.3246177603529613,-1.4678076526357402,11.767396534198346,0.003767126956728247,0.012927096751333264,0.010749886037614183,0.4,-0.022444312644037272,-0.012734881290199344,0.5323033459215801,0.022255599880217063,0.3976409789174795,-0.2433394780382514,1.1795522645115852,0.055386410856136686,8.99217203259468,-5.46591691672802,20.014865696430206,0.0,0.0,0.0,0.0,0.0,0.0,0.0,0.0,0.0,0.0,0.0,0.0,0.0,0.0,0.0,0.0,False,0,6.218618631362915,0.0349189453125
STABILIZE,2.774357318878174,29.15424075181071,0.03233173688252767,0.032453298568725586,0.0,0.0,0.0,0.3247952385496759,-1.4680998566661698,11.768164930479973,0.0041999173663448495,0.00957594652078363,0.009379284287705868,0.4,-0.020743200652917074,-0.009428883087092669,0.5341516607556211,0.01535124906019928,-0.052113475976511836,0.18669096753001213,1.057390496134758,-0.37881339042630846,-5.048537254333496,8.0225370824337,14.016863703727722,0.0,0.0,0.0,0.0,0.0,0.0,0.0,0.0,0.0,0.0,0.0,0.0,0.0,0.0,0.0,0.0,False,0,6.247373104095459,0.02993017578125
STABILIZE,2.8070321083068848,30.601955348022763,0.03145435651143392,0.03177332878112793,0.0,0.0,0.0,0.3236906688948379,-1.4677466078200332,11.774685199816396,0.0050065477192247874,-0.005268251873610124,0.010222094212889716,0.4,-0.021989161891616614,-0.012384253592885485,0.5308976318584142,0.019499752374073337,-0.1957869390025735,-0.1986389048397541,0.9070944041013718,0.2949366930669949,2.930298261344433,-7.475533336400986,15.4069185256958,0.0,0.0,0.0,0.0,0.0,0.0,0.0,0.0,0.0,0.0,0.0,0.0,0.0,0.0,0.0,0.0,False,0,6.276785850524902,0.0349189453125
STABILIZE,2.8405635356903076,29.823404769692402,0.032433541615804036,0.03255653381347656,0.0,0.0,0.0,0.32382567185265143,-1.4674461862182584,11.770581109898863,0.003574681746027374,0.0017079160374777996,0.00887077353552576,0.4,-0.01147698288124788,-0.011251830861843623,0.5326865574665853,0.012700663290849911,-0.048885634168982506,0.15829914482310414,1.0966040194034576,-0.07529795308135108,-8.168718963861465,-3.668968379497528,15.657161176204681,0.0,0.0,0.0,0.0,0.0,0.0,0.0,0.0,0.0,0.0,0.0,0.0,0.0,0.0,0.0,0.0,False,0,6.334685325622559,0.029929931640625
STABILIZE,2.874006986618042,29.901859997576086,0.03234985669453939,0.032480478286743164,0.0,0.0,0.0,0.3237783941369902,-1.467555362523273,11.77371360540696,0.008982823605699748,0.0021719241112394903,0.009558944277917874,0.4,-0.011304143200509723,-0.014339758997173187,0.5268646777755822,0.01608768584613321,-0.08196331327781081,-0.2085112500935793,0.7530307862907648,0.24463504455292198,2.1907152608036995,-1.7890121787786484,10.142339020967484,0.0,0.0,0.0,0.0,0.0,0.0,0.0,0.0,0.0,0.0,0.0,0.0,0.0,0.0,0.0,0.0,False,0,6.362776517868042,0.034919189453125
STABILIZE,2.907421827316284,29.925541174959687,0.03233221371968587,0.03245735168457031,0.0,0.0,0.0,0.3238027266859084,-1.469713702300997,11.777330190572483,0.005315756725175186,-0.004129148065837818,0.008815397691353343,0.4,-0.010936394574339751,-0.013233114031168398,0.526509857335787,0.01232872551578778,-0.08342266082763672,0.051286089001223445,0.9252682328224182,-0.19017802634168965,5.113677680492401,4.130183532834053,12.503135204315186,0.0,0.0,0.0,0.0,0.0,0.0,0.0,0.0,0.0,0.0,0.0,0.0,0.0,0.0,0.0,0.0,False,0,6.391669034957886,0.03491796875
STABILIZE,2.940876007080078,29.891418064681652,0.03238848050435384,0.03250527381896973,0.0,0.0,0.0,0.324244341104432,-1.4701260749721363,11.776578015990134,0.010564736917125762,-0.0007485066604399817,0.009038109676456891,0.4,-0.005693334392650563,-0.01650118253388179,0.5273115258855479,0.013397496518891158,0.2191997366026044,-0.21348760928958654,1.000517699867487,0.1019987366920912,-8.029180765151978,-7.793528586626053,7.945515960454941,0.0,0.0,0.0,0.0,0.0,0.0,0.0,0.0,0.0,0.0,0.0,0.0,0.0,0.0,0.0,0.0,False,0,6.420232057571411,0.029929931640625
STABILIZE,2.974478244781494,29.762668085861275,0.03237274487813314,0.032531023025512695,0.0,0.0,0.0,0.3236116948325596,-1.4697430507700868,11.781060327632956,0.011198683246377647,0.004327382422782924,0.009265236758083299,0.4,-0.0009161955026677181,-0.019622650230706862,0.5256059872565116,0.01448460304492766,0.2191997366026044,-0.21348760928958654,1.000517699867487,0.1019987366920912,-8.029180765151978,-7.793528586626053,7.945515960454941,0.0,0.0,0.0,0.0,0.0,0.0,0.0,0.0,0.0,0.0,0.0,0.0,0.0,0.0,0.0,0.0,False,0,6.449092864990234,0.029929931640625
STABILIZE,3.007949113845825,29.877577769388033,0.03223613103230794,0.032485008239746094,0.0,0.0,0.0,0.32376046489041893,-1.4711735485143813,11.780078487939766,0.012986123845486208,-0.004619651984744286,0.008535104617674394,0.4,-0.0025190078233259215,-0.02072204316872401,0.522786610055823,0.010797726756057242,-0.1613353844732046,-0.09314576745964587,0.9219539351761341,-0.18922620212825134,0.6257400847971439,2.177865616977215,12.993846833705902,0.0,0.0,0.0,0.0,0.0,0.0,0.0,0.0,0.0,0.0,0.0,0.0,0.0,0.0,0.0,0.0,False,0,6.477588415145874,0.034919189453125
STABILIZE,3.041355848312378,29.931307134038864,0.03230241139729818,0.03243207931518555,0.0,0.0,0.0,0.32350518657018973,-1.470398748930408,11.780705157796115,0.012533932647583743,0.005412805443769208,0.00885380052411799,0.4,0.009049313083673042,-0.022719982742901025,0.5340191811118901,0.012349898665276231,0.1669467194005847,-0.2566653536632657,1.2539265677332878,0.35733351270367614,1.7377439886331558,-5.584591627120972,13.584640622138977,0.0,0.0,0.0,0.0,0.0,0.0,0.0,0.0,0.0,0.0,0.0,0.0,0.0,0.0,0.0,0.0,False,0,6.535120248794556,0.0349189453125
STABILIZE,3.0747618675231934,29.932802375039252,0.03237942059834798,0.03249692916870117,0.0,0.0,0.0,0.32311768005649727,-1.4702113456150558,11.78336893157242,0.012063558539963158,0.0017073377736008448,0.008938442331986717,0.4,0.005126039319863295,-0.02126637159920396,0.5344776008986751,0.012730546023890666,-0.29991366900503635,0.06761131808161736,0.9691474959254265,0.05226176272846783,-9.096962958574295,6.019960716366768,12.824241816997528,0.0,0.0,0.0,0.0,0.0,0.0,0.0,0.0,0.0,0.0,0.0,0.0,0.0,0.0,0.0,0.0,False,0,6.56407356262207,0.029929931640625
STABILIZE,3.1082308292388916,29.879280498664293,0.032422574361165364,0.032578229904174805,0.0,0.0,0.0,0.32341756804974314,-1.4706690750111524,11.782700426807406,0.01057592045118625,-0.002555504736997509,0.00821196359190226,0.4,0.00455582230584383,-0.02223157795703741,0.5293669943437718,0.009067803327227932,-0.06897784769535065,-0.09167016251012683,0.7945223711431026,-0.1910194202700706,2.19988152384758,-5.5878061801195145,15.892679989337921,0.0,0.0,0.0,0.0,0.0,0.0,0.0,0.0,0.0,0.0,0.0,0.0,0.0,0.0,0.0,0.0,False,0,6.5925514698028564,0.034919189453125
STABILIZE,3.1416656970977783,29.907616833758787,0.03243830998738607,0.03254556655883789,0.0,0.0,0.0,0.3224812985249225,-1.4699780519662176,11.788476205524297,0.011264915440209326,-0.0004016743769037322,0.007719124213644077,0.4,0.010905241428846966,-0.02555122601759388,0.529111109305845,0.006581587333853608,0.33538928255438805,-0.22325050085783005,0.9262548759579659,-0.1196163959031325,5.787849798798561,0.1259748707525432,11.734887212514877,0.0,0.0,0.0,0.0,0.0,0.0,0.0,0.0,0.0,0.0,0.0,0.0,0.0,0.0,0.0,0.0,False,0,6.6212475299835205,0.03491796875
STABILIZE,3.1751158237457275,29.895892285651154,0.03242686589558919,0.03255963325500488,0.0,0.0,0.0,0.3231583410264,-1.4701510478512891,11.787080285612676,0.006020125471296581,0.0010197959295764542,0.00737068184738048,0.4,0.011212486294428541,-0.020461366873342164,0.5312039904237733,0.0048232502938607945,-0.025108730187639594,0.28085343074053526,1.0739377699792385,-0.07541063119233646,-0.7726104464381933,4.136090353131294,16.55697375535965,0.0,0.0,0.0,0.0,0.0,0.0,0.0,0.0,0.0,0.0,0.0,0.0,0.0,0.0,0.0,0.0,False,0,6.649856805801392,0.029929931640625
STABILIZE,3.208651304244995,29.82064827125296,0.03243759473164876,0.03256511688232422,0.0,0.0,0.0,0.3238919460319417,-1.470608136917151,11.786821592197862,-2.3914920699694956e-05,-0.0073825644641835955,0.007041126637999828,0.4,0.01109072109798235,-0.015191882122265618,0.5307002505553559,0.0031648727670926784,-0.025108730187639594,0.28085343074053526,1.0739377699792385,-0.07541063119233646,-0.7726104464381933,4.136090353131294,16.55697375535965,0.0,0.0,0.0,0.0,0.0,0.0,0.0,0.0,0.0,0.0,0.0,0.0,0.0,0.0,0.0,0.0,False,0,6.678561210632324,0.029929931640625
STABILIZE,3.2420520782470703,29.938784833257195,0.03234437306722005,0.03246808052062988,0.0,0.0,0.0,0.3241445563095264,-1.4701337589349526,11.790050564127986,0.0030089568289105844,-0.0020744732757217573,0.006581130675358895,0.4,0.013918501400922621,-0.017446424499521794,0.5339892797622909,0.0008620142937792812,-0.02644364139996469,-0.045384938130155206,1.164091657847166,-0.19674640048699404,-2.443578466773033,4.068450257182121,11.611643433570862,0.0,0.0,0.0,0.0,0.0,0.0,0.0,0.0,0.0,0.0,0.0,0.0,0.0,0.0,0.0,0.0,False,0,6.735874891281128,0.034813232421875
STABILIZE,3.275585412979126,29.821708402656313,0.03237489064534505,0.03251957893371582,0.0,0.0,0.0,0.3247403835929042,-1.4699576681204132,11.789103729154291,0.0025326248090682315,-0.0017292764652204313,0.005842585984079638,0.4,0.013838141075122594,-0.017682506675902297,0.5376955806118509,-0.0028212652681437484,-0.02644364139996469,-0.045384938130155206,1.164091657847166,-0.19674640048699404,-2.443578466773033,4.068450257182121,11.611643433570862,0.0,0.0,0.0,0.0,0.0,0.0,0.0,0.0,0.0,0.0,0.0,0.0,0.0,0.0,0.0,0.0,False,0,6.7648913860321045,0.034813232421875
STABILIZE,3.308870792388916,30.041284075119254,0.03231314023335775,0.0324254035949707,0.0,0.0,0.0,0.3253007792699626,-1.470465129831404,11.791699201038897,-0.0015169883682479132,-0.0044972873378672186,0.006098182379198617,0.4,0.015863285334040658,-0.01577425973058941,0.5395063451455724,-0.001538144231529784,0.10584460105746984,0.08316645398736,1.0551584884524345,0.10129526722821955,-7.431802898645401,-5.57984821498394,15.045417845249176,0.0,0.0,0.0,0.0,0.0,0.0,0.0,0.0,0.0,0.0,0.0,0.0,0.0,0.0,0.0,0.0,False,0,6.793436765670776,0.029929931640625
STABILIZE,3.342410087585449,29.816832422211007,0.03247574170430501,0.03260374069213867,0.0,0.0,0.0,0.3258261702275247,-1.47086266818544,11.791927158602446,0.002664462709446068,-0.00345382657583026,0.005626074553205495,0.4,0.017294417642169834,-0.016366396102675793,0.5390075996914085,-0.0038856827389814547,0.08985960157588124,-0.07169938762672246,1.0784178972244263,-0.12837403244041112,4.703561961650848,0.29946728609502316,14.349932968616486,0.0,0.0,0.0,0.0,0.0,0.0,0.0,0.0,0.0,0.0,0.0,0.0,0.0,0.0,0.0,0.0,False,0,6.821963787078857,0.069837158203125
STABILIZE,3.3758621215820312,29.89461380013257,0.03237298329671224,0.03249216079711914,0.0,0.0,0.0,0.3262541242677083,-1.4697496675158452,11.793377720027427,0.007496086236903406,-0.00021441286879819287,0.004900427515099972,0.4,0.0208743791455473,-0.0175593250794671,0.5596368004808773,-0.007488878605752058,0.08985960157588124,-0.07169938762672246,1.0784178972244263,-0.12837403244041112,4.703561961650848,0.29946728609502316,14.349932968616486,0.0,0.0,0.0,0.0,0.0,0.0,0.0,0.0,0.0,0.0,0.0,0.0,0.0,0.0,0.0,0.0,False,0,6.8508758544921875,0.069837158203125
STABILIZE,3.4092254638671875,29.9715169747683,0.03235772450764974,0.03248405456542969,0.0,0.0,0.0,0.32718986018400004,-1.470669181732858,11.796621206109538,0.00842573838495093,-0.0008423664950829336,0.004564181105444267,0.4,0.02246200416204573,-0.02045311394543106,0.576242828922033,-0.009139546599440745,-0.0018890248611569405,-0.15078511787578464,0.9791206568479538,-0.017127473076173887,-3.14938947558403,-3.8009565323591232,9.469203650951385,0.0,0.0,0.0,0.0,0.0,0.0,0.0,0.0,0.0,0.0,0.0,0.0,0.0,0.0,0.0,0.0,False,0,6.8793604373931885,0.029929931640625
STABILIZE,3.442781448364258,29.80242580131735,0.03245428403218587,0.03258323669433594,0.0,0.0,0.0,0.32744108307940956,-1.470589674062051,11.795308102241602,0.0046155537723057815,0.0006818741505103584,0.005456721481147848,0.4,0.024118722171555987,-0.01629375989943489,0.5682459068691382,-0.004661250223834425,0.16993136378005147,0.09577127057127655,1.0068902745842934,0.1767593593250459,3.152671456336975,-1.5691030770540237,15.714821219444275,0.0,0.0,0.0,0.0,0.0,0.0,0.0,0.0,0.0,0.0,0.0,0.0,0.0,0.0,0.0,0.0,False,0,6.937330722808838,0.034918212890625
STABILIZE,3.4781994819641113,28.233634227939444,0.032337458928426106,0.03457212448120117,0.0,0.0,0.0,0.3281765023539495,-1.4718251912498828,11.802131461222446,0.00589372093366388,0.0037608060909361364,0.005186959346066318,0.4,0.02952728867541766,-0.016172204728225788,0.5600108057703971,-0.005988779143257689,0.3069204743951559,-0.029935251222923398,0.709314551204443,-0.07230842463836146,-1.0513759218156338,0.06232314626686275,7.255547493696213,0.0,0.0,0.0,0.0,0.0,0.0,0.0,0.0,0.0,0.0,0.0,0.0,0.0,0.0,0.0,0.0,False,0,6.965461730957031,0.029929931640625
STABILIZE,3.5117509365081787,29.80411997527162,0.0324886163075765,0.032671451568603516,0.0,0.0,0.0,0.32821887087114476,-1.4718828209710049,11.801266588518793,0.004777148338025447,-0.004288720364713623,0.004715027712511557,0.4,0.021497241336724697,-0.015374716895353248,0.5559228113110788,-0.008320544083883375,-0.3774940734729171,0.003541277692420408,1.0457435622811317,-0.13117015447209832,-5.6917887181043625,4.245710372924805,17.156407237052917,0.0,0.0,0.0,0.0,0.0,0.0,0.0,0.0,0.0,0.0,0.0,0.0,0.0,0.0,0.0,0.0,False,0,6.994074106216431,0.0349189453125
STABILIZE,3.5452868938446045,29.82022423979581,0.032384665807088216,0.0325167179107666,0.0,0.0,0.0,0.3286062706631314,-1.4720219860753438,11.802083649898256,0.001625321508466526,-0.0030696895379671535,0.004477126499309483,0.4,0.025800323338894062,-0.012750886844702788,0.5560794412063111,-0.009478339560473337,0.258559943176806,0.10428894311189651,1.1131376959383488,-0.06593877297932871,4.471807554364204,-5.476005375385284,17.75616854429245,0.0,0.0,0.0,0.0,0.0,0.0,0.0,0.0,0.0,0.0,0.0,0.0,0.0,0.0,0.0,0.0,False,0,7.022860765457153,0.034917724609375
STABILIZE,3.5787241458892822,29.905697642084547,0.03235009511311849,0.032488346099853516,0.0,0.0,0.0,0.32948298947612603,-1.4725305150033925,11.807610126710442,0.002321658423784575,-0.0006617493345966238,0.00492057192120927,0.4,0.02982637001168467,-0.0159019807835455,0.5506525470023574,-0.007236901473069579,0.24610657710582018,-0.2019386738538742,0.8098936639726162,0.11354858657858276,2.2205743938684464,0.18903344171121716,13.552483916282654,0.0,0.0,0.0,0.0,0.0,0.0,0.0,0.0,0.0,0.0,0.0,0.0,0.0,0.0,0.0,0.0,False,0,7.051524639129639,0.029930419921875
STABILIZE,3.612231969833374,29.844200939234383,0.032372268040974934,0.03251504898071289,0.0,0.0,0.0,0.3300628085036367,-1.4723473805562715,11.806869051185496,0.007986039935565986,0.0013548023550287744,0.005376328163783821,0.4,0.0334615884397168,-0.018946938208502597,0.5428956657799644,-0.004941582827165784,0.24610657710582018,-0.2019386738538742,0.8098936639726162,0.11354858657858276,2.2205743938684464,0.18903344171121716,13.552483916282654,0.0,0.0,0.0,0.0,0.0,0.0,0.0,0.0,0.0,0.0,0.0,0.0,0.0,0.0,0.0,0.0,False,1,7.0804219245910645,0.029930419921875
STABILIZE,3.64560866355896,29.9605983113562,0.03230908711751302,0.032434940338134766,0.0,0.0,0.0,0.3297921622577749,-1.47295558755752,11.808370839029251,0.006832520152347892,-0.0009333285474654038,0.005357612459424514,0.4,0.03499598405273363,-0.017529652724489052,0.5403636045967756,-0.005018384003777958,0.18822901183739305,-0.10285533498972654,0.9243096224963665,0.11505956582924974,8.591707050800323,-1.559924427419901,16.444692015647888,0.0,0.0,0.0,0.0,0.0,0.0,0.0,0.0,0.0,0.0,0.0,0.0,0.0,0.0,0.0,0.0,False,0,7.137824058532715,0.0349189453125
