E-kp,E-ki,E-kd,E-I-Tot,E-P,E-I,E-D,E-PID,N-kp,N-ki,N-kd,N-I-Tot,N-P,N-I,N-D,N-PID,Y-kp,Y-ki,Y-kd,Y-I-Tot,Y-P,Y-I,Y-D,Y-PID,D-kp,D-ki,D-kd,D-I-Tot,D-P,D-I,D-D,D-PID,errorN,desiredN,actualN,errorE,desiredE,actualE,errorD,desiredD,actualD,errorY,desiredY,actualY,roll,pitch,yaw-rate,thrust,dt,Time,Mode
0.03,0.005,0.03,-0.004645839013997055,-0.004210440970555651,-2.3229195069985275e-05,-0.12719491652008735,-0.131428586685713,0.03,0.005,0.03,-0.0044884274966567,-0.004067781722172236,-2.24421374832835e-05,-0.12288526550827132,-0.12697548936792685,0.002,8e-05,0,-0.006417524973053025,-0.00038773922205366133,-5.13401997844242e-07,-0.0,-0.0003882526240515056,0.2,0.02,0,-0.004615357901707277,-0.027885443217151185,-9.230715803414554e-05,-0.0,-0.02797775037518533,-0.13559272407240788,0.0,0.13559272407240788,-0.14034803235185503,0.0,0.14034803235185503,-0.19386961102683067,0.0,0.19386961102683067,-0.13942721608575592,0,0.13942721608575592,-0.13173718751820965,0.12665528699276848,0.02797775037518533,0.4,0.03310227394104004,0.03337430953979492,STABILIZE
0.03,0.005,0.03,-0.009585976412846305,-0.0044380333529167905,-4.7929882064231526e-05,-0.06700513198191159,-0.0714910952168926,0.03,0.005,0.03,-0.009246569152756217,-0.004274535233087102,-4.6232845763781086e-05,-0.06453829219026984,-0.06885906026912073,0.002,8e-05,0,-0.013636071286687222,-0.0004323246732225918,-1.0908857029349779e-06,-0.0,-0.0004334155589255268,0.2,0.02,0,-0.00947430331162234,-0.029100623522776415,-0.00018948606623244682,-0.0,-0.02929010958900886,-0.14248450776957008,0.0,0.14248450776957008,-0.14793444509722636,0.0,0.14793444509722636,-0.2161623366112959,0.0,0.2161623366112959,-0.14550311761388207,0,0.14550311761388207,-0.07166573266941499,0.06867728618264665,0.02929010958900886,0.4,0.03339409828186035,0.06670308113098145,STABILIZE
0.03,0.005,0.03,-0.014803993418952222,-0.0046790511036917835,-7.401996709476111e-05,-0.04707145653561691,-0.05182452760640345,0.03,0.005,0.03,-0.014205555817618539,-0.004446775853789905,-7.10277790880927e-05,-0.04474163910978413,-0.049259442742662134,0.002,8e-05,0,-0.021789865313288248,-0.0004874395630217254,-1.74318922506306e-06,-0.0,-0.0004891827522467885,0.2,0.02,0,-0.014570551893498887,-0.030465733788415474,-0.00029141103786997776,-0.0,-0.03075714482628545,-0.14822586179299685,0.0,0.14822586179299685,-0.15596837012305945,0.0,0.15596837012305945,-0.2437197815108627,0.0,0.2437197815108627,-0.15232866894207736,0,0.15232866894207736,-0.051955307263407115,0.04912148621641489,0.03075714482628545,0.4,0.033455610275268555,0.10016465187072754,STABILIZE
0.03,0.005,0.03,-0.021553343019075175,-0.004803343310818141,-0.00010776671509537587,-0.005655991643298961,-0.010567101669212478,0.03,0.005,0.03,-0.020639167020869174,-0.004578640190304506,-0.00010319583510434587,-0.0048226011670548805,-0.009504437192463733,0.002,8e-05,0,-0.033266387257364444,-0.0005445035761720585,-2.6613109805891557e-06,-0.0,-0.0005471648871526477,0.2,0.02,0,-0.021173450613314646,-0.03132745254669569,-0.0004234690122662929,-0.0,-0.03175092155896198,-0.15262133967681688,0.0,0.15262133967681688,-0.16011144369393804,0.0,0.16011144369393804,-0.27225178808602923,0.0,0.27225178808602923,-0.15663726273347844,0,0.15663726273347844,-0.010593045720589842,0.009475512988458949,0.03175092155896198,0.4,0.04215407371520996,0.14234638214111328,STABILIZE
0.03,0.005,0.03,-0.027129806080812762,-0.00500514608373478,-0.00013564903040406382,-0.005396740018915104,-0.010537535133053947,0.03,0.005,0.03,-0.025829718850679726,-0.004658772034491636,-0.00012914859425339862,-0.003557963953472591,-0.008345884582217626,0.002,8e-05,0,-0.04394292421129086,-0.0006388473187057946,-3.5154339369032693e-06,-0.0,-0.0006423627526426979,0.2,0.02,0,-0.026372049813275865,-0.0311066329302587,-0.0005274409962655174,-0.0,-0.03163407392652422,-0.15529240114972123,0.0,0.15529240114972123,-0.16683820279115932,0.0,0.16683820279115932,-0.3194236593528973,0.0,0.3194236593528973,-0.1555331646512935,0,0.1555331646512935,-0.010560151733421055,0.008317249034817247,0.03163407392652422,0.4,0.03342437744140625,0.17575550079345703,STABILIZE
0.03,0.005,0.03,-0.033118639878016984,-0.005081626823440522,-0.0001655931993900849,-0.0037164292700356846,-0.00896364929286629,0.03,0.005,0.03,-0.03149386111256765,-0.004806120561106505,-0.00015746930556283825,-0.0032310498410882357,-0.008194639707757578,0.002,8e-05,0,-0.056255385674735356,-0.0006964887940222545,-4.500430853978829e-06,-0.0,-0.0007009892248762334,0.2,0.02,0,-0.031931451840604363,-0.031448311330719625,-0.0006386290368120873,-0.0,-0.032086940367531715,-0.16020401870355017,0.0,0.16020401870355017,-0.16938756078135075,0.0,0.16938756078135075,-0.34824439701112725,0.0,0.34824439701112725,-0.15724155665359812,0,0.15724155665359812,-0.008986104738138323,0.008170009193426135,0.032086940367531715,0.4,0.03535580635070801,0.21111226081848145,STABILIZE
0.03,0.005,0.03,-0.03884491845384329,-0.005126120289917379,-0.00019422459226921645,-0.0031761465117197307,-0.008496491393906326,0.03,0.005,0.03,-0.03696404613218389,-0.004896867319210122,-0.00018482023066091944,-0.003090952569433477,-0.00817264011930452,0.002,8e-05,0,-0.06894899220519334,-0.0007575478923047791,-5.515919376415467e-06,-0.0,-0.0007630638116811946,0.2,0.02,0,-0.037389948688194216,-0.032576027720112304,-0.0007477989737638843,-0.0,-0.033323826693876187,-0.1632289106403374,0.0,0.1632289106403374,-0.1708706763305793,0.0,0.1708706763305793,-0.3787739461523896,0.0,0.3787739461523896,-0.1628801386005615,0,0.1628801386005615,-0.008519690168570885,0.008148453347595891,0.033323826693876187,0.4,0.03351235389709473,0.24463510513305664,STABILIZE
0.03,0.005,0.03,-0.04451170548542817,-0.005079187564370647,-0.00022255852742714084,-0.0006962135908073865,-0.005997959682605174,0.03,0.005,0.03,-0.04220724763725738,-0.004699524392504044,-0.00021103623818628691,-0.000326482611699368,-0.005237043242389699,0.002,8e-05,0,-0.08228242656024017,-0.0007967244176643016,-6.582594124819214e-06,-0.0,-0.0008033070117891209,0.2,0.02,0,-0.04271458861534839,-0.031816788775265996,-0.0008542917723069678,-0.0,-0.032671080547572964,-0.15665081308346815,0.0,0.15665081308346815,-0.16930625214568826,0.0,0.16930625214568826,-0.3983622088321508,0.0,0.3983622088321508,-0.15908394387633,0,0.15908394387633,-0.0060124773970544,0.00522036951055447,0.032671080547572964,0.4,0.03347063064575195,0.27811384201049805,STABILIZE
0.03,0.005,0.03,-0.050191968937213935,-0.005099621503941075,-0.00025095984468606966,-0.00017899093398609928,-0.0055295722826132435,0.03,0.005,0.03,-0.04746389650289287,-0.00471930920482828,-0.00023731948251446436,0.0008653543706559678,-0.004091274316686776,0.002,8e-05,0,-0.09655115619244276,-0.0008540110986510155,-7.724092495395421e-06,-0.0,-0.000861735191146411,0.2,0.02,0,-0.04800733745761884,-0.03167812671613109,-0.0009601467491523769,-0.0,-0.03263827346528347,-0.15731030682760933,0.0,0.15731030682760933,-0.16998738346470252,0.0,0.16998738346470252,-0.42700554932550777,0.0,0.42700554932550777,-0.15839063358065547,0,0.15839063358065547,-0.00554086121383605,0.00407597254309113,0.03263827346528347,0.4,0.033415794372558594,0.311542272567749,STABILIZE
0.03,0.005,0.03,-0.05588866150437629,-0.005110943405608411,-0.0002794433075218815,0.00015070299468206128,-0.005239683718448231,0.03,0.005,0.03,-0.052705117527290145,-0.004702304664708789,-0.00026352558763645075,0.0019374864127815114,-0.0030283438395637277,0.002,8e-05,0,-0.11187461989492413,-0.0009165242795176106,-8.94996959159393e-06,-0.0,-0.0009254742491092045,0.2,0.02,0,-0.05323188837090626,-0.031248990793304916,-0.0010646377674181254,0.0,-0.03231362856072304,-0.1567434888236263,0.0,0.1567434888236263,-0.17036478018694703,0.0,0.17036478018694703,-0.4582621397588053,0.0,0.4582621397588053,-0.15624495396652457,0,0.15624495396652457,-0.005247922485848279,0.0030140440379203296,0.03231362856072304,0.4,0.03343820571899414,0.34499526023864746,STABILIZE
0.03,0.005,0.03,-0.06134862214070187,-0.0048911246527803655,-0.00030674311070350935,0.0018712713671201855,-0.0033265963963636895,0.03,0.005,0.03,-0.057625025098371495,-0.004407336025504966,-0.0002881251254918575,0.0029081285610785307,-0.0017873325899182926,0.002,8e-05,0,-0.12803276267210248,-0.000964982420749809,-1.0242621013768199e-05,-0.0,-0.0009752250417635772,0.2,0.02,0,-0.058001903421259084,-0.028487065213978133,-0.0011600380684251817,0.0,-0.029647103282403314,-0.14691120085016554,0.0,0.14691120085016554,-0.16303748842601218,0.0,0.16303748842601218,-0.4824912103749045,0.0,0.4824912103749045,-0.14243532606989065,0,0.14243532606989065,-0.003331029359566214,0.001779057271981937,0.029647103282403314,0.4,0.03348898887634277,0.37848496437072754,STABILIZE
0.03,0.005,0.03,-0.06678274438549757,-0.004875266982061471,-0.00033391372192748787,0.002233182490184121,-0.002975998213804838,0.03,0.005,0.03,-0.06239835468624164,-0.004282431473919729,-0.0003119917734312082,0.004350589945221053,-0.0002438333021298842,0.002,8e-05,0,-0.14518803549650508,-0.0010260661722527589,-1.1615042839720408e-05,-0.0,-0.0010376812150924794,0.2,0.02,0,-0.0627224718497818,-0.02823397580376401,-0.001254449436995636,0.0,-0.029488425240759647,-0.1427477157973243,0.0,0.1427477157973243,-0.16250889940204905,0.0,0.16250889940204905,-0.5130330861263794,0.0,0.5130330861263794,-0.14116987901882005,0,0.14116987901882005,-0.002976589955804168,0.0002365000693507142,0.029488425240759647,0.4,0.033438920974731445,0.411912202835083,STABILIZE
0.03,0.005,0.03,-0.0721193474203497,-0.0047830024549996965,-0.0003605967371017485,0.0032648611612220283,-0.0018787380308794162,0.03,0.005,0.03,-0.06711500232487701,-0.004227359068611437,-0.00033557501162438506,0.0047295154817446824,0.00016658140150886073,0.002,8e-05,0,-0.16312481310775195,-0.0010717385921230154,-1.3049985048620158e-05,-0.0,-0.0010847885771716355,0.2,0.02,0,-0.06739717041616168,-0.02793174431169841,-0.0013479434083232336,0.0,-0.029279687720021645,-0.14091196895371458,0.0,0.14091196895371458,-0.15943341516665654,0.0,0.15943341516665654,-0.5358692960615077,0.0,0.5358692960615077,-0.13965872155849204,0,0.13965872155849204,-0.0018783264071714394,-0.0001711603345514222,0.029279687720021645,0.4,0.033472299575805664,0.44543910026550293,STABILIZE
0.03,0.005,0.03,-0.0778113392758533,-0.00464217730968782,-0.0003890566963792665,0.0023530214142192902,-0.0026782125918477957,0.03,0.005,0.03,-0.07218458920544524,-0.004134566911530253,-0.0003609229460272262,0.002634404002971615,-0.001861085854585864,0.002,8e-05,0,-0.1834105088142903,-0.001102950703499583,-1.4672840705143225e-05,-0.0,-0.001117623544204726,0.2,0.02,0,-0.07243435094196497,-0.027387583275235928,-0.0014486870188392994,0.0,-0.028836270294075227,-0.13781889705100844,0.0,0.13781889705100844,-0.15473924365626066,0.0,0.15473924365626066,-0.5514753517497915,0.0,0.5514753517497915,-0.13693791637617964,0,0.13693791637617964,-0.0026826529661786386,0.0018546795702559062,0.028836270294075227,0.4,0.03678441047668457,0.482166051864624,STABILIZE
0.03,0.005,0.03,-0.08293596560569301,-0.004595470441515418,-0.00041467982802846507,0.0026603236074749016,-0.002349826662068982,0.03,0.005,0.03,-0.07667775044486273,-0.004029208831183548,-0.0003833887522243137,0.0024390699824055483,-0.0019735276010023127,0.002,8e-05,0,-0.20233974962360848,-0.0011316437013567254,-1.618717996988868e-05,-0.0,-0.001147830881326614,0.2,0.02,0,-0.07692261469474772,-0.026832113643797173,-0.0015384522938949544,0.0,-0.028370565937692126,-0.13430696103945158,0.0,0.13430696103945158,-0.15318234805051395,0.0,0.15318234805051395,-0.5658218506783627,0.0,0.5658218506783627,-0.13416056821898587,0,0.13416056821898587,-0.002354441317009029,0.001968019974098075,0.028370565937692126,0.4,0.03345441818237305,0.5156338214874268,STABILIZE
0.03,0.005,0.03,-0.08784833536343256,-0.00440258950370715,-0.0004392416768171628,0.0036622283584448103,-0.0011796028220795026,0.03,0.005,0.03,-0.08101427302685146,-0.0038865007610579183,-0.0004050713651342573,0.003311727545514485,-0.00097984458067769,0.002,8e-05,0,-0.2218974030420595,-0.0011685374392071551,-1.775179224336476e-05,-0.0,-0.0011862892314505199,0.2,0.02,0,-0.08128755720127949,-0.026079809421600177,-0.0016257511440255898,0.0,-0.027705560565625766,-0.12955002536859728,0.0,0.12955002536859728,-0.14675298345690502,0.0,0.14675298345690502,-0.5842687196035775,0.0,0.5842687196035775,-0.13039904710800088,0,0.13039904710800088,-0.0011818297863101302,0.0009771573958843667,0.027705560565625766,0.4,0.03347373008728027,0.5491385459899902,STABILIZE
0.03,0.005,0.03,-0.09345028608472773,-0.004345289574858286,-0.0004672514304236387,0.002879943068840771,-0.001932597936441154,0.03,0.005,0.03,-0.08597932334013045,-0.003851262254579415,-0.0004298966167006523,0.0027745693973885333,-0.001506589473891534,0.002,8e-05,0,-0.24617376036615055,-0.0012553698719615384,-1.9693900829292047e-05,-0.0,-0.0012750637727908306,0.2,0.02,0,-0.0861679550851367,-0.0252373302336395,-0.001723359101702734,0.0,-0.026960689335342233,-0.1283754084859805,0.0,0.1283754084859805,-0.14484298582860955,0.0,0.14484298582860955,-0.6276849359807692,0.0,0.6276849359807692,-0.1261866511681975,0,0.1261866511681975,-0.0019359113180596511,0.0015023295229029887,0.026960689335342233,0.4,0.03867602348327637,0.5878312587738037,STABILIZE
0.03,0.005,0.03,-0.09899819006170842,-0.004184928213344405,-0.0004949909503085421,0.00375861760924792,-0.0009213015544050265,0.03,0.005,0.03,-0.0907916746047717,-0.0036300816783208126,-0.00045395837302385846,0.003578604802979855,-0.0005054352483648164,0.002,8e-05,0,-0.27168903101947844,-0.0012831221361109754,-2.1735122481558276e-05,-0.0,-0.0013048572585925336,0.2,0.02,0,-0.09102670666867779,-0.02443388430172387,-0.0018205341333735559,0.0,-0.02625441843509743,-0.12100272261069375,0.0,0.12100272261069375,-0.13949760711148015,0.0,0.13949760711148015,-0.6415610680554877,0.0,0.6415610680554877,-0.12216942150861934,0,0.12216942150861934,-0.0009223771779086346,0.0005034696476571599,0.02625441843509743,0.4,0.03977060317993164,0.6276416778564453,STABILIZE
0.03,0.005,0.03,-0.10364152763724663,-0.004163195936988532,-0.0005182076381862332,0.0020543988132857897,-0.0026270047618889747,0.03,0.005,0.03,-0.09469315407439469,-0.0034980492397854385,-0.00047346577037197347,0.0034728396221725254,-0.0004986753879848869,0.002,8e-05,0,-0.2938038614086044,-0.0013218706088802665,-2.3504308912688355e-05,-0.0,-0.0013453749177929548,0.2,0.02,0,-0.0951015206302471,-0.024356401191762873,-0.001902030412604942,0.0,-0.026258431604367815,-0.11660164132618128,0.0,0.11660164132618128,-0.13877319789961773,0.0,0.13877319789961773,-0.6609353044401333,0.0,0.6609353044401333,-0.12178200595881436,0,0.12178200595881436,-0.002628058760062317,0.0004930905750761654,0.026258431604367815,0.4,0.03345990180969238,0.6610274314880371,STABILIZE
0.03,0.005,0.03,-0.1086735891610886,-0.004161741738567629,-0.000543367945805443,0.0015739166095492224,-0.0031311930748238494,0.03,0.005,0.03,-0.0987754044392125,-0.0033762050901106496,-0.0004938770221960625,0.004288806273886479,0.0004187241615797666,0.002,8e-05,0,-0.31866450579876865,-0.0013707249128549232,-2.5493160463901492e-05,-0.0,-0.0013962180733188246,0.2,0.02,0,-0.09952659966090745,-0.024398265682436693,-0.001990531993218149,0.0,-0.026388797675654843,-0.11254016967035499,0.0,0.11254016967035499,-0.13872472461892096,0.0,0.13872472461892096,-0.6853624564274616,0.0,0.6853624564274616,-0.12199132841218345,0,0.12199132841218345,-0.0031302944515199617,-0.0004253899882447297,0.026388797675654843,0.4,0.03627371788024902,0.6973028182983398,STABILIZE
0.03,0.005,0.03,-0.11305196280470033,-0.003917646700895675,-0.0005652598140235016,0.002656635408299403,-0.0018262711066197737,0.03,0.005,0.03,-0.10224649922765681,-0.0031058388692536613,-0.0005112324961382841,0.005122960711699253,0.0015058893463073073,0.002,8e-05,0,-0.3424417300397954,-0.0014183465016395925,-2.7395338403183633e-05,-0.0,-0.0014457418400427762,0.2,0.02,0,-0.1035311198139849,-0.023887553451518367,-0.002070622396279698,0.0,-0.025958175847798064,-0.10352796230845539,0.0,0.10352796230845539,-0.13058822336318918,0.0,0.13058822336318918,-0.7091732508197962,0.0,0.7091732508197962,-0.11943776725759182,0,0.11943776725759182,-0.0018231279906175876,-0.0015096930840481251,0.025958175847798064,0.4,0.03352808952331543,0.7308285236358643,STABILIZE
0.03,0.005,0.03,-0.11753864742835697,-0.003849680040315355,-0.0005876932371417849,0.003088101152058354,-0.0013492721253987863,0.03,0.005,0.03,-0.10572976539196431,-0.002988723601640559,-0.0005286488269598215,0.004924159937316151,0.0014067875087157705,0.002,8e-05,0,-0.3676629362804911,-0.001442692208935221,-2.941303490243929e-05,-0.0,-0.0014721052438376604,0.2,0.02,0,-0.10751424060073266,-0.022784070164799566,-0.002150284812014653,0.0,-0.02493435497681422,-0.09962412005468531,0.0,0.09962412005468531,-0.12832266801051184,0.0,0.12832266801051184,-0.7213461044676105,0.0,0.7213461044676105,-0.11392035082399783,0,0.11392035082399783,-0.0013464723654258261,-0.0014094674640450068,0.02493435497681422,0.4,0.03496408462524414,0.7658014297485352,STABILIZE
0.03,0.005,0.03,-0.1223634318625617,-0.0035937228341749623,-0.0006118171593128085,0.005193057710970327,0.0009875177174825563,0.03,0.005,0.03,-0.1096089873289584,-0.002889424106697097,-0.000548044936644792,0.004626296121441034,0.0011888270780991443,0.002,8e-05,0,-0.3970458923047542,-0.0014590524052066872,-3.1763671384380336e-05,-0.0,-0.0014908160765910675,0.2,0.02,0,-0.11179121042364397,-0.021237900985735445,-0.0022358242084728796,0.0,-0.023473725194208324,-0.09631413688990324,0.0,0.09631413688990324,-0.11979076113916541,0.0,0.11979076113916541,-0.7295262026033436,0.0,0.7295262026033436,-0.10618950492867722,0,0.10618950492867722,0.00098971934057755,-0.001186994815005713,0.023473725194208324,0.4,0.04027676582336426,0.8060908317565918,STABILIZE
0.03,0.005,0.03,-0.12623058879083007,-0.0034664113038262324,-0.0006311529439541504,0.00403426947330824,-6.329477447214286e-05,0.03,0.005,0.03,-0.11273919782866637,-0.002805833138093519,-0.0005636959891433318,0.0027708788711835286,-0.0005986502560533223,0.002,8e-05,0,-0.4218583901597274,-0.001482748603794176,-3.37486712127782e-05,-0.0,-0.0015164972750069542,0.2,0.02,0,-0.11512253313578609,-0.019907363333943922,-0.002302450662715722,0.0,-0.022209813996659646,-0.09352777126978397,0.0,0.09352777126978397,-0.11554704346087441,0.0,0.11554704346087441,-0.741374301897088,0.0,0.741374301897088,-0.0995368166697196,0,0.0995368166697196,-6.433468070711068e-05,0.0005985393941976599,0.022209813996659646,0.4,0.03346824645996094,0.8395471572875977,STABILIZE
0.03,0.005,0.03,-0.13005345509893515,-0.003430987677880414,-0.0006502672754946757,0.0037395517143328973,-0.0003417032390421928,0.03,0.005,0.03,-0.11566809972586381,-0.002628662764821104,-0.000578340498629319,0.0034211140357678247,0.00021411077231740187,0.002,8e-05,0,-0.4470925630529799,-0.0015098293493321794,-3.5767405044238396e-05,-0.0,-0.0015455967543764177,0.2,0.02,0,-0.1182590199354057,-0.018766455488322797,-0.002365180398708114,0.0,-0.02113163588703091,-0.08762209216070346,0.0,0.08762209216070346,-0.11436625592934714,0.0,0.11436625592934714,-0.7549146746660896,0.0,0.7549146746660896,-0.09383227744161397,0,0.09383227744161397,-0.0003413521355768325,-0.00021467008625194157,0.02113163588703091,0.4,0.033426523208618164,0.8729803562164307,STABILIZE
0.03,0.005,0.03,-0.13424558529094177,-0.0029564625769847716,-0.0006712279264547089,0.005339616536465742,0.0017119260330262613,0.03,0.005,0.03,-0.1189511335043941,-0.002315330407368802,-0.0005947556675219705,0.005054580704579869,0.0021444946296890963,0.002,8e-05,0,-0.4797418364932726,-0.0015350406701907136,-3.837934691946181e-05,-0.0,-0.0015734200171101753,0.2,0.02,0,-0.12202111631655928,-0.017687900347335455,-0.0024404223263311854,0.0,-0.02012832267366664,-0.07717768024562673,0.0,0.07717768024562673,-0.09854875256615905,0.0,0.09854875256615905,-0.7675203350953568,0.0,0.7675203350953568,-0.08843950173667728,0,0.08843950173667728,0.0017152341495029657,-0.0021418496146315322,0.02012832267366664,0.4,0.04253864288330078,0.9155545234680176,STABILIZE
0.03,0.005,0.03,-0.13801061636172193,-0.0033699711652363544,-0.0006900530818086096,-4.0807403617203195e-05,-0.0041008316506621675,0.03,0.005,0.03,-0.12170556168719046,-0.0024654095486161985,-0.0006085278084359523,0.002729468097404069,-0.0003444692596480817,0.002,8e-05,0,-0.5058074817481262,-0.0015553740241145712,-4.04645985398501e-05,-0.0,-0.0015958386226544213,0.2,0.02,0,-0.12481781738970149,-0.016688311990161703,-0.00249635634779403,0.0,-0.019184668337955735,-0.08218031828720662,0.0,0.08218031828720662,-0.11233237217454516,0.0,0.11233237217454516,-0.7776870120572856,0.0,0.7776870120572856,-0.08344155995080851,0,0.08344155995080851,-0.004101328962666074,0.00033849673249755266,0.019184668337955735,0.4,0.033516883850097656,0.9490609169006348,STABILIZE
0.03,0.005,0.03,-0.1414342831874344,-0.003008652967836177,-0.000707171415937172,0.003133938643876124,-0.0005818857398972254,0.03,0.005,0.03,-0.12444398120745229,-0.0024064707333494007,-0.0006222199060372614,0.0015381959715528965,-0.0014904946678337657,0.002,8e-05,0,-0.5327947023174445,-0.0015810569075576388,-4.262357618539557e-05,-0.0,-0.0016236804837430343,0.2,0.02,0,-0.12785661283456987,-0.01780290236418815,-0.0025571322566913975,0.0,-0.020360034620879548,-0.0802156911116467,0.0,0.0802156911116467,-0.10028843226120591,0.0,0.10028843226120591,-0.7905284537788194,0.0,0.7905284537788194,-0.08901451182094075,0,0.08901451182094075,-0.000584200663749224,0.0014895888538827065,0.020360034620879548,0.4,0.03413820266723633,0.983203649520874,STABILIZE
0.03,0.005,0.03,-0.14450559276470074,-0.002754861111859559,-0.0007225279638235037,0.0019449177973589686,-0.0015324712783240941,0.03,0.005,0.03,-0.12675530467610696,-0.002073179202727105,-0.0006337765233805348,0.0024046004295690915,-0.0003023552965385483,0.002,8e-05,0,-0.5595595450612397,-0.001600477420352734,-4.476476360489918e-05,-0.0,-0.0016452421839576333,0.2,0.02,0,-0.130691560560237,-0.016952350014694032,-0.0026138312112047404,0.0,-0.019566181225898774,-0.06910597342423684,0.0,0.06910597342423684,-0.09182870372865197,0.0,0.09182870372865197,-0.800238710176367,0.0,0.800238710176367,-0.08476175007347016,0,0.08476175007347016,-0.0015329168970680171,0.0003000878719917858,0.019566181225898774,0.4,0.03344607353210449,1.016641616821289,STABILIZE
0.03,0.005,0.03,-0.14762158310915469,-0.0027944601692797724,-0.0007381079155457734,0.005662770201729676,0.00213020211690413,0.03,0.005,0.03,-0.12907325846373222,-0.0020787707334455952,-0.0006453662923186611,0.003841455672910908,0.0011173186471466518,0.002,8e-05,0,-0.5867067467248426,-0.0016230639458680752,-4.693653973798741e-05,-0.0,-0.0016700004856060626,0.2,0.02,0,-0.1331717903973893,-0.014828679861856101,-0.002663435807947786,0.0,-0.01749211566980389,-0.06929235778151985,0.0,0.06929235778151985,-0.09314867230932575,0.0,0.09314867230932575,-0.8115319729340376,0.0,0.8115319729340376,-0.0741433993092805,0,0.0741433993092805,0.0021316461951431404,-0.0011145611319511519,0.01749211566980389,0.4,0.03345179557800293,1.050081729888916,STABILIZE
0.03,0.005,0.03,-0.15021128022283306,-0.002322788184881748,-0.0007510564011141653,0.0068354286291810945,0.0037615840431851812,0.03,0.005,0.03,-0.13108985117182093,-0.0018087511822623447,-0.0006554492558591046,0.005956961168213361,0.0034927607300919115,0.002,8e-05,0,-0.6141912846520164,-0.0016434549978058997,-4.913530277216132e-05,-0.0,-0.001692590300578061,0.2,0.02,0,-0.13588641890641906,-0.01623228959559991,-0.0027177283781283815,0.0,-0.018950017973728292,-0.06029170607541149,0.0,0.06029170607541149,-0.0774262728293916,0.0,0.0774262728293916,-0.8217274989029498,0.0,0.8217274989029498,-0.08116144797799955,0,0.08116144797799955,0.0037665278836400296,-0.003487428814094952,0.018950017973728292,0.4,0.033447265625,1.0835390090942383,STABILIZE
0.03,0.005,0.03,-0.15293475880711374,-0.002409105959260765,-0.0007646737940355687,0.003457686383019613,0.0002839066297232796,0.03,0.005,0.03,-0.13323567273767659,-0.0018981282069374039,-0.0006661783636883829,0.0017568339618956202,-0.0008074726087301666,0.002,8e-05,0,-0.6422468560317336,-0.0016544734270220985,-5.137974848253869e-05,-0.0,-0.001705853175504637,0.2,0.02,0,-0.1384830148004968,-0.015312462716664199,-0.002769660296009936,0.0,-0.018082123012674135,-0.0632709402312468,0.0,0.0632709402312468,-0.08030353197535883,0.0,0.08030353197535883,-0.8272367135110492,0.0,0.8272367135110492,-0.076562313583321,0,0.076562313583321,0.00028282737962679515,0.0008078512620425698,0.018082123012674135,0.4,0.033914804458618164,1.1174845695495605,STABILIZE
0.03,0.005,0.03,-0.1553257864072417,-0.002102510893524719,-0.0007766289320362085,0.006847822877636615,0.003968683052075687,0.03,0.005,0.03,-0.13497131006618723,-0.00152620421035981,-0.0006748565503309361,0.005446387531550312,0.003245326770859566,0.002,8e-05,0,-0.6709329629867758,-0.0016816438355504184,-5.367463703894207e-05,-0.0,-0.0017353184725893605,0.2,0.02,0,-0.1410014784911905,-0.014763798193843814,-0.00282002956982381,0.0,-0.017583827763667625,-0.05087347367866034,0.0,0.05087347367866034,-0.07008369645082398,0.0,0.07008369645082398,-0.8408219177752092,0.0,0.8408219177752092,-0.07381899096921907,0,0.07381899096921907,0.0039728609855662214,-0.0032402108892564943,0.017583827763667625,0.4,0.03411674499511719,1.1516425609588623,STABILIZE
0.03,0.005,0.03,-0.1576009243669571,-0.002041391411322161,-0.0007880046218347855,0.0027565041285779524,-7.289190457899402e-05,0.03,0.005,0.03,-0.1366282691793094,-0.0014867239535938603,-0.000683141345896547,0.003148990596187245,0.0009791252966968376,0.002,8e-05,0,-0.6990442669701685,-0.001681544167983627,-5.592354135761349e-05,-0.0,-0.0017374677093412406,0.2,0.02,0,-0.14330539078164134,-0.01378139654368982,-0.002866107815632827,0.0,-0.01664750435932265,-0.04955746511979534,0.0,0.04955746511979534,-0.06804638037740536,0.0,0.06804638037740536,-0.8407720839918136,0.0,0.8407720839918136,-0.0689069827184491,0,0.0689069827184491,-7.171430346196924e-05,-0.0009792122523047738,0.01664750435932265,0.4,0.03343510627746582,1.1850073337554932,STABILIZE
0.03,0.005,0.03,-0.15975677353785317,-0.0019283218461328226,-0.0007987838676892659,0.004728618816907452,0.002001513103085363,0.03,0.005,0.03,-0.13842204673807343,-0.001604463104545377,-0.0006921102336903672,0.0028572924890408074,0.0005607191508050632,0.002,8e-05,0,-0.727194592847256,-0.0016786235666008625,-5.817556742778048e-05,-0.0,-0.001736799134028643,0.2,0.02,0,-0.1453105275640627,-0.011956770489716988,-0.0029062105512812544,0.0,-0.014862981040998242,-0.053482103484845896,0.0,0.053482103484845896,-0.06427739487109409,0.0,0.06427739487109409,-0.8393117833004312,0.0,0.8393117833004312,-0.05978385244858493,0,0.05978385244858493,0.002002097081835985,-0.0005586304170073304,0.014862981040998242,0.4,0.033539772033691406,1.2185523509979248,STABILIZE
0.03,0.005,0.03,-0.16156365629627056,-0.0015785274621947444,-0.0008078182814813528,0.00512848267514473,0.002742136931468633,0.03,0.005,0.03,-0.14032946204841526,-0.0016663546293520803,-0.0007016473102420763,-0.0013773173866872867,-0.0037453193262814433,0.002,8e-05,0,-0.7564648222637005,-0.0017047356187834778,-6.051718578109604e-05,-0.0,-0.0017652528045645737,0.2,0.02,0,-0.14695946791745623,-0.00960363963563638,-0.0029391893583491247,0.0,-0.012542828993985504,-0.05554515431173601,0.0,0.05554515431173601,-0.05261758207315815,0.0,0.05261758207315815,-0.8523678093917388,0.0,0.8523678093917388,-0.04801819817818189,0,0.04801819817818189,0.002738997107874806,0.0037476161289271537,0.012542828993985504,0.4,0.03433990478515625,1.252917766571045,STABILIZE
0.03,0.005,0.03,-0.16337321699258567,-0.0016216121726899651,-0.0008168660849629284,0.004090151013505641,0.0016516727558527479,0.03,0.005,0.03,-0.14191691002145823,-0.0014225690035379879,-0.0007095845501072912,0.0006564710454895872,-0.001475682508155692,0.002,8e-05,0,-0.7851314706235064,-0.0017126140440290763,-6.281051764988052e-05,-0.0,-0.0017754245616789569,0.2,0.02,0,-0.14855541874333933,-0.009534591430714758,-0.0029711083748667866,0.0,-0.012505699805581545,-0.0474189667845996,0.0,0.0474189667845996,-0.05405373908966551,0.0,0.05405373908966551,-0.8563070220145381,0.0,0.8563070220145381,-0.04767295715357379,0,0.04767295715357379,0.0016504443425328589,0.0014770562716105856,0.012505699805581545,0.4,0.033477067947387695,1.286391019821167,STABILIZE
0.03,0.005,0.03,-0.16521362662458075,-0.001644198405576795,-0.0008260681331229038,0.002742212048133082,0.0002719455094333835,0.03,0.005,0.03,-0.14344874533100577,-0.001368522056056612,-0.0007172437266550288,0.0023631140055320357,0.0002773482228203947,0.002,8e-05,0,-0.8140625656169489,-0.0017231113274219988,-6.512500524935592e-05,-0.0,-0.0017882363326713548,0.2,0.02,0,-0.1501152095048232,-0.00928998065966819,-0.003002304190096464,0.0,-0.012292284849764653,-0.04561740186855374,0.0,0.04561740186855374,-0.0548066135192265,0.0,0.0548066135192265,-0.8615556637109995,0.0,0.8615556637109995,-0.04644990329834095,0,0.04644990329834095,0.0002721702672861856,-0.00027712766445806176,0.012292284849764653,0.4,0.03358006477355957,1.3199660778045654,STABILIZE
0.03,0.005,0.03,-0.166858571589998,-0.0014633596391965867,-0.0008342928579499901,0.0011343109694435395,-0.0011633415277030373,0.03,0.005,0.03,-0.14512706430914357,-0.0014930494976660574,-0.0007256353215457179,0.0017329890672144951,-0.00048569575199727995,0.002,8e-05,0,-0.843229326123224,-0.0017298029631514008,-6.745834608985792e-05,-0.0,-0.0017972613092412588,0.2,0.02,0,-0.15167361384581085,-0.009242481509897073,-0.003033472276916217,0.0,-0.01227595378681329,-0.049768316588868586,0.0,0.049768316588868586,-0.048778654639886225,0.0,0.048778654639886225,-0.8649014815757003,0.0,0.8649014815757003,-0.046212407549485364,0,0.046212407549485364,-0.0011637328913806024,0.00048475729092565774,0.01227595378681329,0.4,0.033722639083862305,1.3536992073059082,STABILIZE
0.03,0.005,0.03,-0.16838702338101644,-0.0013735153783755113,-0.0008419351169050822,0.0024603849937648165,0.0002449344984842231,0.03,0.005,0.03,-0.14665899066984414,-0.0013766377371699956,-0.0007332949533492208,0.00046794768743666084,-0.0016419850030825558,0.002,8e-05,0,-0.8722114015086836,-0.001736280964092107,-6.977691212069469e-05,-0.0,-0.0018060578762128016,0.2,0.02,0,-0.15308835747036034,-0.008475557363322372,-0.003061767149407207,0.0,-0.011537324512729579,-0.04588792457233319,0.0,0.04588792457233319,-0.04578384594585038,0.0,0.04578384594585038,-0.8681404820460534,0.0,0.8681404820460534,-0.04237778681661186,0,0.04237778681661186,0.00024371996709513077,0.001642165715308564,0.011537324512729579,0.4,0.033384084701538086,1.3870759010314941,STABILIZE
0.03,0.005,0.03,-0.17014130165117056,-0.0015736742779540634,-0.0008507065082558528,0.0006895608783377265,-0.0017348199078721896,0.03,0.005,0.03,-0.14811734917944497,-0.0013082196329049973,-0.0007405867458972248,0.0006133873395991593,-0.0014354190392030627,0.002,8e-05,0,-0.9013570919031831,-0.0017430082812349183,-7.210856735225466e-05,-0.0,-0.0018151168485871728,0.2,0.02,0,-0.1539517711407251,-0.005163498126849107,-0.0030790354228145025,0.0,-0.00824253354966361,-0.04360732109683325,0.0,0.04360732109683325,-0.05245580926513545,0.0,0.05245580926513545,-0.8715041406174591,0.0,0.8715041406174591,-0.02581749063424553,0,0.02581749063424553,-0.0017354665318602665,0.0014346371832798753,0.00824253354966361,0.4,0.03344297409057617,1.4205234050750732,STABILIZE
0.03,0.005,0.03,-0.17179024247341063,-0.0014785278667341956,-0.0008589512123670531,-0.0001500243286661418,-0.002487503407767391,0.03,0.005,0.03,-0.15018801598113937,-0.0018566697650601448,-0.0007509400799056969,-0.0036198196777582968,-0.006227429522724138,0.002,8e-05,0,-0.9304582502321346,-0.0017395762161695754,-7.443666001857077e-05,-0.0,-0.0018140128761881462,0.2,0.02,0,-0.15517240545694358,-0.007296570126631742,-0.0031034481091388715,0.0,-0.010400018235770614,-0.0618889921686715,0.0,0.0618889921686715,-0.049284262224473185,0.0,0.049284262224473185,-0.8697881080847877,0.0,0.8697881080847877,-0.03648285063315871,0,0.03648285063315871,-0.0024914681932185112,0.0062258443528834745,0.010400018235770614,0.4,0.03345775604248047,1.4539780616760254,STABILIZE
0.03,0.005,0.03,-0.17292627414428896,-0.0010176690499968041,-0.0008646313707214448,0.0035400338674283893,0.0016577334467101404,0.03,0.005,0.03,-0.15274452017540596,-0.002290143190005094,-0.0007637226008770299,-0.0090967234136732,-0.012150589204555324,0.002,8e-05,0,-0.9590960552563348,-0.0017102696799781159,-7.672768442050679e-05,0.0,-0.0017869973643986226,0.2,0.02,0,-0.15550670571287334,-0.001996464433089254,-0.003110134114257467,0.0,-0.00510659854734672,-0.07633810633350313,0.0,0.07633810633350313,-0.03392230166656014,0.0,0.03392230166656014,-0.8551348399890579,0.0,0.8551348399890579,-0.00998232216544627,0,0.00998232216544627,0.0016556164925838124,0.01215087783774005,0.00510659854734672,0.4,0.033489227294921875,1.4874823093414307,STABILIZE
0.03,0.005,0.03,-0.17354292989386175,-0.0005534863421904925,-0.0008677146494693087,0.010164310099120742,0.008743109107460942,0.03,0.005,0.03,-0.15579760917983373,-0.002740334565295839,-0.0007789880458991687,-0.014268376525924107,-0.017787699137119115,0.002,8e-05,0,-0.987342046102336,-0.0016901672357421532,-7.898736368818689e-05,0.0,-0.0017691545994303402,0.2,0.02,0,-0.15494388882462998,0.0033677510887034703,-0.0030988777764925997,0.0,0.00026887331221087064,-0.0913444855098613,0.0,0.0913444855098613,-0.018449544739683084,0.0,0.018449544739683084,-0.8450836178710766,0.0,0.8450836178710766,0.01683875544351735,0,-0.01683875544351735,0.008748336387377275,0.017785128841561013,-0.00026887331221087064,0.4,0.03342390060424805,1.5209145545959473,STABILIZE
0.03,0.005,0.03,-0.17491150401149183,-0.0012270225293111252,-0.0008745575200574592,0.0025066914544559548,0.00040511140508737043,0.03,0.005,0.03,-0.15825593881494554,-0.0022040646596319154,-0.0007912796940747277,-0.0034620096119587474,-0.00645735396566539,0.002,8e-05,0,-1.0157062625590747,-0.0016953670817109977,-8.125650100472598e-05,0.0,-0.0017766235827157237,0.2,0.02,0,-0.1541220771592486,0.00491207802964943,-0.0030824415431849723,0.0,0.0018296364864644576,-0.07346882198773051,0.0,0.07346882198773051,-0.040900750977037506,0.0,0.040900750977037506,-0.8476835408554988,0.0,0.8476835408554988,0.02456039014824715,0,-0.02456039014824715,0.0004078793750268075,0.006457179717481475,-0.0018296364864644576,0.4,0.03346085548400879,1.5543766021728516,STABILIZE
0.03,0.005,0.03,-0.17557546784695208,-0.0005958334947102576,-0.0008778773392347604,0.0042131316652649405,0.0027394208313199224,0.03,0.005,0.03,-0.16132148812873484,-0.0027509886281314707,-0.0008066074406436742,-0.004600823389937563,-0.008158419458712707,0.002,8e-05,0,-1.044195609267762,-0.001704400762498619,-8.353564874142097e-05,0.0,-0.0017879364112400398,0.2,0.02,0,-0.1535864267602805,0.003204576636204647,-0.00307172853520561,0.0,0.0001328481009990369,-0.09169962093771569,0.0,0.09169962093771569,-0.01986111649034192,0.0,0.01986111649034192,-0.8522003812493094,0.0,0.8522003812493094,0.016022883181023233,0,-0.016022883181023233,0.00274170224303808,0.008157653055008629,-0.0001328481009990369,0.4,0.03343033790588379,1.5878055095672607,STABILIZE
0.03,0.005,0.03,-0.1755491497788913,2.3610458823955062e-05,-0.0008777457488944565,0.005758497998005334,0.004904362707934833,0.03,0.005,0.03,-0.1649710669470385,-0.003274109262705349,-0.0008248553347351926,-0.005325573347514532,-0.009424537944955073,0.002,8e-05,0,-1.0726974148814257,-0.0017046355284525286,-8.581579319051406e-05,-0.0,-0.0017904513216430427,0.2,0.02,0,-0.15336554289606769,0.0013210618572830311,-0.003067310857921354,-0.0,-0.0017462490006383228,-0.10913697542351164,0.0,0.10913697542351164,0.0007870152941318355,0.0,-0.0007870152941318355,-0.8523177642262643,0.0,0.8523177642262643,0.006605309286415156,0,-0.006605309286415156,0.004905449177498381,0.00942397248583952,0.0017462490006383228,0.4,0.033440351486206055,1.6212518215179443,STABILIZE
0.03,0.005,0.03,-0.1764413877773896,-0.0007984746074577861,-0.0008822069388869481,0.004293814196699548,0.002613132650354814,0.03,0.005,0.03,-0.16835784397137538,-0.003030867839753405,-0.0008417892198568769,-0.008249171372741643,-0.012121828432351925,0.002,8e-05,0,-1.1014491110749558,-0.0017153494449174361,-8.811592888599647e-05,-0.0,-0.0018034653738034326,0.2,0.02,0,-0.1530299249327381,0.0020023239089152866,-0.003060598498654762,-0.0,-0.0010582745897394752,-0.10102892799178016,0.0,0.10102892799178016,-0.02661582024859287,0.0,0.02661582024859287,-0.857674722458718,0.0,0.857674722458718,0.010011619544576432,0,-0.010011619544576432,0.002615250726924715,0.01212137163967204,0.0010582745897394752,0.4,0.033522844314575195,1.6547682285308838,STABILIZE
0.03,0.005,0.03,-0.17680963610401915,-0.0003300710405196319,-0.0008840481805200957,0.0026651603506766797,0.0014510411296369521,0.03,0.005,0.03,-0.17214945416903307,-0.0033985238565516804,-0.0008607472708451653,-0.006457358819538692,-0.010716629946935539,0.002,8e-05,0,-1.1311460605470343,-0.0017745458347312238,-9.049168484376275e-05,-0.0,-0.0018650375195749865,0.2,0.02,0,-0.15163739630143702,0.008321076495559456,-0.0030327479260287404,0.0,0.005288328569530716,-0.11328412855172268,0.0,0.11328412855172268,-0.011002368017321063,0.0,0.011002368017321063,-0.8872729173656119,0.0,0.8872729173656119,0.04160538247779728,0,-0.04160538247779728,0.0014588226369861624,0.010715573446776911,-0.005288328569530716,0.4,0.03346991539001465,1.6882429122924805,STABILIZE
0.03,0.005,0.03,-0.17767228505251634,-0.0007730175977490798,-0.0008883614252625817,-0.007919714403625735,-0.009581093426637396,0.03,0.005,0.03,-0.17606666779805225,-0.0035102054835277944,-0.0008803333389902613,-0.0023548674222243827,-0.006745406244742439,0.002,8e-05,0,-1.1608187271093129,-0.0017726402275024227,-9.286549816874504e-05,-0.0,-0.0018655057256711678,0.2,0.02,0,-0.14774115431826784,0.023276085622279636,-0.002954823086365357,0.0,0.020321262535914278,-0.11700684945092649,0.0,0.11700684945092649,-0.02576725325830266,0.0,0.02576725325830266,-0.8863201137512113,0.0,0.8863201137512113,0.11638042811139818,0,-0.11638042811139818,-0.00956737225569509,0.00676485364050993,-0.020321262535914278,0.4,0.033478498458862305,1.7217590808868408,STABILIZE
0.03,0.005,0.03,-0.17779557368762502,-0.00011055816403972739,-0.0008889778684381251,0.006855279529689397,0.0058557434972115446,0.03,0.005,0.03,-0.18086081261370135,-0.004299113608415802,-0.0009043040630685068,-0.012634058279122586,-0.017837475950606897,0.002,8e-05,0,-1.1902885508173102,-0.001761789641496425,-9.522308406538483e-05,-0.0,-0.0018570127255618098,0.2,0.02,0,-0.14474030886409495,0.01793990520363625,-0.002894806177281899,0.0,0.01504509902635435,-0.14330378694719342,0.0,0.14330378694719342,-0.00368527213465758,0.0,0.00368527213465758,-0.8808948207482125,0.0,0.8808948207482125,0.08969952601818124,0,-0.08969952601818124,0.005883661807064356,0.017828286623613243,-0.01504509902635435,0.4,0.03345441818237305,1.7552738189697266,STABILIZE
0.03,0.005,0.03,-0.1774394347183604,0.00031954714913415034,-0.000887197173591802,0.006478288799224722,0.00591063877476707,0.03,0.005,0.03,-0.18362980584617772,-0.0024844905213170145,-0.0009181490292308886,0.009118365451161882,0.005715725900613979,0.002,8e-05,0,-1.219638824330372,-0.0017556435430757605,-9.757110594642976e-05,0.0,-0.0018532146490221903,0.2,0.02,0,-0.14342770400878302,0.007851600557700823,-0.0028685540801756605,-0.0,0.004983046477525163,-0.08281635071056716,0.0,0.08281635071056716,0.010651571637805012,0.0,-0.010651571637805012,-0.8778217715378802,0.0,0.8778217715378802,0.039258002788504116,0,-0.039258002788504116,0.005906721078517972,-0.005719774418394569,-0.004983046477525163,0.4,0.03343534469604492,1.788632869720459,STABILIZE
0.03,0.005,0.03,-0.1785115648387231,-0.00093490685644106,-0.0008925578241936156,-0.0012658396745009496,-0.003093304355135625,0.03,0.005,0.03,-0.18616685959401016,-0.0022123330918131885,-0.0009308342979700508,0.012867268710656096,0.009724101320872857,0.002,8e-05,0,-1.2497224813640229,-0.0017488808303769982,-9.997779850912184e-05,0.0,-0.0018488586288861201,0.2,0.02,0,-0.1425486996656976,0.005109996579606796,-0.002850973993313952,-0.0,0.002259022586292844,-0.07374443639377296,0.0,0.07374443639377296,-0.03116356188136867,0.0,0.03116356188136867,-0.8744404151884991,0.0,0.8744404151884991,0.02554998289803398,0,-0.02554998289803398,-0.0030976403288231176,-0.009722720952765789,-0.002259022586292844,0.4,0.034403324127197266,1.8230187892913818,STABILIZE
0.03,0.005,0.03,-0.17939972542932983,-0.0007891681239344256,-0.0008969986271466492,-0.0064276235552817,-0.008113790306362775,0.03,0.005,0.03,-0.1917630492578954,-0.004972450415991288,-0.000958815246289477,-0.006521988113655602,-0.012453253775936366,0.002,8e-05,0,-1.2791572257564987,-0.0017436007449081507,-0.00010233257806051991,0.0,-0.0018459333229686706,0.2,0.02,0,-0.1405650908078524,0.01175013390987493,-0.002811301816157048,-0.0,0.008938832093717881,-0.1657483471997096,0.0,0.1657483471997096,-0.02630560413114752,0.0,0.02630560413114752,-0.8718003724540753,0.0,0.8718003724540753,0.05875066954937465,0,-0.05875066954937465,-0.008101016568525351,0.012461567048328138,-0.008938832093717881,0.4,0.03376317024230957,1.8567886352539062,STABILIZE
0.03,0.005,0.03,-0.18050763177609075,-0.000992339860732913,-0.0009025381588804538,-0.01273754027782718,-0.014632418297440547,0.03,0.005,0.03,-0.19511604359697376,-0.0030032411540984456,-0.0009755802179848689,-0.005015080695927623,-0.008993902068010937,0.002,8e-05,0,-1.3090535258485492,-0.0017851864077687365,-0.00010472428206788394,-0.0,-0.0018899106898366204,0.2,0.02,0,-0.13949770109796733,0.006373663617277277,-0.0027899540219593465,-0.0,0.0035837095953179304,-0.10010803846994819,0.0,0.10010803846994819,-0.03307799535776377,0.0,0.03307799535776377,-0.8925932038843682,0.0,0.8925932038843682,0.031868318086386384,0,-0.031868318086386384,-0.014627413562323697,0.009002039331006788,-0.0035837095953179304,0.4,0.033493757247924805,1.8903098106384277,STABILIZE
0.03,0.005,0.03,-0.18333047219234558,-0.0025331663943129845,-0.000916652360961728,-0.015946598419617628,-0.01939641717489234,0.03,0.005,0.03,-0.19705257196261342,-0.0017378058459218977,-0.000985262859813067,0.004965533770433703,0.0022424650646987385,0.002,8e-05,0,-1.338820831829216,-0.0017808431234782294,-0.00010710566654633729,-0.0,-0.0018879487900245668,0.2,0.02,0,-0.14005890725774967,-0.0033574423266622883,-0.002801178145154993,-0.0,-0.0061586204718172815,-0.05792686153072992,0.0,0.05792686153072992,-0.08443887981043283,0.0,0.08443887981043283,-0.8904215617391147,0.0,0.8904215617391147,-0.01678721163331144,0,0.01678721163331144,-0.01939575931778241,-0.002248147965661882,0.0061586204718172815,0.4,0.03343057632446289,1.9237306118011475,STABILIZE
0.03,0.005,0.03,-0.18443548685632588,-0.000991111431718146,-0.0009221774342816295,-0.0020176287165182046,-0.00393091758251798,0.03,0.005,0.03,-0.20037620867873748,-0.0029810412943872145,-0.0010018810433936873,0.019825488922253373,0.015842566584472473,0.002,8e-05,0,-1.36821747755107,-0.0017577656103464905,-0.00010945739820408561,-0.0,-0.0018672230085505761,0.2,0.02,0,-0.14068759546472312,-0.0037592265468125077,-0.0028137519092944624,-0.0,-0.00657297845610697,-0.09936804314624048,0.0,0.09936804314624048,-0.0330370477239382,0.0,0.0330370477239382,-0.8788828051732452,0.0,0.8788828051732452,-0.018796132734062537,0,0.018796132734062537,-0.0039257201473686335,-0.01584385528678348,0.00657297845610697,0.4,0.0334477424621582,1.9571788311004639,STABILIZE
0.03,0.005,0.03,-0.18620710602455845,-0.0015379927344806893,-0.0009310355301227922,-0.005270788540435243,-0.007739816805038724,0.03,0.005,0.03,-0.20402962914072015,-0.003171637690135232,-0.0010201481457036007,-0.0016107532007909352,-0.0058025390366297684,0.002,8e-05,0,-1.3984040842834586,-0.0017470565030954825,-0.0001118723267426767,0.0,-0.0018589288298381593,0.2,0.02,0,-0.14026526970622186,0.0024442196148622055,-0.002805305394124437,-0.0,-0.0003610857792622317,-0.10572125633784107,0.0,0.10572125633784107,-0.05126642448268964,0.0,0.05126642448268964,-0.8735282515477412,0.0,0.8735282515477412,0.012221098074311026,0,-0.012221098074311026,-0.007738578956691791,0.005804189795158249,0.0003610857792622317,0.4,0.03455710411071777,1.9917595386505127,STABILIZE
0.03,0.005,0.03,-0.1883200678646357,-0.0018950528798022952,-0.0009416003393231785,0.0065344719867027985,0.003697818767577325,0.03,0.005,0.03,-0.2062104676136888,-0.0019559294210593748,-0.001031052338068444,-0.0021134891142993092,-0.0051004708734271285,0.002,8e-05,0,-1.4271676199039252,-0.0017198108669698078,-0.00011417340959231402,0.0,-0.0018339842765621218,0.2,0.02,0,-0.1408899852586638,-0.003735259149053473,-0.0028177997051732763,-0.0,-0.006553058854226749,-0.06519764736864583,0.0,0.06519764736864583,-0.06316842932674317,0.0,0.06316842932674317,-0.8599054334849039,0.0,0.8599054334849039,-0.018676295745267364,0,0.018676295745267364,0.003696156007120168,0.00510167595399346,0.006553058854226749,0.4,0.033449649810791016,2.025193452835083,STABILIZE
0.03,0.005,0.03,-0.19012539193257003,-0.0016194187004220104,-0.0009506269596628502,-0.006086104176545137,-0.008656149836629998,0.03,0.005,0.03,-0.2072621266430126,-0.0009433632048695272,-0.001036310633215063,0.020368518084631176,0.018388844246546587,0.002,8e-05,0,-1.4553093454161408,-0.0016829198836960278,-0.00011642474763329128,0.0,-0.0017993446313293191,0.2,0.02,0,-0.1434175191645525,-0.015115054210480375,-0.00286835038329105,-0.0,-0.017983404593771426,-0.031445440162317574,0.0,0.031445440162317574,-0.05398062334740035,0.0,0.05398062334740035,-0.8414599418480139,0.0,0.8414599418480139,-0.07557527105240187,0,0.07557527105240187,-0.008631886741719413,-0.01840024603085697,0.017983404593771426,0.4,0.03344392776489258,2.0586349964141846,STABILIZE
0.03,0.005,0.03,-0.1927292205584597,-0.0023358961416955807,-0.0009636461027922985,-0.007952650679122568,-0.011252192923610446,0.03,0.005,0.03,-0.20914692569138302,-0.001690854298621769,-0.0010457346284569152,0.014756156299096684,0.012019567372018,0.002,8e-05,0,-1.483214911741371,-0.001668939961788354,-0.0001186571929393097,0.0,-0.0017875971547276636,0.2,0.02,0,-0.14454010889244132,-0.006713839223799752,-0.0028908021778488264,-0.0,-0.00960464140164858,-0.05636180995405896,0.0,0.05636180995405896,-0.07786320472318603,0.0,0.07786320472318603,-0.834469980894177,0.0,0.834469980894177,-0.03356919611899876,0,0.03356919611899876,-0.011245148812359275,-0.012026157889722033,0.00960464140164858,0.4,0.03344106674194336,2.092158317565918,STABILIZE
0.03,0.005,0.03,-0.19491921173597565,-0.0019650486167635097,-0.0009745960586798782,-0.0006971729934984788,-0.003636817668941867,0.03,0.005,0.03,-0.2099227645837879,-0.0006961494448031558,-0.0010496138229189394,0.012558401797563531,0.010812638529841436,0.002,8e-05,0,-1.5110294733177714,-0.0016638412767057988,-0.00012088235786542172,0.0,-0.0017847236345712204,0.2,0.02,0,-0.1457836190503746,-0.007438562434605532,-0.002915672381007492,-0.0,-0.010354234815613024,-0.023204981493438526,0.0,0.023204981493438526,-0.06550162055878365,0.0,0.06550162055878365,-0.8319206383528994,0.0,0.8319206383528994,-0.03719281217302766,0,0.03719281217302766,-0.0036297980191286635,-0.010814997044589008,0.010354234815613024,0.4,0.033434152603149414,2.125520706176758,STABILIZE
0.03,0.005,0.03,-0.19673844923234662,-0.0015765687530690101,-0.0009836922461617331,0.00029627110939299485,-0.0022639898898377483,0.03,0.005,0.03,-0.20960318988383012,0.00027694651590562944,-0.0010480159494191505,0.011836160917138364,0.011065091483624842,0.002,8e-05,0,-1.5396128896332693,-0.0016513776095340566,-0.00012316903117066155,0.0,-0.0017745466407047181,0.2,0.02,0,-0.14717439041222807,-0.008035039134565426,-0.0029434878082445614,0.0,-0.010978526942809987,0.009231550530187649,0.0,-0.009231550530187649,-0.05255229176896701,0.0,0.05255229176896701,-0.8256888047670282,0.0,0.8256888047670282,-0.040175195672827124,0,0.040175195672827124,-0.0022562306085849595,-0.011066676249134556,0.010978526942809987,0.4,0.03461766242980957,2.160137176513672,STABILIZE
0.03,0.005,0.03,-0.19821038287446352,-0.0013132351181335523,-0.0009910519143723176,0.010048429795703825,0.007744142763197955,0.03,0.005,0.03,-0.2087026543368764,0.0008034430843542765,-0.001043513271684382,0.02450623104610324,0.024266160858773134,0.002,8e-05,0,-1.5671822304372416,-0.0016397943263936543,-0.00012537457843497934,0.0,-0.0017651689048286336,0.2,0.02,0,-0.14997141841885928,-0.01663641756489568,-0.0029994283683771857,-0.0,-0.019635845933272864,0.026781436145142553,0.0,-0.026781436145142553,-0.04377450393778508,0.0,0.04377450393778508,-0.8198971631968272,0.0,0.8198971631968272,-0.08318208782447839,0,0.08318208782447839,0.007779364233707112,-0.024254892332887468,0.019635845933272864,0.4,0.03362536430358887,2.1937665939331055,STABILIZE
0.03,0.005,0.03,-0.19938100190900507,-0.0009003708073596321,-0.0009969050095450253,0.009879479156948019,0.007982203340043362,0.03,0.005,0.03,-0.2064221561138821,0.001754024123675475,-0.0010321107805694105,0.022712850941280255,0.02343476428438632,0.002,8e-05,0,-1.5989955936912934,-0.0016312636142462593,-0.0001279196474953035,0.0,-0.0017591832617415628,0.2,0.02,0,-0.15392900267170317,-0.020292928919283578,-0.0030785800534340636,-0.0,-0.02337150897271764,0.058467470789182505,0.0,-0.058467470789182505,-0.03001236024532107,0.0,0.03001236024532107,-0.8156318071231297,0.0,0.8156318071231297,-0.10146464459641788,0,0.10146464459641788,0.008023691241490964,-0.023420591924367948,0.02337150897271764,0.4,0.03900456428527832,2.23278546333313,STABILIZE
0.03,0.005,0.03,-0.20090910638065146,-0.0013698574497583407,-0.0010045455319032573,0.0014625006111653222,-0.0009119023704962756,0.03,0.005,0.03,-0.20476569427211289,0.0014849224227079338,-0.0010238284713605644,0.010662534474315316,0.011123628425662686,0.002,8e-05,0,-1.6263323573849997,-0.0016337220433522228,-0.0001301065885908,0.0,-0.001763828631943023,0.2,0.02,0,-0.1567467551587072,-0.016839683008229946,-0.0031349351031741443,-0.0,-0.01997461811140409,0.04949741409026446,0.0,-0.04949741409026446,-0.04566191499194469,0.0,0.04566191499194469,-0.8168610216761114,0.0,0.8168610216761114,-0.08419841504114972,0,0.08419841504114972,-0.0008955547796273057,-0.011124956490800956,0.01997461811140409,0.4,0.03346562385559082,2.266244888305664,STABILIZE
0.03,0.005,0.03,-0.20183925729575555,-0.0008343972732017965,-0.0010091962864787777,0.004189119449365013,0.0023455258896844387,0.03,0.005,0.03,-0.20346408412507838,0.0011676169316414949,-0.0010173204206253919,0.002280619393897839,0.002430915904913942,0.002,8e-05,0,-1.653694379923673,-0.0016363507344038632,-0.00013229555039389384,0.0,-0.001768646284797757,0.2,0.02,0,-0.15978846358048615,-0.01819054787629637,-0.003195769271609723,-0.0,-0.021386317147906092,0.03892056438804983,0.0,-0.03892056438804983,-0.027813242440059886,0.0,0.027813242440059886,-0.8181753672019316,0.0,0.8181753672019316,-0.09095273938148185,0,0.09095273938148185,0.002349381828909958,-0.0024271894977383303,0.021386317147906092,0.4,0.03344273567199707,2.299729347229004,STABILIZE
0.03,0.005,0.03,-0.20302469846370308,-0.0010637253808083384,-0.0010151234923185153,-0.001625686023978955,-0.0037045348971058087,0.03,0.005,0.03,-0.20154558992040977,0.0017215118165442554,-0.0010077279496020488,-0.0003205714681120175,0.0003932123988301891,0.002,8e-05,0,-1.6807443662939923,-0.0016181743320897648,-0.00013445954930351939,0.0,-0.001752633881393284,0.2,0.02,0,-0.1625893884619169,-0.016755589770706788,-0.003251787769238338,0.0,-0.020007377539945127,0.05738372721814185,0.0,-0.05738372721814185,-0.03545751269361128,0.0,0.03545751269361128,-0.8090871660448824,0.0,0.8090871660448824,-0.08377794885353394,0,0.08377794885353394,-0.0037039559815228115,-0.00039862875135885967,0.020007377539945127,0.4,0.033432722091674805,2.333132743835449,STABILIZE
0.03,0.005,0.03,-0.2044707946148802,-0.0012970255122424527,-0.0010223539730744012,0.000725616833230327,-0.001593762652086527,0.03,0.005,0.03,-0.19897854274813173,0.0023024234390390933,-0.0009948927137406586,0.008149012559460914,0.00945654328475935,0.002,8e-05,0,-1.7076371200617986,-0.0016080345096880814,-0.0001366109696049439,0.0,-0.0017446454792930254,0.2,0.02,0,-0.16517566358356797,-0.015464461851211586,-0.0033035132716713596,0.0,-0.018767975122882946,0.07674744796796978,0.0,-0.07674744796796978,-0.04323418374141509,0.0,0.04323418374141509,-0.8040172548440406,0.0,0.8040172548440406,-0.07732230925605793,0,0.07732230925605793,-0.0015809993263732878,-0.0094586855015758,0.018767975122882946,0.4,0.033447980880737305,2.3665904998779297,STABILIZE
0.03,0.005,0.03,-0.20619251004682673,-0.0015221850136116358,-0.0010309625502341337,-0.006823308910447902,-0.009376456474293672,0.03,0.005,0.03,-0.1961002334601203,0.0025447406589118185,-0.0009805011673006015,0.013692075819415709,0.015256315311026926,0.002,8e-05,0,-1.7348777232185293,-0.0016055784487776093,-0.00013879021785748234,0.0,-0.0017443686666350918,0.2,0.02,0,-0.16794431764691115,-0.016318622868400152,-0.003358886352938223,0.0,-0.019677509221338374,0.08482468863039395,0.0,-0.08482468863039395,-0.05073950045372119,0.0,0.05073950045372119,-0.8027892243888046,0.0,0.8027892243888046,-0.08159311434200076,0,0.08159311434200076,-0.009354720936105468,-0.015269652553067092,0.019677509221338374,0.4,0.03393244743347168,2.400534152984619,STABILIZE
0.03,0.005,0.03,-0.20798040253949918,-0.0016043769095261803,-0.001039902012697496,-0.005356350077810131,-0.008000629000033807,0.03,0.005,0.03,-0.19352063630543487,0.002314818216318202,-0.0009676031815271744,0.005877122115652291,0.007224337150443318,0.002,8e-05,0,-1.7616688871659412,-0.0016027483006844233,-0.00014093351097327532,0.0,-0.0017436818116576987,0.2,0.02,0,-0.1700589479788315,-0.012650514840317307,-0.0034011789595766303,0.0,-0.016051693799893938,0.07716060721060673,0.0,-0.07716060721060673,-0.053479230317539345,0.0,0.053479230317539345,-0.8013741503422116,0.0,0.8013741503422116,-0.06325257420158653,0,0.06325257420158653,-0.007992648706033972,-0.007233165166190447,0.016051693799893938,0.4,0.0334315299987793,2.433957099914551,STABILIZE
0.03,0.005,0.03,-0.2094675233352239,-0.0013328520728222992,-0.0010473376166761194,-0.0003273699183566642,-0.002707559607855083,0.03,0.005,0.03,-0.19037110156698275,0.0028228129931610487,-0.0009518555078349138,0.00514677489032045,0.007017732375646585,0.002,8e-05,0,-1.7882784666036122,-0.001589946300367421,-0.000143062277328289,0.0,-0.0017330085776957101,0.2,0.02,0,-0.1718354121657362,-0.010614533267315422,-0.003436708243314724,0.0,-0.014051241510630147,0.09409376643870163,0.0,-0.09409376643870163,-0.044428402427409974,0.0,0.044428402427409974,-0.7949731501837105,0.0,0.7949731501837105,-0.053072666336577104,0,0.053072666336577104,-0.0027010579724528498,-0.007020237357506904,0.014051241510630147,0.4,0.033472299575805664,2.46742844581604,STABILIZE
0.03,0.005,0.03,-0.21089072171655598,-0.0012774989292940494,-0.00105445360858278,0.0024365416831640756,0.0001045891452872462,0.03,0.005,0.03,-0.18788073318406437,0.002235417763578572,-0.0009394036659203218,-0.0030920673794449013,-0.0017960532817866512,0.002,8e-05,0,-1.8149696751179336,-0.0015972470057990006,-0.0001451975740094347,0.0,-0.0017424445798084353,0.2,0.02,0,-0.1745162090304235,-0.01604234129368735,-0.00349032418060847,0.0,-0.01953266547429582,0.07451392545261906,0.0,-0.07451392545261906,-0.04258329764313498,0.0,0.04258329764313498,-0.7986235028995002,0.0,0.7986235028995002,-0.08021170646843676,0,0.08021170646843676,0.00010207464378080799,0.0017961979421615923,0.01953266547429582,0.4,0.03342151641845703,2.500859022140503,STABILIZE
0.03,0.005,0.03,-0.21271482398861796,-0.0016358666910194675,-0.0010635741199430898,-0.00031491488961571043,-0.003014355700578268,0.03,0.005,0.03,-0.1852001179862153,0.0024039930111182193,-0.0009260005899310765,0.0008801744343834706,0.0023581668555706136,0.002,8e-05,0,-1.8419764698244017,-0.0016146578536436642,-0.00014735811758595215,-0.0,-0.0017620159712296163,0.2,0.02,0,-0.17583880740405927,-0.007907431720121523,-0.0035167761480811854,0.0,-0.011424207868202708,0.08013310037060731,0.0,-0.08013310037060731,-0.05452888970064892,0.0,0.05452888970064892,-0.8073289268218321,0.0,0.8073289268218321,-0.039537158600607615,0,0.039537158600607615,-0.0030127277215135574,-0.0023602463609429048,0.011424207868202708,0.4,0.03345203399658203,2.5343170166015625,STABILIZE
0.03,0.005,0.03,-0.21492475814721076,-0.0019827310937316355,-0.001074623790736054,-0.006476705030616511,-0.0095340599150842,0.03,0.005,0.03,-0.1823672134740144,0.0025416539402648578,-0.000911836067370072,-0.002806371626247711,-0.0011765537533529253,0.002,8e-05,0,-1.8691360734434759,-0.0016244885359919198,-0.00014953088587547808,-0.0,-0.001774019421867398,0.2,0.02,0,-0.17580050532563937,0.0002290949756502056,-0.0035160101065127877,0.0,-0.003286915130862582,0.08472179800882859,0.0,-0.08472179800882859,-0.06609103645772119,0.0,0.06609103645772119,-0.8122442679959598,0.0,0.8122442679959598,0.001145474878251028,0,-0.001145474878251028,-0.009534036391153694,0.0011767443609812815,0.003286915130862582,0.4,0.03343772888183594,2.5677642822265625,STABILIZE
0.03,0.005,0.03,-0.21680146861579636,-0.0016834660038418914,-0.0010840073430789818,-0.004046000085068112,-0.006813473431988986,0.03,0.005,0.03,-0.17925509261647787,0.0027916664563919576,-0.0008962754630823894,0.005543957532062249,0.007439348525371817,0.002,8e-05,0,-1.896056149566125,-0.0016098747864739741,-0.00015168449196529,-0.0,-0.001761559278439264,0.2,0.02,0,-0.17658719658783964,-0.0047045722381521835,-0.0035317439317567928,0.0,-0.008236316169908976,0.0930555485463986,0.0,-0.0930555485463986,-0.05611553346139638,0.0,0.05611553346139638,-0.8049373932369871,0.0,0.8049373932369871,-0.023522861190760917,0,0.023522861190760917,-0.00681041862307796,-0.007442145179234581,0.008236316169908976,0.4,0.03344368934631348,2.601202964782715,STABILIZE
0.03,0.005,0.03,-0.21893078863102167,-0.0019097648791060878,-0.0010946539431551084,-0.002730206480479953,-0.005734625302741149,0.03,0.005,0.03,-0.17640597456456322,0.002555344219313125,-0.0008820298728228161,0.0015091317999385624,0.0031824461464288714,0.002,8e-05,0,-1.9231614890160535,-0.0016206997209621626,-0.0001538529191212843,-0.0,-0.0017745526400834467,0.2,0.02,0,-0.17623504366397047,0.0021056151925531357,-0.0035247008732794093,0.0,-0.0014190856807262736,0.08517814064377084,0.0,-0.08517814064377084,-0.06365882930353627,0.0,0.06365882930353627,-0.8103498604810813,0.0,0.8103498604810813,0.010528075962765678,0,-0.010528075962765678,-0.005735209979099022,-0.0031813923576638563,0.0014190856807262736,0.4,0.03344893455505371,2.634657621383667,STABILIZE
0.03,0.005,0.03,-0.22078190725137434,-0.001660793495957831,-0.0011039095362568717,0.0032095311609562634,0.0004448281287415608,0.03,0.005,0.03,-0.1732958457472609,0.002790356952048088,-0.0008664792287363045,0.0024795937218620354,0.004403471445173819,0.002,8e-05,0,-1.9500708484576084,-0.001609509286243053,-0.0001560056678766087,0.0,-0.0017655149541196617,0.2,0.02,0,-0.1764864848186422,-0.0015039260754861957,-0.003529729696372844,-0.0,-0.00503365577185904,0.09301189840160293,0.0,-0.09301189840160293,-0.05535978319859437,0.0,0.05535978319859437,-0.8047546431215264,0.0,0.8047546431215264,-0.007519630377430978,0,0.007519630377430978,0.0004454060466673241,-0.0044034130269795385,0.00503365577185904,0.4,0.03343796730041504,2.6681020259857178,STABILIZE
