Mode,Time,Freq,time2delay,actualDelay,North-Desired,East-Desired,Down-Desired,Roll-UAV,Pitch-UAV,Yaw-UAV,Roll-Control,Pitch-Control,Yaw-Control,Thrust-Control,North-Pos,East-Pos,Down-Pos,Yaw-Ang,North-Vel,East-Vel,Down-Vel,Yaw-Vel,North-Acc,East-Acc,Down-Acc,North-Avg,East-Avg,Down-Avg,Yaw-Avg,North-Dif,East-Dif,Down-Dif,Yaw-Dif,North-One,East-One,Down-One,Yaw-One,North-Two,East-Two,Down-Two,Yaw-Two,Landing-State,Q-Size,Kalman-Time,Kalman-Dt
STABILIZE,0.034372806549072266,29.101041428165047,0.032734187444051106,0.03288531303405762,-10.0,40.0,10.0,-0.17859487928299428,-1.0568952545964279,0.21275572357126926,4.0001128978154785,3.9998870989979523,-0.0003245005029995261,0.5187279099490526,-0.03573105023838087,0.023817120672126255,0.6483913756012878,-0.0016171649081292041,0.00206171243917197,0.09532951517030597,1.2393711134791374,0.09816201132796876,1.6996270045638084,1.1088629253208637,19.003216922283173,0.0,0.0,0.0,0.0,0.0,0.0,0.0,0.0,0.0,0.0,0.0,0.0,0.0,0.0,0.0,0.0,False,0,3.47446870803833,0.02993115234375
STABILIZE,0.06765961647033691,30.040423428972513,0.03231099446614583,0.03242230415344238,-10.0,40.0,10.0,-0.17817156763701214,-1.0565706071674408,0.21336346366505493,3.999976536355353,4.000023463507012,6.63752628858293e-05,0.5187633462523333,-0.034117279865084456,0.024545709260248957,0.64317851037198,0.0003360909668292649,0.00206171243917197,0.09532951517030597,1.2393711134791374,0.09816201132796876,1.6996270045638084,1.1088629253208637,19.003216922283173,0.0,0.0,0.0,0.0,0.0,0.0,0.0,0.0,0.0,0.0,0.0,0.0,0.0,0.0,0.0,0.0,False,0,3.5031490325927734,0.02993115234375
STABILIZE,0.10112667083740234,29.88140918320094,0.03249100049336751,0.03261518478393555,-10.0,40.0,10.0,-0.17850763428851793,-1.057154481619771,0.21291277790153987,4.0000648902537925,3.999935108693504,-0.00018736299055041033,0.5187933070405714,-0.03752400797554054,0.023124430159282068,0.6407175810312019,-0.000929491957930991,-0.26475011836737394,-0.020186984329484403,1.3552132062613964,-0.07154964665046858,-1.5579203143715858,1.073924358934164,18.437999486923218,0.0,0.0,0.0,0.0,0.0,0.0,0.0,0.0,0.0,0.0,0.0,0.0,0.0,0.0,0.0,0.0,False,1,3.531801700592041,0.0349208984375
STABILIZE,0.13466310501098633,29.81852823454973,0.032467158635457356,0.03260540962219238,-10.0,40.0,10.0,-0.1792873964318101,-1.05684637605518,0.21265683257064952,4.000091966934016,3.9999080309514565,-0.000265815069673317,0.51883416765087,-0.03514728681870384,0.023879087203084483,0.6328245347310429,-0.0013173444377679814,0.02713990688789636,0.19941322971135378,0.9769340045750141,-0.014066928008093322,-0.5665706470608711,1.0067750699818134,12.783624231815338,0.0,0.0,0.0,0.0,0.0,0.0,0.0,0.0,0.0,0.0,0.0,0.0,0.0,0.0,0.0,0.0,False,0,3.589991569519043,0.02993212890625
STABILIZE,0.1681993007659912,29.822132476323198,0.03238418896993001,0.03253173828125,-10.0,40.0,10.0,-0.17962591768254885,-1.058033548310293,0.21355927131473745,4.000097177393031,3.72037710333735,-0.0003026607768283387,0.518876011027595,-0.033225497134997804,0.02648284362943764,0.6244589020177973,-0.0014965623506996717,0.02713990688789636,0.19941322971135378,0.9769340045750141,-0.014066928008093322,-0.5665706470608711,1.0067750699818134,12.783624231815338,0.0,0.0,0.0,0.0,0.0,0.0,0.0,0.0,0.0,0.0,0.0,0.0,0.0,0.0,0.0,0.0,False,0,3.6187386512756348,0.02993212890625
STABILIZE,0.20154142379760742,29.988231508955064,0.032294305165608723,0.03241682052612305,-10.0,40.0,10.0,-0.18012980421639596,-1.0586451704061264,0.21425552372325563,4.000048178437939,1.7248617271172513,-0.0003244821149418307,0.5189126041441758,-0.034002761799767856,0.02781480489012244,0.618703650791767,-0.0016003206034440845,-0.12163721257820725,0.13108884450048208,1.0901756584644318,-0.0100016514409333,-1.383852493017912,0.9150717407464981,12.053395807743073,0.0,0.0,0.0,0.0,0.0,0.0,0.0,0.0,0.0,0.0,0.0,0.0,0.0,0.0,0.0,0.0,False,0,3.6471240520477295,0.034919921875
STABILIZE,0.23502826690673828,29.864600837344423,0.032403024037679036,0.032541513442993164,-10.0,40.0,10.0,-0.18124024356505194,-1.0587579752491374,0.2135603518720085,3.9999505724376463,1.7286932684925769,0.0003243339941826191,0.5189469109136092,-0.0349608758501701,0.026661384097779225,0.614107295399282,0.0016382804591884418,-0.12226185062900186,-0.02007380680879578,0.9625283069908619,0.18058073010374903,1.2680028565227985,0.8335867896676064,10.627956688404083,0.0,0.0,0.0,0.0,0.0,0.0,0.0,0.0,0.0,0.0,0.0,0.0,0.0,0.0,0.0,0.0,False,0,3.675957202911377,0.034919921875
STABILIZE,0.26847076416015625,29.899941544647056,0.032352479298909505,0.032497406005859375,-10.0,40.0,10.0,-0.1814931206469011,-1.0584093154363494,0.21341199536075905,3.999921317053412,1.7366322137843744,0.0005176316353681931,0.5189808353852137,-0.0330499163638906,0.026624598505824135,0.6097162918814218,0.002596079917076129,0.04191930056549609,0.044442364014685154,0.967627577483654,0.05038518492927336,0.07106506964191794,0.9033661335706711,12.088684737682343,0.0,0.0,0.0,0.0,0.0,0.0,0.0,0.0,0.0,0.0,0.0,0.0,0.0,0.0,0.0,0.0,False,0,3.7045207023620605,0.029931884765625
STABILIZE,0.3019225597381592,29.892270193993472,0.0323674996693929,0.032631635665893555,-10.0,40.0,10.0,-0.18120059645135414,-1.0581587328711746,0.21344050339641593,3.9999957641476422,1.7419662509528704,2.6373881236096824e-05,0.519021636679562,-0.030538592331531837,0.027979459979139264,0.601928940627205,0.00013932367528939754,-0.0450711406301707,0.14618921559304,1.30798714235425,-0.19564049681083379,-0.35982467234134674,-0.6389856804162264,23.69179129600525,0.0,0.0,0.0,0.0,0.0,0.0,0.0,0.0,0.0,0.0,0.0,0.0,0.0,0.0,0.0,0.0,False,0,3.761836051940918,0.044897216796875
STABILIZE,0.33545804023742676,29.82064827125296,0.03253653844197591,0.0326542854309082,-10.0,40.0,10.0,-0.18153714335053595,-1.0575257664341846,0.21403443636951613,4.0000267869431365,1.745867461640671,-0.00017789457555786114,0.5190346542085958,-0.03071350436124009,0.030380011671698164,0.6079916571565889,-0.0008790769324724404,-0.061560707399621606,0.1629716483876109,1.1895946227014065,-0.06094759223302206,-1.6462812200188637,1.0372062213718891,14.451982080936432,0.0,0.0,0.0,0.0,0.0,0.0,0.0,0.0,0.0,0.0,0.0,0.0,0.0,0.0,0.0,0.0,False,0,3.790510892868042,0.054874755859375
STABILIZE,0.3688983917236328,29.903565495754343,0.03243068059285482,0.03255581855773926,-10.0,40.0,10.0,-0.18165325656642614,-1.05767944569051,0.21434112787150558,4.00000212663257,1.7489275119506151,-1.6059686058981872e-05,0.5190460584862286,-0.03436470071961413,0.032765528468197774,0.6148437722834192,-6.966949776243821e-05,-0.23790989071130753,0.13455005828291178,0.9538671001791954,0.044679435661693793,-3.5164423286914825,0.7510901894420385,8.171148598194122,0.0,0.0,0.0,0.0,0.0,0.0,0.0,0.0,0.0,0.0,0.0,0.0,0.0,0.0,0.0,0.0,False,0,3.8192529678344727,0.0349208984375
STABILIZE,0.4024515151977539,29.804967134482148,0.0324282964070638,0.03256583213806152,-10.0,40.0,10.0,-0.1817899670715322,-1.0568940806576643,0.21486155626974882,3.9999763134541335,1.7524109877596412,0.00015328319063217003,0.5190822608890485,-0.03750462825502235,0.034243614794676615,0.6093135363372958,0.0007744530563679003,-0.23790989071130753,0.13455005828291178,0.9538671001791954,0.044679435661693793,-3.5164423286914825,0.7510901894420385,8.171148598194122,0.0,0.0,0.0,0.0,0.0,0.0,0.0,0.0,0.0,0.0,0.0,0.0,0.0,0.0,0.0,0.0,False,0,3.847975730895996,0.0349208984375
STABILIZE,0.4359586238861084,29.843563891478052,0.032329829533894856,0.032599687576293945,-10.0,40.0,10.0,-0.1818969022207252,-1.0565280252068339,0.21462285983455537,4.000053875992385,1.756302465279933,-0.0003542946063086509,0.5191036057386442,-0.037562545076855205,0.03087023386206891,0.6112549634159102,-0.0017575327809824012,-0.06930339150130749,-0.12991345720365644,1.3497085310518742,-0.13981135762836935,2.2039618343114853,1.054809894412756,19.238583743572235,0.0,0.0,0.0,0.0,0.0,0.0,0.0,0.0,0.0,0.0,0.0,0.0,0.0,0.0,0.0,0.0,False,0,3.876584529876709,0.034920166015625
STABILIZE,0.4710426330566406,28.503401268085163,0.0324130376180013,0.03415179252624512,-10.0,40.0,10.0,-0.18231151604768614,-1.0570460523666971,0.2140580752273467,4.000093909235485,1.7625444036559228,-0.0006154393858506962,0.5191331811769764,-0.03390402631190645,0.0307322416616288,0.6096258899772705,-0.003052562857357581,0.13426115037873387,0.04841481568291783,1.142225693911314,-0.0718685044269171,0.1264454796910286,1.0698928497731686,17.827080190181732,0.0,0.0,0.0,0.0,0.0,0.0,0.0,0.0,0.0,0.0,0.0,0.0,0.0,0.0,0.0,0.0,False,0,3.905424118041992,0.02993115234375
STABILIZE,0.5044944286346436,29.892909322861357,0.03238561948140462,0.03255653381347656,-10.0,40.0,10.0,-0.1821398008230838,-1.0570665429342072,0.2145999947090917,4.000177469015522,1.7703720141369574,-0.001157354391004971,0.5191474419815844,-0.029391898873729283,0.03097383609122951,0.6150689517659994,-0.005742902744088063,0.05760188214480877,0.06249305442906916,1.3592406176030636,-0.075224381805428,-0.6658272817730904,1.0422156192362309,16.98857992887497,0.0,0.0,0.0,0.0,0.0,0.0,0.0,0.0,0.0,0.0,0.0,0.0,0.0,0.0,0.0,0.0,False,0,3.962559700012207,0.03990869140625
STABILIZE,0.5380229949951172,29.825949682135594,0.032431634267171223,0.0326235294342041,-10.0,40.0,10.0,-0.1824249612209318,-1.0570770016613737,0.21436005763406857,4.000191879869564,1.7772081957827297,-0.001249981393558103,0.5191723046387607,-0.02922739227796678,0.030561305657163744,0.6152217121364202,-0.006185303009340778,-0.05216799909248948,0.024824283900670707,1.0555068962275982,-0.022236394544383923,7.204312086105347,0.9556022472679615,13.515105843544006,0.0,0.0,0.0,0.0,0.0,0.0,0.0,0.0,0.0,0.0,0.0,0.0,0.0,0.0,0.0,0.0,False,0,3.9913835525512695,0.02993212890625
STABILIZE,0.5714635848999023,29.90335229784261,0.0323365052541097,0.03246021270751953,-10.0,40.0,10.0,-0.18117877186252182,-1.0568360240497192,0.2161549299623274,4.000053673806034,1.7823647950123636,-0.000359141874317882,0.5192026168461809,-0.03178044560712526,0.028735566278507565,0.6126213133637787,-0.0017253362804620642,-0.21325568668544292,-0.03487276553642005,1.2375765480101109,0.2405068088494575,0.39962464943528175,1.033497415482998,17.913909256458282,0.0,0.0,0.0,0.0,0.0,0.0,0.0,0.0,0.0,0.0,0.0,0.0,0.0,0.0,0.0,0.0,False,0,4.02007269859314,0.06485205078125
STABILIZE,0.6049485206604004,29.865238783546115,0.03241399129231771,0.03253626823425293,-10.0,40.0,10.0,-0.18115982875974562,-1.0571661142857012,0.21652829585000383,4.000018232060068,1.789628028576389,-0.00013120521654815665,0.5192005736690138,-0.02845789617477805,0.03016165157157909,0.6261800250051144,-0.0005837012966256002,0.15254998579621315,0.09019000572152436,0.9960347786545753,0.05545669043444708,4.852390289306641,-1.2107303366065025,8.804991841316223,0.0,0.0,0.0,0.0,0.0,0.0,0.0,0.0,0.0,0.0,0.0,0.0,0.0,0.0,0.0,0.0,False,0,4.048895835876465,0.034920166015625
STABILIZE,0.6428806781768799,26.361530290936287,0.032361777623494466,0.03708195686340332,-10.0,40.0,10.0,-0.18097375946571567,-1.0566944043461473,0.21648169848521698,3.9999823804873644,1.7962266543812249,9.836871295441208e-05,0.5192405983255916,-0.024228063734571346,0.030712452103954287,0.6204367487475688,0.0005620308187917434,0.15254998579621315,0.09019000572152436,0.9960347786545753,0.05545669043444708,4.852390289306641,-1.2107303366065025,8.804991841316223,0.0,0.0,0.0,0.0,0.0,0.0,0.0,0.0,0.0,0.0,0.0,0.0,0.0,0.0,0.0,0.0,False,0,4.077374696731567,0.034920166015625
STABILIZE,0.6763179302215576,29.906337345274085,0.03243830998738607,0.032541513442993164,-10.0,40.0,10.0,-0.18130534380557864,-1.0569624892710703,0.2168547175273496,3.9999426115438865,1.7997233115397977,0.00035259903321447093,0.5192782553807214,-0.023360382423579008,0.026337083289529065,0.6141540886141663,0.001827076879755823,-0.05400406080298126,-0.010997455683536828,1.3381403870880604,-0.004644505290235531,0.8950438350439072,-0.9949072264134884,18.010078370571136,0.0,0.0,0.0,0.0,0.0,0.0,0.0,0.0,0.0,0.0,0.0,0.0,0.0,0.0,0.0,0.0,False,0,4.135234117507935,0.03492041015625
STABILIZE,0.7098116874694824,29.856522543813444,0.0324743111928304,0.03260397911071777,-10.0,40.0,10.0,-0.18173559236243653,-1.0561591949916533,0.21772868825642033,3.999765146248915,1.80755311446953,0.0014812577466298237,0.5193133057385074,-0.01949250399840726,0.02521281999061227,0.6091967179313242,0.007445459609708011,0.1468160073272884,-0.0017648120774538256,0.9725514799356461,0.2999653664825639,4.472421854734421,-1.1800477281212807,12.193159759044647,0.0,0.0,0.0,0.0,0.0,0.0,0.0,0.0,0.0,0.0,0.0,0.0,0.0,0.0,0.0,0.0,False,0,4.1639299392700195,0.034919921875
STABILIZE,0.743217945098877,29.934938692778736,0.032427342732747395,0.03254508972167969,-10.0,40.0,10.0,-0.18072168279665987,-1.0554783105087675,0.22036779597847658,3.999727615891309,1.815727271019351,0.001717230477192615,0.519345456929668,-0.01661713798416363,0.023728754181679516,0.6056866400244086,0.00859657703156244,0.09614290320314467,-0.022607673599850386,1.0402076877653599,0.06033953864422564,3.847644478082657,1.1138909496366978,23.221957683563232,0.0,0.0,0.0,0.0,0.0,0.0,0.0,0.0,0.0,0.0,0.0,0.0,0.0,0.0,0.0,0.0,False,0,4.196989059448242,0.0349208984375
STABILIZE,0.7787182331085205,28.173326616288833,0.03246143658955892,0.03257560729980469,-10.0,40.0,10.0,-0.1805019428044559,-1.055399976776724,0.22026905172020228,3.9996859280004586,1.8182593387856265,0.0019842767337539917,0.5193811717054271,-0.018121439043530824,0.023071180864861908,0.6004013909818808,0.009898709043438241,-0.13901497004553676,0.020852313900832087,0.9335334412753582,0.07062626377162103,2.084028907120228,-1.2343349866569042,11.840637028217316,0.0,0.0,0.0,0.0,0.0,0.0,0.0,0.0,0.0,0.0,0.0,0.0,0.0,0.0,0.0,0.0,False,0,4.228651285171509,0.029930908203125
STABILIZE,0.8104031085968018,31.555338213498448,0.030373366673787434,0.030609607696533203,-10.0,40.0,10.0,-0.1817180366418355,-1.054181641783523,0.22068227816498806,3.9997026889331115,1.8220390719905362,0.0018809914841782115,0.519418335156985,-0.017235080892562576,0.020683775079253418,0.5944425602174143,0.009350908913082,-0.00461444360553287,-0.07375440327450633,1.0354939848184586,-0.020975724384520722,2.711092308163643,-1.2087039649486542,14.777225255966187,0.0,0.0,0.0,0.0,0.0,0.0,0.0,0.0,0.0,0.0,0.0,0.0,0.0,0.0,0.0,0.0,False,0,4.257410764694214,0.0349208984375
STABILIZE,0.8438172340393066,29.927249375668925,0.032263787587483723,0.0323946475982666,-10.0,40.0,10.0,-0.1809575377664369,-1.0536486735848505,0.22059409935558613,3.9997075048654285,1.8263034144475885,0.0018525352345402579,0.5194424663143185,-0.017724129924601706,0.0212121031748953,0.5949616880047961,0.009177925636850031,-0.07974182371981442,0.08345849928446114,1.2173042632639408,-0.007309289587692122,-3.0971992760896683,0.9022160433232784,17.10648536682129,0.0,0.0,0.0,0.0,0.0,0.0,0.0,0.0,0.0,0.0,0.0,0.0,0.0,0.0,0.0,0.0,False,0,4.286183595657349,0.034920166015625
STABILIZE,0.8818552494049072,26.29031327959483,0.03225568135579427,0.03712797164916992,-10.0,40.0,10.0,-0.18185528075547044,-1.0520893627416776,0.22124755636008595,3.999713419944199,1.8298434374826211,0.0018187788235049806,0.5194698834940406,-0.018251931342418055,0.0217692669944013,0.5956112181510042,0.008974887630373166,-0.07974182371981442,0.08345849928446114,1.2173042632639408,-0.007309289587692122,-3.0971992760896683,0.9022160433232784,17.10648536682129,0.0,0.0,0.0,0.0,0.0,0.0,0.0,0.0,0.0,0.0,0.0,0.0,0.0,0.0,0.0,0.0,False,0,4.314773082733154,0.034920166015625
STABILIZE,0.9162530899047852,29.076429279519726,0.03244784673055013,0.03333330154418945,-10.0,40.0,10.0,-0.1819578936755793,-1.051438253614705,0.22236314503104587,3.999718905098884,1.8337049034152662,0.0017867206103990558,0.5194965601579542,-0.01805321936829962,0.022691820497808865,0.5951466008599796,0.008784535065449383,-0.03721121174748987,0.10260336566716433,1.1485187336802483,-0.005138806880882147,-4.662982001900673,0.7016872987151146,14.518779516220093,0.0,0.0,0.0,0.0,0.0,0.0,0.0,0.0,0.0,0.0,0.0,0.0,0.0,0.0,0.0,0.0,False,0,4.343647003173828,0.029931884765625
STABILIZE,0.9495477676391602,30.028164577352356,0.03223088582356771,0.03238105773925781,-10.0,40.0,10.0,-0.1818122719080405,-1.0510889534716823,0.2222970976353804,3.999830650458069,1.8400578959766174,0.001088090795402807,0.5195239329850121,-0.016715071957775007,0.021027391545316,0.5940499709283185,0.005273738854686041,0.02775054599624127,-0.0404438644181937,1.266598142683506,-0.1878678749374915,0.836711935698986,2.556310221552849,13.254761695861816,0.0,0.0,0.0,0.0,0.0,0.0,0.0,0.0,0.0,0.0,0.0,0.0,0.0,0.0,0.0,0.0,False,1,4.380849361419678,0.0399091796875
STABILIZE,0.9829432964324951,29.94541105915111,0.032442363103230794,0.03255105018615723,-10.0,40.0,10.0,-0.18247005114162448,-1.0505742346846985,0.22327860382323916,3.9997080466580686,1.845459229663062,0.0018525637451195565,0.5195478636944919,-0.015862230859130726,0.017187327582784087,0.594660307801257,0.009065799355721915,-0.020682656031567603,-0.06103329360485077,1.1718343943357468,0.11634498875474762,2.3718761280179024,-1.1771881021559238,17.86925196647644,0.0,0.0,0.0,0.0,0.0,0.0,0.0,0.0,0.0,0.0,0.0,0.0,0.0,0.0,0.0,0.0,False,0,4.438070774078369,0.029930908203125
STABILIZE,1.0164453983306885,29.847174188406417,0.032480510075887044,0.03262448310852051,-10.0,40.0,10.0,-0.18275451784838492,-1.051513919304104,0.2240178250585476,3.9996180335065348,1.850401834703091,0.002413290606210273,0.5195747330023932,-0.016628636659186506,0.018196731631079443,0.5938192447417627,0.011829837321435787,-0.08822620147839189,0.10677605168893933,1.2575887143611908,0.1734425954517039,-1.2368281371891499,-1.1305549181997776,17.719216644763947,0.0,0.0,0.0,0.0,0.0,0.0,0.0,0.0,0.0,0.0,0.0,0.0,0.0,0.0,0.0,0.0,False,0,4.466695785522461,0.034919921875
STABILIZE,1.0513994693756104,28.609361144837184,0.03241136868794759,0.034003496170043945,-10.0,40.0,10.0,-0.18272949160837917,-1.0515985496167888,0.22408879499289225,3.9996553028007953,1.853667163503652,0.0021860692926233974,0.5195959348072349,-0.01997081041355959,0.01822059148770728,0.5963494069599063,0.01065652935644245,-0.23499419912695885,0.046780158299952745,1.2663238681852818,-0.06073606981216323,-3.6304164677858353,0.764723215252161,18.40445250272751,0.0,0.0,0.0,0.0,0.0,0.0,0.0,0.0,0.0,0.0,0.0,0.0,0.0,0.0,0.0,0.0,False,0,4.4954493045806885,0.0349208984375
STABILIZE,1.084841012954712,29.904631530914898,0.03239134152730306,0.03251838684082031,-10.0,40.0,10.0,-0.18289085482752074,-1.051630672850229,0.22440938699705973,3.9996939937062246,1.8563034431091876,0.001950427277525464,0.5196159931504248,-0.023351138284503428,0.01826702350836755,0.5988977922174714,0.009446722801497463,-0.23499419912695885,0.046780158299952745,1.2663238681852818,-0.06073606981216323,-3.6304164677858353,0.764723215252161,18.40445250272751,0.0,0.0,0.0,0.0,0.0,0.0,0.0,0.0,0.0,0.0,0.0,0.0,0.0,0.0,0.0,0.0,False,0,4.524259328842163,0.0349208984375
STABILIZE,1.1184296607971191,29.772808904221414,0.032396825154622395,0.03252363204956055,-10.0,40.0,10.0,-0.18244662572720544,-1.0522687619290962,0.2246715221868854,3.9996061874587534,1.8591631504877515,0.0024970618359170214,0.5196449400910315,-0.02595973835586238,0.018996048329219296,0.5970021730304164,0.012139300477707698,-0.1889566075988114,0.08520381525158882,1.0081766173243523,0.1672306451232831,0.3512991592288017,0.5917205009609461,13.03749680519104,0.0,0.0,0.0,0.0,0.0,0.0,0.0,0.0,0.0,0.0,0.0,0.0,0.0,0.0,0.0,0.0,False,0,4.552724361419678,0.02993115234375
STABILIZE,1.1516821384429932,30.07186899538272,0.03224781354268392,0.032363176345825195,-10.0,40.0,10.0,-0.18232410920896835,-1.051340069645386,0.22533218290652546,3.999600984603609,1.8651769827130582,0.0025294060272755157,0.5196559760491927,-0.023783659926825726,0.018206698680176523,0.6040472448700455,0.012260040090734881,0.047576462384313345,0.009413960651727393,0.8400090038776398,-0.002401388457481363,-1.1306550353765488,-1.3106788508594036,13.945749402046204,0.0,0.0,0.0,0.0,0.0,0.0,0.0,0.0,0.0,0.0,0.0,0.0,0.0,0.0,0.0,0.0,False,0,4.610767364501953,0.0698408203125
STABILIZE,1.185150384902954,29.87736494187372,0.03244045575459798,0.03256940841674805,-10.0,40.0,10.0,-0.18261460569210544,-1.051087672811213,0.22615273942185257,3.9997677032321834,1.8660272063028418,0.0015088816010735782,0.5196452114803671,-0.030203746208296064,0.021125393447817834,0.6219799612402461,0.007133551208351978,-0.321006216108799,0.1672440441325307,1.167945470660925,-0.26519514125427684,-5.679592117667198,0.6071138195693493,14.08689022064209,0.0,0.0,0.0,0.0,0.0,0.0,0.0,0.0,0.0,0.0,0.0,0.0,0.0,0.0,0.0,0.0,False,0,4.638954162597656,0.034920166015625
STABILIZE,1.2187004089355469,29.807297070653952,0.03242066701253255,0.032686710357666016,-10.0,40.0,10.0,-0.18299933744144756,-1.0492258059321498,0.22567465286037813,3.9999562159470705,1.8686651726041046,0.0003515753933405117,0.5196766119911154,-0.035632591110836456,0.023623701887569442,0.6188820581671353,0.001342511431460476,-0.321006216108799,0.1672440441325307,1.167945470660925,-0.26519514125427684,-5.679592117667198,0.6071138195693493,14.08689022064209,0.0,0.0,0.0,0.0,0.0,0.0,0.0,0.0,0.0,0.0,0.0,0.0,0.0,0.0,0.0,0.0,False,0,4.672769546508789,0.034920166015625
STABILIZE,1.252241849899292,29.813441376123965,0.032464059193929036,0.032686471939086914,-10.0,40.0,10.0,-0.18261786070413177,-1.048435104814015,0.2262884360707537,3.99996678283021,1.8733659762981347,0.0002869436584790913,0.5197067536004139,-0.03857314765892079,0.022326342663121543,0.6163956476110114,0.0010159465309733423,-0.20075824577361345,-0.021319047664292157,1.1777485720813274,0.0031286535266889658,-3.862167149782181,0.5376152694225311,11.07395738363266,0.0,0.0,0.0,0.0,0.0,0.0,0.0,0.0,0.0,0.0,0.0,0.0,0.0,0.0,0.0,0.0,False,0,4.70172119140625,0.034919921875
STABILIZE,1.2857427597045898,29.849510728391987,0.03246644337972005,0.03260326385498047,-10.0,40.0,10.0,-0.18268760333885994,-1.0478762032408377,0.22661070894178723,4.000053610977992,1.8833380525529155,-0.00024352314300122644,0.519744241886553,-0.03254797232861311,0.023714667696489184,0.6102228645831107,-0.001630928616610263,0.24850291665643454,0.11339295888319612,0.9739125147461891,-0.11605161078555443,7.451394945383072,0.526198698207736,9.358534216880798,0.0,0.0,0.0,0.0,0.0,0.0,0.0,0.0,0.0,0.0,0.0,0.0,0.0,0.0,0.0,0.0,False,0,4.730111598968506,0.029931884765625
STABILIZE,1.3191578388214111,29.927676456317606,0.03241995175679525,0.03252911567687988,-10.0,40.0,10.0,-0.1818254520387045,-1.047066932545897,0.22635308274403082,4.0001707285192785,1.8899078115367967,-0.0009558831289135262,0.5197916210678993,-0.02813981807357059,0.0230225762281897,0.5991008764322507,-0.005175431592369967,0.16056580934673548,0.015211051504593343,0.8408212102949619,-0.17442203390651315,2.8663214296102524,0.38169012404978275,5.102913081645966,0.0,0.0,0.0,0.0,0.0,0.0,0.0,0.0,0.0,0.0,0.0,0.0,0.0,0.0,0.0,0.0,False,0,4.758743047714233,0.034919921875
STABILIZE,1.3526456356048584,29.863112402190087,0.032413514455159505,0.032560110092163086,-10.0,40.0,10.0,-0.18174028811749093,-1.0471060994119188,0.22667818374026755,4.0002914577144715,1.9004052545056365,-0.0016838397751718266,0.5198321498597644,-0.02401798962112421,0.022497715991234225,0.5914314737479767,-0.008785811509985192,0.16056580934673548,0.015211051504593343,0.8408212102949619,-0.17442203390651315,2.8663214296102524,0.38169012404978275,5.102913081645966,0.0,0.0,0.0,0.0,0.0,0.0,0.0,0.0,0.0,0.0,0.0,0.0,0.0,0.0,0.0,0.0,False,0,4.7875001430511475,0.034919921875
STABILIZE,1.3863532543182373,29.666254075808265,0.032395394643147786,0.03274106979370117,-10.0,40.0,10.0,-0.18229417377049664,-1.0474713010891028,0.22709255744339046,4.000563388072822,1.9099378450713729,-0.00331719482139938,0.5198412341232136,-0.020183689829570448,0.02132137700629854,0.599543044734576,-0.01689572952144993,0.16288103070110083,0.06481150048784912,0.988897867500782,-0.06741638168661916,7.835803925991058,0.4907220136374235,9.019746631383896,0.0,0.0,0.0,0.0,0.0,0.0,0.0,0.0,0.0,0.0,0.0,0.0,0.0,0.0,0.0,0.0,False,0,4.8448262214660645,0.0349208984375
STABILIZE,1.419875144958496,29.833587026104276,0.03236440022786458,0.03249931335449219,-10.0,40.0,10.0,-0.18237021298586592,-1.0464861530230343,0.22768200810484787,4.000606112856109,1.919089726967379,-0.0035681559003615214,0.5198786660406695,-0.015833975021390403,0.021718918355662715,0.5934233599280361,-0.018089974554230188,0.16288103070110083,0.06481150048784912,0.988897867500782,-0.06741638168661916,7.835803925991058,0.4907220136374235,9.019746631383896,0.0,0.0,0.0,0.0,0.0,0.0,0.0,0.0,0.0,0.0,0.0,0.0,0.0,0.0,0.0,0.0,False,0,4.87349009513855,0.0349208984375
STABILIZE,1.4532527923583984,29.95888630162426,0.03228309949239095,0.03242230415344238,-10.0,40.0,10.0,-0.18204732646502414,-1.0469913735782037,0.22750514355794155,4.000648590269403,1.9209612596881611,-0.003830791440884621,0.5199065755388562,-0.016097804508473743,0.021229514644271433,0.5920577413324086,-0.019338458413627604,-0.06342925480566919,0.0200879861949943,1.2053140439093113,-0.07352685301305503,1.79238710552454,-1.3407590799033642,15.478093922138214,0.0,0.0,0.0,0.0,0.0,0.0,0.0,0.0,0.0,0.0,0.0,0.0,0.0,0.0,0.0,0.0,False,0,4.902587413787842,0.0399091796875
STABILIZE,1.4867150783538818,29.88162206833661,0.03236225446065267,0.032506704330444336,-10.0,40.0,10.0,-0.18330797661456752,-1.0465753723690676,0.22726016388232023,4.000613208353484,1.921287403192673,-0.0036314831397284727,0.5199253868601804,-0.02017939915712201,0.018903239833921046,0.5952383005011305,-0.018280754911577952,-0.2538063330575824,-0.07761752931401134,1.2842039577662945,0.05269701720033756,-1.078799832612276,-1.3390338979661465,15.635114908218384,0.0,0.0,0.0,0.0,0.0,0.0,0.0,0.0,0.0,0.0,0.0,0.0,0.0,0.0,0.0,0.0,False,0,4.930909156799316,0.029930908203125
STABILIZE,1.5201444625854492,29.915722803914296,0.03238061269124349,0.03250741958618164,-10.0,40.0,10.0,-0.18379868301775062,-1.0471859272478432,0.22696649242843614,4.000677879775636,1.924012389703053,-0.004024708594213239,0.5199568848495664,-0.02045239120413591,0.01623407834872861,0.5920719573713525,-0.02017940970760964,-0.06499706069007516,-0.0907276407815516,1.2365025468170643,-0.12604222987015257,-5.376078188419342,-1.2787315994501114,17.156194150447845,0.0,0.0,0.0,0.0,0.0,0.0,0.0,0.0,0.0,0.0,0.0,0.0,0.0,0.0,0.0,0.0,False,0,4.959607839584351,0.039908935546875
STABILIZE,1.5535662174224854,29.919777436958306,0.03239277203877767,0.0325164794921875,-10.0,40.0,10.0,-0.18301395831513964,-1.048056242758491,0.22689216076035937,4.000642334543855,1.9286189778374467,-0.0038167856219581647,0.5199853631688803,-0.018376522524964134,0.017423124554746674,0.590418020285999,-0.019076009911193535,0.06343649583868682,0.10116985067725182,1.0037826374173164,0.051312669923686875,1.0174067690968513,0.5505661014467478,11.405903100967407,0.0,0.0,0.0,0.0,0.0,0.0,0.0,0.0,0.0,0.0,0.0,0.0,0.0,0.0,0.0,0.0,False,0,4.988901853561401,0.024943115234375
STABILIZE,1.5942978858947754,24.55135274353481,0.0324132760365804,0.03977680206298828,-10.0,40.0,10.0,-0.18238382000335307,-1.048651963320163,0.22760223362977622,4.000565156593248,1.9325816113142908,-0.0033652714491019162,0.5200523140372573,-0.018754107236068476,0.016169555638761834,0.5722864825930334,-0.016750285024409853,-0.1846743281930685,-0.07755226688459516,1.0320158675312996,-0.006484277441148629,-2.8331685811281204,0.5616564303636551,14.787060022354126,0.0,0.0,0.0,0.0,0.0,0.0,0.0,0.0,0.0,0.0,0.0,0.0,0.0,0.0,0.0,0.0,False,0,5.0464701652526855,0.0349208984375
STABILIZE,1.627671241760254,29.962952644249658,0.032360347112019856,0.03247332572937012,-10.0,40.0,10.0,-0.18221989546327275,-1.0480351118607463,0.2275952166776211,4.000598019236957,1.9361287444623159,-0.0035653415879648904,0.5200776735537159,-0.021089733409295083,0.0157953150347085,0.572208749179257,-0.01769151558324625,-0.17252175603061914,0.017799371562432498,1.1450594291090965,-0.07049310843333884,-1.6825633123517036,-1.325425412505865,15.54984301328659,0.0,0.0,0.0,0.0,0.0,0.0,0.0,0.0,0.0,0.0,0.0,0.0,0.0,0.0,0.0,0.0,False,0,5.075157165527344,0.02993212890625
STABILIZE,1.6611385345458984,29.880983422029395,0.03242209752400716,0.032567501068115234,-10.0,40.0,10.0,-0.18266855351437797,-1.0475834656018792,0.22782976430650229,4.000692554357005,1.943965159130439,-0.004121622318966415,0.5201008724347811,-0.019447777387015298,0.015956706999907182,0.5732273227830532,-0.020404638706712035,0.0453636865131557,0.04935187753289938,1.3533489778637886,-0.18233846327839595,1.5305159613490105,-1.168028637766838,18.535436689853668,0.0,0.0,0.0,0.0,0.0,0.0,0.0,0.0,0.0,0.0,0.0,0.0,0.0,0.0,0.0,0.0,False,0,5.103742599487305,0.034919921875
STABILIZE,1.6946303844451904,29.857797773285117,0.032422812779744466,0.032552480697631836,-10.0,40.0,10.0,-0.18286187988440106,-1.0478591277679126,0.2284024062992991,4.000614241638976,1.9479243554223669,-0.0036650368632054494,0.5201224350869622,-0.021515283911489505,0.015716188348470495,0.5750537462607062,-0.018061309897244037,-0.15843736473470926,0.02300543274031952,1.2213943526148796,0.11341199613539572,-0.12899101711809635,-1.0390846990048885,21.635395288467407,0.0,0.0,0.0,0.0,0.0,0.0,0.0,0.0,0.0,0.0,0.0,0.0,0.0,0.0,0.0,0.0,False,0,5.1323957443237305,0.034919921875
STABILIZE,1.7280113697052002,29.95567681067299,0.03237942059834798,0.03249788284301758,-10.0,40.0,10.0,-0.18366079857388098,-1.047623592963253,0.22912651307302623,4.000460722159752,1.95432288241062,-0.0027625961259900205,0.5201526810658882,-0.018328470607970476,0.015484337742259702,0.5725419562942962,-0.013503945323767707,0.14087369199842215,0.02276122831972316,0.9702294133603573,0.23714179342488909,3.877800703048706,0.5799164529889822,13.29471468925476,0.0,0.0,0.0,0.0,0.0,0.0,0.0,0.0,0.0,0.0,0.0,0.0,0.0,0.0,0.0,0.0,False,0,5.16089653968811,0.0297392578125
STABILIZE,1.7615094184875488,29.853334946653664,0.03243711789449056,0.03259921073913574,-10.0,40.0,10.0,-0.18372595217526055,-1.047865851235377,0.22944742524231104,4.000282210371409,1.9580115738868755,-0.00171871348931836,0.5201767904436193,-0.021164417531794707,0.01184718679923645,0.5731115498539556,-0.008256888529978563,-0.08303697686642408,-0.07984077674336731,1.2550730258226395,0.11757207492782273,0.9053297340869904,-1.329336129128933,14.156623184680939,0.0,0.0,0.0,0.0,0.0,0.0,0.0,0.0,0.0,0.0,0.0,0.0,0.0,0.0,0.0,0.0,False,0,5.218310594558716,0.034921142578125
STABILIZE,1.7949788570404053,29.877790599934464,0.03240159352620443,0.03253507614135742,-10.0,40.0,10.0,-0.18363977439784204,-1.0454279005885054,0.23041539111374879,4.000198824920401,1.9638138465218862,-0.001231270378940706,0.520196146877079,-0.02192603904806934,0.009875534666062781,0.5760420075419244,-0.005800271962939824,-0.08303697686642408,-0.07984077674336731,1.2550730258226395,0.11757207492782273,0.9053297340869904,-1.329336129128933,14.156623184680939,0.0,0.0,0.0,0.0,0.0,0.0,0.0,0.0,0.0,0.0,0.0,0.0,0.0,0.0,0.0,0.0,False,0,5.2471559047698975,0.034921142578125
STABILIZE,1.8284029960632324,29.918283496918512,0.032401116689046223,0.03252291679382324,-10.0,40.0,10.0,-0.18351485664122485,-1.0452042118931875,0.23118816298531225,4.000153885863666,1.9692047684617577,-0.0009696287296359586,0.5202218759547965,-0.020264152127867842,0.00974700601003243,0.5757836127747233,-0.00447709195008701,0.057299440959468484,0.02593108802102506,1.0687153786420822,0.0523967223305884,2.0744450390338898,-1.253683678805828,16.586342453956604,0.0,0.0,0.0,0.0,0.0,0.0,0.0,0.0,0.0,0.0,0.0,0.0,0.0,0.0,0.0,0.0,False,0,5.27587890625,0.02993115234375
STABILIZE,1.8618800640106201,29.87268350355398,0.03241899808247884,0.03254342079162598,-10.0,40.0,10.0,-0.18380594009374376,-1.045112644669627,0.23102263761964523,4.000007488647897,1.975712257544393,-0.00011778966887454186,0.5202567488711484,-0.019932752064239456,0.009361949251824372,0.5709594818406389,-0.00021717042592015508,-0.025670704781077802,0.008299444016302004,0.9686091914772987,0.22959584845462658,0.11108424514532089,0.6753668189048767,15.07740467786789,0.0,0.0,0.0,0.0,0.0,0.0,0.0,0.0,0.0,0.0,0.0,0.0,0.0,0.0,0.0,0.0,False,0,5.304495573043823,0.0349208984375
STABILIZE,1.8953027725219727,29.918496907790086,0.03238418896993001,0.032509803771972656,-10.0,40.0,10.0,-0.18371399934421304,-1.0449418899403766,0.23079974933712066,4.000032615835063,1.978905725054267,-0.0002638510839803607,0.5202756628571612,-0.020299497842033914,0.009099189416443563,0.5741127556571091,-0.0009443191472000693,-0.06042415043339133,0.015098649600986391,1.2509245425462723,-0.0658604192369653,-2.132266014814377,0.7510182913392782,17.096571624279022,0.0,0.0,0.0,0.0,0.0,0.0,0.0,0.0,0.0,0.0,0.0,0.0,0.0,0.0,0.0,0.0,False,0,5.333315849304199,0.034919921875
STABILIZE,1.9288160800933838,29.83889303880767,0.03240469296773275,0.0325469970703125,-10.0,40.0,10.0,-0.1841405126413686,-1.0444440331829061,0.23058721306005692,4.000059693956778,1.984977980964648,-0.00042074030278507323,0.5202945748925162,-0.02067199102164251,0.00886072015854361,0.577278136465767,-0.0017229955142566812,-0.06042415043339133,0.015098649600986391,1.2509245425462723,-0.0658604192369653,-2.132266014814377,0.7510182913392782,17.096571624279022,0.0,0.0,0.0,0.0,0.0,0.0,0.0,0.0,0.0,0.0,0.0,0.0,0.0,0.0,0.0,0.0,False,0,5.361778020858765,0.034919921875
STABILIZE,1.9623749256134033,29.803061093978712,0.032343180974324544,0.03245139122009277,-10.0,40.0,10.0,-0.18383144658142553,-1.0433243090458473,0.23051731034277007,4.000023346332362,1.9923418476130865,-0.0002108667451319845,0.52032017303011,-0.017704162754192995,0.009999637369253916,0.5770637293269465,-0.0006713860768977329,0.03143339417874813,0.014579894195776433,1.1095335707068443,-0.08463861029731375,4.378848522901535,0.6933622527867556,13.328675925731659,0.0,0.0,0.0,0.0,0.0,0.0,0.0,0.0,0.0,0.0,0.0,0.0,0.0,0.0,0.0,0.0,False,0,5.420348644256592,0.06983984375
STABILIZE,1.9957265853881836,29.978800506043214,0.032184632619222005,0.032315969467163086,-10.0,40.0,10.0,-0.18357312669258152,-1.0434998662518578,0.23077056095058945,4.000053958723577,1.997066223124894,-0.00038723190225401654,0.5203030435300559,-0.01682400447127667,0.009935952665533576,0.5982109003339706,-0.0015480325299426004,0.03143339417874813,0.014579894195776433,1.1095335707068443,-0.08463861029731375,4.378848522901535,0.6933622527867556,13.328675925731659,0.0,0.0,0.0,0.0,0.0,0.0,0.0,0.0,0.0,0.0,0.0,0.0,0.0,0.0,0.0,0.0,False,0,5.448860168457031,0.06983984375
STABILIZE,2.0290729999542236,29.988445918892637,0.032312663396199544,0.0324556827545166,-10.0,40.0,10.0,-0.1843693773394169,-1.044465590967474,0.23072288302853158,4.000012472444999,2.002895681749423,-0.00014922215760260232,0.5202945679636535,-0.015442861649180798,0.011816204075859134,0.6150048700375125,-0.0003567904317446802,0.04206227895338088,0.11065320577472448,1.0159987956285477,0.03972915600912788,1.9674677401781082,0.7260427810251713,11.567322164773941,0.0,0.0,0.0,0.0,0.0,0.0,0.0,0.0,0.0,0.0,0.0,0.0,0.0,0.0,0.0,0.0,False,0,5.477368593215942,0.034920166015625
STABILIZE,2.062570810317993,29.852697508896796,0.03243568738301595,0.032559871673583984,-10.0,40.0,10.0,-0.18369036048638246,-1.0438008214621615,0.23075121764141657,3.999979599970376,2.0092184550811547,3.887351951545074e-05,0.5203305960872787,-0.01378957231405891,0.013543149381470575,0.6095533032821984,0.0005817423235416828,0.04206227895338088,0.11065320577472448,1.0159987956285477,0.03972915600912788,1.9674677401781082,0.7260427810251713,11.567322164773941,0.0,0.0,0.0,0.0,0.0,0.0,0.0,0.0,0.0,0.0,0.0,0.0,0.0,0.0,0.0,0.0,False,0,5.506242752075195,0.034920166015625
STABILIZE,2.095980405807495,29.932375148081015,0.032378228505452473,0.032491207122802734,-10.0,40.0,10.0,-0.18401378061575313,-1.0431597441755323,0.2311679392220667,3.9998987130551393,2.0123305770505038,0.0005012573154214561,0.5203650689309366,-0.01722979840832479,0.01382478655145373,0.6048780151852569,0.0028840215717549278,-0.21131825633347034,0.0388692511478439,1.0348177514970303,0.10949246806780011,-1.9661098718643188,-1.3930796645581722,9.44235622882843,0.0,0.0,0.0,0.0,0.0,0.0,0.0,0.0,0.0,0.0,0.0,0.0,0.0,0.0,0.0,0.0,False,0,5.5349180698394775,0.0349208984375
STABILIZE,2.12937331199646,29.945624857208134,0.03240016301472982,0.0325169563293457,-10.0,40.0,10.0,-0.18395257571748747,-1.0433183326303235,0.23037566395877165,3.9997904831505497,2.015970236877798,0.0011194911588082786,0.5204016511686959,-0.017474349288642655,0.013395133631014609,0.5991585457894606,0.005955280947369838,-0.050325971096754074,0.0030689610866829753,0.9641679935157299,0.15075236018337776,-0.7447169627994299,0.8247536607086658,14.00810033082962,0.0,0.0,0.0,0.0,0.0,0.0,0.0,0.0,0.0,0.0,0.0,0.0,0.0,0.0,0.0,0.0,False,0,5.563821077346802,0.034919921875
STABILIZE,2.1629106998443604,29.816196542311193,0.03245046933492025,0.0325779914855957,-10.0,40.0,10.0,-0.184184268540739,-1.0432916522038782,0.2310771457308731,3.9996490002582514,2.0255725740594874,0.0019211171635560183,0.5204426571064731,-0.010176378761467025,0.011986722709715899,0.5912602209177822,0.00993015305156055,0.13778088614344597,-0.02496543456800282,1.0588893666863441,0.10367584161802022,5.387159436941147,-1.058818493038416,15.318785607814789,0.0,0.0,0.0,0.0,0.0,0.0,0.0,0.0,0.0,0.0,0.0,0.0,0.0,0.0,0.0,0.0,False,0,5.621069669723511,0.034919921875
STABILIZE,2.1963911056518555,29.86842892341874,0.03236106236775716,0.032506704330444336,-10.0,40.0,10.0,-0.18399222283118527,-1.044008608623318,0.23163116478601106,3.9995786460376554,2.0325189172089764,0.002319071884978319,0.5204704144780081,-0.006385729436279325,0.014260194898934618,0.5899683463079641,0.01188019942072857,0.16529015265405178,0.1440849620848894,1.1326299980282784,0.10249097721979492,5.620882660150528,2.8387553989887238,14.224949479103088,0.0,0.0,0.0,0.0,0.0,0.0,0.0,0.0,0.0,0.0,0.0,0.0,0.0,0.0,0.0,0.0,False,0,5.649867057800293,0.034915771484375
STABILIZE,2.235074758529663,25.852306137166313,0.03234222730000814,0.03779292106628418,-10.0,40.0,10.0,-0.18460838059951448,-1.0442982513328087,0.2312367747222957,3.999623726033213,2.0399451262711916,0.0020652807624993888,0.5205097836566902,-0.002100573401061856,0.01501195603523581,0.5848752895448611,0.010570289300182053,0.19507231190800667,0.06424127495847642,0.9211997501552105,-0.06767483497759538,6.204907223582268,-1.1806156486272812,12.869969010353088,0.0,0.0,0.0,0.0,0.0,0.0,0.0,0.0,0.0,0.0,0.0,0.0,0.0,0.0,0.0,0.0,False,0,5.678555011749268,0.029930908203125
STABILIZE,2.2685441970825195,29.87693929594119,0.032424004872639973,0.032562971115112305,-10.0,40.0,10.0,-0.18448773171112856,-1.0443785060555564,0.2310107915103035,3.99967443671204,2.049113950217957,0.0017782312779072655,0.5205501694369191,0.00191570980080664,0.015639534070370633,0.5772981996057014,0.009104567231174041,0.19507231190800667,0.06424127495847642,0.9211997501552105,-0.06767483497759538,6.204907223582268,-1.1806156486272812,12.869969010353088,0.0,0.0,0.0,0.0,0.0,0.0,0.0,0.0,0.0,0.0,0.0,0.0,0.0,0.0,0.0,0.0,False,0,5.707188129425049,0.029930908203125
STABILIZE,2.302056312561035,29.839954467842915,0.03241399129231771,0.03260183334350586,-10.0,40.0,10.0,-0.18470336291765996,-1.0452953522299249,0.23159757412911636,3.9994949517351954,2.0544069116960992,0.0027845089942697123,0.5205755664018005,0.0016118626791297918,0.014788183579281654,0.5772237047132598,0.014088767907569234,-0.03515759890433401,-0.016582277021370828,1.3042488135397434,0.2864665114442386,4.606727138161659,0.9209581650793552,19.609837234020233,0.0,0.0,0.0,0.0,0.0,0.0,0.0,0.0,0.0,0.0,0.0,0.0,0.0,0.0,0.0,0.0,False,0,5.73590350151062,0.034921142578125
STABILIZE,2.3354690074920654,29.928317100146277,0.03239038785298665,0.03250765800476074,-10.0,40.0,10.0,-0.1846192128526513,-1.0449513881721912,0.23189666170956885,3.9993720116948825,2.057014782839189,0.0034778758243371923,0.5206140366189014,0.0029049482718670697,0.017537856486314275,0.5706025698464076,0.017497086180763205,-0.15363836428150535,0.10468863183632493,0.9250056929886341,0.15885576598378964,-3.5182178020477295,0.7471118588000536,14.433801174163818,0.0,0.0,0.0,0.0,0.0,0.0,0.0,0.0,0.0,0.0,0.0,0.0,0.0,0.0,0.0,0.0,False,0,5.793163061141968,0.029931640625
STABILIZE,2.3690104484558105,29.812805640850677,0.03244069417317708,0.03271627426147461,-10.0,40.0,10.0,-0.18657712926691777,-1.0432900513782914,0.23060962461827103,3.9993934253022947,2.0606702535193704,0.0033638471634307343,0.5206433769854952,0.003637944102040943,0.019019391343496547,0.5686012953395727,0.016870289519217194,0.029994006035849452,0.1164560322649777,1.1652128770947456,-0.014547315756348682,1.6445299610495567,0.8005950599908829,15.613412857055664,0.0,0.0,0.0,0.0,0.0,0.0,0.0,0.0,0.0,0.0,0.0,0.0,0.0,0.0,0.0,0.0,False,0,5.821922302246094,0.034920166015625
STABILIZE,2.407233238220215,26.16289180675545,0.03250292142232259,0.037290096282958984,-10.0,40.0,10.0,-0.18682093500377547,-1.0418314858253763,0.23048225226242086,3.9993340261365997,2.06626991397805,0.0036983966239010537,0.5206799866336265,0.006241413984335584,0.01746898345932655,0.5646849811461484,0.018472611680754026,0.1298524090088904,-0.06323980051092803,0.8824876509606838,0.1012440074589114,6.858512759208679,-1.398730557411909,10.81668809056282,0.0,0.0,0.0,0.0,0.0,0.0,0.0,0.0,0.0,0.0,0.0,0.0,0.0,0.0,0.0,0.0,False,0,5.850614070892334,0.034921142578125
STABILIZE,2.4405739307403564,29.99316371333362,0.03238347371419271,0.032492637634277344,-10.0,40.0,10.0,-0.18604437451165676,-1.0411937169116263,0.23062806079294476,3.9992760415474407,2.0711352374912515,0.004024125962906563,0.5207129371059818,0.008799084982581563,0.015894667709278304,0.5608261745754654,0.02003431355852065,0.1298524090088904,-0.06323980051092803,0.8824876509606838,0.1012440074589114,6.858512759208679,-1.398730557411909,10.81668809056282,0.0,0.0,0.0,0.0,0.0,0.0,0.0,0.0,0.0,0.0,0.0,0.0,0.0,0.0,0.0,0.0,False,0,5.8792688846588135,0.034921142578125
STABILIZE,2.474043369293213,29.878854798150694,0.03247836430867513,0.032601356506347656,-10.0,40.0,10.0,-0.18521327922788375,-1.0410095152474477,0.23044415261345688,3.999288274159041,2.0759733236349676,0.003960358564128077,0.5207362288744999,0.008334023457203993,0.016192830126682423,0.5618076493888305,0.019649753045184813,-0.03956582804676145,0.04438046016730368,1.1546227149665356,-0.007288884064041378,-0.1426417613402009,0.6753396708518267,16.623598337173462,0.0,0.0,0.0,0.0,0.0,0.0,0.0,0.0,0.0,0.0,0.0,0.0,0.0,0.0,0.0,0.0,False,0,5.908251047134399,0.0349208984375
STABILIZE,2.5075342655181885,29.860348559061396,0.03238371213277181,0.03251314163208008,-10.0,40.0,10.0,-0.18508606695459226,-1.0412577499350952,0.23129200320503762,3.9993268162123257,2.080704163561391,0.003751422124751873,0.5207586548237879,0.008958379248757673,0.017350060623101047,0.5632209529235173,0.018543045012095756,0.05906958831474185,0.07723643211647868,1.1097513139247894,-0.01890086766114423,3.2302413135766983,0.3250353969633579,5.808442831039429,0.0,0.0,0.0,0.0,0.0,0.0,0.0,0.0,0.0,0.0,0.0,0.0,0.0,0.0,0.0,0.0,False,0,5.9653472900390625,0.034919921875
STABILIZE,2.541001796722412,29.877790599934464,0.032399686177571614,0.03252673149108887,-10.0,40.0,10.0,-0.18496659200496993,-1.0408129338653982,0.23263784395622103,3.99919075138323,2.0852811686141806,0.004506376815734577,0.5207836224919402,0.008414077536243146,0.01712589841938023,0.5633612294523511,0.02224342665094426,-0.0355461030267179,0.015250849537551403,1.0945513844490051,0.23335399996286743,7.103009521961212,0.4985462408512831,9.729798138141632,0.0,0.0,0.0,0.0,0.0,0.0,0.0,0.0,0.0,0.0,0.0,0.0,0.0,0.0,0.0,0.0,False,0,5.994067430496216,0.02993212890625
STABILIZE,2.5744755268096924,29.875449630679594,0.03237775166829427,0.03251910209655762,-10.0,40.0,10.0,-0.1845830341943914,-1.0400363200124265,0.23281718978278673,3.998951279676372,2.0907112570225728,0.005827715718465248,0.5208144649322634,0.010024478129887363,0.016491112898821762,0.560575048891523,0.028753900612288136,0.09891486261039972,-0.0022678414097754285,1.0777609422802925,0.4120155269511222,3.9647161960601807,0.658779451623559,16.667555272579193,0.0,0.0,0.0,0.0,0.0,0.0,0.0,0.0,0.0,0.0,0.0,0.0,0.0,0.0,0.0,0.0,False,0,6.0228271484375,0.034919921875
STABILIZE,2.6086385250091553,29.27102699383078,0.03236511548360189,0.033294677734375,-10.0,40.0,10.0,-0.18519593695069425,-1.0399301319151741,0.23358838750918995,3.9987023322695525,2.096198498066419,0.0071993052052743275,0.5208398716475332,0.011751910705812276,0.015959802940413083,0.5607962068339464,0.0354903611773313,0.09891486261039972,-0.0022678414097754285,1.0777609422802925,0.4120155269511222,3.9647161960601807,0.658779451623559,16.667555272579193,0.0,0.0,0.0,0.0,0.0,0.0,0.0,0.0,0.0,0.0,0.0,0.0,0.0,0.0,0.0,0.0,False,0,6.051481485366821,0.034919921875
STABILIZE,2.64219331741333,29.801578786565393,0.03245571454366048,0.032587289810180664,-10.0,40.0,10.0,-0.184843008269675,-1.039652762201848,0.23381007517252445,3.9988048935848717,2.101603016812871,0.006643023950235194,0.5208692630098343,0.01229378670356398,0.015253046391431277,0.5587562776401183,0.032599707164267744,0.03194725140929222,-0.01197733436129056,0.9454951621592045,-0.14470342726053811,4.144921898841858,-1.3542617671191692,14.604894816875458,0.0,0.0,0.0,0.0,0.0,0.0,0.0,0.0,0.0,0.0,0.0,0.0,0.0,0.0,0.0,0.0,False,0,6.080401420593262,0.034921142578125
STABILIZE,2.6757235527038574,29.825525499900447,0.0323522408803304,0.032567501068115234,-10.0,40.0,10.0,-0.18400342861029234,-1.0392911890626606,0.23373520989591878,3.9990308512856876,2.104842810576539,0.005419294357003659,0.5208931158482712,0.01066266230038956,0.014506407091587731,0.5594750135214832,0.026392679704162827,-0.09167933603748679,-0.01392999110976234,1.1051667854189873,-0.3308485470624526,-7.001233100891113,0.50789350643754,12.03329861164093,0.0,0.0,0.0,0.0,0.0,0.0,0.0,0.0,0.0,0.0,0.0,0.0,0.0,0.0,0.0,0.0,False,0,6.116613864898682,0.02993115234375
STABILIZE,2.709150552749634,29.913589227894505,0.03234532674153646,0.03249335289001465,-10.0,40.0,10.0,-0.18219737718335288,-1.0383023057368896,0.23486157745916264,3.9990636210142374,2.1090874857290616,0.005247495578322419,0.5209261500565026,0.00915991052615565,0.01552301176895773,0.5555996987761741,0.02544852558618302,-0.07558620418421924,0.09276820928789675,0.9911694563925266,-0.009148384722784168,-1.7719527706503868,-1.352175883948803,13.274136185646057,0.0,0.0,0.0,0.0,0.0,0.0,0.0,0.0,0.0,0.0,0.0,0.0,0.0,0.0,0.0,0.0,False,0,6.145282745361328,0.0349208984375
STABILIZE,2.7429311275482178,29.603229722481014,0.03239253362019857,0.0329134464263916,-10.0,40.0,10.0,-0.18208483914460633,-1.038186832851234,0.23485570776534465,3.999141380110712,2.111125692392833,0.004835927320639336,0.5209531000146422,0.005867358314835615,0.01594782801027862,0.5548996769180325,0.023311858244730938,-0.08849878213368356,0.040955631993710995,1.02453688159585,-0.02628779728979236,-2.3779407143592834,-1.20722446590662,17.33185052871704,0.0,0.0,0.0,0.0,0.0,0.0,0.0,0.0,0.0,0.0,0.0,0.0,0.0,0.0,0.0,0.0,False,0,6.202662706375122,0.034919921875
STABILIZE,2.776437520980835,29.84589986622264,0.03245714505513509,0.03259015083312988,-10.0,40.0,10.0,-0.18217645972901972,-1.038307535100473,0.23567140844305873,3.9990930209962228,2.1135144102333188,0.005109526013938631,0.5209756066143136,0.002909414087124047,0.013539142344476248,0.5562921929373791,0.0245975070561721,-0.16280256677418947,-0.11228998191654682,1.1265925131738186,0.11388902882002558,-0.7493673823773861,-1.2007825076580048,16.748958826065063,0.0,0.0,0.0,0.0,0.0,0.0,0.0,0.0,0.0,0.0,0.0,0.0,0.0,0.0,0.0,0.0,False,0,6.232515335083008,0.06485205078125
STABILIZE,2.810002088546753,29.79522771025282,0.032399924596150716,0.03256416320800781,-10.0,40.0,10.0,-0.18274133771772091,-1.0387858617857852,0.23556356615936655,3.9991038487619623,2.1182645655135093,0.005056106121481976,0.5209684307310114,0.002921722170696564,0.012547642391489934,0.5725098081382708,0.024249193138357758,0.016366125782951713,-0.0386180734494701,1.0702637024223804,-0.02866657742091458,2.3731455206871033,0.5942658521234989,13.005430996418,0.0,0.0,0.0,0.0,0.0,0.0,0.0,0.0,0.0,0.0,0.0,0.0,0.0,0.0,0.0,0.0,False,0,6.2606165409088135,0.0349208984375
STABILIZE,2.8434102535247803,29.933443238344,0.03226521809895833,0.03243732452392578,-10.0,40.0,10.0,-0.1829997643282707,-1.0383305869889217,0.23668035544951654,3.999182349611513,2.122329613160545,0.004637414898394377,0.520991636840752,0.0004786823474498044,0.012423263237783385,0.5735257164635698,0.022081836148301785,-0.1227805158123374,0.02403135731583461,1.19679756462574,-0.07172468358816338,4.134306311607361,-1.0324287228286266,22.125115990638733,0.0,0.0,0.0,0.0,0.0,0.0,0.0,0.0,0.0,0.0,0.0,0.0,0.0,0.0,0.0,0.0,False,0,6.2893126010894775,0.034919921875
STABILIZE,2.8799333572387695,27.37903573246994,0.03237775166829427,0.03541898727416992,-10.0,40.0,10.0,-0.1836579704486778,-1.0384196996132493,0.2376416778947694,3.999299132498248,2.129074941166925,0.004008153539327015,0.52101833508525,0.0017876191129202908,0.012039243758055299,0.5738795708371666,0.01886696097239774,0.08086353773251176,0.009018631681101397,1.151512935757637,-0.12870372246999645,0.5246980115771294,0.7043221034109592,16.79660975933075,0.0,0.0,0.0,0.0,0.0,0.0,0.0,0.0,0.0,0.0,0.0,0.0,0.0,0.0,0.0,0.0,False,0,6.318027019500732,0.02993212890625
STABILIZE,2.91548490524292,28.12685000771186,0.03221777280171712,0.03458976745605469,-10.0,40.0,10.0,-0.1834973542814767,-1.0386699620133066,0.23823278274266638,3.999209710499286,2.136466886313337,0.004490168636005523,0.5210558090935963,0.0022950165382988647,0.011830745682493793,0.5686135858676329,0.021201330848348444,0.035571641637943685,0.019200672977603972,0.985702034085989,0.1775249675021088,0.3627415746450424,0.6646980997174978,13.419671356678009,0.0,0.0,0.0,0.0,0.0,0.0,0.0,0.0,0.0,0.0,0.0,0.0,0.0,0.0,0.0,0.0,False,1,6.346749782562256,0.034920166015625
STABILIZE,2.9489285945892334,29.90207317420937,0.032377036412556966,0.03249406814575195,-10.0,40.0,10.0,-0.18314490584813348,-1.0382798941786755,0.23918217903729816,3.999444283842185,2.145060679383769,0.003229248147967388,0.5211041623148802,0.006311183931118462,0.00995165926244671,0.557068153735299,0.014847078547676138,0.11895078932866454,-0.024040607968345284,0.7819396443665028,-0.1320051717785588,7.013564556837082,-1.515257265418768,7.28694275021553,0.0,0.0,0.0,0.0,0.0,0.0,0.0,0.0,0.0,0.0,0.0,0.0,0.0,0.0,0.0,0.0,False,0,6.404237508773804,0.034919921875
STABILIZE,2.9826881885528564,29.62100014830613,0.03236559232076009,0.032817840576171875,-10.0,40.0,10.0,-0.18238552755064558,-1.0382270669343137,0.23854238241113837,3.999441226509458,2.14893719251297,0.0032502585454056545,0.5211271852098058,0.0044696625770755845,0.010502101516188585,0.5583027490424606,0.014901837812842626,-0.09546164073981345,0.057716225273907185,1.165302935987711,0.04659193865509695,3.696722164750099,-1.170335616916418,15.369358658790588,0.0,0.0,0.0,0.0,0.0,0.0,0.0,0.0,0.0,0.0,0.0,0.0,0.0,0.0,0.0,0.0,False,0,6.432727813720703,0.029931884765625
STABILIZE,3.0161197185516357,29.91038943442512,0.0323827584584554,0.032521963119506836,-10.0,40.0,10.0,-0.1813561966983835,-1.0384462733179889,0.23817429924789815,3.999557238524297,2.153488092964613,0.0026342540139087977,0.5211694357518601,0.002276429765840908,0.009367750537074285,0.5498300545458947,0.0117823773906125,-0.11472151381894946,-0.036867300514131784,0.7594494614750147,-0.13424204539152476,3.637385368347168,0.3485283348709345,2.7385223656892776,0.0,0.0,0.0,0.0,0.0,0.0,0.0,0.0,0.0,0.0,0.0,0.0,0.0,0.0,0.0,0.0,False,0,6.461702823638916,0.034921142578125
STABILIZE,3.049607753753662,29.862261934427398,0.032393725713094075,0.03253293037414551,-10.0,40.0,10.0,-0.18145021852117693,-1.038129736738641,0.23809489829879676,3.999712320235766,2.1578366734372474,0.0018107983337376237,0.5211911067113748,0.0025753551662622523,0.008932832414178526,0.5516402224053778,0.007639537173387325,0.025119789643213153,0.0009261397281079553,1.175064779818058,-0.19341302804818983,4.171334952116013,0.7267548236995935,12.745809555053711,0.0,0.0,0.0,0.0,0.0,0.0,0.0,0.0,0.0,0.0,0.0,0.0,0.0,0.0,0.0,0.0,False,0,6.49089789390564,0.034919921875
STABILIZE,3.082975149154663,29.96744830739772,0.0323822816212972,0.03249502182006836,-10.0,40.0,10.0,-0.18221338543922008,-1.0374767066209643,0.23810767822306408,3.9996697556285357,2.1621450960619453,0.0020392520393005447,0.5212180583723276,0.0017172737848947,0.010003790857533779,0.550798190014736,0.008752549804991013,-0.040916496072895825,0.0853863952215761,1.0205406695604324,0.10279178568775314,0.7603507954627275,0.6444776896387339,11.993689835071564,0.0,0.0,0.0,0.0,0.0,0.0,0.0,0.0,0.0,0.0,0.0,0.0,0.0,0.0,0.0,0.0,False,0,6.518984794616699,0.029931884765625
STABILIZE,3.116584539413452,29.754644835878917,0.03245666821797689,0.03276658058166504,-10.0,40.0,10.0,-0.1827926174973489,-1.0377126683124471,0.23878501420923248,3.9999891079665093,2.167932197767167,0.0003465084476195531,0.5212454914795448,0.006755260575054815,0.009724790800517441,0.5497860032431702,0.0002878643725717847,0.1514835050329566,0.016012326523195952,1.1008831672370434,-0.20858207778199478,4.372641816735268,0.6830363068729639,14.973661303520203,0.0,0.0,0.0,0.0,0.0,0.0,0.0,0.0,0.0,0.0,0.0,0.0,0.0,0.0,0.0,0.0,False,0,6.576390504837036,0.034919921875
STABILIZE,3.1501247882843018,29.81556068953261,0.03248146375020345,0.03260397911071777,-10.0,40.0,10.0,-0.1827057993896957,-1.0374269743060702,0.23877058009852556,3.9999849339986477,2.173415334689497,0.0003686362049598103,0.5212708177880316,0.0061058364663677325,0.009629045295491547,0.5497742385196225,0.0003971738784784699,-0.031398056307807565,0.01699495333014056,1.0446622967720032,0.040336395844917716,-2.4797119200229645,0.7232381496578455,16.948743164539337,0.0,0.0,0.0,0.0,0.0,0.0,0.0,0.0,0.0,0.0,0.0,0.0,0.0,0.0,0.0,0.0,False,0,6.605172395706177,0.034921142578125
STABILIZE,3.1835553646087646,29.91316254920979,0.032370837529500325,0.032492637634277344,-10.0,40.0,10.0,-0.18162465514927673,-1.0369816246278443,0.239877871156861,3.999935246053265,2.1804616523810116,0.0006306553237455845,0.5212921656906412,0.007474011062499272,0.008938771593895303,0.5517379648222288,0.0017015795334832866,0.08556977845728397,-0.017638715507928282,1.1573316529393196,0.10509668771804816,3.5038061439990997,0.6809188518673182,16.623109579086304,0.0,0.0,0.0,0.0,0.0,0.0,0.0,0.0,0.0,0.0,0.0,0.0,0.0,0.0,0.0,0.0,False,0,6.633826494216919,0.029931884765625
STABILIZE,3.2169928550720215,29.90420510773004,0.03238061269124349,0.0325167179107666,-10.0,40.0,10.0,-0.18216882912705634,-1.0358760944776542,0.24030945373504117,3.9999143290529475,2.1877317886687826,0.0007405939534317245,0.5213148494563007,0.011101568529897483,0.011598718877256707,0.5530373371052897,0.002243766558915247,0.2225126139819622,0.17796934116631746,1.2726516462862492,0.05204914974517805,3.3234860748052597,-1.2708408758044243,14.347200095653534,0.0,0.0,0.0,0.0,0.0,0.0,0.0,0.0,0.0,0.0,0.0,0.0,0.0,0.0,0.0,0.0,False,0,6.662485361099243,0.034920166015625
STABILIZE,3.2504494190216064,29.892057157110788,0.03240850766499837,0.0325322151184082,-10.0,40.0,10.0,-0.18252378552048543,-1.0356699081420844,0.24120927779733745,3.9998957902505152,2.195608947277062,0.000837566231047616,0.5213316116050308,0.0148187119269332,0.014308197849489574,0.5572841805442598,0.002719535733914884,0.2225126139819622,0.17796934116631746,1.2726516462862492,0.05204914974517805,3.3234860748052597,-1.2708408758044243,14.347200095653534,0.0,0.0,0.0,0.0,0.0,0.0,0.0,0.0,0.0,0.0,0.0,0.0,0.0,0.0,0.0,0.0,False,0,6.69112753868103,0.034920166015625
STABILIZE,3.2838778495788574,29.913375887030632,0.03236344655354818,0.03249096870422363,-10.0,40.0,10.0,-0.18248792702734287,-1.0349080218845106,0.24248582948104225,3.9999622054388784,2.1947545113664715,0.0004916535326644977,0.5213482815806392,0.00964079520976022,0.010887867527844385,0.5615771302595844,0.0009866719998565226,-0.29456885531544685,-0.17943971324712038,1.2756888754665852,-0.07897503611383769,-0.42167180217802525,0.7583892904222012,20.40489912033081,0.0,0.0,0.0,0.0,0.0,0.0,0.0,0.0,0.0,0.0,0.0,0.0,0.0,0.0,0.0,0.0,False,0,6.719905614852905,0.034895751953125
STABILIZE,3.3175508975982666,29.697972130961823,0.03240969975789388,0.032822608947753906,-10.0,40.0,10.0,-0.18325787077370312,-1.0344049357634568,0.24334253797420283,4.000020489668678,2.1969156434942994,0.00018708524526028883,0.5213422016703129,0.004828567124167546,0.012231160520458946,0.5773227144289763,-0.0005343680695069632,-0.12922565219923854,0.04990636371076107,1.009537000209093,-0.009917087829314724,-2.785079926252365,-1.3205221854150295,15.252035856246948,0.0,0.0,0.0,0.0,0.0,0.0,0.0,0.0,0.0,0.0,0.0,0.0,0.0,0.0,0.0,0.0,False,0,6.777195930480957,0.064851806640625
STABILIZE,3.3511769771575928,29.740087356061036,0.03247502644856771,0.03260445594787598,-10.0,40.0,10.0,-0.18312505561085812,-1.0345408992166225,0.2435894920013811,4.000158859540572,2.199413783781346,-0.000536431995624936,0.5213404111766611,0.002326710338973937,0.009136899865103201,0.5908231011368563,-0.0041380951265083624,-0.10865889489650726,-0.14964884612709284,0.9930763393640518,-0.1444421725247851,0.3851168788969517,-1.4798233285546303,11.201056838035583,0.0,0.0,0.0,0.0,0.0,0.0,0.0,0.0,0.0,0.0,0.0,0.0,0.0,0.0,0.0,0.0,False,0,6.805983781814575,0.034921142578125
STABILIZE,3.3844709396362305,30.03289487816579,0.03227952321370443,0.03240799903869629,-10.0,40.0,10.0,-0.18280862575321613,-1.0340752724142979,0.2438561628637025,4.000181881903424,2.204094362931238,-0.0006575117494067926,0.521385762427479,0.004548868529866302,0.01032119414788157,0.5807385480006091,-0.004727694688174742,0.12460896978154778,0.08426802232861519,0.7182801607996225,-0.022814699457693762,0.0911785289645195,0.29798203613609076,4.126668721437454,0.0,0.0,0.0,0.0,0.0,0.0,0.0,0.0,0.0,0.0,0.0,0.0,0.0,0.0,0.0,0.0,False,0,6.834666967391968,0.029931884765625
STABILIZE,3.417917251586914,29.898875843829973,0.03244760831197103,0.032579898834228516,-10.0,40.0,10.0,-0.18298300902046302,-1.0341854092146645,0.2436131842200646,4.000198765286283,2.208718626813019,-0.0007465617666621746,0.5214353863177259,0.006726387758255061,0.01145904659313748,0.5685472835708409,-0.005155697058673593,0.12460896978154778,0.08426802232861519,0.7182801607996225,-0.022814699457693762,0.0911785289645195,0.29798203613609076,4.126668721437454,0.0,0.0,0.0,0.0,0.0,0.0,0.0,0.0,0.0,0.0,0.0,0.0,0.0,0.0,0.0,0.0,False,0,6.863235235214233,0.029931884765625
STABILIZE,3.45135498046875,29.90655058575228,0.032459529240926106,0.03257131576538086,-10.0,40.0,10.0,-0.18357686195228387,-1.0345786787004692,0.24354624303011319,4.000169140109387,2.2196218759108186,-0.0005914944985743254,0.5214815178784785,0.011892385573327204,0.012342345800897166,0.5581074196167934,-0.004365765711849875,0.2861760323867202,0.07288440247066319,0.7657766807824373,0.04007066546762852,0.9941638447344303,0.7317821495234966,14.02912586927414,0.0,0.0,0.0,0.0,0.0,0.0,0.0,0.0,0.0,0.0,0.0,0.0,0.0,0.0,0.0,0.0,False,0,6.891962289810181,0.034919921875
STABILIZE,3.484858751296997,29.847811390306212,0.03245142300923665,0.03258466720581055,-10.0,40.0,10.0,-0.1840921143477967,-1.033927249408379,0.24393246888333625,4.000090034959894,2.224780837002585,-0.00018361787746748134,0.5215048206115659,0.008360120150525648,0.013876074242238263,0.5590886705076684,-0.002318626384731275,-0.1744148670695722,0.10437995661050081,1.206672377884388,0.11215971029954298,-4.015195369720459,0.7204537279903889,15.851160883903503,0.0,0.0,0.0,0.0,0.0,0.0,0.0,0.0,0.0,0.0,0.0,0.0,0.0,0.0,0.0,0.0,False,0,6.92059850692749,0.06984130859375
STABILIZE,3.5183842182159424,29.828919295650444,0.03238967259724935,0.03260922431945801,-10.0,40.0,10.0,-0.1837551405617918,-1.0338647104887912,0.24424964579291872,4.000192128028445,2.2318148252343644,-0.0007095955177873634,0.5214779933892456,0.009887549182651709,0.015209414250419764,0.5851243041125151,-0.004931984464050496,0.24034790694713593,-0.05074326763860881,0.7607467006891966,-0.198973148878124,-0.8013633079826832,0.46164263039827347,7.164725661277771,0.0,0.0,0.0,0.0,0.0,0.0,0.0,0.0,0.0,0.0,0.0,0.0,0.0,0.0,0.0,0.0,False,0,6.977970838546753,0.0349208984375
