Mode,Time,Freq,North-Vision,East-Vision,Down-Vision,Yaw-Vision,North-Desired,East-Desired,Down-Desired,Roll-UAV,Pitch-UAV,Yaw-UAV,Roll-Control,Pitch-Control,Yaw-Control,Thrust-Control,northVraw,eastVraw,downVraw,N-Velocity,E-Velocity,D-Velocity,yawVraw,yawRate,Q-Size
GUIDED_NOGPS,0.01283407211303711,78.05389310704183,-6.797927207482235,28.39821290292976,62.73542816672723,14.644949219414773,-4.731649954086563,31.00447674079451,64.5902231921718,0.13295180664905348,0.5125937977392623,-1.6740190678063587,4.881358324946666,-2.858730645491786,10.0,0.5037095900508891,-5.289168405321383,32.327446569400735,65.94140689976274,-10.012434422969818,6.68763667345047,16.11846536397934,16.297867050142358,-0.8785208623575781,0
GUIDED_NOGPS,0.03556084632873535,44.01066084657195,-6.300042320859803,32.17209328563444,67.47389120889498,15.6242268725779,-4.731723431880571,31.004602201555333,64.59002989496061,0.16346649051909204,0.581199366053191,-1.683067894517862,-4.202955247641294,0.17692572725241185,10.0,0.49423227737213127,-5.564060291005562,32.759389982351124,65.36610584382714,-17.027373611927032,7.47101753950119,13.47537636756897,16.22790929670305,1.7560619127343768,0
GUIDED_NOGPS,0.06387853622436523,35.3159937692081,-6.4282543199029405,32.44335231878754,67.58172862791703,15.74324491187396,-4.732227836118943,31.00546345413323,64.58869241327982,0.0753837840132258,0.5132394106983872,-1.6987405106203968,-0.6244675028853898,-0.661142211703636,10.0,0.4940139275707256,-5.874357845094291,33.43736342701007,66.4340426886165,-10.274414718151093,6.64246529340744,11.89725324511528,16.482303681030942,0.6559724884659353,0
GUIDED_NOGPS,0.09804868698120117,29.270209915140686,-6.592109267199958,32.72464545780792,67.76525802542453,15.848802526426619,-4.733567063048711,31.007750137229664,64.58510917439555,0.03346236406414862,0.4475542018218886,-1.677310685377776,-0.5456593449105238,-0.6750902196809473,10.0,0.4936397022979421,-6.026688742081113,33.57763291442884,66.60263002741699,-10.274414718151093,6.64246529340744,11.89725324511528,16.494806307731366,0.6559724884659353,0
GUIDED_NOGPS,0.13553118705749512,26.682681052470862,-6.852779133846203,32.98603584170769,68.02236594977084,15.929966306908781,-4.736116138967924,31.01210259511893,64.57822451543159,0.017697793871869955,0.4000849740596818,-1.613010750922747,-0.428821375877568,-0.8217533566161737,9.991011310303238,0.49311171713132146,-6.7048378453422,33.41115203097837,67.24505951309462,-10.507678240537643,6.388244032859802,9.75145623087883,16.45156230256599,0.1981824210795628,0
GUIDED_NOGPS,0.16525602340698242,33.64594898122894,-7.025301501055114,33.19055436127385,68.31232855372038,15.939710720870798,-4.740221899518568,31.01911303751706,64.56702805012988,-0.12157419225547997,0.20782526080544564,-1.53974053693167,-0.4498338295229606,-0.7559962191209146,9.629576717200235,0.492509398992819,-6.7048378453422,33.41115203097837,67.24505951309462,-6.486162543296814,5.0659362226724625,13.30614984035492,16.45156230256599,-2.8402112229447423,0
GUIDED_NOGPS,0.19769883155822754,30.83140252866804,-7.227658050628998,33.40170894912391,68.51418713864915,15.961455566276049,-4.746203668979481,31.029326699450664,64.55055403561128,-0.2224270313121693,0.08741821714503126,-1.4512019686595583,-0.4216310354259579,-0.7939335451089051,9.711032118955316,0.49207273379392424,-6.651729200458508,33.90220169183391,67.49582658241113,-10.931096971035004,5.754440650343895,10.159274190664291,16.51305303189092,-1.8680345398836848,0
GUIDED_NOGPS,0.23106837272644043,29.969161295854352,-7.508139631849899,33.6379016612586,68.69972177586801,15.965646784451874,-4.754353939559271,31.04324300112583,64.527880739136,-0.30034081344350305,0.10036880943022418,-1.2912666859413628,-0.4215399399018408,-0.970524536996492,9.604421169269514,0.49165631792653597,-6.805684300721953,34.011463097120334,67.66503029348799,-13.923501968383789,6.529161334037781,7.205674052238464,16.51596347845501,-2.5373476150982714,0
GUIDED_NOGPS,0.2763407230377197,22.090864083090178,-7.842617509210341,33.92034815968209,68.8896029757609,15.913260324932846,-4.7649390506892315,31.06131670779699,64.49812980486425,-0.2473643187761503,0.013880948760502618,-1.2058670164796952,-0.40030487266986825,-0.9239289493353443,9.31607876199134,0.4912170536582067,-7.6837257411827435,34.79538157762615,68.12460462437954,-13.43345195055008,6.591137498617172,5.826689675450325,16.40654756423383,-4.868869613992325,0
GUIDED_NOGPS,0.30344557762145996,36.903498275497995,-8.294909282988051,34.25900793204508,69.19541862594353,15.87681322583518,-4.778199868316262,31.08395908963579,64.4604656206168,-0.18537192104352787,-0.029499453623152844,-1.07588680902706,-0.6327576573792564,-1.6883379830780714,9.257035498713934,0.49053009398934655,-8.113061579414794,35.04929063327599,68.43278665331067,-13.535766303539276,5.696273222565651,5.943813920021057,16.32663938808994,-3.050147332368839,0
GUIDED_NOGPS,0.33246564865112305,34.4642892358258,-8.604423815517732,34.46334240400783,69.23870946643177,15.79727263006029,-4.794352464195782,31.11153908159997,64.41409468463561,0.026653399173373157,-0.10661314979634967,-0.8539529920781596,-0.3821657064812054,-1.1995146231342222,8.930466222913443,0.4903507704364077,-8.53747299057929,35.42188137844707,67.6356639633664,-14.236101508140564,4.775231704115868,5.202466994524002,16.055684092312294,-4.835836257845204,0
GUIDED_NOGPS,0.36579346656799316,30.010117126850453,-8.948839721167255,34.6733391982208,69.29868316277722,15.721804076591475,-4.813588795184651,31.14438444330223,64.35826497234434,-0.043962672675345746,-0.208352466032006,-0.684809600502582,-0.34377627484725737,-1.1920267097334494,8.980781840547273,0.4901191636191342,-9.074807546993878,35.81001676203545,68.0267546550431,-14.679138362407684,4.022758454084396,3.751903772354126,15.874462424659871,-4.03320621432502,0
GUIDED_NOGPS,0.4018840789794922,27.71243004671261,-9.383756879770852,34.91172094833004,69.39036233743137,15.593074187197324,-4.836077382534082,31.182782918879113,64.29226530310902,-0.04283867967005552,-0.22787880293030885,-0.6213574632782809,-0.3361128237340696,-1.3503604337036084,8.641501902384551,0.4898038059313553,-9.337649986187007,35.88445162994489,68.12426968517804,-17.68370270729065,4.844928905367851,3.4660130739212036,15.809543702304676,-6.673848701232098,0
GUIDED_NOGPS,0.4331474304199219,31.99023735432302,-9.831609721141271,35.1515878072629,69.49639079333699,15.454638526079389,-4.861963991182564,31.22698339685988,64.21542470699853,-0.07526425570275058,-0.3333815600687488,-0.2888271955761243,-0.35366327111005635,-1.5405473284532076,8.388548889153558,0.4894380678273231,-9.76726459172854,36.09394446410586,68.32764968651207,-17.68370270729065,4.844928905367851,3.4660130739212036,15.6618929825598,-6.673848701232098,0
GUIDED_NOGPS,0.46724462509155273,29.331412547116372,-10.205125011339257,35.35377448561858,69.50878579802367,15.318157256463227,-4.891372309048773,31.277197070035374,64.1271117915453,-0.17075104735146932,-0.505614945233096,-0.021708709070147547,-0.30248909496539167,-1.3111965253419018,8.390318253133715,0.48923665198704325,-10.231825443205079,36.251832041095696,68.46998806925961,-14.532452821731567,4.150007665157318,-0.5624931771308184,15.501946001073364,-6.638695425121335,0
GUIDED_NOGPS,0.5010757446289062,29.5629594648886,-10.60750465071454,35.559676259352635,69.50259921041021,15.195101213279449,-4.924404626324495,31.3335985953269,64.0267341085058,-0.24653055544973274,-0.6699349425941752,0.18436981756645326,-0.2904789077784265,-1.4013254015554155,8.389111143467977,0.4890482697961912,-10.231825443205079,36.251832041095696,68.46998806925961,-16.148798167705536,4.514868184924126,-2.4228282272815704,15.501946001073364,-5.732771577009401,0
GUIDED_NOGPS,0.5335967540740967,30.756117413270957,-11.001311107650668,35.758538385207686,69.62903409414699,15.034927998499503,-4.96114251476754,31.396327253655112,63.913737520621204,-0.29421514761420653,-0.8230711455195932,0.4139601565130189,-0.2795976711682681,-1.4335035477221172,8.036280416664033,0.4885694068529484,-11.695314370208406,36.65876324261839,68.6626642020116,-11.932457983493805,3.65169420838356,5.588885396718979,15.013079538225849,-6.543776286225667,0
GUIDED_NOGPS,0.5668120384216309,30.111160566858587,-11.423700472645839,35.920017788202095,69.73335966602826,14.881099126318167,-5.00164750699466,31.465488109808856,63.78760556837787,-0.3788606681419696,-0.9392055456684075,0.7568748197136808,-0.1773310076319059,-1.477524365229487,8.00282461820123,0.48810849180469923,-11.245124578182498,36.404464074360604,69.80988084949598,-16.9752299785614,3.1870897859334946,0.9264787659049034,15.128973127388278,-7.0927045025544295,0
GUIDED_NOGPS,0.6058406829833984,25.62518099450754,-11.839798776738991,36.07260864873359,69.80513025947425,14.700962568382106,-5.045961775774464,31.541153172314075,63.64785883676804,-0.37849397236090454,-1.0321727445653321,1.1093390478693725,-0.15970573360578838,-1.3635705871847066,7.897280906484557,0.48768545715458755,-11.4971484176796,36.50190401913023,69.83224805743751,-16.224604845046997,2.691137045621872,-0.8269443176686764,15.029815958730982,-8.468976094367774,0
GUIDED_NOGPS,0.6375913619995117,31.506272253353966,-12.237025715201527,36.22204080004673,69.7950723372616,14.476910114893592,-5.094108813320343,31.623362553302673,63.494054322050324,-0.30205385690385395,-1.0648146454956462,1.366569201375636,-0.1459878864331356,-1.5065701024743,7.256910079070234,0.48739796396957746,-12.66441119052313,36.762265451001866,69.87123633675083,-10.178674757480621,1.333173643797636,-6.192707642912865,14.352040018979846,-8.459759607856489,0
GUIDED_NOGPS,0.6697747707366943,31.07237100418565,-12.6351683026025,36.32343438028334,69.79213234630022,14.25155138816796,-5.146094110583374,31.712125628381376,63.32578479851037,-0.18110742840220692,-1.0577300317790503,1.6238887876713444,-0.034849052879761366,-1.4715375234821202,7.167670901476386,0.4870673049044203,-13.114238366354389,36.79809042775821,69.78743046357728,-14.414496719837189,0.6890758406370878,-3.4189995378255844,14.104119108888113,-9.346234492306811,0
GUIDED_NOGPS,0.7028303146362305,30.25669436749769,-13.110393762428195,36.445880692685854,69.71600622487944,14.00710851120856,-5.201905836545251,31.80742219650063,63.14267818522139,-0.07496655550447323,-1.0428671132582796,1.878510342523192,-0.02850978354362571,-1.6564538443391832,6.924674180234655,0.4868533439206839,-14.53790769732819,37.21197302254939,68.40010682599329,-14.414496719837189,0.6890758406370878,-3.4189995378255844,13.679423782383665,-9.346234492306811,0
GUIDED_NOGPS,0.7372121810913086,29.09397630476402,-13.596791573829018,36.559620191616666,69.6094742061804,13.742993629455764,-5.261515517511194,31.90920363982346,62.94439691280477,0.0030561628080369163,-1.064352220344495,2.1158297475469277,0.00012237613724286334,-1.669280609122034,6.7051505832374705,0.48666984541324876,-14.77384312895175,37.29196813726056,68.35421275866386,-15.097612142562866,0.2332306234166026,-5.233978107571602,13.534183124187905,-10.400500657681313,0
GUIDED_NOGPS,0.771111011505127,29.500787756020706,-14.124368401080256,36.65946878400866,69.56096989844174,13.538087603104668,-5.324878716402866,32.01739408359434,62.73063729019063,-0.0031494108984634578,-1.2427332826899562,2.3833511818634023,0.06504475393210413,-1.7831018297796697,6.916140872346979,0.4863393347834978,-14.170935405169349,37.07582563890168,69.3880904220525,-20.527397096157074,0.41971541941165924,-5.013720691204071,13.529376763973783,-7.027622618161139,0
GUIDED_NOGPS,0.8041536808013916,30.26804837918194,-14.610539234884003,36.733866821157484,69.52135158316416,13.317694739324308,-5.391935712051296,32.13189155600808,62.50112887137843,0.022261827660892967,-1.4110844256826651,2.7116792290395613,0.11979447525866793,-1.7358611997348348,6.6578006401739716,0.48595955457642853,-15.055003404666607,36.8309100688779,69.37234568627052,-17.062366008758545,0.329368282109499,-4.020525515079498,13.270555451609614,-7.900420902572158,0
GUIDED_NOGPS,0.8379151821136475,29.625812284568006,-15.043665482287299,36.808898803424306,69.33023706449902,13.086533522644135,-5.462612178489791,32.25256914807869,62.25563382219756,-0.0007559632029028957,-1.5029521775666292,2.953521499954315,0.10270659229621976,-1.6334307379144613,6.481671638832368,0.48585079351539706,-16.032417171361885,37.428674065885545,68.04144060684447,-12.173125147819519,-0.9753955528140068,-8.953036367893219,12.843578364926149,-7.896364623978816,0
GUIDED_NOGPS,0.8720653057098389,29.285946697016456,-15.448309478569563,36.837428362760875,69.32773539912984,12.85368095624105,-5.536819864246854,32.379276173508266,61.99394628706791,-0.0597559376662664,-1.6702641713101443,3.2265177577773776,0.1983868255675981,-1.565987540691834,6.345436318157734,0.48533242177587615,-15.70925156679767,36.773019846302276,69.2635874104766,-12.467480450868607,-1.4591848477721214,-1.1406400240957737,12.709740609472643,-8.031380388397043,0
GUIDED_NOGPS,0.9067428112030029,28.8446736813149,-15.88042959418219,36.85612780618968,69.30916544360134,12.603493088937634,-5.614457271639106,32.51183932855586,61.71589175576043,-0.03678417053808879,-1.7630291325746128,3.4462682087085486,0.25902542840236764,-1.6531775886691824,6.0579225068673725,0.4848134526243182,-16.355093916853946,36.699516303647485,69.06926255510632,-13.552263379096985,-1.5339097008109093,-1.4247613959014416,12.430002151808642,-8.751931194887538,0
GUIDED_NOGPS,0.9381065368652344,31.885179103569907,-16.29543783799614,36.89016823320857,69.20442558068137,12.369122381124269,-5.695410336064193,32.65006385190633,61.421326430157784,0.06189401366010518,-1.685868912407802,3.7126568988398585,0.24172653681342732,-1.6511746897234902,5.996989669651202,0.48443380169895284,-16.877885486161276,37.26401917093417,68.59129275033462,-12.690654397010803,-1.8681177869439125,-5.199103057384491,12.205002810318895,-7.913237752549686,0
GUIDED_NOGPS,0.9723329544067383,29.223711713720352,-16.718314929854024,36.91237124458688,69.094600040291,12.168473927498193,-5.779553105293716,32.79373468453927,61.110136591014864,0.07963600365838187,-1.6569962086822771,3.8754267100636093,0.27549621344035313,-1.6585884621160563,6.125010778045389,0.4840310731014477,-17.704774564688776,37.27598322326148,68.27954201393433,-11.71116977930069,-2.3499859496951103,-4.5717503875494,11.681445377277203,-4.917522758997618,0
GUIDED_NOGPS,1.0057487487792969,29.930452777678667,-16.991044407543374,36.90439469874679,69.00038456168662,11.980751014665811,-5.8667484187661385,32.942617629597805,60.78223796471939,0.15048519573316713,-1.4697524422801955,4.105017115711241,0.2989402472397125,-1.356405744463899,6.0675876986409625,0.48356370680606553,-17.990188650719844,37.106593215010506,68.27472918795516,-1.6141857951879501,-3.6288920789957047,-3.652728721499443,11.446264543224348,-3.673691096511759,0
GUIDED_NOGPS,1.0473475456237793,24.043015190599025,-17.26434429163962,36.87966889049097,68.89984081931888,11.792043529726277,-5.956848586879706,33.09646051225755,60.43757509005254,0.1496058755785941,-1.3017134602768974,4.2444763450713845,0.27670744719112234,-1.303703984523016,6.147980852006537,0.4830754685414673,-18.67070919046484,36.90985736062175,68.12409171050201,-1.6141857951879501,-3.6288920789957047,-3.652728721499443,11.104556888981932,-3.673691096511759,0
GUIDED_NOGPS,1.0907940864562988,23.018939581035173,-17.613372850671624,36.86219698372777,68.81227044049238,11.539777553640434,-6.049696070285369,33.25499433959543,60.07612068494947,0.024747109384278466,-1.156087210426467,4.4741862790294915,0.2792625133213804,-1.4187313344209276,5.7838781762496,0.4825277004889142,-18.67070919046484,36.90985736062175,68.12409171050201,-2.4181928485631943,-3.752077743411064,-2.766474150121212,11.104556888981932,-5.7072377685709546,0
GUIDED_NOGPS,1.1151845455169678,41.008457259065885,-17.99425045111648,36.83584284698164,68.70138889748446,11.359059153006157,-6.145124159179689,33.417934460458554,59.69787501325994,-0.04732944900805957,-1.143830542682585,4.545506260569118,0.6345831663246704,-1.794206917846318,5.336463548516834,0.48199297223155096,-18.852989913268196,36.864909475584994,67.89308695265362,-10.625162720680237,-3.1386598944664,-3.6971792578697205,10.963991628754972,-3.991406737265011,0
GUIDED_NOGPS,1.1490964889526367,29.49373461781872,-18.25549456243445,36.77257758858709,68.6036392525243,11.231955534637304,-6.242957652597767,33.58498172533312,59.30286525150888,-0.16911425654989923,-1.049056758750192,4.656072935966462,0.49319784508951986,-1.3486690808853747,5.988523905210777,0.48139845199796916,-19.26622864900539,36.388656165992806,67.93970922184546,-10.625162720680237,-3.1386598944664,-3.6971792578697205,10.799487636444422,-3.991406737265011,0
GUIDED_NOGPS,1.1913678646087646,23.659205776173284,-18.633131006803627,36.746381524977984,68.44889794243994,11.066530975564396,-6.343013537706155,33.75582364621328,58.891144855656975,-0.2338185061872812,-1.0438566369142852,4.755056037418286,0.38557777468139043,-1.5195747011897198,5.857998283072084,0.48088449382643406,-19.830007744412896,36.773503424806435,67.32827704104716,-10.300589352846146,-2.709747664630413,-5.224626883864403,10.568950703485193,-2.967006854696859,0
GUIDED_NOGPS,1.2149598598480225,42.39454187092535,-18.958838324290994,36.669483425103095,68.35300086299972,10.936555390926737,-6.445101669095774,33.93013555646998,58.46279292786127,-0.22563391184919607,-0.9691050189252557,4.878241060420405,0.854562386653893,-1.6564151787815133,5.462194242296231,0.4802195841297231,-19.779029841705956,36.37886650289781,67.57905900249634,-8.567996323108673,-4.686926677823067,-2.5219060480594635,10.55568515081798,-1.8956844263043657,0
GUIDED_NOGPS,1.2500545978546143,28.499334112467047,-19.192780676017463,36.582946205029245,68.19764599055485,10.850947465870103,-6.549025448074829,34.107581770719875,58.01791358323572,-0.11867037468244607,-0.9260098336353545,4.947718598431421,0.5864982478560881,-1.3106706162121484,6.021997238047719,0.47964053518536176,-20.269363827934363,36.76464441987426,66.95501102557043,-8.42939242720604,-6.287415325641632,-5.485675111413002,10.342483046181131,-1.6200188451762976,0
GUIDED_NOGPS,1.29347562789917,23.03322386846643,-19.540816932984246,36.47853526589558,68.05286545936669,10.706833907088383,-6.654582501961734,34.287816744694204,57.55663531661181,0.0875275135119647,-0.9946438432838739,4.985422523310361,0.5669788759507357,-1.471092754022346,5.760048978369398,0.4790075397144902,-20.207357119078623,36.594132257976256,66.84912817967484,-9.738253802061081,-7.235530763864517,-3.7683550268411636,10.281433941298257,-2.1414141420739146,0
GUIDED_NOGPS,1.3159613609313965,44.4783032873807,-19.88421866168983,36.33345655051081,67.7864982768253,10.624484578111453,-6.761565363378016,34.47048623510762,57.079110369299094,0.31400554069303915,-0.9546305674135294,4.996377719852238,1.2071780056477408,-1.7223060992876371,5.643905963680401,0.4785852241849476,-20.981276347441717,36.19772310492026,66.39826870859501,-9.240633994340897,-8.718375861644745,-10.863257199525833,10.039315708332257,1.130701104828822,0
GUIDED_NOGPS,1.3488211631774902,30.437619738751813,-20.088064523021476,36.20597632417297,67.5575433891988,10.60076819606602,-6.869762149541248,34.65522845952712,56.58551409584584,0.4256944748679537,-0.9415714591638765,4.968354307461322,0.788530049555279,-1.2701301998184364,6.216034469612485,0.4780559414132941,-20.981276347441717,36.19772310492026,66.39826870859501,-7.937954366207123,-8.166373521089554,-10.363868623971939,10.039315708332257,1.8619804309581147,0
GUIDED_NOGPS,1.384291172027588,28.20098299591875,-20.41293935703452,36.0651472391803,67.2990354511182,10.53500684853211,-6.9789572415579535,34.84167525624089,56.07604433079955,0.43438583722594204,-1.0884493411797116,4.909692800887845,0.8409383517371742,-1.5083394692439311,5.948491707024736,0.4775540177593627,-21.277467825634464,36.050905076747014,66.17966903796085,-7.937954366207123,-8.166373521089554,-10.363868623971939,9.968753423869895,1.8619804309581147,0
GUIDED_NOGPS,1.417327880859375,30.27066974595843,-20.80910265627952,35.92434534050776,67.10014592236394,10.456215528117692,-7.08893196371653,35.029453244127154,55.55092075546759,0.4450957872879336,-1.0119961523137029,4.83587254322517,0.9449842198502829,-1.6952537640823075,5.798786443168404,0.4769015496662073,-21.73409184135641,35.8036033147096,66.10337192986768,-11.85392364859581,-7.29241818189621,-6.052376702427864,9.941362458461176,1.1134766484025194,0
GUIDED_NOGPS,1.4524471759796143,28.478628996666192,-21.123060737185,35.772416488428235,66.85595420306223,10.397740145689355,-7.199465262780166,35.218184982523105,55.01038426467774,0.3646655340146997,-1.0972402215283412,4.740507307599336,0.9255564797653307,-1.5175429663568236,5.904750055760835,0.47630886012323104,-22.174438037127178,35.47406978107793,65.83839020815275,-6.743688881397247,-7.269154489040375,-9.000636637210846,9.937681806981463,1.3957887506449507,0
GUIDED_NOGPS,1.4844388961791992,31.26344663088849,-21.390211511724637,35.63233985129802,66.65828349377605,10.383697852490567,-7.310334387279753,35.40749013109375,54.45469633353884,0.3848738492933725,-1.0740885482846425,4.660862606121933,0.9814214862331774,-1.4561800011580814,6.142411378718312,0.4755928256795256,-21.142154822282066,35.73607423696422,66.79948552051172,-7.049865275621414,-7.216986268758774,-8.757822215557098,10.234124864021014,3.27566651838432,0
GUIDED_NOGPS,1.5187616348266602,29.139657352471204,-21.607086494980198,35.438877156736595,66.53608226432848,10.399582192083383,-7.421315566806811,35.596986609700764,53.884138384201286,0.49520941883684605,-1.0273573544787673,4.5268350846992425,1.0498098052574059,-1.3248717431404708,6.3322758746438295,0.4746961122397456,-21.83067193453812,34.89348054991875,66.7236482061894,-3.8292933255434036,-8.754357695579529,-4.5434750616550446,10.352655186832841,3.8607511948581905,0
GUIDED_NOGPS,1.5545575618743896,27.940233284704597,-21.85663980372081,35.242162373369645,66.5162094207596,10.418744752052604,-7.532184691306397,35.7862917582714,53.29901115261767,0.611162872333508,-1.0666190960969988,4.374316960532857,1.0672348146492647,-1.3902593666600058,6.35828677389398,0.4735656034637162,-21.83067193453812,34.89348054991875,66.7236482061894,-5.896483734250069,-8.865130692720413,2.2413257509469986,10.352655186832841,4.088311753661859,0
GUIDED_NOGPS,1.587062120437622,30.76875224660167,-22.18728579668553,35.04669839920479,66.27826013616216,10.449913700443956,-7.642717990370032,35.97502349666736,52.69963405530337,0.5808883790025439,-1.0521689771341907,4.24582914941387,1.2080321910148124,-1.5891984616466748,6.4612909426293115,0.4728427478382824,-23.393511066200674,34.678704814575795,64.89576191772358,-8.518961071968079,-8.51195901632309,-7.189188152551651,10.052677299391046,5.253527085027225,0
GUIDED_NOGPS,1.620631456375122,29.795439369183775,-22.498275312399894,34.86161179053437,66.04157993009349,10.49172166849543,-7.752692712528609,36.162801484553626,52.08634455609709,0.5092321173679996,-1.0735806596868287,4.122586923577453,1.1869755699523412,-1.5572196153884903,6.544746878601148,0.4720895292520072,-23.460975660700928,34.764987379374354,64.72571745487002,-8.518961071968079,-8.51195901632309,-7.189188152551651,10.15141526811356,5.253527085027225,0
GUIDED_NOGPS,1.653993844985962,29.978371965034913,-22.797598983583793,34.67385193488187,65.8794169462628,10.546556435768249,-7.861887804545316,36.349248281267386,51.459497532921496,0.4308510275674753,-1.0914529168672247,4.003989653263467,1.2206831647301084,-1.5448516197521736,6.655868506157465,0.4711601611733174,-23.270155660609873,34.35021888866852,65.6990591340742,-8.595673739910126,-7.561929523944855,-5.4685719311237335,10.329549679878607,5.372103011000054,0
GUIDED_NOGPS,1.6898844242095947,27.86505627084413,-23.066915533216306,34.490253606853635,65.6805051956708,10.578422041113795,-7.97008459070855,36.53399050568689,50.81946464454376,0.3389446691064449,-1.1246312010907964,3.8278301099455523,1.1750772656224642,-1.4828668007118473,6.524866231916608,0.4702779188977459,-23.377195703756712,34.38928264047702,65.38890662251072,-7.113812118768692,-7.663427293300629,-7.308364659547806,10.573268391821784,3.014577201275294,0
GUIDED_NOGPS,1.7209141254425049,32.233379187384244,-23.348960144023586,34.26900782385449,65.45255472432193,10.650434306769183,-8.07706745212483,36.71665999610031,50.16663369733615,0.29048250259364744,-1.0471662904539794,3.6880844395270915,1.4141232383904196,-1.5341312541972556,6.854015616554402,0.46942815794602843,-23.928346220640996,33.62859244691439,65.2911226501528,-6.406740844249725,-7.909303158521652,-8.79157930612564,10.879622259691372,4.59006214584605,0
GUIDED_NOGPS,1.7548260688781738,29.491246080072,-23.610649041033618,34.055073353254194,65.30659845331336,10.756785698892472,-8.18262450601173,36.896894970074634,49.501408012036656,0.242442260344657,-0.9687898697280831,3.4898951882583584,1.3429173171648092,-1.4866318811569799,7.081967691101871,0.4683896191174466,-24.18557903464808,33.35944827209839,65.09016402541616,-7.572644948959351,-8.066436648368835,-4.559898376464844,10.985929772634918,6.1351623535637705,0
GUIDED_NOGPS,1.7887086868286133,29.51926636497357,-23.895879146550378,33.822895265522,65.16481141925917,10.815210015295763,-8.286548284990792,37.07434118432454,48.82420579050951,0.16782553859173532,-0.8305896896918963,3.328689703797952,1.4209643444236146,-1.540279631075273,6.834120158111136,0.46731878874250066,-24.262799436554594,33.205176435176455,65.01973823061338,-8.100031316280365,-8.486957848072052,-3.716443106532097,11.0643711539258,2.9377371462258273,0
GUIDED_NOGPS,1.822042465209961,30.0041061298653,-24.123664518363483,33.58231344551066,64.96517868962275,10.929076432070671,-8.388636416380407,37.24865309458123,48.13545948250582,0.2083138327745131,-0.7461065996003325,3.2767021458172234,1.4641378831376175,-1.4290677687861884,7.242256503480202,0.46634056158576614,-24.290720089092638,33.26643051245944,64.88998064023708,-5.036976188421249,-9.60976928472519,-7.420016825199127,11.150401395999115,6.095460171465779,0
GUIDED_NOGPS,1.8558800220489502,29.56066756878665,-24.364851049189923,33.36591818644129,64.7689133264775,11.014134055530533,-8.488692301488797,37.41949501546139,47.43561515242413,0.2164644762699465,-0.6763678068535636,3.1075915711661737,1.4387506523514166,-1.4749608776586598,7.11441542584921,0.46533340365189324,-24.6798725663041,33.37563454447513,64.37659312197232,-5.974077433347702,-8.926068246364594,-6.3770487904548645,11.282014870401714,3.9267735109228266,0
GUIDED_NOGPS,1.8898496627807617,29.44218336503836,-24.643753512694502,33.1547275095605,64.595638509358,11.103552087442985,-8.586525794906873,37.58654228033596,46.725131846071,0.19197121780308243,-0.5520222386619246,3.0258749744927296,1.4556422776455316,-1.5639777084249937,7.18401845378847,0.464258986673426,-25.05837524173708,33.41442710752854,64.04337090407581,-8.058187365531921,-8.939982205629349,-4.278495907783508,11.337152181955151,4.061405504087063,0
GUIDED_NOGPS,1.9327466487884521,23.313863906706835,-24.944443775762256,32.91536190552629,64.37754805374429,11.205357569361839,-8.681953883801196,37.74948240119909,46.00448095742162,0.1549471101899705,-0.38223456814854434,2.9247252089701297,1.3793000216447346,-1.563394109804641,7.202188781555831,0.46325386580735467,-25.527753840625998,32.648007353196576,63.56214365071692,-8.96325409412384,-9.023620188236237,-6.114594265818596,11.892767880422397,3.2620784973608146,0
GUIDED_NOGPS,1.964064121246338,31.94005391492408,-25.265076229915476,32.628978166752084,64.09970953089561,11.289793820991754,-8.774801367206859,37.908016228536965,45.27414559538035,0.2652572266066152,-0.3065333404214716,2.856995772499814,1.7746392837087535,-1.6759202443714778,7.310615566876463,0.46234887212896947,-25.527753840625998,32.648007353196576,63.56214365071692,-6.445525586605072,-9.56573635339737,-7.868620753288269,11.892767880422397,1.7994237955670258,0
GUIDED_NOGPS,1.9982383251190186,29.26653362546576,-25.519299564046154,32.39782480379841,63.86716151315439,11.336373325325745,-8.864901535320424,38.06185911119671,44.534619950541355,0.27625084296257385,-0.21149888872270758,2.814426831941121,1.573514805279142,-1.5542107786586388,7.072898200637332,0.4613349168747739,-25.696022922620024,32.34714414338583,63.18006989724775,-8.270569145679474,-9.277783334255219,-7.731487601995468,12.058199150482384,-0.15877548458061555,0
GUIDED_NOGPS,2.031843900680542,29.760556284812147,-25.772087068695733,32.16248618197536,63.61744949101044,11.41025113287658,-8.952096848792852,38.21074205625525,43.786408661949125,0.22747883665746643,-0.04833648836402655,2.8053401190240654,1.6245031134761123,-1.5675084565306696,7.28478407660138,0.4603379183418774,-25.54641680865776,32.28946311348914,63.17025156100888,-8.15550610423088,-9.072359651327133,-8.48551094532013,12.131249310926911,1.2787787522610523,0
GUIDED_NOGPS,2.0703516006469727,25.973174145127132,-26.05087472182289,31.92327030697019,63.34273730033805,11.488188953550335,-9.036239618022375,38.35441288888818,43.03002618385915,0.26242168424485496,-0.041662793235329065,2.8525792014277545,1.5912124474745282,-1.6144439553302365,7.3135707002946235,0.4593745777670422,-26.55066874410889,31.92691302870454,62.384470565223495,-8.15550610423088,-9.072359651327133,-8.48551094532013,12.28732133265881,1.2787787522610523,0
GUIDED_NOGPS,2.1024580001831055,31.15152775508385,-26.381414201272214,31.678428039279858,63.14508903873353,11.5346526647271,-9.117192682447453,38.49263741223865,42.26599615249838,0.19872176590015578,0.00399484357639757,2.9439193211983348,1.7359735956652198,-1.7653539108268457,7.198997065850604,0.4582418142275297,-26.55066874410889,31.92691302870454,62.384470565223495,-10.812153667211533,-8.817847818136215,-3.4285668283700943,12.28732133265881,-0.6434609159277942,0
GUIDED_NOGPS,2.1358323097229004,29.96744830739772,-26.611683396027626,31.45632709159435,62.92655963828233,11.530131013535547,-9.194830089839712,38.62520056728625,41.494850752825954,0.22209579381785013,-0.0052758242108923055,3.0599625276495592,1.6644722148872946,-1.5854746507951614,6.891106483538266,0.45713658222908726,-26.794466645704247,31.765662054467054,62.23731268638117,-6.327451765537262,-8.799467980861664,-6.096747517585754,12.225481014539469,-3.0750785900564437,0
GUIDED_NOGPS,2.1727449893951416,27.09393692750927,-26.941303470442442,31.22992868287788,62.71406728068117,11.514760150160312,-9.269037775596772,38.751907592715824,40.71713008529367,0.2616687892909933,-0.04414942899035667,3.197230546946598,1.66255756276338,-1.780478169834995,6.825287718571617,0.456006125609225,-27.462564164937554,31.248912103512563,61.935434308163934,-11.616791784763336,-8.207248896360397,-5.490618944168091,12.168691135157664,-3.3985247595233363,0
GUIDED_NOGPS,2.202176809310913,33.98371427876941,-27.27371081300764,30.976524450898484,62.50184625131217,11.439826299793097,-9.339714242035267,38.87258518478644,39.9333815326066,0.353417546473011,-0.11388209190914979,3.427612827651128,1.933491032849248,-1.8898168936103905,6.3553437130647366,0.45486307056258884,-27.64582264220094,31.099304247045215,61.672406885131124,-10.041004419326782,-8.54528471827507,-4.043105244636536,12.112196858112153,-6.762665066104359,0
GUIDED_NOGPS,2.239659547805786,26.68319029957567,-27.542302174679293,30.757193886004092,62.26217628961085,11.3692544257831,-9.406771237683696,38.987082657200176,39.14415912648369,0.44796377304825136,-0.16833788282076562,3.6391145444990385,1.6751829899485873,-1.7245672987793281,6.432601125355499,0.45376396567374566,-28.065018500955716,30.819681070942487,61.22844566172419,-9.590417891740799,-9.170223772525787,-7.552807033061981,11.988751727341182,-5.928560657115109,0
GUIDED_NOGPS,2.270592212677002,32.332272114087495,-27.84557867642083,30.50606088282552,61.99724932203837,11.294637040199868,-9.470134436575371,39.095273100971056,38.35002291441836,0.5311227669361847,-0.21679652751727227,3.878485781038129,1.8663491838216908,-1.84583287836316,6.313074406479015,0.45270554718475997,-28.26573217961682,30.5484801737259,60.976452515723395,-9.590417891740799,-9.170223772525787,-7.552807033061981,11.916134152763577,-5.928560657115109,0
GUIDED_NOGPS,2.3033978939056396,30.48629161215293,-28.084472315617383,30.273985593325687,61.71835812277023,11.200413255689556,-9.529744117541313,39.19705454429388,37.55153832643906,0.6844537369746538,-0.33168692610264516,4.219376253645234,1.7979636800971224,-1.7364248479376987,6.145640962418444,0.45166636040733765,-28.24895875951475,30.383341149090974,61.01813436029175,-7.665292173624039,-9.089295566082,-9.92712527513504,11.926039069172813,-7.146031631386127,0
GUIDED_NOGPS,2.3365020751953125,30.215280879450198,-28.330499998655252,30.02621689887466,61.43021959673684,11.029283908041561,-9.58555584350319,39.29235111241314,36.74927554186982,0.8249964584527434,-0.3371055606311396,4.570813818991308,1.8399250651065961,-1.770271277380015,5.58289687321574,0.450638111890266,-29.076148815245226,29.85778315698669,60.640384657138895,-5.834812298417091,-8.701713383197784,-9.55546498298645,11.629758607883108,-10.930977544854107,0
GUIDED_NOGPS,2.370985507965088,29.00203981441146,-28.67755345053684,29.772069408480807,61.128022655074574,10.86773197260491,-9.637541140766224,39.381114187491846,35.943808856090904,0.9527987960554966,-0.4456070376194796,4.869259361661839,1.8752604415247127,-1.995319885359135,5.582839298422066,0.44963157240203266,-29.38160813999981,29.56446288856983,60.38869670518369,-12.045285850763321,-8.607473969459534,-10.243212431669235,11.432275908779896,-9.793079128187385,0
GUIDED_NOGPS,2.4048564434051514,29.529034074908477,-28.96155692585241,29.5176157810356,60.9128374142409,10.700227436470197,-9.685688178312102,39.46332356848043,35.13571604729937,1.084610561422753,-0.6544608822252469,5.217419716866776,1.8864486961074949,-1.9104808392960702,5.420399790337514,0.44844575726611696,-29.66546497849915,29.48150960062094,60.12865271701669,-7.605715841054916,-8.762777596712112,-4.38045859336853,11.247895173973362,-9.553618672302262,0
GUIDED_NOGPS,2.4375498294830322,30.593250133115486,-29.290165224951668,29.29049398414907,60.618525846538596,10.50659060056808,-9.730002447091909,39.538988630985656,34.32557774326963,1.1363776323593373,-0.7742615998544772,5.612364306565362,1.8654141583141202,-2.055161120497656,5.135462783539431,0.4474141037934621,-29.651156992373213,29.31020515101538,60.13788422740738,-11.880745738744736,-7.607482373714447,-10.285520553588867,11.133925305951344,-11.015305621668023,0
GUIDED_NOGPS,2.4705424308776855,30.313987944666888,-29.65124816537546,29.0429656452516,60.234988507728744,10.25241839682189,-9.770507439319026,39.60814948713941,33.51397678811407,1.2121654113897988,-0.9605666421325051,5.96914094540827,1.9328643138317936,-2.160283501274833,4.609810173242572,0.4465579765607707,-30.974782318034336,28.641020329847684,59.22866729423812,-11.106827110052109,-7.657278329133987,-14.08834159374237,10.32096524659524,-12.608839981450775,0
GUIDED_NOGPS,2.512099027633667,24.06619157457454,-30.04497928676961,28.81898820755085,59.889715734434425,9.999213657731351,-9.807245327762072,39.670878145467604,32.70149760904359,1.25281122681031,-1.2536632929092693,6.520457593512421,1.7517270058646386,-2.151761790275383,4.779904698343669,0.44562356374921835,-31.17967290954688,28.575081281778097,58.982806336466645,-13.377255201339722,-6.498973071575165,-11.613284051418304,10.12588196990423,-12.222903557493789,0
GUIDED_NOGPS,2.545252799987793,30.1672528500018,-30.5297145793969,28.52643185289208,59.486361291921504,9.648151518824006,-9.84027764503779,39.727279670759145,31.88872558312827,1.2535753542237051,-1.4545043651232594,7.00579205291331,2.081163692684529,-2.501810870269393,3.672312407574831,0.44480472858241354,-31.877777553874527,27.71731861218789,58.75093560285733,-13.355618715286255,-5.491016060113907,-11.499331146478653,9.547684925216501,-14.751805003353104,0
GUIDED_NOGPS,2.581881046295166,27.305955574073593,-30.914733099025288,28.301171971907834,59.14319810932375,9.352322754315956,-9.869685962904008,39.77749334393463,31.076246404057805,1.3068886092336514,-1.7295708105950707,7.506117496881907,1.8440640290112014,-2.3051386436440775,3.9948796047230175,0.44386609658946813,-32.24980542740552,27.450228326390825,58.47090198618298,-11.816499382257462,-4.980943351984024,-11.616375297307968,9.160022279879666,-12.623512081561607,0
GUIDED_NOGPS,2.6164650917053223,28.918456415171093,-31.29108446138192,28.098767455627993,58.78064133680154,9.001495709530435,-9.895572571552478,39.8216938219154,30.2646454489022,1.326227009208073,-1.9467618615781905,7.9258198147744965,1.8320529452205148,-2.378198845525775,3.3703521054316568,0.44296800822420135,-32.59214193406063,27.59854694602489,58.068594081195045,-10.903292894363403,-4.492040723562241,-12.1521957218647,8.969033483773973,-15.531899691480477,0
GUIDED_NOGPS,2.6460695266723633,33.786069291059505,-31.657498509473925,27.89428177055091,58.384766925731086,8.690943847504053,-9.918061158901914,39.86009229749229,29.45450714487248,1.2992159589181997,-2.116745633225944,8.450184536413776,1.9327835535988138,-2.506823801856615,3.1157121075602814,0.4421394804382828,-32.91948838323842,27.344394042364907,57.730992145210664,-9.82801839709282,-4.2125798761844635,-13.619576394557953,8.504682901941777,-12.053849545346802,0
GUIDED_NOGPS,2.6907613277435303,22.377975777623647,-32.01103885642107,27.718839420507837,58.05882836112535,8.370992047360684,-9.937297489890778,39.89293765919453,28.646414336080944,1.3652623940883422,-2.5537163768876185,8.972608630555127,1.6514848695307311,-2.2939005829384027,3.591773220698638,0.4411751719499112,-34.16106623781926,26.87227088452046,56.7131431107684,-9.369616210460663,-3.6880645900964737,-9.820632636547089,7.4756778745958385,-11.962471859535787,0
GUIDED_NOGPS,2.7184736728668213,36.09183216879496,-32.505717386192835,27.475690507506922,57.62789801161714,7.822349206827295,-9.953450085770307,39.920517651158725,27.84094765030202,1.3667076194280345,-2.8168707590035162,9.611820421767233,2.106648382759629,-2.982461832155287,0.7240530756836461,0.44042609927736975,-34.25948055307833,26.83103283554646,56.6537620234713,-10.199138522148132,-2.6774220168590546,-9.324604272842407,7.242353190293613,-19.90620896805052,0
GUIDED_NOGPS,2.7475662231445312,34.3781320437687,-32.8251709090347,27.34363767714354,57.368617070646316,7.447479810420119,-9.966710903397335,39.94316003299751,27.038684865732804,1.4311417030672309,-2.9930192032640295,9.983770325851324,1.7295364680556788,-2.5898469727594846,1.897768558513337,0.439340135590173,-35.086310934113015,25.942906620336053,56.182569716189846,-11.14688366651535,-2.3434048518538475,-9.653932601213455,6.478927342090447,-15.020928117029946,0
GUIDED_NOGPS,2.7838752269744873,27.54499543576912,-33.190490293946084,27.180653228741857,57.06882834777489,7.074487866775935,-9.97729601452729,39.96123373966868,26.2402002777535,1.4762570235258692,-3.1561623270146035,10.671995554547442,1.7030675199916792,-2.5837459543922607,2.1879083635238015,0.4383427438599572,-35.086310934113015,25.942906620336053,56.182569716189846,-11.14688366651535,-2.3434048518538475,-9.653932601213455,6.478927342090447,-15.020928117029946,0
GUIDED_NOGPS,2.8155179023742676,31.609559050726876,-33.472089632462406,27.01876328916134,56.69017371848438,6.565156608892393,-9.985446285107074,39.97515004134384,25.446064065688148,1.6425392595302988,-3.3649554469697813,11.303881114101063,1.7278992742614907,-2.5391141331496536,0.7129224362593303,0.43751178069440755,-35.257795771545695,26.05310965061003,55.74741950445389,-2.8641724959015846,-1.2993953190743923,-10.251826047897339,5.889589118483079,-18.889369678006748,0
GUIDED_NOGPS,2.857473850250244,23.83669015685383,-33.736713991297755,26.887602461210097,56.33166486205351,6.158905348615816,-9.99142805456799,39.98536370327745,24.65684165956526,1.7282954862109825,-3.443087901876261,11.845834426626771,1.5513934967244947,-2.41538240760899,1.7619902625392567,0.4366503535950235,-35.257795771545695,26.05310965061003,55.74741950445389,-4.660661146044731,-1.039502676576376,-12.715402245521545,5.889589118483079,-15.938036399907777,0
GUIDED_NOGPS,2.8831567764282227,38.945773287772994,-34.04712555103801,26.724502218952477,55.89330106885889,5.589829284759581,-9.995533815118641,39.992374145675576,23.873093106878187,1.7990284983688114,-3.4094741930931014,12.312659073376926,1.8089354616490014,-2.835149878748703,-1.0690317011608204,0.4359595840760386,-35.259645283102,26.097294623353477,55.54851469401423,-2.153770625591278,-0.17408662242814898,-12.158630788326263,5.3768714077234065,-19.607184993734652,0
GUIDED_NOGPS,2.9163818359375,30.102732303187327,-34.17733306903542,26.657982924288145,55.576961805943114,5.1358282265990045,-9.998082891037853,39.99672660356486,23.09537243934588,1.842404255023212,-3.6048402283570917,13.16471492705226,1.4321586765373908,-2.328959764835364,0.32093988024409636,0.43503682126680554,-35.88584911920728,25.489191418168787,54.666407303410665,0.08842292590998113,1.6201125457882881,-12.099339812994003,3.8299458356087692,-18.184304617911966,0
GUIDED_NOGPS,2.9504036903381348,29.395755655854895,-34.360486397396954,26.58127773109832,55.194840967149204,4.5327499520403345,-9.999422117967633,39.99901328666129,22.324227039673474,1.8044237074828868,-3.6467942384470717,13.736962689867916,1.4330924875496613,-2.45745412930221,-0.7919017641413282,0.43425877214504854,-36.237743995941756,25.346738909175638,54.00825515061824,1.9021028652787209,3.42106930911541,-10.924959182739258,3.137510689083224,-22.01709942161047,0
GUIDED_NOGPS,2.9865944385528564,27.63865441006886,-34.49702103410141,26.50330540155773,54.788684509863394,3.904977256074803,-9.999926522205989,39.99987453923918,21.560197008312713,1.775992831619297,-3.613958957785882,14.417069384961827,1.3976890517763125,-2.378616855631646,-1.1319579270078752,0.4335430249968986,-36.282279983076634,24.95633749991135,53.73061392475452,4.850233718752861,4.201805591583252,-11.86891719698906,2.157732793570702,-20.917218691637686,0
GUIDED_NOGPS,3.0174355506896973,32.430018401967,-34.59698647087,26.464396754422236,54.365550176693,3.322345360603708,-10.000000000000007,40.00000000000001,20.803814530222738,1.6888594680472098,-3.735591393412292,14.89080447560474,1.3109043944584298,-2.3684556673267703,-1.7847566656454819,0.4328765287070595,-36.16160454407101,25.369094779374745,53.5076927106831,6.097747012972832,5.031813681125641,-12.814271450042725,2.0265197850636474,-17.64382833379427,0
GUIDED_NOGPS,3.0516531467437744,29.229006676051235,-34.63940626425941,26.440472042015724,53.95914056252477,2.782878338489565,-10.0,40.0,20.055603241630507,1.591551257045919,-3.8197828664428077,15.681463758830832,1.2442756627174474,-2.246611498126922,-1.4851432065693824,0.43219292535821147,-36.10737709808845,25.141840531644206,53.1702681190989,7.183261960744858,5.206272378563881,-14.376804232597351,1.4246469627337988,-18.364401338399567,0
GUIDED_NOGPS,3.085146188735962,29.86098632360584,-34.681995760373276,26.411427045235325,53.52297451203882,2.1939709968874483,-10.0,40.0,19.316077596791487,1.6275873351069063,-3.7668668296217804,16.299657350419515,1.2352862920728003,-2.2646086664699396,-2.194189979536997,0.4315862061695053,-35.94583856292547,25.088907533782574,52.90657862761783,7.183261960744858,5.206272378563881,-14.376804232597351,0.797632845507889,-18.364401338399567,0
GUIDED_NOGPS,3.119000196456909,29.54359371698246,-34.71138605748671,26.394352804674387,53.09500337242783,1.640736135534199,-10.0,40.0,18.585742234750228,1.5602015425292068,-3.787152064569895,16.79924470707093,1.1887654295532861,-2.2517647628961375,-2.288409596775066,0.4309814777246448,-35.94583856292547,25.088907533782574,52.90657862761783,7.229014486074448,5.4626282304525375,-15.22558331489563,0.797632845507889,-17.935436430218797,0
GUIDED_NOGPS,3.1686294078826904,20.152037399163035,-34.642786072265736,26.409683613189816,52.745137413618174,1.0823530698626553,-10.0,40.0,17.865091346100854,1.4859669912046884,-3.716645729315146,17.219917765599305,1.1052655421574662,-2.099712858915012,-1.6212055664671259,0.43023990786496535,-35.64045578531726,25.046234023143796,51.91791224982495,12.055445462465286,7.188600301742554,-8.745016902685165,-0.4448645360208279,-16.046662020920365,0
GUIDED_NOGPS,3.185591697692871,58.96756597168525,-34.61231177734169,26.39254877802944,52.22894334568641,0.29549111221235935,-10.0,40.0,17.15460803974773,1.4342641667349845,-3.63634917165883,17.751636039653754,1.1682839682107378,-2.0865517245615535,-8.864232526855004,0.42985132938812265,-35.36102795831633,24.833109349407273,51.51766067296673,12.055445462465286,7.188600301742554,-8.745016902685165,-1.3798685754398594,-16.046662020920365,0
GUIDED_NOGPS,3.225618362426758,24.985726880644314,-34.45105835531243,26.44563847340292,52.077597416763965,-0.06451614067834552,-10.0,40.0,16.454763709665997,1.3855997092288783,-3.5849336420210896,18.277649398203945,0.9893637892317307,-1.9197688293727606,-1.8371397422058606,0.4287543325858041,-34.94016234875409,24.892610269579187,51.09448254783304,11.36559396982193,7.608263194561005,-6.795920431613922,-1.9149400267756398,-16.18073521923313,0
GUIDED_NOGPS,3.2588143348693848,30.131061335325644,-34.191214302812874,26.505525640191962,51.56955003159764,-0.6714023272106802,-10.0,40.0,15.766017401662339,1.4409368346672637,-3.5274396709088607,18.93030641679722,0.9339189952543208,-1.6394283691899103,-4.065275800685012,0.4283929347401294,-34.94016234875409,24.892610269579187,51.09448254783304,22.056680917739868,9.798788279294968,-15.204288065433502,-1.9149400267756398,-13.747914044428386,0
GUIDED_NOGPS,3.2932064533233643,29.079251509668115,-33.97329519335901,26.564751591368925,51.193391007047836,-1.1039733739778548,-10.0,40.0,15.088815180135185,1.4633148822657527,-3.4026687633588297,19.29168148049884,0.9213045051253471,-1.7330446178861711,-3.172704981480795,0.4277908483461747,-34.65426888224259,24.99653992796243,50.95701661741161,16.854915022850037,8.619996160268784,-12.284857779741287,-2.1728714322211786,-9.834914036853712,0
GUIDED_NOGPS,3.326474189758301,30.065402204923085,-33.698726894803094,26.63523139108465,50.75971867700241,-1.5500180121993117,-10.0,40.0,14.42358949483571,1.3785240601355682,-3.4150869010435594,19.629132099085197,0.8781147014491872,-1.577899133340283,-3.618916990112354,0.4273277416356666,-33.734698487021745,25.08423043416586,50.227736559562885,17.746731638908386,8.863594383001328,-13.936376571655273,-3.163099467930537,-8.305783238302306,0
GUIDED_NOGPS,3.359506607055664,30.277662277662277,-33.387045186917355,26.71759492508982,50.32467281827291,-1.9980968813712225,-10.0,40.0,13.770758547628077,1.3636760826536067,-3.3312757841724485,19.92916181875635,0.8374806386732954,-1.4758594182479194,-3.9059803472116403,0.42689217145871033,-33.10682471840736,25.28953037434781,49.38090094669059,18.34488958120346,8.850498497486115,-13.444335758686066,-3.7510964155657405,-9.163569620691282,0
GUIDED_NOGPS,3.41096830368042,19.433819066373218,-33.02003623184394,26.827096969994773,49.93111020032426,-2.430169136718277,-10.0,40.0,13.130725659250373,1.1696993505554794,-3.389639964073619,20.183292667205013,0.8371229106798788,-1.6084839548934236,-3.140809042887409,0.4263992309178522,-33.10682471840736,25.28953037434781,49.38090094669059,22.003047168254852,10.448157042264938,-11.949048936367035,-3.7510964155657405,-9.63654997543091,0
GUIDED_NOGPS,3.4282946586608887,57.74414890687813,-32.63453983573748,26.95425298783247,49.30469253487215,-3.0224167649549583,-10.0,40.0,12.503878636074745,1.1256054635428752,-3.457155316802137,20.450218167516404,0.4851690098521348,-0.4381218818659245,-8.94716513759861,0.4263983722024052,-32.57723932462738,25.396895277475878,48.89453761640624,21.690918505191803,11.127002537250519,-13.96220326423645,-4.1419609898987275,-6.1000107850003,0
GUIDED_NOGPS,3.460125207901001,31.419419599382742,-32.274124811698194,27.064335256794564,49.05130748537411,-3.1872739157999166,-10.0,40.0,11.89058913686847,0.9134782507773794,-3.5265090576344464,20.613951462299948,0.729396458471159,-1.275635789682928,-2.920707172149784,0.4256785633029887,-31.313827833497797,25.720171639879936,48.09935862574861,21.690918505191803,11.127002537250519,-13.96220326423645,-4.864020002083499,-6.1000107850003,0
GUIDED_NOGPS,3.4936158657073975,29.862474546826718,-31.833800374648646,27.211124116223516,48.5786591957851,-3.547625075180475,-10.0,40.0,11.291212039554182,0.690935533136143,-3.424693562111182,20.83219308175478,0.6503589743857675,-1.0873061858676936,-4.279882135171077,0.42542510568753816,-30.39149527233015,26.066321505792196,47.84106296652325,20.645642280578613,10.75674369931221,-15.98227173089981,-5.067547974093459,-5.881905342442044,0
GUIDED_NOGPS,3.5274012088775635,29.6030207855454,-31.368246987903905,27.365508262933506,48.135995174886375,-3.9041733204176277,-10.0,40.0,10.706084807970598,0.5345970920678997,-3.301076102757237,20.985331045588342,0.6237410901352476,-1.0022923401355086,-4.455498313961872,0.4251401792661684,-30.39149527233015,26.066321505792196,47.84106296652325,22.454769909381866,11.160504072904587,-14.737023413181305,-5.067547974093459,-6.457235228120667,0
GUIDED_NOGPS,3.5614442825317383,29.3784601591393,-30.875263613764176,27.534841319630196,47.67485800055717,-4.254560086604949,-10.0,40.0,10.135526858633028,0.4279793332278816,-2.866037021970207,21.19708227778437,0.5832151785885528,-0.9114531569310342,-4.610045356243877,0.4249213377161517,-29.63138526691413,26.401298734171647,47.19464943132482,22.454769909381866,11.160504072904587,-14.737023413181305,-5.272806193905144,-6.457235228120667,0
GUIDED_NOGPS,3.5959644317626953,28.977794973124595,-30.264275214679703,27.699608924788535,47.22545831977606,-4.523922819184966,-10.0,40.0,9.579838927494109,0.5058328175954488,-2.5576704160868213,21.31853157896366,0.6015721717988357,-0.6332418512448834,-4.276227441898129,0.4247087612154361,-29.07942430691709,26.560584958707995,47.126334915749986,29.470500349998474,10.52493155002594,-15.008345246315002,-5.323233079915586,-2.538342901726389,0
GUIDED_NOGPS,3.6296560764312744,29.685991124574453,-29.62637383048224,27.883219221120797,46.74937099960955,-4.770197136190484,-10.0,40.0,9.039302436704304,0.38659228219986536,-2.304544672663207,21.37538778116214,0.5484775207678638,-0.48501827773835365,-4.327689645505261,0.4245798628741895,-28.772981946453783,26.581128683541415,46.89133685168063,30.72405755519867,11.732525378465652,-17.011727392673492,-5.435267019780836,-1.9492322556236195,0
GUIDED_NOGPS,3.6630966663360596,29.907616833758787,-28.901323116296975,28.074024304747912,46.405144518310436,-4.985710141837475,-10.0,40.0,8.51417886137233,0.4048296876965928,-1.893641772855709,21.488594751560516,0.5370727824785368,-0.23345046323541566,-4.278237427661363,0.4242180686861238,-27.54038324391361,26.8208669412544,46.25239649441889,34.09067094326019,11.834223568439484,-8.796009421348572,-5.757347236000573,-0.9050515048888762,0
GUIDED_NOGPS,3.697838068008423,28.78726149622512,-28.139982337291045,28.262403685070336,45.92172974228894,-5.251107922018984,-10.0,40.0,8.004709096326025,0.4538783433435122,-1.591048704533394,21.583993711245377,0.5482957820969869,-0.15082664238979385,-4.6770873884943125,0.42416595870807416,-25.826501240595753,27.328285725329863,44.96484790794543,32.597944140434265,10.489675402641296,-15.106132626533508,-6.077053799814907,-4.215355406658212,0
GUIDED_NOGPS,3.729560613632202,31.528771489352106,-27.38142438605437,28.44420631535103,45.48221630978845,-5.454811238608023,-10.0,40.0,7.511112822872718,0.5759671743446967,-1.3983325692239572,21.66291313201029,0.5309671127468071,0.061894336976959397,-4.5591301821794605,0.42405779302616853,-25.04448097310208,27.343954483373157,44.56846667768921,30.48880100250244,10.028914362192154,-11.732205748558044,-6.254709685872063,-0.4617510968573039,0
GUIDED_NOGPS,3.764458179473877,28.659601363863093,-26.533997895903738,28.660064967609436,44.919018099414174,-5.65896460827756,-10.0,40.0,7.033587875560073,0.5778305886884937,-1.182256973509665,21.704541427454224,0.4923089504918316,0.1670852989115431,-4.567491769666336,0.4242291395522918,-23.940607770339483,27.605834382254866,44.16239079555365,36.30898296833038,12.419356405735016,-21.152380108833313,-6.290749929906994,-2.6909344504263517,0
GUIDED_NOGPS,3.7970621585845947,30.675813647334163,-25.654248143519187,28.88801708914411,44.3346531203046,-5.874056488643609,-10.0,40.0,6.572309608936081,0.7437236106319386,-1.0139318706131668,21.764443894022527,0.4471899176957681,0.4324275320609656,-4.841062835162419,0.42447531297726293,-23.49806844809039,27.726442563855546,43.934980011164754,36.30898296833038,12.419356405735016,-21.152380108833313,-6.3614466352019825,-2.6909344504263517,0
GUIDED_NOGPS,3.834207773208618,26.924188930685187,-24.850006534865464,29.074775619685493,43.90972185279249,-6.055560381780895,-10.0,40.0,6.12743026431059,0.8315819347513993,-0.8596191142423611,21.80178453821499,0.5383097252844297,0.12091985754666285,-4.609276880310498,0.4244354168230362,-23.49806844809039,27.726442563855546,43.934980011164754,33.94765853881836,10.531087219715118,-13.715672492980957,-6.3614466352019825,-2.394155687356716,0
GUIDED_NOGPS,3.8688180446624756,28.898133539110244,-24.044201569498927,29.25217223269668,43.47503398565843,-6.22286185582484,-10.0,40.0,5.699078336514873,0.9105451114156821,-0.8138608488672425,21.798656311575122,0.5370787599769107,0.31535836592037503,-4.704013149541084,0.4244480887017129,-22.370642239730763,27.797877663053665,43.64683888191641,31.223860383033752,9.676085412502289,-13.785597681999207,-6.424278697740843,-1.6009837482897067,0
GUIDED_NOGPS,3.8984873294830322,33.70895384442284,-23.246742033052332,29.429738963156495,43.04809300513878,-6.3852211323683665,-10.0,40.0,5.287357940662986,0.7430131108756985,-0.8756316389778098,21.74225431695645,0.5012965096687227,0.6319253962641308,-4.922383501553604,0.4244785298710484,-22.370642239730763,27.797877663053665,43.64683888191641,31.473541259765625,9.933152049779892,-14.390523731708527,-6.424278697740843,-1.891524841099828,0
GUIDED_NOGPS,3.9317963123321533,30.026014933172977,-22.57947484387494,29.570465504048908,42.69738506506316,-6.484424483996396,-10.0,40.0,4.892348178911874,0.9006924568162329,-0.9825946425360309,21.62506022363008,0.5655588613123006,0.20887457603453388,-4.4868519014034165,0.42438992622769744,-21.961250034758194,27.922719633577714,43.252290393852135,28.81164848804474,9.28519070148468,-13.359631597995758,-6.415710559933589,-0.7774930263838337,0
GUIDED_NOGPS,3.9667136669158936,28.64374786587448,-21.868187094605823,29.7312170422306,42.30236234810347,-6.571348454714801,-10.0,40.0,4.51410250722239,1.0403306584769718,-0.9407819319845053,21.51252090422307,0.5358487005816884,0.30811327382492104,-4.444047174592896,0.42442348031823784,-21.324840012275164,28.156043053465012,43.016956135656564,27.21344530582428,8.93290713429451,-13.693669438362122,-6.357803103971909,0.6131789520774253,0
GUIDED_NOGPS,4.001121997833252,29.068570240487908,-21.080408286685355,29.913986547848687,41.93763364461291,-6.624851142031532,-10.0,40.0,4.152648102119343,1.137683479151279,-0.8316557861718,21.343835722291267,0.5031083721025266,0.5413270892063713,-4.284023369521731,0.42443002891501286,-20.825841248556795,28.325775405723487,42.65295572658731,31.966111063957214,9.9175363779068,-10.741204023361206,-6.358517959006864,2.6156264921850836,0
GUIDED_NOGPS,4.032377481460571,31.996826486630813,-20.338671033694848,30.079525407914826,41.551841455773044,-6.676134875222412,-10.0,40.0,3.8079852274524626,1.3843359107890143,-0.5749744490375177,21.24311775279026,0.5049997171660284,0.6764063263343175,-4.333801689769922,0.42451228754335885,-19.799123190440717,28.529095418065168,42.23532844861987,29.238229990005493,9.306202083826065,-13.80385160446167,-6.215724229155326,1.0503891792468734,0
GUIDED_NOGPS,4.067035913467407,28.858963244299495,-19.665016666175667,30.2376729292675,41.22298511495535,-6.654117473242928,-10.0,40.0,3.4800866011569553,1.4807098799778942,-0.45073042654892964,21.130055923911744,0.5151584559567485,0.4354265671534829,-3.8652812141253423,0.4245142029724032,-19.799123190440717,28.529095418065168,42.23532844861987,27.777889370918274,9.64016243815422,-12.324602156877518,-6.215724229155326,4.430049596612869,0
GUIDED_NOGPS,4.100337982177734,30.032679832161424,-18.959369804451917,30.411918516372758,40.83615715231438,-6.641758737818544,-10.0,40.0,3.1688967620141,1.548610284620872,-0.047077419029750066,20.931005428477356,0.47604036040113284,0.6287582080415502,-3.9106985324284302,0.42466547921939946,-19.799123190440717,28.529095418065168,42.23532844861987,28.435736894607544,10.188041627407074,-15.357068181037903,-6.215724229155326,4.401910071006062,0
GUIDED_NOGPS,4.13748836517334,26.9210783055199,-18.044491123179995,30.6692846603191,40.288837106626424,-6.579718546497397,-10.0,40.0,2.8743314364114383,1.4881761305143644,0.17236785451363182,20.818355118496335,0.3751861158738358,0.9581751500286801,-3.6148022774082005,0.42517098865957004,-13.536424470100954,30.52275901543869,38.588819561313954,27.622374892234802,10.609512776136398,-16.359256207942963,-6.096831609446724,6.266358761575491,0
GUIDED_NOGPS,4.168894052505493,31.84523457015086,-16.97302420187728,30.985529843258476,39.67209976762961,-6.51708675389545,-10.0,40.0,2.596276905103906,1.2930045421983078,0.5344141177033375,20.555012052404617,0.2138126686480074,1.7599115640127856,-3.5093596426230746,0.4258483542749486,-12.114905567077649,30.857891917358643,37.871080961227044,29.516983032226562,12.049375474452972,-16.487355530261993,-5.907851146069942,6.20522771473023,0
GUIDED_NOGPS,4.2051122188568115,27.613543744609693,-15.994872672282286,31.248098828611955,39.177645727632594,-6.439302192016325,-10.0,40.0,2.334589369974225,1.1101995449830884,0.7425530336020748,20.23061221777486,0.3442636978740893,1.3122847027542015,-3.435945260278923,0.4263138872846833,-10.690028672888158,30.96149024837505,36.75344383985145,29.863694310188293,11.396071314811707,-11.864157021045685,-5.814287918244833,5.347244964402616,0
GUIDED_NOGPS,4.234043121337891,34.57480360396007,-15.03810664159881,31.535412817098617,38.6286975852424,-6.325772706907297,-10.0,40.0,2.0890943207933503,1.1257516722797958,0.8301200608256051,20.055031959875926,0.18554288643348826,1.8612577821583907,-3.007632128382794,0.4269207934711019,-9.515286603477556,31.8928404882515,36.10605871202206,27.6585191488266,11.000122874975204,-14.778585731983185,-5.4699701332135025,6.4600718910603385,0
GUIDED_NOGPS,4.267054319381714,30.299534776201348,-14.213519281088113,31.77575543030608,38.161451468595345,-6.190332322194253,-10.0,40.0,1.8595859019812053,1.0704268198375753,0.9083326637331268,19.732717040490318,0.29542982868162593,1.3433988573868003,-2.894515033190647,0.42739626886677173,-8.663380742476804,31.80173569213317,35.31994708227022,23.276053369045258,10.322842746973038,-11.286313086748123,-5.404656106909032,7.264962300308974,0
GUIDED_NOGPS,4.301196575164795,29.293309959981283,-13.25268419646681,32.03871005985599,37.590464494625515,-6.03662014827883,-10.0,40.0,1.6458262793670713,1.0839422701011494,0.8159013678817839,19.36469278763169,0.2742998881779568,1.653464737938818,-2.7234075193157263,0.4281107235694831,-8.153310282453116,31.91162225373037,35.18317350138109,25.42053759098053,9.591349214315414,-14.867834746837616,-5.240845809581854,8.374082568681494,0
GUIDED_NOGPS,4.33855938911438,26.767141471384083,-12.252922576525734,32.32311071982757,36.998820300382484,-5.8627140935228095,-10.0,40.0,1.4475450069504348,1.2820717572146447,0.8584197757127893,19.067755436107266,0.25173419346137516,1.6519960145825796,-2.5873413520899677,0.4288974494131359,-6.837952948709151,32.47740622662363,34.472411353907155,25.42053759098053,9.591349214315414,-14.867834746837616,-4.834805206692797,8.374082568681494,0
