Mode,Time,Freq,North-Vision,East-Vision,Down-Vision,Yaw-Vision,North-Desired,East-Desired,Down-Desired,Roll-UAV,Pitch-UAV,Yaw-UAV,Roll-Control,Pitch-Control,Yaw-Control,Thrust-Control,northVraw,eastVraw,downVraw,yawVraw,zGyro
GUIDED_NOGPS,0.00533747673034668,188.43182532908037,267.2114804733447,113.77536720658789,19.805422662287313,-0.0026982603513709515,272.98484676069313,99.57551687808248,4.370284460429867,-1.7780967433270727,3.2992562842302515,90.15256160977957,10.0,10.0,5.3984685331070556e-05,0.5,267.2114804733447,113.77536720658789,19.805422662287313,-6.7483491387787495,-9.453803619658583
GUIDED_NOGPS,0.023642539978027344,54.63823356998632,266.49315736656797,114.90089342815429,20.948814688291954,-0.0099158221900599,272.98462834114537,99.57521888143894,4.370301444935387,-1.7780967433270727,3.2992562842302515,90.15256160977957,1.0934070184423708,0.7073647488977199,0.00019870837443331947,0.5,265.7748342597913,116.02641964972068,22.092206714296598,-5.469630863999981,-9.453803619658583
GUIDED_NOGPS,0.04558253288269043,45.59521687139907,267.25509729012464,116.60305004401322,21.99240011378261,-0.17662254779654488,272.98311703044396,99.57315695282038,4.370419654138846,-1.7345801140210404,3.1354862771799175,89.79508999918862,1.291105333322745,-0.05334884850786975,0.003540761690281858,0.5,268.77897713723803,120.00736327573105,24.07957096476393,-12.117341451987286,-8.708958485988513
GUIDED_NOGPS,0.08626222610473633,24.587477357594658,266.91810780658494,118.4387096941798,22.921636627752456,-0.34565538498207904,272.97906808730755,99.56763285263364,4.3707384425028435,-1.4847716013782304,2.754387334702593,89.3167786818018,1.1203898495027778,0.38642086468556397,0.006949549314745017,0.5,265.90713935596574,123.94568864467958,25.709346169661988,-10.323850443922069,-6.932789321082962
GUIDED_NOGPS,0.12636232376098633,24.942488953906718,266.4658298609578,119.95269566750558,23.50386889247233,-0.6521662068592587,272.97128864709737,99.55701911821708,4.371355136730981,-1.09233315749651,2.5426215883545793,89.06275711637984,1.125647568117456,0.4385019911917868,0.013132047841059284,0.5,264.65671807844916,126.00863956080863,25.832797951351825,-8.268435389475258,-6.187944187412891
GUIDED_NOGPS,0.1698436737060547,23.001645205870094,265.3604866504406,122.40431480650147,24.59976094947208,-0.8902602184903023,272.9586370062774,99.53975808760713,4.372365049515385,-0.2769518978478522,2.118373779569346,88.74246905563044,1.3755465987904958,0.6338716244835023,0.01797155339282389,0.5,259.8337705978544,126.0334629015674,25.284882947286086,-6.094819592156426,-4.469070802020421
GUIDED_NOGPS,0.20910000801086426,25.477773863180786,266.12691894853805,126.37783462376603,25.378502315549333,-1.1005863931081197,272.9400219068746,99.51436092330464,4.373861493284225,-0.0014537764163681242,1.6970105517696794,88.63787836887003,1.9034600417431449,0.14393516151978547,0.0222641132019911,0.5,270.725512737123,135.89401873604342,25.985913544682834,-12.894487969885972,-3.0366763141933633
GUIDED_NOGPS,0.2464444637298584,26.786800441943786,266.9193216003764,130.16592363775254,25.698696211986636,-1.2351436474214572,272.9144018209386,99.47940663604139,4.375935793949231,0.18319666587543748,1.4420190994855935,88.5790977608729,2.0615445272193895,0.08499282013780943,0.025047294851482122,0.5,272.4661401632448,138.9478083456635,25.680540446950438,-14.29473302677738,-1.948056503444799
GUIDED_NOGPS,0.2895824909210205,23.187041848637293,266.47050869410384,132.64415253828622,25.41335344797028,-1.3153614525761343,272.88078423500224,99.43354110854659,4.378677304653215,0.3843636661788843,0.9771559976877024,88.52091137933357,1.8124454184281467,0.42224507161303027,0.026765307634425223,0.5,263.62097722316406,136.33683314734805,24.282632349580208,-8.068348596629392,-0.9740282517223995
GUIDED_NOGPS,0.33149003982543945,23.865851091069448,265.03896673633744,134.05833750507472,24.714275376816524,-1.378450275814436,272.8382249345414,99.37547611931328,4.382173419517585,0.5737806066757936,0.7145796203303173,88.52007126606566,1.6883981121934197,0.7279090690790865,0.028142655195180433,0.5,254.32249859766014,133.07956439475115,22.33740759558304,-2.875271050378913,-0.17188733853924698
GUIDED_NOGPS,0.37372541427612305,23.68231633983976,265.35458283944627,137.76461817426363,24.08291989491363,-1.4019088152585202,272.7858272884353,99.30398836636482,4.386509587389867,0.8451683015884653,0.45050102824235244,88.55257613632574,2.2780169311398826,0.29197940884856965,0.02873024560309622,0.5,271.30390596210884,144.56486624751196,22.12810553777162,-11.794627461239088,0.6302535746439055
GUIDED_NOGPS,0.4164314270019531,23.44299807171003,266.0081425368283,139.72667086921732,23.19459617458721,-1.398390614078461,272.7227415334264,99.21791849102135,4.391769325591223,1.137648901318606,0.2306906530733856,88.60275070596866,2.033164865028137,0.1759014425594748,0.02877901622451091,0.5,271.13561693502203,145.70428221081175,21.544294943050748,-12.646479164432137,1.088619810748564
GUIDED_NOGPS,0.45618748664855957,25.154755907400745,265.8176319111432,140.45412575626068,22.08516853920646,-1.3682012937634875,272.6481640585807,99.11617010166624,4.398034233663972,1.3992148375656523,0.0502980466565028,88.66810878613651,1.8551521545698517,0.380376273722784,0.02828226668395127,0.5,263.1326330729684,142.58508278088027,20.13340227004668,-7.384814125880979,1.5469860468532228
GUIDED_NOGPS,0.49370622634887695,26.642342628469795,266.2476278793344,141.87597097390852,21.141795064659696,-1.3218136338670528,272.5613366897475,98.99770879751257,4.4053840071191,1.531147625347265,-0.1485774785412576,88.745303584136,2.07250967965522,0.1908274463935121,0.027455873549351473,0.5,263.27373834338346,143.44605923558728,19.565764976846395,-6.682726248110015,1.776169164905552
GUIDED_NOGPS,0.5345950126647949,24.461147269461357,265.8552419860164,144.58717092559448,20.55259340448389,-1.2559829850807207,272.46154597402,98.86156119236958,4.413896451183788,1.7417012265610134,-0.3463164175724456,88.85373283720995,2.4269415135965478,0.41266646275647656,0.026241907132281028,0.5,267.5864255905789,146.63556415318092,19.391399294704,-8.982495345874312,2.3491269600363753
GUIDED_NOGPS,0.5747313499450684,24.92188855482537,266.04955572699936,145.980830550137,20.006738852821954,-1.1675218125996234,272.3481224641951,98.70681393840911,4.423647494548931,1.8683941920321683,-0.5510710814591474,88.99068496025787,2.245141741693181,0.24962799738336686,0.02456624288972487,0.5,274.0206500911084,151.5331643702247,19.398832779461934,-12.056008316645489,2.9220847551671985
GUIDED_NOGPS,0.6255927085876465,19.662305395256823,266.9971764344614,146.92889773603216,19.453274698948803,-1.0506607758437403,272.2204400032335,98.53261274993214,4.4347112031166445,2.103982144101306,-0.7627611621177623,89.14625617898325,2.162796365748084,0.06267499751165723,0.02233621585392947,0.5,271.2019428828601,150.44461814028747,18.776974173684987,-8.700254560068913,3.724225668350351
GUIDED_NOGPS,0.6759214401245117,19.87388531410214,268.83981040311915,148.35277638858025,19.021952577369536,-0.8836869237787354,272.0779150087197,98.33816142713513,4.447159793747799,2.2916394571132908,-0.855959306785998,89.41856899100249,2.3156228774757066,-0.22101304457188128,0.01908540280444009,0.5,269.0635703469223,149.70447604362084,17.976791662150347,-7.257356779769864,4.354479242994256
GUIDED_NOGPS,0.7188944816589355,23.27453526441374,269.41122756476335,150.44696810206693,18.705879421908392,-0.6722367452004555,271.92000575732254,98.12272087987661,4.461063648009526,2.405818662251336,-0.9363807288380784,89.67668183973727,2.584395545245868,-0.03080029546318322,0.014914299079338679,0.5,275.8752432552622,153.9170178030207,17.985399199540677,-9.50389103367867,5.385803274229739
GUIDED_NOGPS,0.7600107192993164,24.323971351523763,270.4335184828334,152.2698838641061,18.46796342989041,-0.4677250398659473,271.74621166925476,97.8856081514435,4.476491325922744,2.4388093297161437,-0.9900529956662733,89.90929759230039,2.644211606174403,-0.21219579998174476,0.010862500173957346,0.5,279.31394427958253,155.75014296337667,18.201819334614086,-10.619839363262159,5.500394833255903
GUIDED_NOGPS,0.8166899681091309,17.64796667578314,272.01845641002996,152.70014727597214,18.18574968799689,-0.23637765489052684,271.5560725927336,97.62619544231774,4.4935095797096745,2.4524524191398327,-1.0544597585487894,90.19301682023355,2.3757706040232898,-0.32392801640073154,0.006262277218820116,0.5,275.8121364905412,153.68448142955484,17.98776406999435,-6.964457009347129,6.474423084978302
GUIDED_NOGPS,0.8414609432220459,40.3799328012631,274.6520616054795,154.14394373861055,18.18330863025937,0.02049068745621154,271.34916808844036,97.34390913394259,4.512183367541361,2.466019522709005,-1.1012111227570573,90.3177565650455,2.9154574695807414,-1.3142424344101828,0.001123908628696753,0.5,284.34257990697955,157.6636004534796,18.764768884997384,-7.953144148823398,6.531718864491385
GUIDED_NOGPS,0.8847277164459229,23.113697482696292,276.7465808950296,155.7357686205823,18.340904074828774,0.1766754810370699,271.125116713981,97.0382288124892,4.5325758672851855,2.6003603790598704,-1.2723126975511658,90.73137916080313,2.7792605730472064,-0.7983173808135133,-0.002015260854574945,0.5,284.34257990697955,157.6636004534796,18.764768884997384,-7.953144148823398,6.932789321082962
GUIDED_NOGPS,0.9287490844726562,22.723378895986045,277.5898245669128,155.8364932033695,18.54102480209461,0.45786258682355596,270.883575308346,96.70868629262301,4.5547484902523925,2.6838935926091265,-1.394265511738332,91.04036325847616,2.534614101218677,-0.57159853493262,-0.0076791190435093306,0.5,280.76659946617406,154.42064071695677,18.98600283586987,-5.386258832076635,7.104676659622208
GUIDED_NOGPS,0.9723033905029297,22.96260771496458,279.2939366573761,155.84308629038986,18.716102167514684,0.7587856200260292,270.6242382763704,96.35486464127028,4.5787608949456,2.754175385394911,-1.545255487799632,91.42597524844759,2.5426145241399616,-0.8721228752800207,-0.013763966285330933,0.5,284.8348396065666,155.78310839847836,19.07720616171445,-8.395593825535272,7.677634454753031
GUIDED_NOGPS,1.015660047531128,23.071359813418262,281.90608679898116,156.65219812922265,19.021214947491256,1.0582930432977706,270.34683687319415,95.97639720138446,4.604671000806326,2.861372002767088,-1.7278236695497227,91.74519779968647,2.750117660056878,-1.2371975813957792,-0.019845680489780568,0.5,289.9607714797628,157.73004062371874,19.513327969877228,-8.352654084473642,7.39115555718762
GUIDED_NOGPS,1.0509860515594482,28.314829441507854,283.66677782704375,156.6654861632705,19.170926764467225,1.368892399701557,270.051138488722,95.57296661571272,4.632535001962501,2.942580817564424,-1.869092151987979,92.03968823594073,2.64669151218781,-1.2554246479955267,-0.026154419168079344,0.5,289.9607714797628,157.73004062371874,19.513327969877228,-8.352654084473642,7.792226013779196
GUIDED_NOGPS,1.0929961204528809,23.808546387539167,284.98369370444755,156.112070101755,18.90787188392766,1.632922695614145,269.73694593208364,95.14430385056237,4.66240738097599,2.9188303288295856,-1.9951392376957446,92.3734727504901,2.529416158352651,-1.1496742748340218,-0.031570677100711465,0.5,289.8492712988134,154.8965201459022,17.449494482299535,-3.2801277984457755,7.964113352318443
GUIDED_NOGPS,1.1309726238250732,26.335378143345995,288.3905200042142,157.38007214620293,18.7423506675206,1.9248285683105946,269.4040967160938,94.69018721956736,4.6943409225901105,2.8891335200920163,-2.1187123008200848,92.64773899661195,2.9863124747456093,-1.918462573039309,-0.03755685977331247,0.5,303.066746888674,160.76065093919652,18.158396753834584,-9.594015285133722,7.448451336700702
GUIDED_NOGPS,1.1736254692077637,23.45125578690761,289.03279180345464,156.461344296171,18.31624570731035,2.2079702963463284,269.05246234171244,94.21044140745474,4.728386727477149,2.8263995132259185,-2.2444052839080673,92.99371539882978,2.5345321866198987,-1.231588155641004,-0.04340791831858806,0.5,289.48075430090313,151.18946914831875,16.946681360663195,-3.8483907998907654,7.7349302342661135
GUIDED_NOGPS,1.2147216796875,24.33865062002774,290.8867636181023,155.9497154399947,17.831864946519403,2.5081810450589,268.6819475825048,93.70493649381106,4.764594225985883,2.8615036973520223,-2.434661483899242,93.3464127071909,2.6216180224493435,-1.654269421156748,-0.04961805235032888,0.5,299.1743544241608,155.17189634283727,17.09142416592249,-7.530707018413025,7.333859777674538
GUIDED_NOGPS,1.2607638835906982,21.722803146833225,292.696729469362,154.78318482244762,17.268226574414985,2.7944695695007513,268.2924897691014,93.17358697684892,4.803011191889096,2.8964531350047427,-2.596236865791887,93.65963152214934,2.4932435724658366,-1.7058493162753992,-0.055599830732747456,0.5,295.24632627625164,151.89738753598337,16.69513610935513,-3.9245568869030905,7.276563998161455
GUIDED_NOGPS,1.3104610443115234,20.126025661941824,295.01030798668535,154.7705640914437,17.20699761668949,3.0964500178541963,267.8840580736583,92.61635079717335,4.843683756131101,2.9094407397115223,-2.6839608272837685,94.01115403797321,2.7207253791597656,-1.9113908001170783,-0.061948439174740674,0.5,303.3434677451534,154.8334164908825,17.14334969367206,-4.972704784055864,6.531718864491385
GUIDED_NOGPS,1.3588032722473145,20.689113599368618,296.0945811800276,152.59521105585696,16.888430903988002,3.419642722959438,267.4566527943172,92.03322836154834,4.886656420575254,2.8332482719727374,-2.6648175145875155,94.33834058978434,2.3136114209781047,-1.7578788090316435,-0.06874336309944937,0.5,298.6349570265005,149.88388576126277,16.56556319032715,-2.858464673399027,6.41712730546522
GUIDED_NOGPS,1.3964602947235107,26.561862362023216,297.2152737777909,152.18456021471746,16.65115680454297,3.7162609941075853,267.0103046396653,91.42426156666323,4.931972071751474,2.7729490141023376,-2.6808744355525693,94.57616094649501,2.6322770708431693,-1.9431620118815291,-0.07495584022049648,0.5,298.92631226186916,149.13621494262122,15.760310863438033,-3.7941974912648675,5.958761069360562
GUIDED_NOGPS,1.4439184665679932,21.073092304909665,298.64125999657176,151.0138891916833,16.35757607393729,3.926974586882862,266.54507401319574,90.78953282289926,4.9796719946037635,2.831910622112473,-2.5413767863783443,94.88128598728699,2.4853948039020195,-2.0244402972583937,-0.07954337045322107,0.5,301.25716104905985,149.31854122766643,15.623520512894087,-4.956721523351618,5.67228217179515
GUIDED_NOGPS,1.4857196807861328,23.929437807368867,299.13678123960244,150.69305696005796,16.28116556674383,4.178697586903049,266.06105029776745,90.12916407809595,5.029795886237727,2.850519259062761,-2.3730869016447538,95.12523985387233,2.6604144628485,-1.9145999026269098,-0.08492620735114896,0.5,307.03091683291956,150.29322637785668,16.313083573387825,-4.688086526923755,5.042028597151244
GUIDED_NOGPS,1.5255134105682373,25.1345566115752,301.86399898880467,149.98483299636146,16.399625142368947,4.36514320064016,265.5583511400654,89.4433158413176,5.082381869668085,2.939790471845062,-2.2973725471478703,95.30589835741917,2.595641789350145,-2.657009863157037,-0.08900257191311368,0.5,311.29849629452093,151.2922966724001,17.735647571797642,-6.057406478135761,4.239887683968092
GUIDED_NOGPS,1.5707592964172363,22.10565039343519,302.0834013352004,149.05621512272432,16.66423200524382,4.534549144269549,265.03712173506057,88.73218620661973,5.137466507566201,3.0137816976803986,-2.148653715707305,95.54333622353633,2.5595861923671355,-2.0510166933577945,-0.0928014864045804,0.5,300.9295731953268,145.2407963930772,17.888597504701526,-2.2253040808430313,4.1252961249419275
GUIDED_NOGPS,1.6186761856079102,20.872791695281318,303.3660154263535,148.44074047700605,17.59508413321104,4.699800921551211,264.4975341104702,87.9960098768156,5.195084816007593,3.085312134423827,-2.222641739891468,95.7391782376081,2.630008498030825,-2.3667383367536283,-0.09655423462354708,0.5,305.50723900547666,146.05884171402985,20.414571503274118,-3.3988711021635964,3.495042550298022
GUIDED_NOGPS,1.6566181182861328,26.365673049119323,303.28035878582716,147.35927005222783,18.477058904423696,4.872471194395111,263.93978641121777,87.2350571872426,5.2552702782194505,3.1253485689043257,-2.2182648692939595,95.87225081320746,2.535170271353334,-2.136086963747777,-0.10037921749499473,0.5,302.6582146209426,143.91118910377517,20.03339436895739,-0.43473931560029655,3.4377467707849396
GUIDED_NOGPS,1.700308084487915,22.889300000545724,304.2762493336715,146.40101065226196,19.306678490978463,4.98827824816296,263.3641021838931,86.44963312952875,5.318054858328164,3.197918901948888,-2.4011295239427106,96.0012047847373,2.5702384272182224,-2.455031875462347,-0.10313234003382361,0.5,306.60208140925556,145.50192937802734,20.46118150616165,-4.850872823333603,2.979380534680281
GUIDED_NOGPS,1.7433435916900635,23.24074648698967,304.03930104999273,144.23719594782958,19.769684583073822,5.117950729039959,262.7707296612127,85.64007637535911,5.383469015106832,3.276210585640394,-2.518816244662969,96.13721434167977,2.3018350075004674,-2.20223366065339,-0.10616611627053124,0.5,297.03072599243893,140.47322315023823,20.050678032274448,3.2713267338904473,2.9220847551671985
GUIDED_NOGPS,1.7845687866210938,24.25995719821852,304.9549472075822,144.1666905708449,20.22460761495767,5.241969321009367,262.15994104647945,84.80675830024234,5.451541715722785,3.282855079042347,-2.5572992379941133,96.29772378717506,2.7380221624233756,-2.571062306004894,-0.1090789254832625,0.5,308.58233030977607,144.88826950815385,20.163212664120756,-2.905307737762186,2.807493196141034
GUIDED_NOGPS,1.830749273300171,21.660653697382216,304.8256068886466,143.5040952374705,20.06761996119022,5.340638717894799,261.532031798043,83.95008200727708,5.522300449485105,3.239441969790923,-2.6481322162188206,96.43270198555285,2.6381255616194146,-2.340133557731666,-0.11154437291580525,0.5,305.99619428143416,142.7458650471578,19.629633234436866,-48.78581020318157,2.864788975654116
GUIDED_NOGPS,1.8756349086761475,22.282985087313858,306.45561149768184,144.92037089036606,20.126585853373072,5.457674106842358,260.8873199137598,83.07048135091843,5.5957712415921375,3.10372888574712,-2.7020266776384525,96.58248120386206,3.1137944950502914,-2.8606485035411646,-0.11437298794082112,0.5,324.3385331668034,150.99256736825296,20.328223829871646,-11.92098573691571,2.807493196141034
GUIDED_NOGPS,1.914853811264038,25.506592070055948,307.1792706592228,144.17854559354797,19.857802151330148,5.571636131140458,260.22614521545324,82.16841996074443,5.671978666879022,3.060598802459428,-2.6996207435033153,96.66498988903582,2.7477196640549164,-2.7782769081373027,-0.11709095566455702,0.5,306.7188464876544,141.792802893937,19.117262995947026,-3.022811368262424,2.6929016371148693
GUIDED_NOGPS,1.9641635417938232,20.281934235976788,309.8519427166118,146.11324696279482,19.965182132536654,5.637171510866758,259.5488686333736,81.24439026522249,5.7509458635651995,3.011380032413493,-2.693275924651197,96.76483359432306,3.3006782615393013,-3.2803945943308075,-0.11895797439718317,0.5,326.8886154645884,150.1467299964726,20.587577938306985,-36.642695971118926,1.8907607239317168
GUIDED_NOGPS,1.998478651046753,29.147554882243796,310.382997712564,145.219944134854,19.953977269478496,5.723148980041851,258.85587149065844,80.29891251547588,5.8326945470019345,2.9686439656635466,-2.7183051528647084,96.85855061992481,2.856772113956694,-3.023805789522638,-0.12107130902144206,0.5,306.9066545885603,140.42175536844974,20.10718834882997,-1.1109503452556027,1.3178029288008934
GUIDED_NOGPS,2.0389888286590576,24.690821966998875,310.4210693599771,144.75512219911238,20.04948829235712,5.757914266035031,258.1475547877923,79.3325338090502,5.917245023419836,3.033101314634603,-2.7571228254651836,96.90850662351428,2.9703346455957504,-2.89635583006582,-0.12223199730962758,0.5,306.9066545885603,140.42175536844974,20.10718834882997,-1.1109503452556027,0.9167324722093172
GUIDED_NOGPS,2.0836997032165527,22.370695126699413,310.8709009846999,141.90768417363392,20.107152986998265,5.795628318012351,257.42433848706713,78.34582711367977,6.004616203676375,3.051714007009711,-2.86847796082484,96.94174232401556,2.470573179780044,-3.0397943104452727,-0.12350464134985759,0.5,300.62937899022154,136.75537724086064,20.6165473030774,-0.4030297781220469,0.6875493541569879
GUIDED_NOGPS,2.120835065841675,26.93560070898302,310.15821041978415,141.05617218308157,20.418097194045707,5.831844343041155,256.68666079704235,77.3393902910542,6.0948256170034,3.0264226702868,-3.0448744263295895,96.97913760972139,2.848775608579787,-2.791423354046598,-0.12466077347945805,0.5,302.8808057904499,137.53524294117514,20.671984031184234,-0.45640701347858226,0.5729577951308232
GUIDED_NOGPS,2.166666030883789,21.82146610478123,309.7135742314656,138.4445222966011,20.430100326117888,5.859231446335321,255.93497745700486,76.3138451205848,6.18788942475466,2.982765168329136,-3.1654212887647906,97.01226402719595,2.4831792050149732,-2.8741321382354785,-0.1257481571897523,0.5,302.439104774886,137.0884805640702,20.6475935986679,-0.9016150082528895,0.7448451336700702
GUIDED_NOGPS,2.2051289081573486,26.02684405502845,307.22027829951065,137.923325015594,20.45006303818372,5.875872929833809,255.16976102142905,75.26983632317095,6.283822434153323,2.9078668079946572,-3.2833641415789248,97.03037768887482,2.8960304221871507,-2.269502264773538,-0.12652492633680357,0.5,304.39216571116384,137.81576896341417,20.207001909159125,-0.13545210271144015,0.057295779513082325
GUIDED_NOGPS,2.2438242435455322,25.83463092539667,306.83351616997146,137.2473190408144,20.428752566086168,5.879367310955189,254.39150014443715,74.20803058496675,6.382638112039488,2.7880477875928853,-3.27227959832964,97.0261702923461,2.8852425251615723,-2.852348387709412,-0.1270568252841665,0.5,303.6247494513411,137.04172549455177,20.000635988342207,-2.4528963298507875,0.0
GUIDED_NOGPS,2.2849390506744385,24.32792172011577,303.1019339006081,136.68277544622268,20.215209297929256,5.879165937710568,253.60069886425913,73.1291155811473,6.4843485986177125,2.7243611827809824,-3.204006308046662,97.03478316088948,2.9337561111231487,-1.8954742876595743,-0.12753554412210466,0.5,297.03595730968175,133.93265926790195,19.54883096229283,0.33846747872740934,-0.11459155902616465
GUIDED_NOGPS,2.3257410526275635,24.5150475477962,302.34664783592797,136.24008733824962,20.00849121764717,5.864978565074327,252.79787588769295,72.03379899967534,6.588964721204526,2.6901308359818175,-3.1122956505136083,97.02065832968589,2.993929477600808,-2.6318600291311527,-0.1277302066383344,0.5,300.86436607111915,135.32180240130995,19.638393629773823,-1.3237180195077656,-0.5729577951308232
GUIDED_NOGPS,2.3679239749908447,23.71043036343183,302.82370070128576,136.73218960106936,20.05366223627201,5.851260664795324,251.9835638745645,70.92280756506749,6.696496007975949,2.7085593266927463,-2.9844686601968196,97.0249408582955,3.2403057070606542,-2.99691321720627,-0.12795020107637745,0.5,310.7230775114228,139.548991878169,20.87344869179211,-6.220474280003671,-0.34377467707849396
GUIDED_NOGPS,2.413892984390259,21.76236431936575,304.35877682880766,137.21087747899568,20.43941887048884,5.8181244622434924,251.15830872218788,69.79688606216091,6.806950701715013,2.709364862127985,-2.8096106948026156,97.0077424419654,3.289012566487145,-3.332688005508851,-0.1278195901435043,0.5,312.9099880103969,140.20920835304574,22.135785080243267,-5.302518260136594,-1.0313240312354819
GUIDED_NOGPS,2.447333812713623,29.907616833758787,306.0692249023443,138.19870546650802,21.264228346477744,5.780620932854267,250.32266884982528,68.6567963598797,6.9203357735592785,2.7996550537570877,-2.8351658475822186,96.97968402485499,3.603728947651379,-3.7043086698237158,-0.12745948610420865,0.5,316.5643903787426,141.9808654321134,24.124683368286718,-9.93111929421947,-0.9167324722093172
GUIDED_NOGPS,2.4937446117401123,21.551580797155438,305.39397654144454,138.03998458530646,22.223164123252424,5.747173665483695,249.47721448314735,67.50331643500128,7.0366569367483525,2.7923021416721574,-2.82410947886326,96.9454920978699,3.3184391225208496,-3.0024951656563075,-0.12732309276601722,0.5,297.0371178876878,133.13905486189415,24.343509846166242,-1.387781915178877,-1.0313240312354819
GUIDED_NOGPS,2.535919189453125,23.71673169352559,304.3906966689364,137.60430281109308,23.131934755757875,5.713978613666491,248.62252693869308,66.33723939592298,7.155918660371409,2.7712768984161538,-3.0413150439983663,96.92136103953224,3.3216189137798846,-2.9301631761676217,-0.12714128360853788,0.5,296.36592673109845,133.14339353024292,24.182246792301058,-2.6370840092556023,-0.6302535746439055
GUIDED_NOGPS,2.5756871700286865,25.15158820107819,303.00645449815966,135.93531438554447,23.923951107160384,5.710593943520804,247.75919790833,65.15937250642838,7.278124183114705,2.75680137968737,-3.110288855558094,96.93025394583161,3.0703860439736315,-2.813596525007037,-0.1275233792088012,0.5,292.55081208512667,131.2040497504261,24.833530448804655,-1.889502408240844,0.34377467707849396
GUIDED_NOGPS,2.615929126739502,24.854103829767062,302.4547905224747,134.18630118508912,24.4319644743789,5.721879791060774,246.8878287437143,63.970536209453876,7.403275527009105,2.7051113618223592,-3.291760578502986,96.97029934493538,3.0441684588532767,-3.0473904801748724,-0.12821356071079748,0.5,292.622645504202,131.46414235076895,24.675851916335848,-2.589639965228983,0.6875493541569879
GUIDED_NOGPS,2.6500232219696045,29.34085106085302,301.35858832739024,131.97660194837195,24.55584322130831,5.758939665280889,246.0090297407508,62.77156315085513,7.53137351117759,2.6464402502953615,-3.333268918749623,97.02274153738274,2.882753174141703,-2.8996727144682506,-0.12934760639630097,0.5,292.0947485104435,130.93236924852752,24.744077102933772,-0.5974650398412109,1.4896902673401404
GUIDED_NOGPS,2.691014528274536,24.399674229203026,298.66747576017156,131.20899382926987,24.490696371353735,5.803357603638266,245.12341942405334,61.56329720317339,7.662417765582786,2.601755231754434,-3.3694633718219897,97.11301614764281,3.2303132392967058,-2.4391793426811645,-0.13071165102949456,0.5,289.19417697367334,129.30101426638373,24.017775596393353,-2.855373727236781,1.7188733853924698
GUIDED_NOGPS,2.731860399246216,24.485280124227227,295.8392438262314,130.47480156638116,24.44101182813334,5.870966596783024,244.23162383140448,60.34659248940214,7.796406744774476,2.427314334786424,-3.355510576008123,97.21738826834977,3.2647344588992726,-2.316464999471948,-0.13254476734121542,0.5,290.2841325388754,129.47243221579933,23.933824076199098,-3.3618469262028725,2.291831180523293
GUIDED_NOGPS,2.774296522140503,23.568801977972576,292.0050045328049,129.5740832463047,24.408843282070194,5.967114956746014,243.33427579821588,59.122312406753466,7.93333774163712,2.4084689890927127,-3.4074084877559954,97.37253601534661,3.251656594269796,-1.9558670657229416,-0.13497370466093786,0.5,285.890476031331,126.70045815004373,24.67268771848892,-0.5345527608503318,3.0939720937064457
GUIDED_NOGPS,2.8123321533203125,26.30003950363371,291.93034656625684,129.36556076760613,24.525178950110735,6.0625903209578915,242.4320142419885,57.89132865042458,8.073206901137375,2.519063412133559,-3.35196485405524,97.4742580226556,3.45379350100114,-2.9139277911923203,-0.13734282532081457,0.5,296.43985415530364,130.4215299572761,25.25753025653855,-9.206086505463546,2.807493196141034
GUIDED_NOGPS,2.854236364364624,23.866530101285992,291.9395874942825,129.26339290935584,24.627869580831693,6.152317513733145,241.52548344677226,56.65452023736409,8.216009234071617,2.6075796755691623,-3.1937734040095136,97.59679844655481,3.5068672230435984,-2.9658153559819884,-0.13965407065116567,0.5,296.43985415530364,130.4215299572761,25.25753025653855,-9.206086505463546,2.807493196141034
GUIDED_NOGPS,2.8948006629943848,24.654248346803822,290.37148471340555,127.75852301046487,24.742756501130067,6.253506099079814,240.61533234762663,55.412772530038765,8.361738630813448,2.5992047964296687,-3.0957998898943813,97.72617588981319,3.2355021404435735,-2.559178032839778,-0.1421866476326772,0.5,280.00598983811125,121.77666477192888,24.592210197885226,0.015526680879958121,2.635605857601787
GUIDED_NOGPS,2.9336867332458496,25.72293124490209,288.4984895715454,125.69979287093297,25.120553872942537,6.337786486498795,239.7022138150804,54.16697626019972,8.510387875061227,2.6156781454906817,-2.9859550801149437,97.85731552187744,3.0932342479977657,-2.4304222152975834,-0.14436255053668218,0.5,277.63868436932074,119.17878151813984,25.822810935261444,-1.271030512596866,2.0626480624709638
GUIDED_NOGPS,2.9714772701263428,26.468330546177388,287.12912626842393,124.34209789212477,25.56937797603139,6.408851646509973,238.786783939592,52.91802655264908,8.661948657585583,2.696880556985671,-2.977651704518324,97.93519333879392,3.2405736477637306,-2.5416613285962266,-0.14626985518262808,0.5,281.1398420854716,119.91198325600269,26.91680823393317,-3.3021145747483445,1.8907607239317168
GUIDED_NOGPS,3.0143818855285645,23.31308639779448,285.284818381885,121.55544791658065,26.018003073839218,6.455859074282585,237.8697013160094,51.66682194900629,8.816411589976935,2.664657858915666,-2.8867333489289915,98.01875387309985,2.9228046334685756,-2.4048635477759204,-0.147763612788994,0.5,274.43971388136146,116.4882800795555,27.5006557455777,-1.3104269168944,1.0313240312354819
GUIDED_NOGPS,3.051701545715332,26.80015079583139,283.3022030190398,118.66286377567765,26.517596256966243,6.502970254319821,236.95162632803044,50.414263431474666,8.97376621839301,2.5854033319946,-2.797123828339363,98.08002066995488,2.796244229682046,-2.2862104005036454,-0.14918851902445363,0.5,274.4232096361138,115.95860925276115,27.75549617217368,-2.179550271375817,0.8594366926962349
GUIDED_NOGPS,3.0861501693725586,29.03677447939743,283.17516987514944,118.2345827097266,27.53773345761245,6.529057040918288,236.03322043266272,49.16125344660787,9.134001037306358,2.5807658469915733,-2.8033422886918364,98.1084410870913,3.378973330608984,-2.8459801657879433,-0.1501625794517054,0.5,284.87421088020835,119.63525944217362,29.69289620111626,-8.004979247113951,0.6875493541569879
GUIDED_NOGPS,3.115384340286255,34.21714975648357,279.8396329732049,116.95391903810919,28.07891136496005,6.534200717555428,235.11514544468372,47.90869492907626,9.29710350325188,2.4169384236635283,-2.741817652195654,98.1271626356063,3.184511506488375,-1.6723900919525554,-0.150646923567626,0.5,269.75555893974763,112.77546316005287,28.528700471999414,-0.7052382735618039,0.0
GUIDED_NOGPS,3.1559839248657227,24.63658096765288,276.5040960712604,115.52661501891922,28.401289812573292,6.523281422980794,234.19806282110113,46.65749032543344,9.463060048574334,2.327160496222177,-2.6493979356493886,98.12915022065478,3.1572105719800465,-1.7895388425295655,-0.15095860219411236,0.5,269.75555893974763,112.77546316005287,28.528700471999414,-0.7052382735618039,-0.4583662361046586
GUIDED_NOGPS,3.1943984031677246,26.03556819098815,275.39663587123357,114.75083061830644,28.887157777947635,6.5061280140981905,233.28263294561276,45.408540617882835,9.631856095175866,2.373274945290341,-2.6716216636613175,98.1114463703261,3.316693438710018,-2.329495516889193,-0.15111029896229555,0.5,271.1463082378971,112.60935807649167,29.92999557244941,-3.1310819907541685,-0.8594366926962349
GUIDED_NOGPS,3.2364983558654785,23.760531145906505,274.1148832271021,113.65116739550521,29.59095627666219,6.461853590765234,232.36951441306655,44.16274434804377,9.803476068263521,2.3844420911399,-2.554222664659846,98.06118983841314,3.257582065674389,-2.2801454529376146,-0.15077402515982496,0.5,267.3846632162692,110.46029313875505,31.274488665746446,-4.702283500186411,-1.6615776058793874
GUIDED_NOGPS,3.2767536640167236,24.843945837726416,271.2214590536713,111.03546572918933,29.753527382901872,6.407710025074459,231.4593633139209,42.92099664071844,9.977903410096765,2.3811811026980423,-2.418399230372265,98.00740892888847,2.9082191559390984,-1.7790929207741382,-0.15020625422718223,0.5,257.9924486980255,106.5567511105942,30.50575173231469,-0.04365861327610787,-1.776169164905552
GUIDED_NOGPS,3.3175816535949707,24.4988668489054,269.57413809219736,110.08681297356483,30.30029451526375,6.33152884945129,230.5528325187047,41.684188227657955,10.155120593735,2.477208439786544,-2.345118984540844,97.9374541314092,3.2563329599198894,-2.0589807046182793,-0.14920008774960372,0.5,261.26114618957,108.03219938193041,31.2625361338088,-1.5555989977671203,-2.4064227395494577
GUIDED_NOGPS,3.3549890518188477,26.738815009371294,267.2757299495572,108.69290338920071,30.88803776128317,6.238868512354889,229.65057096247725,40.45320447132906,10.33510913678509,2.4907851483092367,-2.2430144866383235,97.84681069093395,3.1646538750820863,-1.8011610540571672,-0.14781328071964767,0.5,256.0359444949926,105.80591523823217,31.46741670209654,-1.2965759519571236,-2.7501974166279517
GUIDED_NOGPS,3.402510166168213,21.045811715355203,262.60535573653254,106.62514327778044,31.175820234451113,6.137136036882949,228.75322292928868,39.2289243886804,10.517849615148862,2.4163915816431043,-1.960496091338617,97.72025411580279,3.0319235839619845,-1.199276324950789,-0.1463636712192714,0.5,247.51121717601097,102.27055751939042,31.368907938289123,3.8083906059004704,-3.20856365273261
GUIDED_NOGPS,3.4383416175842285,27.91345725104984,259.7174459358545,105.04429795669402,31.506982262935974,5.994968310705254,227.86142733663985,38.012219674909176,10.70332167677065,2.3008939365518346,-1.7533605729176367,97.60650414536539,3.083031119519151,-1.3350706502819574,-0.14394815546333664,0.5,246.6522805343234,102.55606653332295,32.93029880817076,1.599495142351401,-3.6096341093241864
GUIDED_NOGPS,3.4798781871795654,24.080284762888965,256.8501200607863,104.26315291305662,32.19250746218898,5.871978350919213,226.97581701994233,36.803953727227395,10.891504055384797,2.2426492849611397,-1.488443468387347,97.47958557020822,3.2706150004436236,-1.3228239926296856,-0.14197699153579493,0.5,246.81695193920172,102.65102589240716,33.933377728579714,-2.239682918731674,-3.724225668350351
GUIDED_NOGPS,3.5177054405212402,26.442466271592487,253.6414989952477,103.14097905388526,32.96422404536241,5.720688759998845,226.09701801697884,35.60498066862864,11.082374584263174,2.2370752102681744,-1.2930036884246616,97.35050182508415,3.21395468051086,-1.0687114275448675,-0.13938320998636655,0.5,245.47733971358832,102.42133008607361,35.12111904967595,-2.4660645994101458,-4.010704565915763
GUIDED_NOGPS,3.5481529235839844,32.85527181576062,250.13560546077238,101.99695516873706,33.73058633521357,5.57638002537501,225.22564885236315,34.416144371654156,11.27591020996271,2.21938758163878,-1.0411662894332405,97.25069227074275,3.2162025884058396,-0.689212432043434,-0.13683590146593352,0.5,239.3375149404665,100.0857958124911,35.29922815135233,0.5624914753133368,-4.1252961249419275
GUIDED_NOGPS,3.582385301589966,29.230839994703427,247.98013294561989,101.7474317383402,34.83268214153033,5.461009087371922,224.36231982200007,33.23827748215953,11.472087006072888,2.2328082630276205,-0.7575332926383523,97.13203139429213,3.464259791963319,-1.1163859404821468,-0.13490211677144856,0.5,240.7486685768056,101.02294036740618,36.879386969872904,-3.1949619414911155,-3.896113006889598
GUIDED_NOGPS,3.6207611560821533,26.060480288297246,244.83175922256993,101.10834513382684,35.84020037325875,5.316632366038092,223.5076322775458,32.07220044308127,11.670880186963291,2.3050479722276718,-0.4315234543551778,96.97194542052536,3.384437036105619,-0.7843109962619683,-0.13242272916061454,0.5,236.07415640517047,99.36063351075623,37.9678899668129,0.7936014088164995,-4.583662361046586
GUIDED_NOGPS,3.6575076580047607,27.221422498555956,241.95909854595948,100.25489315021181,36.789727111545474,5.1332473577843665,222.66217791086788,30.918720518202804,11.872264121531103,2.347309767717126,-0.20504054465606383,96.8313801274065,3.35799482349293,-0.7313525960216337,-0.12913254866971396,0.5,233.05465908210894,98.38376597433196,38.68101142001328,-0.988696093203103,-5.328507494716656
GUIDED_NOGPS,3.6965858936309814,25.5943762356904,240.91227237108626,100.0405169168495,37.99357603393119,4.943727415276528,221.82653803850528,29.77863081592156,12.076212346948633,2.4816384577935318,0.0995796224262902,96.62489667860784,3.5257003198669246,-1.2203253920985258,-0.125728849994462,0.5,239.13660777702555,101.3494489192621,41.14036366160454,-5.654793066032511,-5.614986392282068
GUIDED_NOGPS,3.73468279838562,26.250987313568285,238.50565250379879,99.36060920228275,39.089109580933396,4.733538251954002,221.00128288612862,28.652709313015038,12.282697582410835,2.54375796107774,0.2514885257352215,96.47097153547244,3.4539738692018713,-0.7837723887609529,-0.12188712794432742,0.5,227.3993215960234,96.68625723965734,40.77689588636336,0.33458753059760227,-5.901465289847479
GUIDED_NOGPS,3.7769298553466797,23.67630057803468,236.34717221636367,98.89893982925936,40.44780639093558,4.4935492969061945,220.18697087300018,27.541717878407212,12.491691742882818,2.5708851245835036,0.4074613916003104,96.16196011704272,3.518058078477937,-0.8105692009545065,-0.11746307832955524,0.5,229.54910963972102,98.71459350228926,43.67287101988385,-4.773856733348765,-6.990085100596044
GUIDED_NOGPS,3.8088715076446533,31.31503146954957,233.33741163741132,98.17007431632945,41.493119802057194,4.218799310386802,219.38414789643403,26.44640129693522,12.703165952847378,2.523634089348767,0.42525824989557204,96.01108123827714,3.5051258583459686,-0.3371152099838456,-0.1122395387587277,0.5,221.39925508196936,95.71630594610667,43.19445702242096,-2.090231188358331,-7.505747116213785
GUIDED_NOGPS,3.8481152057647705,25.48613372870233,230.98470140902333,97.67321454451397,42.5579084438741,3.9827732659299033,218.59334661625599,25.367486293115775,12.917090560052504,2.518592769411063,0.4544203828871761,95.59084018921376,3.562478504583738,-0.5494181244847369,-0.107832380724165,0.5,220.51583311336253,95.89946711525452,44.00495462909776,-4.480800965175973,-7.849521793292278
GUIDED_NOGPS,3.8865702152252197,26.00844562123683,228.05284306059534,96.41202860493355,43.14089950026833,3.6927862530830837,217.8150857392641,24.305680554911532,13.133435149258911,2.5125030154357617,0.4135775591977924,95.36106579534537,3.4013814725498204,-0.280690718606032,-0.10231704363823407,0.5,217.29380178938143,95.04351922136004,44.05531894357573,-2.867065887874034,-7.964113352318443
GUIDED_NOGPS,3.918382167816162,31.442973447081577,224.91564207454087,95.66206045083771,43.63205757148636,3.38965798912312,217.0498693036883,23.26167175749771,13.35216855598754,2.484784613679969,0.43118973558119916,95.20832910512554,3.5339894410807684,0.023009737862651924,-0.096470290338503,0.5,210.97654851673482,92.93641646917811,43.232686242453525,-0.33533769797406876,-8.651662706475431
GUIDED_NOGPS,3.9559900760650635,26.592175087334446,222.87772517679963,95.14146480141142,43.89312733460229,3.1250554193614386,216.29818596365078,22.23612658702828,13.57325888026709,2.542696506992038,0.4418606254988747,94.90028757355796,3.5942562021077133,-0.3166289680881563,-0.09141336555522225,0.5,216.751323900179,96.11161525515776,44.97821983546352,-5.87421364070552,-8.766254265501596
GUIDED_NOGPS,4.0044591426849365,20.638009762242167,219.27801895830171,94.7594477795463,44.024503318684324,2.8008860636294663,215.560508273626,21.229689764402764,13.796673500381534,2.4668730829118455,0.5686342725796004,94.25678130090522,3.6239115913312263,0.07727828071619669,-0.08520022632548443,0.5,210.33895802904235,93.8062208367811,43.85133694283111,-3.36928676391301,-9.568395178684748
GUIDED_NOGPS,4.04020881652832,27.97750755417998,217.06538194862537,94.5715882648393,44.13084283661154,2.3624306191342055,214.8372919729009,20.242983069032334,14.022379086617637,2.469526397960984,0.6035905404214911,93.94866463725677,3.7373565923653227,-0.025369386569846775,-0.07660013332131523,0.5,209.6982255186126,94.96016954171958,44.53665221873387,-5.65855506815241,-10.084057194302488
GUIDED_NOGPS,4.075047492980957,28.706284947745207,213.56219070713925,93.93103851647209,43.98673182943234,2.0120412545674258,214.12897527003472,19.276604362606605,14.250341615012477,2.3088730916062907,0.6572106203355588,93.61414929246622,3.6524598251164737,0.4963532785804933,-0.06973323243691065,0.5,201.5235797078321,91.840770479524,43.33476390767971,-2.467040924741582,-10.542423430407148
GUIDED_NOGPS,4.106906414031982,31.401072080975055,211.31387060685205,94.01856126456173,44.22867767997713,1.644725760444045,213.43597812731952,18.331126612860004,14.480526381100955,2.2554923884782907,0.6777371530604454,93.20038326273603,3.8852394810895197,0.26563042105797535,-0.06249141977246686,0.5,203.41269427967183,93.3740302096263,44.44241549517747,-5.691047534709128,-11.287268564077218
GUIDED_NOGPS,4.141300916671753,29.08167100017334,209.32147423355065,93.7078234879884,44.29516883543688,1.311555505160708,212.75870154523992,17.407096917338123,14.712898013663327,2.1923539063472814,0.7372658802151031,92.96899011403433,3.7985468408420866,0.22442205451701525,-0.05591825527811783,0.5,204.57666212695128,94.55792637229119,45.310675612762225,-6.744508077393775,-11.058085446024888
GUIDED_NOGPS,4.183820486068726,23.52346286938526,206.85773175677386,93.34311077124657,44.39315044049359,0.9398032416516565,212.09752684693336,16.505035527164125,14.947420488472698,2.012705203580548,1.0164938318821561,92.45443098272224,3.7866189199689173,0.358025720684182,-0.048562914066085025,0.5,197.5838619751672,91.98265725307192,44.34124496811465,-5.276420365188713,-11.401860123103383
GUIDED_NOGPS,4.220338582992554,27.389405495768468,205.19798226650678,92.88746411954992,44.5677895820226,0.4844038552422841,211.45281496265014,15.625434870805435,15.18405714204259,1.9437698118349018,1.277464367732648,92.0102432904288,3.8016254352259558,0.2616116535781783,-0.03949039728250919,0.5,197.6985525945982,92.68193628323625,45.4098479263789,-8.930182591283739,-11.172677005051053
GUIDED_NOGPS,4.262037992477417,23.990207854307513,203.18976786910193,93.45652350850293,45.3038339362398,0.09406587214062556,210.82490571421374,14.768758577840146,15.422770685374392,1.8071361463570281,1.49229377408853,91.56791340958961,4.047769750369795,0.38579358675127445,-0.03169147233152828,0.5,200.68560872094008,94.686067424289,47.014985678765704,-12.681478119535413,-10.943493886998723
GUIDED_NOGPS,4.296152114868164,29.319520464157144,200.47958105681636,92.89855243553916,45.63756269546526,-0.3283548230462858,210.21411709948046,13.935440502723424,15.663523217704945,1.7110837296676675,1.6134376377458728,91.26805444464772,3.855951595473229,0.7758974947777204,-0.023220661930562863,0.5,188.6574635307578,90.58417484480749,46.1110592913048,-5.618940607776935,-10.255944532841736
GUIDED_NOGPS,4.33549165725708,25.426342303238986,198.10185063409074,92.40923419695042,46.130689597620275,-0.651133453263679,209.62074457679995,13.125883748553775,15.906276240254009,1.565342433818405,1.7961506408507089,90.87419158615893,3.876708031325155,0.7039045489203971,-0.016713794782211133,0.5,190.67638213680758,92.11133517934749,47.7763101235373,-10.247831682259275,-9.568395178684748
GUIDED_NOGPS,4.36335015296936,35.90460374257392,196.33218392389736,92.21678165861502,46.902638791930904,-1.0228922046490534,209.04506034947534,12.340459690839879,16.15099066997181,1.4942360024120467,1.9042793656011807,90.75358410579484,4.01271872446152,0.7446775943336977,-0.009222212581923381,0.5,187.36624602628504,91.02039456139484,48.20099093966782,-6.980497875407352,-9.339212060632418
GUIDED_NOGPS,4.402855634689331,25.31477614282438,194.32637789222403,91.88447331424672,47.46086739458868,-1.2269495837619386,208.48731265022286,11.579507001266819,16.39762685328656,1.2895980920714698,2.0520846592402564,90.36981626689933,3.9514998117883557,0.7488903347736837,-0.005043216280528756,0.5,187.36624602628504,91.02039456139484,48.20099093966782,-6.980497875407352,-7.677634454753031
GUIDED_NOGPS,4.437865734100342,28.572915602242613,191.19231709456298,90.52786555075991,47.668903412631586,-1.5205340595452788,207.94772502563256,10.84333067146278,16.646144579851967,1.1321581762778563,2.1486396284421416,90.1746026302312,3.7051343321196253,1.2606454171374217,0.0009346027352887219,0.5,179.50417574566296,87.90302860685492,48.055165768980174,-6.008598237035315,-6.474423084978302
GUIDED_NOGPS,4.4749274253845215,26.98794188425753,188.77502550680555,89.93471387121699,48.152220781833115,-1.6746887051014023,207.42649562062775,10.13220103676494,16.896503096294733,1.0116573108978468,2.340015125683552,90.00530956146326,3.884891488311611,1.1325669386672397,0.004140176231610098,0.5,178.24552927310765,87.61841644709278,48.527646137312445,-6.672260711082785,-3.724225668350351
GUIDED_NOGPS,4.513612747192383,25.85278418126456,186.23264849239564,88.92946726676242,48.42063151054818,-1.7990310931647826,206.92379646292568,9.446352799986556,17.148661119962114,0.9124476392646479,2.460906058898193,89.91416068698945,3.788693269057597,1.2381446603646,0.006768249278791903,0.5,177.3595364793188,87.08510215707472,49.11836376711265,-7.119539354493455,-1.8334649444186344
GUIDED_NOGPS,4.543097734451294,33.92763599595551,183.78684932111878,88.41959375333599,49.04916787911651,-1.8532857308179584,206.43977274749733,8.785984055183206,17.40257685266942,0.8705040345409815,2.5646331536154148,89.9199117062706,3.9063924057662605,1.4860247706578047,0.00796228559513052,0.5,181.11921535072517,88.47102699426276,51.34367278250943,-12.005691504018444,-0.11459155902616465
GUIDED_NOGPS,4.576684236526489,29.78084195428823,182.2643992667218,87.36467435309063,49.50441611211545,-1.833581286050227,205.97454212102787,8.151255311419305,17.658207994447515,0.8685066310955758,2.812409791701852,89.98953182448054,3.7547002756075822,1.1892488616397956,0.007691107687444718,0.5,176.47786309558197,85.74579756016809,50.4772321046625,-10.552449424662356,1.776169164905552
GUIDED_NOGPS,4.619551658630371,23.330463126745208,180.20809506145235,86.58593550450132,49.96542629852838,-1.7650328541161557,205.5281939663759,7.542288516534057,17.915511757290368,0.943420946325069,2.959489804628437,90.1703201016216,3.8248447037703284,1.3313432506391902,0.006472196928093525,0.5,174.22594849465216,84.0093343639084,50.3602167010448,-9.421007631641572,4.010704565915763
GUIDED_NOGPS,4.649372100830078,33.53860177995986,178.7318135558253,85.79735757612721,50.5685803455777,-1.678739400090957,205.10078868703482,6.959166080909171,18.17444487890255,0.9731869107279846,3.0007031660802936,90.22033757691361,3.798637524138979,1.3643725020963693,0.004846377306407884,0.5,175.55599398126876,83.67552680522226,51.54341637255905,-11.26427922168412,4.297183463481175
GUIDED_NOGPS,4.687374830245972,26.321165226449786,177.412230335852,84.9875209011348,51.221699278617464,-1.5314985332736686,204.69235699159174,6.401929901233615,18.434963636446767,1.153201242058725,3.102169041295418,90.48918065283448,3.7976042958707112,1.3011265589281766,0.0020178095912234337,0.5,176.80958026649876,83.03591878211272,52.38395843231149,-14.00759674934227,6.245239966925974
GUIDED_NOGPS,4.723655700683594,27.583579949756015,176.08132792448905,82.87905190704628,51.05631667919395,-1.3112881971816834,204.30289917818834,5.870580384271449,18.697023860291342,1.3516913418160557,2.995997592628978,90.8800723790343,3.4426989019991328,1.3735882882817738,-0.0022923132379171554,0.5,168.85695645475934,77.92868202382014,50.51675978539185,-4.9816503292563254,8.021409131831525
GUIDED_NOGPS,4.751073837280273,36.466500895512006,175.23247053422278,81.26624720919658,51.28263924878438,-1.0486644338138846,203.9323844189807,5.365075470627829,18.960580947757798,1.3895578038529006,2.9754340274721853,91.11591881107485,3.436226063126275,1.309692096877187,-0.0074865355928082356,0.5,171.45467015097765,77.68177407091956,51.60884495261467,-8.275408607785835,9.281916281119337
GUIDED_NOGPS,4.787226915359497,27.66545301039523,174.4417480091615,79.62033031022239,51.49193384239355,-0.7834440343996596,203.58075004459937,4.885329658515076,19.225589876868316,1.5048668716900542,2.79439474087912,91.5480785402399,3.4568418754149977,1.2840852558332059,-0.012734318542488875,0.5,171.03375627882866,75.77974986903739,51.406689669090674,-8.169148249899294,10.771606548459477
GUIDED_NOGPS,4.821055889129639,29.564001353332582,172.8455727183357,77.41821715140739,51.31331257758607,-0.4389520433051899,203.2479008286095,4.431213027520101,19.4920052200933,1.496275027322707,2.583017888426973,91.9369485304454,3.2379556694090903,1.6019937177917851,-0.019594436746108685,0.5,168.34981302411873,72.66496101114728,50.650310048521646,-3.19512793098599,11.287268564077218
GUIDED_NOGPS,4.8565404415130615,28.191126555138087,172.5659441452802,75.36632459380286,51.20468935428595,-0.08317580869177991,202.93370827197106,4.002550262369795,19.75978115809884,1.51796258548479,2.335732170187131,92.30795757597133,3.2254876939465436,1.2205772163215214,-0.026704069789509583,0.5,174.24083451113825,72.77645599409011,51.8408423158109,-10.856176145607037,12.204001036286535
GUIDED_NOGPS,4.894467830657959,26.37230417122521,172.09606101826625,73.59913806764283,51.101056750798705,0.3215533345886397,202.63800988749887,3.5991196766979385,20.02887149349431,1.5607558550690355,2.107592752851304,92.70233952883703,3.2558530153768475,1.288512646228752,-0.03482300613986271,0.5,170.46688347854038,69.09274939302006,49.99859676795564,-6.732881037527619,13.06343772898277
GUIDED_NOGPS,4.927438259124756,30.33679063779311,171.50967856451842,71.42134962272368,50.68976230001515,0.7610774242475217,202.3606084843227,3.2206522368121284,20.299229664579794,1.6287187986316012,1.8982491623377056,93.09573793446225,3.042705906945785,1.3543376290111793,-0.043663892502405724,0.5,170.8649343512861,66.79283184632382,49.55237269869689,-5.0187232886245425,13.006141949469688
GUIDED_NOGPS,4.961683988571167,29.211499888566973,170.6441974775658,68.48101614808577,49.895723299564146,1.1762235416407898,202.10127145234708,2.8668305854593825,20.57080875909369,1.8595132385638593,1.4089827551307113,93.73570616912494,2.768666268238646,1.473404530333097,-0.052046533133384365,0.5,169.88573157087797,61.07808249584779,47.436494666835614,-3.2630907608668025,13.980170201192088
GUIDED_NOGPS,4.9914796352386475,33.56624731905631,170.77279436708062,66.16364044502588,49.252960223226935,1.604279115587335,201.85973004671212,2.5372880655933443,20.84356152796015,1.9631707507289116,1.1599788174277876,94.17184106838694,2.771348845654626,1.1547592578469086,-0.060703380316144806,0.5,169.88573157087797,61.07808249584779,47.436494666835614,-3.2630907608668025,14.438536437296746
GUIDED_NOGPS,5.023331880569458,31.406009689182408,170.9844420399629,63.48291190336596,48.350988338998164,2.0024400360625183,201.63567867225277,2.231607744140007,21.117440399036695,2.113174724950497,0.9209416198277934,94.60439011833468,2.622104394417006,1.1242398417454156,-0.0687951504505283,0.5,173.14785153403562,59.37281328579055,47.33098289466704,-8.19570523116137,14.438536437296746
GUIDED_NOGPS,5.05651068687439,30.148604452239418,171.18878543701607,60.96346281575545,47.50850321456792,2.438697844592141,201.42877416795955,1.9493214357648014,21.392397490861626,2.2849300769142227,0.5154091696986298,95.14206260979807,2.5889434211846876,1.1182680186215286,-0.07768186881834747,0.5,172.6685034552541,56.495503954967496,45.7861711458044,-3.244975054223687,14.667719555349075
GUIDED_NOGPS,5.094701290130615,26.191155349627206,171.71343115474983,58.33965975425133,46.53387481502765,2.887415856253084,201.2386350914383,1.6899087266390609,21.668384626401597,2.377187363024289,0.24000713782298877,95.64921781604987,2.5450754025676154,1.0230895000844629,-0.08687699227389038,0.5,172.54697876598885,53.673816538803194,44.679230700995575,-2.697144506785733,14.55312799632291
GUIDED_NOGPS,5.135959625244141,24.24172927985204,171.49780433348784,56.29428796388852,45.76277657696957,3.4120246608619635,201.06484100337053,1.4527959982058576,21.94535334679918,2.479848307900754,-0.015243968371263536,96.2722062004359,2.62231785641511,1.2259573855939563,-0.09765069612907303,0.5,172.51581994104234,50.85122354403378,43.58100347654521,-1.437040555918017,14.438536437296746
GUIDED_NOGPS,5.1745946407318115,25.893642503488042,171.9445858042088,53.20568754677578,44.61422356044715,3.9685742664314243,200.9069317519735,1.2373554509473763,22.223254925120276,2.481401108719874,-0.1373770888803474,96.62480105595947,2.26510969522125,1.03167583748915,-0.10908690757765513,0.5,174.0411352443083,45.6350804102841,41.69372958422353,-0.33843824912875675,13.922874421679005
GUIDED_NOGPS,5.207078695297241,30.78365663371278,172.45764484462893,49.903633408447746,43.44257886601783,4.4558544800979165,200.76440675745948,1.0429041281502407,22.502040380101725,2.6038971363894676,-0.2674801863771899,97.26950944190614,1.9845967962647877,0.9591024742952926,-0.11912488140735446,0.5,174.96940667464727,42.86254259415038,41.47275942252045,0.0038268617860808263,13.2926208470351
GUIDED_NOGPS,5.24460768699646,26.654871755764,173.08400099383306,46.611577318013914,42.38717919183303,4.8576938123759135,200.63672429649785,0.8687029396732271,22.78166048989877,2.2757579866325415,-0.5089943947683714,114.80642311707491,1.9531172535743697,0.9221772524810175,-0.12752408782361568,0.5,174.8965807645108,40.03522350279837,40.50917277488035,-1.4087909610242662,12.490479933851947
GUIDED_NOGPS,5.275101900100708,32.79721001516976,173.88415469694752,43.39279094595056,41.59909942442177,5.311010234376647,200.52330078667313,0.7139556857128184,23.06206580583263,2.400081303348525,-0.5978599049861446,115.19652254133102,1.7034158824835,0.7833250166943817,-0.13691631695420572,0.5,176.28696119579354,37.5798846784864,40.73883186393931,1.2734689299308997,12.3185925953127
GUIDED_NOGPS,5.304354429244995,34.19204526000864,174.25363789217008,40.18338846335293,40.90513436761721,5.662554200632175,200.42351007094555,0.5778080805700085,23.343206666137952,2.4627271580856473,-0.6054439762857975,115.41421433055766,1.5420249820964318,0.899556448295465,-0.14427860584811786,0.5,176.10371709581625,34.80421113104561,40.11117819252238,-3.1318979459640417,11.860226359208042
GUIDED_NOGPS,5.335489749908447,32.1249980852009,174.92823872142927,37.57303128474528,40.656819221951174,5.976993837894,200.3366827021125,0.4593467764164245,23.62503320971038,2.6219612791968587,-0.7294991013551524,115.89385753483263,1.6448524599640453,0.7796042888666241,-0.15093949578110602,0.5,178.06531008932762,32.58329451724587,40.452153855893386,-3.108068676833284,11.115381225537972
GUIDED_NOGPS,5.37198543548584,27.40855654810526,175.46051650798512,34.96728030619654,40.38572602506871,6.29019901760384,200.2621052272666,0.3575983870610173,23.90749538985405,2.7902932122825272,-0.8336278965729355,116.36068730422467,1.6380917318911048,0.8299501214717839,-0.15766174882243011,0.5,176.8052010584357,29.83378770140669,40.11729343810817,-4.889552685739645,10.141352973815572
GUIDED_NOGPS,5.410869598388672,25.724193340652196,175.99668914765928,32.9269931459182,40.30735015771428,6.650480714278537,200.19901947225765,0.271528511717662,24.190542988029126,2.8376044385593246,-0.9399157786203831,116.6666661186629,1.710904099596738,0.8153071162395489,-0.16538449071337927,0.5,176.8052010584357,29.83378770140669,40.11729343810817,-4.889552685739645,9.568395178684748
GUIDED_NOGPS,5.454302787780762,23.0272804633671,176.4449526386568,30.891018257955132,40.19313869988747,7.0078259242882375,200.14662182615177,0.20004075876923366,24.474125627599285,2.9886986817271732,-1.1023052336847288,117.09695437599537,1.6756490288028807,0.8321783774729626,-0.1731398687058304,0.5,177.6272431722882,27.40001023867102,40.16777457480525,-2.5341022308816292,8.708958485988513
GUIDED_NOGPS,5.489528656005859,28.39399396146712,176.8312955139612,28.453434234405677,40.1222584005239,7.38563191515439,200.1040625256909,0.14197576953600333,24.7581927875793,3.1689403302912282,-1.2370621979664358,117.38076239638774,1.4040748041687006,0.806669443571605,-0.18121594933326596,0.5,178.06014967708256,22.616291013298337,39.7567766957045,0.27421741973759595,8.13600069085769
GUIDED_NOGPS,5.521381378173828,31.401542262484092,177.09611936595502,25.929185732759947,39.91872093138259,7.639325118591181,200.07044493975445,0.09611024204107821,25.04269381638245,3.1763141598304916,-1.3278427758336042,117.61216920546777,1.2261647920128729,0.8222348131510474,-0.1867772012604962,0.5,177.01517158046133,19.96205200901721,39.43446651018684,-4.339811380857952,6.932789321082962
GUIDED_NOGPS,5.559403657913208,26.30762765550419,177.36075263681045,23.547119150437748,39.777167618396405,7.809554241054036,200.04482485381834,0.06115595477766078,25.32757794556819,3.360441545702049,-1.4494594166475587,117.80284076633784,1.2613510562805916,0.8274045385279057,-0.19077473429809827,0.5,178.40402736263704,17.92345478979571,39.409526873177256,-4.619668030884938,4.92743703812508
GUIDED_NOGPS,5.592779159545898,29.96851890223426,177.5367068815753,20.27628078098716,39.53818990096472,7.984693920427472,200.02620975441573,0.035758790475512114,25.612794303589517,3.3148449103503363,-1.5608588415151148,117.93441753050897,0.8493622369328527,0.8380501934647765,-0.19481018677922934,0.5,177.51135105393513,13.479595854153757,38.92240485094974,-0.5087811958200206,3.6096341093241864
GUIDED_NOGPS,5.624258279800415,31.774067452501438,177.19836753657088,17.043442800861584,39.05382515651171,8.086970868702238,200.01355811359576,0.018497759865368835,25.8982919295406,3.328206467914174,-1.6495531167559616,117.96556319312423,0.6778003237732658,1.0189556369663182,-0.1973615123353254,0.5,175.35859532929226,11.235820338043121,37.74595085254023,1.2183557129563383,2.2345354010102105
GUIDED_NOGPS,5.662649154663086,26.05125402168917,177.01754182042797,14.767348665810541,38.65165998787886,8.085507177177028,200.00577867338563,0.007884025448930743,26.184019786904212,3.156110460265594,-1.725047411095524,117.92786054890576,0.9431426216620631,0.9708179281169255,-0.19795844398526188,0.5,175.35859532929226,11.235820338043121,37.74595085254023,1.2183557129563383,-1.260507149287811
GUIDED_NOGPS,5.701905012130737,25.48009549787074,177.05672981611485,12.643728440056856,38.32086641488988,8.026517638708416,200.00172973024894,0.002359925262027218,26.469926777299346,2.813312017002528,-1.6898714032614295,117.79618816208625,0.8899121241538199,0.9154649786883913,-0.19740010636856162,0.5,177.1187050239307,9.34395088024878,37.780498645241956,-0.1830613532180223,-4.297183463481175
GUIDED_NOGPS,5.734407186508179,30.780493890580853,176.66755824549548,10.53601167011673,37.813839603062526,7.901097871971955,200.00021841954765,0.00029799664346796817,26.755961754228647,2.5300243716475483,-1.642360393951409,117.6415663396555,0.7317824382651974,1.0662463832085494,-0.19541116774049644,0.5,174.51387060733333,7.384870940095079,36.87439281404049,-0.7352020065114999,-5.67228217179515
GUIDED_NOGPS,5.768230438232422,29.571505118587666,176.3019488459079,8.733618706013484,37.341407409161945,7.710018635611103,199.9999999999999,2.842170943040401e-14,27.042073536825963,2.2020634471392775,-1.545543636405242,117.38051650957762,0.747207148674736,1.076874222846649,-0.19211186674732958,0.5,175.1352744803819,4.467631033637531,36.56024388144684,1.2439078933152814,-7.677634454753031
GUIDED_NOGPS,5.803587198257446,28.290765360151628,176.06696170839797,7.379980845132367,37.10426601494326,7.46055571093078,200.0,0.0,50.0,1.9008851884705074,-1.4077731713173842,117.06059044885421,0.8130116381547938,1.049753124439531,-0.18765010281763905,0.5032239334962642,175.1352744803819,4.467631033637531,36.56024388144684,1.2439078933152814,-9.339212060632418
GUIDED_NOGPS,5.838338136672974,28.783507984545597,175.70555933880175,5.565714108904717,36.938275921758326,7.133310727752879,200.0,0.0,50.0,1.5953883292555853,-1.18533183929664,116.66015011819471,0.629546530059411,1.1078878127087743,-0.18160096122911326,0.5032654310195604,175.51280840586713,2.164486656904871,36.91600038661554,1.070360780172706,-11.688339020668794
