Mode,Time,Freq,Sync-Freq,Kalman-Freq,Control-Freq,North-Vision,East-Vision,Down-Vision,Yaw-Vision,North-Desired,East-Desired,Down-Desired,Roll-UAV,Pitch-UAV,Yaw-UAV,Roll-Control,Pitch-Control,Yaw-Control,Thrust-Control,northVraw,eastVraw,downVraw,N-Velocity,E-Velocity,D-Velocity,N-Acceleration,E-Acceleration,D-Acceleration,yawVraw,yawRate,Landing-State,Q-Size,N-diff,E-diff,D-diff,Y-diff
GUIDED_NOGPS,0.03556203842163086,28.14553555850814,-6810.409179476055,28.154604159115014,29.52778677329879,0.1019553081222437,0.13968011772868702,0.697408126634759,0.14558995789379806,0,0,0.5,0.8000762464616874,-0.06999060261156027,0.27763691779683686,0,0,0.0,0.5,0.0,0.0,0.0,0.09367753518745303,-0.031200307421386242,1.5081464312970638,3.32966186106205,1.4715461991727352,16.326403617858887,0.0,-0.14434394853482652,False,0,0,0,0,0
GUIDED_NOGPS,0.0753016471862793,25.167887766796877,-141.1897137137766,24.747492388662057,24.801196804579078,0.1019553081222437,0.13968011772868702,0.697408126634759,0.14558995789379806,0,0,0.5,0.8000134940986879,-0.07024139862014668,0.2789990602885784,0,0,2.0928640278329307,0.5,0.0,0.0,0.0,-0.11881600366905332,-0.04590347525663674,1.876368559896946,-1.8691010773181915,1.589636318385601,22.597406804561615,0.0,0.10614838343777806,False,0,0,0,0,0
GUIDED_NOGPS,0.10891199111938477,29.753589467113105,-5967.424831641832,29.862899780708,29.957174487536605,0.1019553081222437,0.13968011772868702,0.697408126634759,0.14558995789379806,0,0,0.5,0.7987768563329454,-0.06993318633384986,0.2786299899495597,0,0,4.093032540812346,0.5,0.0,0.0,0.0,-0.1398543012328446,-0.0911563285626471,1.6609078273177147,-5.091789364814758,-2.403411455452442,17.986372113227844,0.0,0.16837262073599749,False,0,0,0,0,0
GUIDED_NOGPS,0.14205574989318848,30.171158923009415,-5891.979771492773,29.85758522747496,29.861198917841378,0.1019553081222437,0.13968011772868702,0.697408126634759,0.14558995789379806,0,0,0.5,0.7995935441864379,-0.07041023235869293,0.27815803988616766,0,0,5.911915622135862,0.5,0.0,0.0,0.0,0.11925556464120746,-0.04475371970329434,2.000039257109165,4.5915476977825165,-0.3765363711863756,19.227425754070282,0.0,0.04310193877284522,False,0,0,0,0,0
GUIDED_NOGPS,0.20080184936523438,17.025032371195117,-8006.434207177369,29.897383990305794,17.074587007319476,0.1019553081222437,0.13968011772868702,0.697408126634759,0.14558995789379806,0,0,0.5,0.798642760509631,-0.07120125364194503,0.27921418456700736,0,0,7.468952709129846,0.5,0.0,0.0,0.0,0.1553377485834062,-0.07688795449212193,1.9984245300292969,4.7988686710596085,-2.251521870493889,23.377591371536255,0.0,-0.005387118274755828,False,0,0,0,0,0
GUIDED_NOGPS,0.21956729888916016,53.29077833964374,-93.26921138302981,22.704067381913845,52.84894914570838,0.1019553081222437,0.13968011772868702,0.697408126634759,0.14558995789379806,0,0,0.5,0.7985594642182686,-0.07111897120678753,0.2789238214860025,0,0,8.695180719384028,0.5,0.0,0.0,0.0,-0.06783883436582983,0.06740792887285352,1.8941190093755722,-0.19430331885814667,0.015214201994240284,28.009316325187683,0.0,0.23390086866371804,False,0,0,0,0,0
GUIDED_NOGPS,0.25597381591796875,27.4708479061055,-327.76023297369665,27.49515886906986,27.494437925677314,0.1019553081222437,0.13968011772868702,0.697408126634759,0.14558995789379806,0,0,0.5,0.7994172932893399,-0.06966937027715811,0.2762296320235498,0,0,9.536288510260055,0.5,0.0,0.0,0.0,-0.09879170684143901,-0.0046939036110416055,1.941702701151371,-0.029857532354071736,1.6498805955052376,20.26868164539337,0.0,-0.1454328567793411,False,0,0,0,0,0
GUIDED_NOGPS,0.29002976417541504,29.371465385638857,-1655.2978320353598,29.46845403704016,29.45210692994221,0.1019553081222437,0.13968011772868702,0.697408126634759,0.14558995789379806,0,0,0.5,0.7985580234752405,-0.07037159910120004,0.278573454125922,0,0,9.95502238601579,0.5,0.0,0.0,0.0,-0.23678925354033709,5.559559212997556e-06,1.8465396016836166,-1.3179052621126175,1.6697842627763748,19.844770431518555,0.0,-0.19795513052667474,False,0,0,0,0,0
GUIDED_NOGPS,0.32385993003845215,29.835284744846422,-5476.545961002772,29.84462565284834,29.838256217631326,0.1019553081222437,0.13968011772868702,0.697408126634759,0.14558995789379806,0,0,0.5,0.7984333725228878,-0.07003681311016365,0.2804825987206463,0,0,9.932836109684285,0.5,0.0,0.0,0.0,-0.180563994217664,0.11175904655829072,1.904265210032463,2.4819234386086464,-2.0303772762417793,21.795664727687836,0.0,-0.13022589415955726,False,0,0,0,0,0
GUIDED_NOGPS,0.356947660446167,29.94797683734015,-6308.488920084209,29.870981526058657,29.89866271278264,0.1019553081222437,0.13968011772868702,0.697408126634759,0.14558995789379806,0,0,0.5,0.7985150146278106,-0.0692712983145933,0.2801638476659036,0,0,9.470712338657458,0.5,0.0,0.0,0.0,-0.05083882715553045,-0.11993298539891839,1.9673505797982216,1.163218729197979,-0.028530939016491175,26.506242156028748,0.0,0.10671562264421969,False,0,0,0,0,0
GUIDED_NOGPS,0.39079904556274414,29.542761350669842,-2537.5936756342485,29.656185701861684,29.6390013638323,0.1019553081222437,0.13968011772868702,0.697408126634759,0.14558995789379806,0,0,0.5,0.7981646472677302,-0.06950235080761014,0.28133164993141707,0,0,8.589119101584899,0.5,0.0,0.0,0.0,0.05331431166268885,0.032791573903523386,2.04908587038517,6.888242810964584,3.8658995181322098,25.884917378425598,0.0,-0.021607323449655172,False,0,0,0,0,0
GUIDED_NOGPS,0.4241933822631836,29.9481906720361,-6494.071015689493,29.869067033178325,29.879280498664293,0.1019553081222437,0.13968011772868702,0.697408126634759,0.14558995789379806,0,0,0.5,0.7990732225099005,-0.07072730254656961,0.28137551255249327,0,0,7.327103244279351,0.5,0.0,0.0,0.0,0.05331431166268885,0.032791573903523386,2.04908587038517,6.888242810964584,3.8658995181322098,25.884917378425598,0.0,-0.021607323449655172,False,0,0,0,0,0
GUIDED_NOGPS,0.4576845169067383,29.863537654237483,-6289.569129261204,29.870343334496535,29.87289626437805,0.1019553081222437,0.13968011772868702,0.697408126634759,0.14558995789379806,0,0,0.5,0.7988657021530085,-0.06940203240417558,0.2814814605259078,0,0,5.740560997021648,0.5,0.0,0.0,0.0,-0.07893881993368268,0.24127131327986717,1.7021920531988144,0.5032857414335012,-0.19534197635948658,19.489480555057526,0.0,0.05339905926139438,False,0,0,0,0,0
GUIDED_NOGPS,0.4911980628967285,29.84611224569668,-6169.303785055876,29.862474546826718,29.839954467842915,0.1019553081222437,0.13968011772868702,0.697408126634759,0.14558995789379806,0,0,0.5,0.7994995223636445,-0.06937385787384928,0.2815407711138958,0,0,3.8997622619605226,0.5,0.0,0.0,0.0,-0.11449545854702592,0.01444248337065801,1.6551624983549118,-0.21181365009397268,-0.3686990821734071,19.19093281030655,0.0,0.16517255704792752,False,0,0,0,0,0
GUIDED_NOGPS,0.5247020721435547,29.853122464376717,-5623.396496245963,29.84908587573034,29.883112349223765,0.1019553081222437,0.13968011772868702,0.697408126634759,0.14558995789379806,0,0,0.5,0.8009562736475613,-0.06964535789335728,0.2817842033247833,0,0,1.8862382729548939,0.5,0.0,0.0,0.0,-0.11449545854702592,0.01444248337065801,1.6551624983549118,-0.21181365009397268,-0.3686990821734071,19.19093281030655,0.0,0.16517255704792752,False,0,0,0,0,0
GUIDED_NOGPS,0.5582883358001709,29.77428835096188,-5585.950457249386,29.84207755247243,29.817892282318148,0.1019553081222437,0.13968011772868702,0.697408126634759,0.14558995789379806,0,0,0.5,0.8011772409393818,-0.0696331916188982,0.2827514221442806,0,0,-0.21082952277810635,0.5,0.0,0.0,0.0,0.13691242784261703,0.1251664594747126,1.8909024074673653,1.3974828645586967,-0.06718232179991901,26.640748977661133,0.0,0.043070359153093825,False,0,0,0,0,0
GUIDED_NOGPS,0.5916051864624023,30.015915726799108,-7726.213926071445,29.901859997576086,29.91913715867264,0.1019553081222437,0.13968011772868702,0.697408126634759,0.14558995789379806,0,0,0.5,0.8011669956556268,-0.06941302473987107,0.28254051337323,0,0,-2.298559420348432,0.5,0.0,0.0,0.0,-0.047599690151400864,0.045128801139071584,1.6038091853260994,-2.931574732065201,-0.2730401698499918,23.83694350719452,0.0,0.05743479392637277,False,0,0,0,0,0
GUIDED_NOGPS,0.6252040863037109,29.769850451767677,-3455.325131810188,29.75527809307605,29.768160171470345,0.1019553081222437,0.13968011772868702,0.697408126634759,0.14558995789379806,0,0,0.5,0.8014963922005212,-0.06900449405013968,0.282530027965637,0,0,-4.284483301829301,0.5,0.0,0.0,0.0,-0.22600186057388783,0.05412858445197344,1.715531200170517,-1.4315152540802956,-0.42097708210349083,20.040036737918854,0.0,0.11250028594311803,False,0,0,0,0,0
GUIDED_NOGPS,0.6587512493133545,29.808356252976,-6575.51839464881,29.85758522747496,29.822344517679515,0.1019553081222437,0.13968011772868702,0.697408126634759,0.14558995789379806,0,0,0.5,0.8015802221004126,-0.06944173287872628,0.2839225327826733,0,0,-6.080642162619563,0.5,0.0,0.0,0.0,-0.13139898655936122,-0.03766959998756647,1.6882268711924553,3.898783400654793,-0.6135092582553625,16.53559058904648,0.0,0.035036952786514655,False,0,0,0,0,0
GUIDED_NOGPS,0.6928150653839111,29.364679525326427,-1312.004671240589,29.352555040799473,29.390812007736077,0.1019553081222437,0.13968011772868702,0.697408126634759,0.14558995789379806,0,0,0.5,0.8023439759878375,-0.06836725874491864,0.2841952867822243,0,0,-7.607481923646012,0.5,0.0,0.0,0.0,-0.09789526229724288,0.029860337963327765,1.7798377200961113,1.0460812598466873,-0.37332940846681595,21.4703306555748,0.0,0.16205808416789425,False,0,0,0,0,0
GUIDED_NOGPS,0.726294755935669,29.869917888604817,-7669.7013287821255,29.890992018244013,29.877790599934464,0.1019553081222437,0.13968011772868702,0.697408126634759,0.14558995789379806,0,0,0.5,0.8030045299857718,-0.06784784420288033,0.28323735275113,0,0,-8.79737697910487,0.5,0.0,0.0,0.0,-0.030238457839004695,-0.06509950617328286,2.1260367706418037,2.7908839285373688,-0.13629321474581957,28.365737199783325,0.0,0.0412852118402743,False,0,0,0,0,0
GUIDED_NOGPS,0.7595643997192383,30.058722776037897,-6627.468661118699,29.876088040458722,29.899941544647056,0.1019553081222437,0.13968011772868702,0.697408126634759,0.14558995789379806,0,0,0.5,0.8039017393662764,-0.06935560846216064,0.283845533071952,0,0,-9.597625417490859,0.5,0.0,0.0,0.0,-0.1739203929901123,-0.013510814460460097,1.8989110365509987,1.669076457619667,-0.4358957055956125,19.876547157764435,0.0,-0.4363638706817483,False,0,0,0,0,0
GUIDED_NOGPS,0.7938029766082764,29.21434840147663,-1470.2068095249213,29.399464483478894,29.382370454434007,0.1019553081222437,0.13968011772868702,0.697408126634759,0.14558995789379806,0,0,0.5,0.8040006170266829,-0.06958900883270468,0.28448847798843235,0,0,-9.972783253900806,0.5,0.0,0.0,0.0,-0.07069201092235744,-0.0008488770617987029,1.809079572558403,-2.634955942630768,-2.246352471411228,22.45386242866516,0.0,-0.08499572780528493,False,0,0,0,0,0
GUIDED_NOGPS,0.8271751403808594,29.966163694558755,-6554.96561783703,29.87736494187372,29.858860547728714,0.1019553081222437,0.13968011772868702,0.697408126634759,0.14558995789379806,0,0,0.5,0.8046893455549435,-0.06960373642810253,0.2847439964324996,0,0,-9.9062342875998,0.5,0.0,0.0,0.0,-0.10564194526523352,-0.00707648869138211,1.8249906599521637,1.0755836963653564,-0.46090884134173393,17.946967482566833,0.0,0.030214609113807557,False,0,0,0,0,0
GUIDED_NOGPS,0.8608279228210449,29.72638681190954,-6648.479340589644,29.873321795118336,29.88247363921345,0.1019553081222437,0.13968011772868702,0.697408126634759,0.14558995789379806,0,0,0.5,0.8057780136756201,-0.07035185558563048,0.2840965158435235,0,0,-9.4009260539328,0.5,0.0,0.0,0.0,0.1275494578294456,0.05496051744557917,1.9926713779568672,2.415582165122032,1.794993132352829,25.271302461624146,0.0,-0.12996121098900607,False,0,0,0,0,0
GUIDED_NOGPS,0.8944013118743896,29.78739844327027,-5676.672381124229,29.84547511634195,29.834860297046607,0.1019553081222437,0.13968011772868702,0.697408126634759,0.14558995789379806,0,0,0.5,0.8061925741417281,-0.07005271464432508,0.2838642894117431,0,0,-8.479239274368842,0.5,0.0,0.0,0.0,-0.14488018350675702,0.07572732283733785,1.709171012043953,-2.3629961535334587,-0.19123258534818888,24.16471093893051,0.0,-0.02456542902039877,False,0,0,0,0,0
GUIDED_NOGPS,0.9277114868164062,30.01720460888857,-6575.51839464881,29.873321795118336,29.883751086538325,0.1019553081222437,0.13968011772868702,0.697408126634759,0.14558995789379806,0,0,0.5,0.8068180166984603,-0.06997907666733587,0.28514569693306097,0,0,-7.181996586895462,0.5,0.0,0.0,0.0,-0.2089595189318061,0.030502548906952143,1.6436265781521797,-3.310093656182289,-0.31823969911783934,20.65826803445816,0.0,0.23161075425978037,False,0,0,0,0,0
GUIDED_NOGPS,0.9612522125244141,29.822556562051165,-6133.218951062568,29.864175555017585,29.868854326895686,0.1019553081222437,0.13968011772868702,0.697408126634759,0.14558995789379806,0,0,0.5,0.8072681154925936,-0.06946371755011725,0.28577183318088073,0,0,-5.566654461310076,0.5,0.0,0.0,0.0,-0.2089595189318061,0.030502548906952143,1.6436265781521797,-3.310093656182289,-0.31823969911783934,20.65826803445816,0.0,0.23161075425978037,False,0,0,0,0,0
GUIDED_NOGPS,0.9947605133056641,29.847174188406417,-6723.077580679612,29.876088040458722,29.87736494187372,0.1019553081222437,0.13968011772868702,0.697408126634759,0.14558995789379806,0,0,0.5,0.8074494890315691,-0.06960192215910424,0.28595664849486774,0,0,-3.7047583816978453,0.5,0.0,0.0,0.0,-0.09185774251818657,0.11840184452012181,1.7109639942646027,0.6022599060088396,-0.36341932136565447,18.99091601371765,0.0,-0.01243956206716506,False,0,0,0,0,0
GUIDED_NOGPS,1.0287928581237793,29.3873112629182,-7841.774897170606,29.899088977915913,29.907830092483653,0.1019553081222437,0.13968011772868702,0.697408126634759,0.14558995789379806,0,0,0.5,0.8070272979634977,-0.0695296715642902,0.28548363121441794,0,0,-1.6787740091854046,0.5,0.0,0.0,0.0,-0.09545989450998604,-0.008275124127976596,2.0185019820928574,-1.3390284031629562,1.7059076577425003,23.615139722824097,0.0,0.04230833615833453,False,0,0,0,0,0
GUIDED_NOGPS,1.061624526977539,30.4603876627668,-7491.612288640126,29.894826873458683,29.88864897991178,0.1019553081222437,0.13968011772868702,0.697408126634759,0.14558995789379806,0,0,0.5,0.807497407077465,-0.07013051476783976,0.28466168731691566,0,0,0.42156532334096364,0.5,0.0,0.0,0.0,-0.2292810007929802,-0.11177583364769816,2.1104248240590096,-1.8008701503276825,-2.260868065059185,21.520239114761353,0.0,-0.07516956686929599,False,0,0,0,0,0
GUIDED_NOGPS,1.0955913066864014,29.44921186589433,-1413.2386899681019,29.383605500795134,29.410802813247226,0.1019553081222437,0.13968011772868702,0.697408126634759,0.14558995789379806,0,0,0.5,0.8066979547794562,-0.07008601181652889,0.28598540999457583,0,0,2.5032330106138545,0.5,0.0,0.0,0.0,-0.25743620935827494,-0.06833751685917377,1.9717447459697723,-5.33653162419796,-0.026254591648466885,28.663542866706848,0.0,0.09927374467730735,False,0,0,0,0,0
GUIDED_NOGPS,1.129026174545288,29.91060273269247,-6968.8258750553605,29.87502403931764,29.869279742490495,0.1019553081222437,0.13968011772868702,0.697408126634759,0.14558995789379806,0,0,0.5,0.8069139595119578,-0.0698522912808675,0.2865117881279164,0,0,4.474029437436339,0.5,0.0,0.0,0.0,-0.2368901390582323,-0.011556466779438779,1.7655806615948677,-1.2912517413496971,-2.173379808664322,22.140762209892273,0.0,-0.19330427862999852,False,0,0,0,0,0
GUIDED_NOGPS,1.162613868713379,29.780419054110663,-6280.151726891577,29.86715278568987,29.873960113960113,0.1019553081222437,0.13968011772868702,0.697408126634759,0.14558995789379806,0,0,0.5,0.8054468028617273,-0.07070873296976364,0.28609189157651926,0,0,6.246665612729069,0.5,0.0,0.0,0.0,-0.07082063239067793,0.07559810765087605,1.4847132377326488,3.436547890305519,-0.39878273382782936,15.0467649102211,0.0,0.22580274558774233,False,0,0,0,0,0
GUIDED_NOGPS,1.196131944656372,29.836345917184175,-4666.213750648955,29.814500995166334,29.80962737112926,0.1019553081222437,0.13968011772868702,0.697408126634759,0.14558995789379806,0,0,0.5,0.8049994254710915,-0.07132675836794401,0.28589330916248645,0,0,7.742629306011935,0.5,0.0,0.0,0.0,-0.1516880583949387,0.028300646226853132,1.861642487347126,4.874776303768158,1.6601746901869774,20.7329660654068,0.0,-0.08121962037004635,False,0,0,0,0,0
GUIDED_NOGPS,1.2297773361206055,29.726176132900537,-4351.539632037618,29.80623796360122,29.790783567248138,0.1019553081222437,0.13968011772868702,0.697408126634759,0.14558995789379806,0,0,0.5,0.8053195905884358,-0.07200785629424122,0.2865366009245106,0,0,8.895662450393434,0.5,0.0,0.0,0.0,0.04540798836387694,0.01831743138609454,1.8711745738983154,-0.7566913962364197,-0.17668661894276738,23.66446554660797,0.0,-0.08471355561519878,False,0,0,0,0,0
GUIDED_NOGPS,1.2633135318756104,29.819800220397426,-3415.9278966228635,29.75527809307605,29.7284937662577,0.1019553081222437,0.13968011772868702,0.697408126634759,0.14558995789379806,0,0,0.5,0.8036155651122234,-0.0714816115630329,0.28734152270994073,0,0,9.654695793623906,0.5,0.0,0.0,0.0,0.04540798836387694,0.01831743138609454,1.8711745738983154,-0.7566913962364197,-0.17668661894276738,23.66446554660797,0.0,-0.08471355561519878,False,1,0,0,0,0
GUIDED_NOGPS,1.2981038093566895,28.776596182609055,-700.4671669375847,28.77620132275858,28.812375921359042,0.1019553081222437,0.13968011772868702,0.697408126634759,0.14558995789379806,0,0,0.5,0.8036155651122234,-0.0714816115630329,0.28734152270994073,0,0,9.986110817918139,0.5,0.0,0.0,0.0,-0.2156572649255395,0.062542874366045,1.669243536889553,-2.128607966005802,-0.2723333425819874,20.927460491657257,0.0,0.0422774435595641,False,0,0,0,0,0
GUIDED_NOGPS,1.331557035446167,29.865451438336656,-5916.915263801357,29.85036046999879,29.862261934427398,0.1019553081222437,0.13968011772868702,0.697408126634759,0.14558995789379806,0,0,0.5,0.8017319803660338,-0.06888144392337367,0.286861862003306,0,0,9.875228745343794,0.5,0.0,0.0,0.0,-0.1463917549699545,0.162571226246655,1.599830575287342,-0.6167836487293243,-0.2161173615604639,21.89193218946457,0.0,0.0383173412334517,False,0,0,0,0,0
GUIDED_NOGPS,1.3649725914001465,29.926181727373265,-5958.946770221616,29.856310016158538,29.860135976933755,0.1019553081222437,0.13968011772868702,0.697408126634759,0.14558995789379806,0,0,0.5,0.8011255876337835,-0.06895764322130163,0.28881105391812484,0,0,9.32696067890069,0.5,0.0,0.0,0.0,-0.15788887394592166,-0.11239900486543775,1.683826744556427,2.9894929379224777,-0.2627922687679529,23.00901859998703,0.0,0.10448373827099902,False,0,0,0,0,0
GUIDED_NOGPS,1.3994934558868408,28.975192566750717,-1164.157430194474,29.247554164022677,29.161335178090955,0.1019553081222437,0.13968011772868702,0.697408126634759,0.14558995789379806,0,0,0.5,0.800879754184516,-0.06935005893346001,0.2884070322204627,0,0,8.365590083745087,0.5,0.0,0.0,0.0,0.10979223297908902,0.19818278960883617,1.5997076407074928,3.600306808948517,1.794225536286831,22.41767793893814,0.0,-0.08937510636287958,False,0,0,0,0,0
GUIDED_NOGPS,1.4326765537261963,30.136257167081006,-6934.262096329748,29.885028643087182,29.896957773786102,0.1019553081222437,0.13968011772868702,0.697408126634759,0.14558995789379806,0,0,0.5,0.7990327749834093,-0.06791123689611452,0.2886441144898562,0,0,7.033697242732391,0.5,0.0,0.0,0.0,-0.056289200438186526,-0.027233094442635775,1.7281988635659218,0.04930929280817509,-0.28037705924361944,20.902390778064728,0.0,0.05135963414433733,False,0,0,0,0,0
GUIDED_NOGPS,1.4660120010375977,30.00260375684917,-8907.62565482086,29.917856684308887,30.006467305766204,0.1019553081222437,0.13968011772868702,0.697408126634759,0.14558995789379806,0,0,0.5,0.7979379703646503,-0.06732362718408186,0.2902320801110313,0,0,5.390273323461356,0.5,0.0,0.0,0.0,-0.21300958469510078,-0.10770028457045555,1.7668696120381355,-0.3017270937561989,-0.1901867799460888,23.538775742053986,0.0,-0.15765297233899306,False,0,0,0,0,0
GUIDED_NOGPS,1.499678611755371,29.714593384483504,-7559.120509431669,29.88332525862806,29.87013061003575,0.1019553081222437,0.13968011772868702,0.697408126634759,0.14558995789379806,0,0,0.5,0.7971896911245637,-0.06676216428996565,0.2904682285654992,0,0,3.508107587104019,0.5,0.0,0.0,0.0,-0.08461609249934554,-0.011698828893713653,1.879977434873581,3.226373717188835,-0.1569156302139163,22.54837602376938,0.0,-0.21967374470514014,False,0,0,0,0,0
GUIDED_NOGPS,1.5330438613891602,29.970232013090484,-6992.060457879506,29.884815709410113,29.895892285651154,0.1019553081222437,0.13968011772868702,0.697408126634759,0.14558995789379806,0,0,0.5,0.795119610197521,-0.06524202031281469,0.2911398816208347,0,0,1.4705634627465556,0.5,0.0,0.0,0.0,-0.08461609249934554,-0.011698828893713653,1.879977434873581,3.226373717188835,-0.1569156302139163,22.54837602376938,0.0,-0.21967374470514014,False,0,0,0,0,0
GUIDED_NOGPS,1.566540241241455,29.8582228739838,-6205.815742750032,29.858860547728714,29.863325026699894,0.1019553081222437,0.13968011772868702,0.697408126634759,0.14558995789379806,0,0,0.5,0.7935729458764833,-0.0637283863597164,0.2921867948741243,0,0,-0.6321137211366181,0.5,0.0,0.0,0.0,-0.3200299572199583,-0.031900653266347945,1.7891785129904747,-4.570292681455612,1.700095273554325,20.31264156103134,0.0,0.21824981034575114,True,0,0,0,0,0
GUIDED_NOGPS,1.6007769107818604,29.213127542207612,-1059.470892342926,29.191575841093528,29.198281923299152,0.1019553081222437,0.13968011772868702,0.697408126634759,0.14558995789379806,0,0,0.5,0.7919840197599561,-0.06331057088158203,0.29200507448960494,0,0,-2.706793812973938,0.5,0.0,0.0,0.0,-0.20189702045172453,0.04673766088671982,1.7332257702946663,4.9984410405159,-0.23129265755414963,20.754320919513702,0.0,-0.14639147116130974,True,0,0,0,0,0
GUIDED_NOGPS,1.6343176364898682,29.818104263381272,-7110.596745027101,29.873534565034685,29.866940106670086,0.1019553081222437,0.13968011772868702,0.697408126634759,0.14558995789379806,0,0,0.5,0.792795691693277,-0.0638692590113479,0.2915388340374722,0,0,-4.661586686741114,0.5,0.0,0.0,0.0,-0.14626327902078629,0.06569930701516569,1.533260103315115,3.8795962929725647,-0.19716110546141863,22.240503132343292,0.0,0.17075642345739805,True,0,0,0,0,0
GUIDED_NOGPS,1.6676609516143799,29.990804630576392,-6832.597741094679,29.879067646891208,29.88609335698966,0.1019553081222437,0.13968011772868702,0.697408126634759,0.14558995789379806,0,0,0.5,0.7928636734198597,-0.06398046302877218,0.29089770338999016,0,0,-6.409912168353249,0.5,0.0,0.0,0.0,-0.027115526609122753,0.04774503468070179,1.7143940553069115,-1.2735174968838692,1.9696712493896484,28.065353631973267,0.0,0.22405640495518758,True,0,0,0,0,0
GUIDED_NOGPS,1.7012133598327637,29.811534251638307,-6169.303785055876,29.856522543813444,29.850572912959933,0.1019553081222437,0.13968011772868702,0.697408126634759,0.14558995789379806,0,0,0.5,0.79187665772394,-0.06365176017496531,0.2939233437901736,0,0,-7.874334777772317,0.5,0.0,0.0,0.0,-0.31781273428350687,0.15068165957927704,1.5865087509155273,-7.367939502000809,-0.0676474766805768,25.942987203598022,0.0,0.18091492912540363,True,0,0,0,0,0
GUIDED_NOGPS,1.7347564697265625,29.817256357212425,-5900.268217199647,29.858647986787403,29.84505037855069,0.1019553081222437,0.13968011772868702,0.697408126634759,0.14558995789379806,0,0,0.5,0.7917141739268878,-0.06266885326471816,0.2944444125186515,0,0,-8.989993441398719,0.5,0.0,0.0,0.0,-0.22552120499312878,-0.004329016519477591,1.6317974776029587,-1.700362004339695,1.5746766701340675,20.889747142791748,0.0,-0.1372027589739534,True,0,0,0,0,0
GUIDED_NOGPS,1.7684235572814941,29.710383713599626,-3891.301335972284,29.78401408850764,29.800943557096573,0.1019553081222437,0.13968011772868702,0.697408126634759,0.14558995789379806,0,0,0.5,0.792585716737152,-0.06321484151149606,0.29089463514094893,0,0,-9.707474268578167,0.5,0.0,0.0,0.0,-0.18349082674831152,-0.04646078159566969,1.6522355377674103,-5.803338438272476,-0.44273491948843,18.743939697742462,0.0,0.22201024303045308,True,0,0,0,0,0
GUIDED_NOGPS,1.8018403053283691,29.92660877755025,-6196.647296365589,29.863537654237483,29.87161974489178,0.1019553081222437,0.13968011772868702,0.697408126634759,0.14558995789379806,0,0,0.5,0.7917959761143692,-0.06278742107984135,0.29198300977693464,0,0,-9.994999153428735,0.5,0.0,0.0,0.0,-0.0734545523300767,-0.029223255114629865,1.4850517734885216,-2.2913694381713867,1.5973793342709541,20.360538363456726,0.0,0.044616683298694296,True,0,0,0,0,0
GUIDED_NOGPS,1.8353655338287354,29.829767865270824,-5211.178663132598,29.801578786565393,29.77175224656095,0.1019553081222437,0.13968011772868702,0.697408126634759,0.14558995789379806,0,0,0.5,0.7923621881243927,-0.06297621177736874,0.2937034437154109,0,0,-9.839833266128725,0.5,0.0,0.0,0.0,-0.0734545523300767,-0.029223255114629865,1.4850517734885216,-2.2913694381713867,1.5973793342709541,20.360538363456726,0.0,0.044616683298694296,True,0,0,0,0,0
GUIDED_NOGPS,1.8687407970428467,29.965949603126408,-6106.431136562149,29.896957773786102,29.919350581722984,0.1019553081222437,0.13968011772868702,0.697408126634759,0.14558995789379806,0,0,0.5,0.7929697014345536,-0.062402155721970325,0.29239516900466256,0,0,-9.248849094149707,0.5,0.0,0.0,0.0,-0.0487339188111946,0.1697524101473391,1.4691119082272053,0.033317552879452705,-2.428925409913063,12.260179221630096,0.0,0.10131902614796914,True,0,0,0,0,0
GUIDED_NOGPS,1.9022321701049805,29.860561144215914,-7308.847583643098,29.88609335698966,29.88907495955932,0.1019553081222437,0.13968011772868702,0.697408126634759,0.14558995789379806,0,0,0.5,0.7926217886737061,-0.06183247525650895,0.292879845631469,0,0,-8.24822205135675,0.5,0.0,0.0,0.0,-0.035627285251393914,-0.008342890942003578,1.9781099632382393,-2.9110657051205635,1.6489546746015549,18.345335125923157,0.0,-0.14178773689773602,True,0,0,0,0,0
GUIDED_NOGPS,1.935858964920044,29.743883586026918,-2836.161024207723,29.701336958984818,29.703230009843704,0.1019553081222437,0.13968011772868702,0.697408126634759,0.14558995789379806,0,0,0.5,0.7930626026794364,-0.06317748891447256,0.2949327176834545,0,0,-6.882271136822208,0.5,0.0,0.0,0.0,-0.035627285251393914,-0.008342890942003578,1.9781099632382393,-2.9110657051205635,1.6489546746015549,18.345335125923157,0.0,-0.14178773689773602,True,0,0,0,0,0
GUIDED_NOGPS,1.9694530963897705,29.77196357209276,-5834.606324770456,29.843563891478052,29.816196542311193,0.1019553081222437,0.13968011772868702,0.697408126634759,0.14558995789379806,0,0,0.5,0.7933227368372787,-0.06311516343829619,0.2945904611730134,0,0,-5.211495991996031,0.5,0.0,0.0,0.0,-0.021576584549620748,0.19149534637108445,1.6339769586920738,0.6353710778057575,-0.1797482487745583,18.607285618782043,0.0,-0.020335407490045247,True,0,0,0,0,0
GUIDED_NOGPS,2.003154993057251,29.702598966078888,-7655.702117303453,29.896957773786102,29.92703583991552,0.1019553081222437,0.13968011772868702,0.697408126634759,0.14558995789379806,0,0,0.5,0.7931656424863683,-0.06316585624854237,0.29340038075141806,0,0,-3.309897297378446,0.5,0.0,0.0,0.0,-0.10143298422917724,-0.038127959123812616,1.6861315816640854,3.313973918557167,2.0508749410510063,26.99730396270752,0.0,0.10728474282072571,True,0,0,0,0,0
GUIDED_NOGPS,2.036599636077881,29.88183495650563,-7600.21261174194,29.88694518273609,29.866940106670086,0.1019553081222437,0.13968011772868702,0.697408126634759,0.14558995789379806,0,0,0.5,0.794938396741104,-0.06263491576227967,0.2955473279870499,0,0,-1.2616991916130784,0.5,0.0,0.0,0.0,-0.021550740348175168,0.034075736766681075,1.831522025167942,-4.915958642959595,1.883186213672161,22.531309723854065,0.0,-0.13225902269597323,True,0,0,0,0,0
GUIDED_NOGPS,2.069779872894287,30.13842262589101,-6701.593523647189,29.876726477522848,29.90505796626121,0.1019553081222437,0.13968011772868702,0.697408126634759,0.14558995789379806,0,0,0.5,0.7958210919696224,-0.06223961856406518,0.29650494185302684,0,0,0.8423811189212129,0.5,0.0,0.0,0.0,0.009917641000356525,0.1935873180627823,1.502765528857708,3.1157150864601135,-0.330019136890769,14.11331295967102,0.0,0.10688673755922702,True,0,0,0,0,0
GUIDED_NOGPS,2.103473424911499,29.67947919615058,-2420.442426807215,29.6454955400687,29.649477248467797,0.1019553081222437,0.13968011772868702,0.697408126634759,0.14558995789379806,0,0,0.5,0.7976996607956404,-0.0625507123364181,0.29411122735320183,0,0,2.909151336452391,0.5,0.0,0.0,0.0,-0.20585486199706793,0.1420726766809821,1.393189374357462,-1.9144980236887932,-0.15292554162442684,16.20168536901474,0.0,-0.011626409370176529,True,0,0,0,0,0
GUIDED_NOGPS,2.1370794773101807,29.765202642765395,-6365.937468380028,29.86098632360584,29.850997807953995,0.1019553081222437,0.13968011772868702,0.697408126634759,0.14558995789379806,0,0,0.5,0.7983241962178734,-0.062409732963080805,0.2942233651855517,0,0,4.847071672991346,0.5,0.0,0.0,0.0,0.1020616153255105,0.18801147816702724,1.7234381288290024,6.382454186677933,2.0186729729175568,21.225805580615997,0.0,-0.20880779418972253,True,0,0,0,0,0
GUIDED_NOGPS,2.170670509338379,29.772808904221414,-6115.334370139952,29.857797773285117,29.838680762061948,0.1019553081222437,0.13968011772868702,0.697408126634759,0.14558995789379806,0,0,0.5,0.7985709368016402,-0.06359925309572084,0.2951069141877163,0,0,6.570309259822431,0.5,0.0,0.0,0.0,-0.26452529709786177,0.10815123096108437,1.8062949180603027,-4.784451425075531,-1.7379824072122574,25.73222517967224,0.0,-0.008705889850187835,True,0,0,0,0,0
GUIDED_NOGPS,2.2040517330169678,29.958458329762006,-6821.485416892529,29.882260741943988,29.892483233912753,0.1019553081222437,0.13968011772868702,0.697408126634759,0.14558995789379806,0,0,0.5,0.7996202246128833,-0.06529559460911698,0.2954045343447143,0,0,8.002539790539762,0.5,0.0,0.0,0.0,-0.26452529709786177,0.10815123096108437,1.8062949180603027,-4.784451425075531,-1.7379824072122574,25.73222517967224,0.0,-0.008705889850187835,True,0,0,0,0,0
GUIDED_NOGPS,2.237457513809204,29.937502676621317,-6261.401273885333,29.863537654237483,29.87630084978168,0.1019553081222437,0.13968011772868702,0.697408126634759,0.14558995789379806,0,0,0.5,0.8005398989124549,-0.06477489940660928,0.2952213732171669,0,0,9.080328018195505,0.5,0.0,0.0,0.0,-0.0866097048856318,-0.10548540158197284,1.8043726682662964,-1.2861128896474838,-0.13521560467779636,16.729480028152466,0.0,-0.0035351831844369513,True,0,0,0,0,0
GUIDED_NOGPS,2.27134108543396,29.51760441957845,-1851.8988608600932,29.538600222544616,29.552961070988196,0.1019553081222437,0.13968011772868702,0.697408126634759,0.14558995789379806,0,0,0.5,0.8013820398927763,-0.06551352033232269,0.2952898885522786,0,0,9.755937380195567,0.5,0.0,0.0,0.0,-0.05949090700596571,-0.056261010468006134,1.494460552930832,1.9340269267559052,-0.06029161741025746,19.688792526721954,0.0,-0.01572915192617245,True,0,0,0,0,0
GUIDED_NOGPS,2.3087267875671387,26.751946933699013,-253.6488763818447,26.835645186057224,26.82826422069989,0.1019553081222437,0.13968011772868702,0.697408126634759,0.14558995789379806,0,0,0.5,0.8013820398927763,-0.06551352033232269,0.2952898885522786,0,0,9.999444309209432,0.5,0.0,0.0,0.0,-0.025924888905137777,-0.0010356223356211558,1.6020270064473152,1.9732609391212463,1.969647966325283,21.150264143943787,0.0,0.16748593678372553,True,0,0,0,0,0
GUIDED_NOGPS,2.342825174331665,29.329976783866186,-1127.5414889422555,29.232062334910754,29.23960235907589,0.1019553081222437,0.13968011772868702,0.697408126634759,0.14558995789379806,0,0,0.5,0.8018779222986899,-0.06493540885210458,0.2955332140414603,0,0,9.800063584670868,0.5,0.0,0.0,0.0,-0.025924888905137777,-0.0010356223356211558,1.6020270064473152,1.9732609391212463,1.969647966325283,21.150264143943787,0.0,0.16748593678372553,True,0,0,0,0,0
GUIDED_NOGPS,2.3763458728790283,29.835496973275195,-6308.488920084209,29.854184906009554,29.83337482484654,0.1019553081222437,0.13968011772868702,0.697408126634759,0.14558995789379806,0,0,0.5,0.8034122069018569,-0.06516912938776596,0.29556381649059316,0,0,9.166626023425668,0.5,0.0,0.0,0.0,0.07822291809134185,0.23114646319299936,1.6850540414452553,4.440128430724144,0.08804628741927445,22.76877760887146,0.0,0.0535242338171161,True,0,0,0,0,0
GUIDED_NOGPS,2.409830331802368,29.870343334496535,-6280.151726891577,29.869492454832255,29.88140918320094,0.1019553081222437,0.13968011772868702,0.697408126634759,0.14558995789379806,0,0,0.5,0.804430758861835,-0.0649634766607251,0.29607952245335556,0,0,8.127187352021913,0.5,0.0,0.0,0.0,-0.0745569821447134,0.03274520568083972,1.7185378819704056,1.0363408364355564,2.1183380857110023,26.16375982761383,0.0,0.15244083097097252,True,0,0,0,0,0
GUIDED_NOGPS,2.443391799926758,29.80052008582837,-6524.376231463218,29.822132476323198,29.82828290011734,0.1019553081222437,0.13968011772868702,0.697408126634759,0.14558995789379806,0,0,0.5,0.8053598780323683,-0.06470264881179524,0.2961079104270934,0,0,6.7277855841685845,0.5,0.0,0.0,0.0,-0.2999430289492011,0.04407977976370603,2.0325763151049614,-5.42098693549633,0.2767434809356928,30.620425939559937,0.0,0.03198054651958642,True,0,0,0,0,0
GUIDED_NOGPS,2.4767723083496094,29.961454389599258,-6701.593523647189,29.928530654184268,29.927676456317606,0.1019553081222437,0.13968011772868702,0.697408126634759,0.14558995789379806,0,0,0.5,0.8065706891453117,-0.06399060159082141,0.2958719220551842,0,0,5.030401940639225,0.5,0.0,0.0,0.0,-0.11738662142306566,0.010668875620467588,2.0118296146392822,0.11521540582180023,-1.874961145222187,24.880149960517883,0.0,0.18146131757857822,True,0,0,0,0,0
GUIDED_NOGPS,2.5122299194335938,28.209707902046635,-481.28148833793585,28.255507201465893,28.259505056562077,0.1019553081222437,0.13968011772868702,0.697408126634759,0.14558995789379806,0,0,0.5,0.806991973078884,-0.06310897357936086,0.2957308359601411,0,0,3.1102156249790487,0.5,0.0,0.0,0.0,-0.11738662142306566,0.010668875620467588,2.0118296146392822,0.11521540582180023,-1.874961145222187,24.880149960517883,0.0,0.18146131757857822,True,0,0,0,0,0
GUIDED_NOGPS,2.545720100402832,29.861411515104052,-6968.8258750553605,29.87183249056335,29.873534565034685,0.1019553081222437,0.13968011772868702,0.697408126634759,0.14558995789379806,0,0,0.5,0.8072185432602581,-0.06318101073076333,0.29757864225446756,0,0,1.0522740443667222,0.5,0.0,0.0,0.0,0.006343450513668358,-0.03320850373711437,1.7849283292889595,5.512712150812149,-0.08583537419326603,21.28816992044449,0.0,-0.19832353385503232,True,0,0,0,0,0
GUIDED_NOGPS,2.579644203186035,29.480674477940298,-2998.3586713053382,29.65073485228727,29.63983916217343,0.1019553081222437,0.13968011772868702,0.697408126634759,0.14558995789379806,0,0,0.5,0.8085960003167793,-0.06309125777620114,0.2983299097023161,0,0,-1.0522740443666747,0.5,0.0,0.0,0.0,-0.09134060237556696,-0.010025498340837657,1.5999317169189453,0.8813136257231236,-0.11647543869912624,18.47095787525177,0.0,0.03975669020921949,True,0,0,0,0,0
GUIDED_NOGPS,2.612799644470215,30.16161252975313,-5419.931082012392,29.905697642084547,29.919564007818185,0.1019553081222437,0.13968011772868702,0.697408126634759,0.14558995789379806,0,0,0.5,0.8098269818321153,-0.06233225300468347,0.29701875350551166,0,0,-3.110215624979003,0.5,0.0,0.0,0.0,-0.14721862971782684,0.05718854954466224,1.4559131115674973,3.383515775203705,1.9458584487438202,19.88108605146408,0.0,0.22145319574691358,True,0,0,0,0,0
GUIDED_NOGPS,2.646350860595703,29.809839234694604,-6178.391436708222,29.866089420879113,29.86502613178394,0.1019553081222437,0.13968011772868702,0.697408126634759,0.14558995789379806,0,0,0.5,0.8101720664677596,-0.061919773611838175,0.2965039813576748,0,0,-5.030401940639183,0.5,0.0,0.0,0.0,-0.04954156465828419,0.26363893412053585,1.3314059935510159,-1.718871295452118,-0.06381800631061196,16.82908535003662,0.0,0.22899361786890188,True,0,0,0,0,0
GUIDED_NOGPS,2.6798202991485596,29.886306308874037,-8544.691022680938,29.910176139199887,29.92596820685522,0.1019553081222437,0.13968011772868702,0.697408126634759,0.14558995789379806,0,0,0.5,0.8119732620570861,-0.06202873647344103,0.2973405728092956,0,0,-6.727785584168561,0.5,0.0,0.0,0.0,-0.04954156465828419,0.26363893412053585,1.3314059935510159,-1.718871295452118,-0.06381800631061196,16.82908535003662,0.0,0.22899361786890188,True,0,0,0,0,0
GUIDED_NOGPS,2.713491678237915,29.701967949126498,-5078.669680335797,29.823404769692402,29.81174614230985,0.1019553081222437,0.13968011772868702,0.697408126634759,0.14558995789379806,0,0,0.5,0.8128703113550321,-0.06160131604178633,0.2963434185513266,0,0,-8.127187352021895,0.5,0.0,0.0,0.0,-0.13728035846725106,0.0018145276044378988,1.7711874097585678,-1.2568415142595768,-0.0095044044428505,20.527811348438263,0.0,-0.007333515414904511,True,0,0,0,0,0
GUIDED_NOGPS,2.751028299331665,26.639973577907064,-232.0902470875541,26.571790583346004,26.519875819596983,0.1019553081222437,0.13968011772868702,0.697408126634759,0.14558995789379806,0,0,0.5,0.8133422880988505,-0.062182309008060536,0.29660352602874246,0,0,-9.16662602342566,0.5,0.0,0.0,0.0,0.11122575961053371,0.09248516289517283,1.5416820533573627,8.162272721529007,-0.09794512297958136,18.72333437204361,0.0,0.1687099947283991,True,0,0,0,0,0
GUIDED_NOGPS,2.784412384033203,29.962096480387466,-6474.023461617598,29.875236833482912,29.9439145582272,0.1019553081222437,0.13968011772868702,0.697408126634759,0.14558995789379806,0,0,0.5,0.8142227421715474,-0.06364354260362014,0.2981119572986839,0,0,-9.800063584670857,0.5,0.0,0.0,0.0,0.07642646669410169,0.13572806492447853,1.5185419470071793,1.3079198077321053,1.8191928043961525,18.037806451320648,0.0,0.033881463537805676,True,0,0,0,0,0
GUIDED_NOGPS,2.8179433345794678,29.83019216818628,-5519.789436743275,29.8437762377083,29.848873453934726,0.1019553081222437,0.13968011772868702,0.697408126634759,0.14558995789379806,0,0,0.5,0.8150990874585718,-0.06414342707350044,0.2969424474858779,0,0,-9.999444309209434,0.5,0.0,0.0,0.0,-0.16916118329390883,0.11586897308006883,1.5571019612252712,-8.128561079502106,-0.14970797346904874,18.36153119802475,0.0,-0.22063481368634175,True,0,0,0,0,0
GUIDED_NOGPS,2.8514935970306396,29.831677323451803,-4320.164801208533,29.802214043115576,29.790995163043092,0.1019553081222437,0.13968011772868702,0.697408126634759,0.14558995789379806,0,0,0.5,0.8164947939267816,-0.06367182385565223,0.2961759455145291,0,0,-9.755937380195574,0.5,0.0,0.0,0.0,0.03624149248935282,-0.14764171792194247,1.9816333428025246,2.769955061376095,-0.11767176911234856,19.18957531452179,0.0,0.16328577065056438,True,0,0,0,0,0
GUIDED_NOGPS,2.8849267959594727,29.88907495955932,-7886.006517924263,29.90420510773004,29.925754689384046,0.1019553081222437,0.13968011772868702,0.697408126634759,0.14558995789379806,0,0,0.5,0.8159027019031061,-0.06394033566739835,0.29717590121727483,0,0,-9.080328018195518,0.5,0.0,0.0,0.0,-0.20434274338185787,0.1104030990973115,1.703798584640026,-2.0029354840517044,0.052357494132593274,23.087331652641296,0.0,0.09952959662670514,True,0,0,0,0,0
GUIDED_NOGPS,2.918393135070801,29.880557672990474,-3748.7076208067624,29.77090697443323,29.78443709079547,0.1019553081222437,0.13968011772868702,0.697408126634759,0.14558995789379806,0,0,0.5,0.8167875315657401,-0.06400095359628222,0.29817318887737604,0,0,-8.00253979053977,0.5,0.0,0.0,0.0,-0.009414648957317695,0.12739733792841434,1.517497282475233,0.3710606601089239,1.8557172268629074,19.963161647319794,0.0,-0.14335068961911857,True,0,0,0,0,0
GUIDED_NOGPS,2.9520390033721924,29.727861648593098,-6088.702216200505,29.85014803006149,29.83252605000178,0.1019553081222437,0.13968011772868702,0.697408126634759,0.14558995789379806,0,0,0.5,0.8192304447719304,-0.0647189772327798,0.2971311848225524,0,0,-6.5703092598224675,0.5,0.0,0.0,0.0,0.14544259756803513,0.11445515556260943,1.6368329524993896,7.450778037309647,1.7155932262539864,16.56268984079361,0.0,0.2003126396878134,True,0,0,0,0,0
GUIDED_NOGPS,2.986234188079834,29.24959378508616,-1230.0492687886128,29.299448841449358,29.302928683210375,0.1019553081222437,0.13968011772868702,0.697408126634759,0.14558995789379806,0,0,0.5,0.8199460671700479,-0.06384300547172567,0.29861539026528144,0,0,-4.847071672991403,0.5,0.0,0.0,0.0,-0.11757641332224011,-0.049548689275979996,1.739588938653469,-4.745079576969147,1.9793430343270302,25.57544708251953,0.0,0.27261077902178016,True,0,0,0,0,0
GUIDED_NOGPS,3.0197370052337646,29.877790599934464,-6565.2259209015765,29.866302087783758,29.864813483050064,0.1019553081222437,0.13968011772868702,0.697408126634759,0.14558995789379806,0,0,0.5,0.8207979731864483,-0.06352433445826226,0.3007578551892705,0,0,-2.9091513364524535,0.5,0.0,0.0,0.0,-0.11757641332224011,-0.049548689275979996,1.739588938653469,-4.745079576969147,1.9793430343270302,25.57544708251953,0.0,0.27261077902178016,True,0,0,0,0,0
GUIDED_NOGPS,3.0530905723571777,29.961240365452063,-6968.8258750553605,29.884815709410113,29.893761537200568,0.1019553081222437,0.13968011772868702,0.697408126634759,0.14558995789379806,0,0,0.5,0.8209965289200547,-0.06313725483139294,0.29967849853742334,0,0,-0.8423811189212783,0.5,0.0,0.0,0.0,-0.28581509832292795,0.007156452193157747,1.4617993496358395,-6.129595637321472,1.6219189390540123,16.289620101451874,0.0,0.085081638778439,True,0,0,0,0,0
GUIDED_NOGPS,3.091707944869995,25.891564554461556,-185.46666941805242,25.838132199839833,25.833676197046035,0.1019553081222437,0.13968011772868702,0.697408126634759,0.14558995789379806,0,0,0.5,0.8225183270836453,-0.0648616641534096,0.30006368385401505,0,0,1.261699191613031,0.5,0.0,0.0,0.0,-0.28581509832292795,0.007156452193157747,1.4617993496358395,-6.129595637321472,1.6219189390540123,16.289620101451874,0.0,0.085081638778439,True,0,0,0,0,0
GUIDED_NOGPS,3.1253609657287598,29.722173799046182,-5826.501203926638,29.837407165011523,29.816832422211007,0.1019553081222437,0.13968011772868702,0.697408126634759,0.14558995789379806,0,0,0.5,0.8230558843156665,-0.06603827095965008,0.30066319303624234,0,0,3.3098972973784346,0.5,0.0,0.0,0.0,0.015354750212281942,0.2669313456863165,1.498964335769415,4.480360075831413,1.7336072400212288,17.627136409282684,0.0,-0.1502802100167874,True,0,0,0,0,0
GUIDED_NOGPS,3.1612179279327393,27.8932233823236,-394.0582996154279,27.892666901637927,27.896748275701526,0.1019553081222437,0.13968011772868702,0.697408126634759,0.14558995789379806,0,0,0.5,0.823916968398764,-0.06650251037979939,0.2983942628909023,0,0,5.211495991996021,0.5,0.0,0.0,0.0,-0.22514485754072666,-0.009477161802351475,1.3672971166670322,-0.8080409839749336,1.620783656835556,16.01213365793228,0.0,0.01996752443000337,True,0,0,0,0,0
GUIDED_NOGPS,3.195286273956299,29.357485826275635,-1637.8455210475609,29.46038167885314,29.4132777929719,0.1019553081222437,0.13968011772868702,0.697408126634759,0.14558995789379806,0,0,0.5,0.8243256591710542,-0.06535194366976958,0.29818191337682365,0,0,6.882271136822187,0.5,0.0,0.0,0.0,-0.17368918051943183,-0.025379873113706708,1.8622037023305893,-2.5048308074474335,0.051989930216223,29.180344939231873,0.0,-0.4739374883579289,True,0,0,0,0,0
GUIDED_NOGPS,3.2330315113067627,26.49742562748356,-215.215387930887,26.347289139597848,26.409001328539677,0.1019553081222437,0.13968011772868702,0.697408126634759,0.14558995789379806,0,0,0.5,0.8253239873677867,-0.0654064784614239,0.3000613626569143,0,0,8.248222051356745,0.5,0.0,0.0,0.0,-0.27416369412094355,-0.0006826366643508663,1.5369662083685398,-1.0059281252324581,-0.2053548814728856,20.12535035610199,0.0,0.14617469269644118,True,1,0,0,0,0
GUIDED_NOGPS,3.273500680923462,24.71162434454722,-141.40867989921625,24.75494148129349,24.755818139965886,0.1019553081222437,0.13968011772868702,0.697408126634759,0.14558995789379806,0,0,0.5,0.8258804343417312,-0.06474352322510954,0.30047760398988843,0,0,9.248849094149701,0.5,0.0,0.0,0.0,0.021832389757037163,0.048559869173914194,1.5842145308852196,-0.8466869592666626,1.786942034959793,21.67750597000122,0.0,-0.14440484660818806,True,0,0,0,0,0
GUIDED_NOGPS,3.3075406551361084,29.38381135194967,-1660.5405405405393,29.46824699823653,29.45314101933907,0.1019553081222437,0.13968011772868702,0.697408126634759,0.14558995789379806,0,0,0.5,0.8277567086510749,-0.06462602262704416,0.29873860047460615,0,0,9.83983326612872,0.5,0.0,0.0,0.0,-0.1397485611960292,0.06211238796822727,1.4873368665575981,-1.8950371071696281,-0.2730449428781867,18.16810518503189,0.0,-0.024666661228439087,True,0,0,0,0,0
GUIDED_NOGPS,3.3408801555633545,29.995523167251896,-6484.031742759952,29.873109028232815,29.891844123264633,0.1019553081222437,0.13968011772868702,0.697408126634759,0.14558995789379806,0,0,0.5,0.8284957031027584,-0.06500990060274003,0.3005145830609417,0,0,9.994999153428735,0.5,0.0,0.0,0.0,0.08064155117608607,0.02171009691664949,1.5324666164815426,3.6759935319423676,1.5846503898501396,16.467025876045227,0.0,-0.016364813086233207,True,0,0,0,0,0
GUIDED_NOGPS,3.3762974739074707,28.242759698065438,-497.02219097351133,28.302601302338136,28.30088256727214,0.1019553081222437,0.13968011772868702,0.697408126634759,0.14558995789379806,0,0,0.5,0.829763130080619,-0.06448931212193813,0.3018271533203477,0,0,9.707474268578174,0.5,0.0,0.0,0.0,-0.12002219446003437,-0.013180755195207894,1.6011981293559074,3.8864616304636,-2.080165222287178,22.828762233257294,0.0,0.20879485418289656,True,0,0,0,0,0
GUIDED_NOGPS,3.409708261489868,29.933015993091782,-6464.046028973576,29.866302087783758,29.87268350355398,0.1019553081222437,0.13968011772868702,0.697408126634759,0.14558995789379806,0,0,0.5,0.829763130080619,-0.06448931212193813,0.3018271533203477,0,0,8.989993441398749,0.5,0.0,0.0,0.0,-0.12002219446003437,-0.013180755195207894,1.6011981293559074,3.8864616304636,-2.080165222287178,22.828762233257294,0.0,0.20879485418289656,True,0,0,0,0,0
GUIDED_NOGPS,3.443290948867798,29.777881905248734,-6308.488920084209,29.862261934427398,29.78528313141786,0.1019553081222437,0.13968011772868702,0.697408126634759,0.14558995789379806,0,0,0.5,0.8312252708106778,-0.0646638021108908,0.2994138820679383,0,0,7.874334777772347,0.5,0.0,0.0,0.0,0.020950526231899858,-0.025471020489931107,1.7810652032494545,0.6156011018902063,-0.034302566200494766,23.367314040660858,0.0,0.08249697246654451,True,0,0,0,0,0
GUIDED_NOGPS,3.477551221847534,29.196452686240935,-1909.2210117439975,29.54838073365411,29.626440069787318,0.1019553081222437,0.13968011772868702,0.697408126634759,0.14558995789379806,0,0,0.5,0.8319099439141187,-0.06425217649169175,0.3021809090945868,0,0,6.409912168353272,0.5,0.0,0.0,0.0,0.08677513687871397,0.15005198074504733,1.3959171250462532,5.254294723272324,-0.2767216879874468,14.180304110050201,0.0,-0.2041792204491282,True,0,0,0,0,0
GUIDED_NOGPS,3.517408609390259,25.08825112751373,-144.0853044099595,24.833943183298402,24.831737799643594,0.1019553081222437,0.13968011772868702,0.697408126634759,0.14558995789379806,0,0,0.5,0.8324481948372273,-0.06464267121314607,0.30194804233257166,0,0,4.661586686741125,0.5,0.0,0.0,0.0,0.08677513687871397,0.15005198074504733,1.3959171250462532,5.254294723272324,-0.2767216879874468,14.180304110050201,0.0,-0.2041792204491282,True,0,0,0,0,0
GUIDED_NOGPS,3.550940752029419,29.8321016806902,-5908.58001502628,29.860348559061396,29.868641623642514,0.1019553081222437,0.13968011772868702,0.697408126634759,0.14558995789379806,0,0,0.5,0.8335582606599131,-0.06429080974918464,0.30149861054909954,0,0,2.706793812973967,0.5,0.0,0.0,0.0,-0.15134570421651006,0.13369607040658593,1.5439794398844242,-0.27170833200216293,1.808575913310051,19.154320657253265,0.0,0.3303303064591778,True,0,0,0,0,0
GUIDED_NOGPS,3.584481954574585,29.812593735117883,-7062.703188145464,29.88183495650563,29.859710821758846,0.1019553081222437,0.13968011772868702,0.697408126634759,0.14558995789379806,0,0,0.5,0.835131658768249,-0.06487671191392479,0.3025635064098133,0,0,0.6321137211366836,0.5,0.0,0.0,0.0,0.1649041660130024,0.0559299485757947,1.6797233372926712,5.359882116317749,-0.01464139495510608,23.100276291370392,0.0,0.1407865005345209,True,0,0,0,0,0
GUIDED_NOGPS,3.6178829669952393,29.942631962192493,-2962.3580374799844,29.712698884969043,29.716067051138538,0.1019553081222437,0.13968011772868702,0.697408126634759,0.14558995789379806,0,0,0.5,0.8348022622233545,-0.06515493540089702,0.30549576531743794,0,0,-1.4705634627465083,0.5,0.0,0.0,0.0,-0.3140999237075448,-0.2231639577075839,1.5081028454005718,-4.019967094063759,-2.156650274991989,19.47890818119049,0.0,-0.09474431540138396,True,0,0,0,0,0
GUIDED_NOGPS,3.651401996612549,29.842714536774174,-6777.395238608187,29.873321795118336,29.889500951349348,0.1019553081222437,0.13968011772868702,0.697408126634759,0.14558995789379806,0,0,0.5,0.8355494208855305,-0.0651655008497694,0.3055035026411071,0,0,-3.5081075871039906,0.5,0.0,0.0,0.0,-0.06820056587457657,-0.07614957285113633,1.2366886250674725,1.2523597106337547,-2.282698079943657,14.713424444198608,0.0,-0.2658238121426089,True,0,0,0,0,0
GUIDED_NOGPS,3.687760829925537,27.50687950053121,-354.88208119221804,27.671111052468383,27.60554703594253,0.1019553081222437,0.13968011772868702,0.697408126634759,0.14558995789379806,0,0,0.5,0.835888048857975,-0.0645838675532605,0.3061935385102635,0,0,-5.390273323461346,0.5,0.0,0.0,0.0,-0.16373363323509693,0.11055129580199718,1.447778381407261,2.736356481909752,-0.3554390510544181,15.204040706157684,0.0,-0.09306550292816243,True,0,0,0,0,0
GUIDED_NOGPS,3.72108793258667,30.00775537653641,-5850.884404352258,29.851210259987045,29.934297765438885,0.1019553081222437,0.13968011772868702,0.697408126634759,0.14558995789379806,0,0,0.5,0.8355997935306593,-0.06571970666789245,0.30882502897056957,0,0,-7.033697242732356,0.5,0.0,0.0,0.0,-0.12039715657010674,-0.10718245757743716,1.4246252365410328,1.5436390414834023,-0.2925730776041746,16.821332275867462,0.0,-0.08525896356270148,True,0,0,0,0,0
GUIDED_NOGPS,3.7546193599700928,29.82870716078883,-5859.057552616859,29.855247423267468,29.85375992028186,0.1019553081222437,0.13968011772868702,0.697408126634759,0.14558995789379806,0,0,0.5,0.8361147791219077,-0.06537851737450916,0.3093333444552066,0,0,-8.36559008374508,0.5,0.0,0.0,0.0,-0.12039715657010674,-0.10718245757743716,1.4246252365410328,1.5436390414834023,-0.2925730776041746,16.821332275867462,0.0,-0.08525896356270148,True,0,0,0,0,0
GUIDED_NOGPS,3.7881226539611816,29.84738658601672,-4783.285942370551,29.830404324170548,29.837619423636454,0.1019553081222437,0.13968011772868702,0.697408126634759,0.14558995789379806,0,0,0.5,0.8375946356551262,-0.06631638772491653,0.3085960842312419,0,0,-9.326960678900685,0.5,0.0,0.0,0.0,-0.005736133243772201,-0.06355535006150603,1.6363712027668953,-1.30675807595253,-0.0744258111808449,24.076521396636963,0.0,0.15084515470655474,True,0,0,0,0,0
GUIDED_NOGPS,3.8215079307556152,29.95674656458018,-6733.871347532891,29.864813483050064,29.84335154826958,0.1019553081222437,0.13968011772868702,0.697408126634759,0.14558995789379806,0,0,0.5,0.8380804862206962,-0.06650400448368032,0.3095641835048119,0,0,-9.875228745343788,0.5,0.0,0.0,0.0,-0.02583312743809074,-0.06517907604575157,1.3555880635976791,3.1103210523724556,-0.3990848083049059,13.973313570022583,0.0,-0.02678642110952312,True,0,0,0,0,0
GUIDED_NOGPS,3.8559155464172363,29.066958655005614,-920.8401270436013,29.065548664287448,29.068973164781546,0.1019553081222437,0.13968011772868702,0.697408126634759,0.14558995789379806,0,0,0.5,0.8391827613588599,-0.0666807356284544,0.3098327486774109,0,0,-9.986110817918139,0.5,0.0,0.0,0.0,-0.2814437262713909,0.0575611658859998,1.5256485901772976,-7.770606875419617,-0.20653174724429846,18.193097412586212,0.0,0.15611176416516348,True,0,0,0,0,0
GUIDED_NOGPS,3.889683246612549,29.617653497157786,-2720.276720857831,29.690404054704533,29.706806431050357,0.1019553081222437,0.13968011772868702,0.697408126634759,0.14558995789379806,0,0,0.5,0.8397125812672119,-0.06660336239176286,0.3092721128765145,0,0,-9.654695793623914,0.5,0.0,0.0,0.0,-0.2814437262713909,0.0575611658859998,1.5256485901772976,-7.770606875419617,-0.20653174724429846,18.193097412586212,0.0,0.15611176416516348,True,0,0,0,0,0
GUIDED_NOGPS,3.923179864883423,29.85758522747496,-6575.51839464881,29.85928567869067,29.82828290011734,0.1019553081222437,0.13968011772868702,0.697408126634759,0.14558995789379806,0,0,0.5,0.8400041983282597,-0.06605940185739481,0.3083160464752714,0,0,-8.895662450393443,0.5,0.0,0.0,0.0,-0.014535954687744379,0.07324498146772385,1.5784183517098427,3.775212913751602,1.8312625586986542,20.439867675304413,0.0,0.15885471210694505,True,0,0,0,0,0
GUIDED_NOGPS,3.9624223709106445,25.483501327549227,-167.50504528778106,25.453344984949997,25.481179072197516,0.1019553081222437,0.13968011772868702,0.697408126634759,0.14558995789379806,0,0,0.5,0.8405436765509849,-0.06806641025632074,0.3107316122443552,0,0,-7.742629306011964,0.5,0.0,0.0,0.0,0.01847854000516236,0.060308538377285004,1.3812369666993618,5.390038713812828,-0.24501127190887928,17.594020068645477,0.0,0.09527532258871278,True,0,0,0,0,0
GUIDED_NOGPS,3.996208906173706,29.60552822344413,-2262.4626006904464,29.61158961904493,29.60970823067637,0.1019553081222437,0.13968011772868702,0.697408126634759,0.14558995789379806,0,0,0.5,0.8407227555732862,-0.06814826580465512,0.3113363774705922,0,0,-6.246665612729058,0.5,0.0,0.0,0.0,-0.16487750690430403,0.09664917015470564,1.2697183527052402,-1.2263565324246883,-0.35573290660977364,15.923473238945007,0.0,0.04153060506250552,True,0,0,0,0,0
GUIDED_NOGPS,4.030030727386475,29.5750498875327,-2727.3521761747843,29.68578101776488,29.666254075808265,0.1019553081222437,0.13968011772868702,0.697408126634759,0.14558995789379806,0,0,0.5,0.8401189775228277,-0.06861922869226865,0.31068750949944096,0,0,-4.47402943743635,0.5,0.0,0.0,0.0,-0.07952580926939845,-0.15187461394816637,1.6789255663752556,1.465030200779438,-0.15831103082746267,21.880801022052765,0.0,0.0452922483715574,True,0,0,0,0,0
GUIDED_NOGPS,4.063894033432007,29.529449865528942,-1851.0815581970091,29.53173692326107,29.53880825111097,0.1019553081222437,0.13968011772868702,0.697408126634759,0.14558995789379806,0,0,0.5,0.8400256493911218,-0.06836213610304114,0.31159760552591875,0,0,-2.5032330106138923,0.5,0.0,0.0,0.0,-0.032691346132196486,0.0773327483329922,1.4774794690310955,-2.186132036149502,1.6871636733412743,18.68247389793396,0.0,0.15818225863881613,True,0,0,0,0,0
GUIDED_NOGPS,4.097848415374756,29.452934195650496,-1211.5729471576021,29.287173650436763,29.30722845264298,0.1019553081222437,0.13968011772868702,0.697408126634759,0.14558995789379806,0,0,0.5,0.8392402843582761,-0.06865892916681934,0.3135674747712327,0,0,-0.4215653233410202,0.5,0.0,0.0,0.0,-0.032691346132196486,0.0773327483329922,1.4774794690310955,-2.186132036149502,1.6871636733412743,18.68247389793396,0.0,0.15818225863881613,True,0,0,0,0,0
GUIDED_NOGPS,4.131354331970215,29.848873453934726,-6289.569129261204,29.85758522747496,29.844838014188433,0.1019553081222437,0.13968011772868702,0.697408126634759,0.14558995789379806,0,0,0.5,0.8406339097532232,-0.06898176232680824,0.31259966898235364,0,0,1.6787740091853753,0.5,0.0,0.0,0.0,-0.09810480987653136,-0.024656261666677892,1.4233101159334183,10.16668826341629,-0.23547951132059097,20.89736759662628,0.0,0.15425045757505565,True,0,0,0,0,0
GUIDED_NOGPS,4.169004917144775,26.56825595905466,-237.55865850066832,26.646743411857386,26.657921163355326,0.1019553081222437,0.13968011772868702,0.697408126634759,0.14558995789379806,0,0,0.5,0.8415557718477633,-0.06950171047737545,0.3118247626766745,0,0,3.7047583816977925,0.5,0.0,0.0,0.0,-0.08583668968640268,-0.04619519459083676,1.5712173655629158,3.13882976770401,-0.10137218050658703,22.205272316932678,0.0,0.04018477765153533,True,0,0,0,0,0
GUIDED_NOGPS,4.202433824539185,29.915936178255816,-6270.762483803431,29.865451438336656,29.86672743067918,0.1019553081222437,0.13968011772868702,0.697408126634759,0.14558995789379806,0,0,0.5,0.8419539505320339,-0.06950352474637374,0.3132319684086823,0,0,5.566654461310008,0.5,0.0,0.0,0.0,0.13305314350873232,0.14214980183169246,1.508044358342886,4.542378336191177,-1.9728245213627815,24.553315341472626,0.0,-0.08971230026240269,True,0,0,0,0,0
GUIDED_NOGPS,4.235950708389282,29.839529887167227,-5883.714579631519,29.856097491529283,29.860561144215914,0.1019553081222437,0.13968011772868702,0.697408126634759,0.14558995789379806,0,0,0.5,0.8429016926402261,-0.06949882899131936,0.3127789080872136,0,0,7.181996586895435,0.5,0.0,0.0,0.0,-0.3554020542651415,0.01862255739979446,1.52174923568964,-3.2856564968824387,1.7832210287451744,22.201333940029144,0.0,-0.04449291947052087,True,0,0,0,0,0
GUIDED_NOGPS,4.269363164901733,29.930025617788306,-7283.463764760337,29.88588040814,29.88077054599339,0.1019553081222437,0.13968011772868702,0.697408126634759,0.14558995789379806,0,0,0.5,0.8460930985299145,-0.06997736912004338,0.3095946525518125,0,0,8.479239274368812,0.5,0.0,0.0,0.0,0.0030807430448476225,0.05107237957417965,1.6834413632750511,1.5421144664287567,-0.15024426393210888,20.881783962249756,0.0,-0.08288071037000155,True,0,0,0,0,0
GUIDED_NOGPS,4.305323362350464,27.815347069785332,-379.4765762125059,27.812949258640355,27.812211553763728,0.1019553081222437,0.13968011772868702,0.697408126634759,0.14558995789379806,0,0,0.5,0.8460930985299145,-0.06997736912004338,0.3095946525518125,0,0,9.400926053932787,0.5,0.0,0.0,0.0,0.0030807430448476225,0.05107237957417965,1.6834413632750511,1.5421144664287567,-0.15024426393210888,20.881783962249756,0.0,-0.08288071037000155,True,0,0,0,0,0
GUIDED_NOGPS,4.338940858840942,29.74957974848745,-6071.075943259657,29.854822407288776,29.841865230414584,0.1019553081222437,0.13968011772868702,0.697408126634759,0.14558995789379806,0,0,0.5,0.8483942319499741,-0.07156698892765806,0.3138481261770115,0,0,9.90623428759979,0.5,0.0,0.0,0.0,-0.21463013254106045,0.18130133394151926,1.3696332462131977,-2.03758142888546,-0.08759424672462046,19.889606535434723,0.0,-0.21137535834826554,True,0,0,0,0,0
GUIDED_NOGPS,4.372374057769775,29.91060273269247,-6444.183140428127,29.87140700225052,29.87013061003575,0.1019553081222437,0.13968011772868702,0.697408126634759,0.14558995789379806,0,0,0.5,0.8500193367247612,-0.07192536041567217,0.3135500257723375,0,0,9.972783253900808,0.5,0.0,0.0,0.0,0.10778589639812708,0.12749747838824987,1.3327186927199364,2.703511342406273,1.7780985683202744,16.795095801353455,0.0,-0.030435549725201603,True,0,0,0,0,0
GUIDED_NOGPS,4.409532308578491,26.917795647514104,-267.95756261898777,26.986552740281297,26.984816511400485,0.1019553081222437,0.13968011772868702,0.697408126634759,0.14558995789379806,0,0,0.5,0.853050873499189,-0.07350302739223932,0.3158681546240428,0,0,9.597625417490868,0.5,0.0,0.0,0.0,0.10778589639812708,0.12749747838824987,1.3327186927199364,2.703511342406273,1.7780985683202744,16.795095801353455,0.0,-0.030435549725201603,True,0,0,0,0,0
GUIDED_NOGPS,4.44290018081665,29.9743014364325,-5505.299264963234,29.845687489771088,29.862899780708,0.1019553081222437,0.13968011772868702,0.697408126634759,0.14558995789379806,0,0,0.5,0.8535994230669056,-0.07320538055481486,0.31458125093487715,0,0,8.797376979104893,0.5,0.0,0.0,0.0,-0.08974267984740436,0.1535857212729752,0.9673584252595901,-0.9313935413956642,-0.14825859107077122,17.338421940803528,0.0,0.2107395237654329,True,0,0,0,0,0
GUIDED_NOGPS,4.476565837860107,29.704912924312495,-2956.094535544797,29.711856962724735,29.72638681190954,0.1019553081222437,0.13968011772868702,0.697408126634759,0.14558995789379806,0,0,0.5,0.8554906384150587,-0.07361753978254282,0.31267765586885343,0,0,7.607481923646038,0.5,0.0,0.0,0.0,-0.08974267984740436,0.1535857212729752,0.9673584252595901,-0.9313935413956642,-0.14825859107077122,17.338421940803528,0.0,0.2107395237654329,True,0,0,0,0,0
GUIDED_NOGPS,4.5110251903533936,29.0233124589143,-6071.075943259657,29.859923397832926,29.861624115393926,0.1019553081222437,0.13968011772868702,0.697408126634759,0.14558995789379806,0,0,0.5,0.856628772046365,-0.07478230047944157,0.31697325788740965,0,0,6.0806421626196085,0.5,0.0,0.0,0.0,0.0188837613677606,-0.0019444920326350257,1.4402815140783787,2.624809555709362,-5.99905401468277,18.0477112531662,0.0,0.15798971934137318,True,0,0,0,0,0
GUIDED_NOGPS,4.543714761734009,30.600615761749815,-3342.4300058439094,29.7455711104492,29.73966561254733,0.1019553081222437,0.13968011772868702,0.697408126634759,0.14558995789379806,0,0,0.5,0.8568472313780996,-0.07560960714265935,0.3179327393832378,0,0,4.284483301829312,0.5,0.0,0.0,0.0,-0.14163239393383265,-0.208761147223413,1.4849497005343437,2.9648052528500557,-0.028677136288024485,22.059936821460724,0.0,-0.020038247570403414,True,0,0,0,0,0
