E-kp,E-ki,E-kd,E-I-Tot,E-P,E-I,E-D,E-PID,N-kp,N-ki,N-kd,N-I-Tot,N-P,N-I,N-D,N-PID,D-kp,D-ki,D-kd,D-I-Tot,D-P,D-I,D-D,D-PID,Y-kp,Y-ki,Y-kd,Y-I-Tot,Y-P,Y-I,Y-D,Y-PID,errorN,desiredN,actualN,errorE,desiredE,actualE,errorD,desiredD,actualD,errorY,desiredY,actualY,roll,pitch,yaw-rate,thrust,dt,Time,Mode
0.16,0.015,0.11,1.3293248903338517,6.394211651511609,0.019939873355007773,13.75,20.164151524866618,0.17,0.015,0.08,-0.33128850622321687,-1.693133405179555,-0.004969327593348253,-10.0,-11.698102732772902,0.002,8e-05,0,0.3086335629876682,0.018557054212755938,2.4690685039013456e-05,0.0,0.01858174489779495,0.2,0.02,0.0,-9.650583151951551e-05,-0.0005802557343467847,-1.93011663039031e-06,-0.0,-0.0005821858509771749,-9.959608265762087,-10.0,-0.040391734237913084,39.96382282194756,40.0,0.036177178052443075,9.278527106377968,10.0,0.7214728936220309,-0.002901278671733923,0,0.002901278671733923,3.9997974474105438,4.000202542333088,0.0005821858509771749,0.518581744897795,0.033263206481933594,0.033603668212890625,STABILIZE
0.16,0.015,0.11,2.6640016703159985,6.394471594021633,0.03996002505473998,6.877675645606626,13.312107264683,0.17,0.015,0.08,-0.6639877859787015,-1.693594197118933,-0.009959816789680522,-5.003246568108672,-6.706800582017285,0.002,8e-05,0,0.6183964315484944,0.018551025738993483,4.947171452387956e-05,0.0,0.018600497453517363,0.2,0.02,0.0,-0.00016631702662068447,-0.0004180840922634265,-3.3263405324136895e-06,-0.0,-0.0004214104327958402,-9.962318806581958,-10.0,-0.03768119341804127,39.965447462635204,40.0,0.034552537364795285,9.275512869496742,10.0,0.7244871305032575,-0.0020904204613171324,0,0.0020904204613171324,3.999854058458559,4.000145936216902,0.0004214104327958402,0.5186004974535173,0.03339576721191406,0.0668942928314209,STABILIZE
0.16,0.015,0.11,4.001229394112794,6.394732100083285,0.060018440911691916,4.586901390521668,11.041651931516643,0.17,0.015,0.08,-0.997417631348312,-1.6941442758421594,-0.014961264470224679,-3.3380766545663847,-5.0471821948787685,0.002,8e-05,0,0.929005145714205,0.01856695273077225,7.43204116571364e-05,0.0,0.018641273142429384,0.2,0.02,0.0,-9.578289268649341e-05,0.0004216249805417266,-1.9156578537298684e-06,0.0,0.0004197093226879967,-9.965554563777408,-10.0,-0.03444543622259199,39.96707562552053,40.0,0.0329243744794741,9.283476365386125,10.0,0.7165236346138745,0.002108124902708633,0,-0.002108124902708633,4.000147172174793,3.999852822410095,-0.0004197093226879967,0.5186412731424294,0.03345823287963867,0.10035467147827148,STABILIZE
0.16,0.015,0.11,5.337919953741063,6.394578380263714,0.08006879930611595,3.439386085569524,9.914033265139354,0.17,0.015,0.08,-1.330738795822789,-1.6942319336531153,-0.019961081937341835,-2.5038658329686134,-4.218058848559071,0.002,8e-05,0,1.239643445598999,0.018575736753516033,9.917147564791994e-05,0.0,0.018674908229163952,0.2,0.02,0.0,-1.101089054887224e-05,0.0005069247405619194,-2.202178109774448e-07,0.0,0.0005067045227509419,-9.966070197959501,-10.0,-0.03392980204049786,39.96611487664821,40.0,0.0338851233517861,9.287868376758016,10.0,0.7121316232419832,0.0025346237028095967,0,-0.0025346237028095967,4.000176946201677,3.999823045970487,-0.0005067045227509419,0.518674908229164,0.03344559669494629,0.13380098342895508,STABILIZE
0.16,0.015,0.11,6.680866540814003,6.394421770183414,0.10021299811221004,2.7508680353101327,9.245502803605756,0.17,0.015,0.08,-1.6656709516630313,-1.6944482993932906,-0.024985064274945467,-2.0036986796141254,-3.7231320432823614,0.002,8e-05,0,1.5517504678877756,0.01857616636768442,0.00012414003743102205,0.0,0.01870030640511544,0.2,0.02,0.0,2.9631001949722842e-05,0.00024189476770340403,5.926200389944568e-07,0.0,0.0002424873877423985,-9.96734293760759,-10.0,-0.03265706239240982,39.96513606364634,40.0,0.034863936353661515,9.28808318384221,10.0,0.711916816157791,0.0012094738385170201,0,-0.0012094738385170201,4.000078591822632,3.7230476052500534,-0.0002424873877423985,0.5187003064051154,0.03360295295715332,0.16744542121887207,STABILIZE
0.16,0.015,0.11,8.010066015838783,6.394525061529314,0.12015099023758175,0.0012950716013148736,6.51597112336821,0.17,0.015,0.08,-1.9970657020356275,-1.693919220632512,-0.029955985530534412,-0.002201446102797263,-1.7260766522658437,0.002,8e-05,0,1.8608405617698203,0.018587168336437396,0.00014886724494158563,0.0,0.01873603558137898,0.2,0.02,0.0,-1.9207633967004396e-05,-0.0002936916986581303,-3.8415267934008795e-07,0.0,-0.0002940758513374704,-9.964230709603012,-10.0,-0.035769290396987785,39.96578163455821,40.0,0.03421836544178867,9.293584168218699,10.0,0.7064158317813015,-0.0014684584932906516,0,0.0014684584932906516,3.999955760315806,1.7261791694414776,0.0002940758513374704,0.5187360355813789,0.03325843811035156,0.2006824016571045,STABILIZE
0.16,0.015,0.11,9.348023884278687,6.394532822765618,0.1402203582641803,0.0002566905467530762,6.535009871576552,0.17,0.015,0.08,-2.330596596173135,-1.6936801180697887,-0.034958948942597025,-0.00023061393049944256,-1.7288696809428852,0.002,8e-05,0,2.1718563439450578,0.01858056104035506,0.00017374850751560465,0.0,0.018754309547870662,0.2,0.02,0.0,-2.516717349255796e-05,-3.560320545552458e-05,-5.033434698511592e-07,0.0,-3.610654892537574e-05,-9.962824223939933,-10.0,-0.037175776060067174,39.965830142285114,40.0,0.034169857714882845,9.290280520177529,10.0,0.7097194798224704,-0.0001780160272776229,0,0.0001780160272776229,3.999994628441727,1.72888210879773,3.610654892537574e-05,0.5187543095478706,0.0334775447845459,0.23420310020446777,STABILIZE
0.16,0.015,0.11,10.684577230027262,6.3945145513293165,0.1602686584504089,-0.000889009174575219,6.553894200605151,0.17,0.015,0.08,-2.663823771944339,-1.6939111769027617,-0.03995735657916508,0.000666479741758083,-1.7332020537401687,0.002,8e-05,0,2.482664915361927,0.018587641291357402,0.00019861319322895418,0.0,0.018786254484586356,0.2,0.02,0.0,8.354240519648069e-05,0.0006501283553394211,1.6708481039296139e-06,0.0,0.0006517992034433507,-9.964183393545657,-10.0,-0.035816606454342675,39.96571594580823,40.0,0.03428405419177249,9.2938206456787,10.0,0.7061793543212992,0.0032506417766971054,0,-0.0032506417766971054,4.000098325744091,1.7329751133436568,-0.0006517992034433507,0.5187862544845864,0.03344249725341797,0.2676208019256592,STABILIZE
0.16,0.015,0.11,12.201722817790753,6.394503044034405,0.18302584226686128,-0.00029872406469757737,6.577230162236568,0.17,0.015,0.08,-3.042175573856314,-1.6943545194938028,-0.045632633607844704,-0.00018602980244692433,-1.7401731829040945,0.002,8e-05,0,2.8353504783535026,0.01858134878687883,0.00022682803826828022,0.0,0.01880817682514711,0.2,0.02,0.0,0.00016281509715931197,0.00041765064782970984,3.2563019431862397e-06,-0.0,0.0004209069497728961,-9.966791291140016,-10.0,-0.03320870885998499,39.96564402521503,40.0,0.03435597478497482,9.290674393439415,10.0,0.7093256065605842,0.002088253239148549,0,-0.002088253239148549,4.000063421251884,1.7400273941697704,-0.0004209069497728961,0.5188081768251471,0.03796124458312988,0.30560946464538574,STABILIZE
0.16,0.015,0.11,13.537245510487777,6.3946439174010825,0.20305868265731664,0.0009217735801413881,6.598624373638541,0.17,0.015,0.08,-3.3751106432320905,-1.6937666463175345,-0.050626659648481356,0.002075752703749971,-1.742317553262266,0.002,8e-05,0,3.1458399175512333,0.01858326158215143,0.0002516671934040987,0.0,0.01883492877555553,0.2,0.02,0.0,0.00026722257769572856,0.0006248945300538886,5.344451553914571e-06,0.0,0.0006302389816078032,-9.963333213632556,-10.0,-0.036666786367444894,39.966524483756764,40.0,0.03347551624323445,9.291630791075715,10.0,0.7083692089242845,0.0031244726502694426,0,-0.0031244726502694426,4.000095006697129,1.7420994213312002,-0.0006302389816078032,0.5188349287755555,0.033416032791137695,0.33898138999938965,STABILIZE
0.16,0.015,0.11,14.874505582922223,6.394704522911359,0.22311758374383334,0.0007437946786110853,6.6185659013338025,0.17,0.015,0.08,-3.708497552301501,-1.6938778368208829,-0.05562746328452251,0.0002657504246106714,-1.7492395496807949,0.002,8e-05,0,3.456831067612676,0.0185892833682582,0.0002765464854090141,0.0,0.018865829853667214,0.2,0.02,0.0,0.0004832225470483961,0.0012911250487476964,9.664450940967922e-06,0.0,0.0013007894996886643,-9.963987275416958,-10.0,-0.036012724583042506,39.96690326819599,40.0,0.03309673180400993,9.2946416841291,10.0,0.7053583158708988,0.006455625243738481,0,-0.006455625243738481,4.000197064780879,1.7487888509153724,-0.0013007894996886643,0.5188658298536672,0.03345918655395508,0.3724541664123535,STABILIZE
0.16,0.015,0.11,16.21154414663423,6.39473888100291,0.2431731621995134,0.0008531356769723085,6.638765178879395,0.17,0.015,0.08,-4.041842824658801,-1.6939559813631095,-0.06062764236988201,-0.0006263055884929607,-1.7552099293214845,0.002,8e-05,0,3.7677453132511998,0.018587865275576803,0.000301419625060096,0.0,0.018889284900636898,0.2,0.02,0.0,0.0008138027498571824,0.00197635854862908,1.6276054997143647e-05,0.0,0.0019926346036262237,-9.96444694919476,-10.0,-0.03555305080523976,39.96711800626819,40.0,0.0328819937318149,9.293932637788402,10.0,0.706067362211598,0.009881792743145401,0,-0.009881792743145401,4.000302661246285,1.7545200239423389,-0.0019926346036262237,0.5188892849006369,0.03345346450805664,0.4059116840362549,STABILIZE
0.16,0.015,0.11,17.54826891292194,6.394605268329518,0.26322403369382913,0.0003789687927648568,6.658208270816112,0.17,0.015,0.08,-4.375036998467299,-1.693550237495977,-0.06562555497700948,0.0011657261444274485,-1.758010066328559,0.002,8e-05,0,4.0786978871735124,0.018594132254749665,0.000326295830973881,0.0,0.018920428085723546,0.2,0.02,0.0,0.0012222393814369256,0.002442341817429562,2.4444787628738514e-05,0.0,0.0024667866050583007,-9.96206022056457,-10.0,-0.03793977943542953,39.96628292705949,40.0,0.03371707294051048,9.297066127374832,10.0,0.7029338726251682,0.01221170908714781,0,-0.01221170908714781,4.000374601795253,1.7571574882815768,-0.0024667866050583007,0.5189204280857236,0.033446311950683594,0.43935155868530273,STABILIZE
0.16,0.015,0.11,18.884372047859188,6.394640029987395,0.2832655807178878,0.0005636242802690557,6.678469234985552,0.17,0.015,0.08,-4.707965635442374,-1.6929970855556944,-0.0706194845316356,0.0038222070077092237,-1.759794363079621,0.002,8e-05,0,4.3898367138239225,0.018614027088891878,0.00035118693710591383,0.0,0.018965214025997792,0.2,0.02,0.0,0.001696495593364867,0.0028372601616257712,3.392991186729734e-05,0.0,0.0028711900734930684,-9.958806385621731,-10.0,-0.04119361437826937,39.96650018742122,40.0,0.033499812578779486,9.307013544445939,10.0,0.692986455554061,0.014186300808128856,0,-0.014186300808128856,4.000435598348822,1.758803918516875,-0.0028711900734930684,0.5189652140259978,0.03343057632446289,0.4727795124053955,STABILIZE
0.16,0.015,0.11,20.220781962506994,6.394512146645785,0.30331172943760487,-0.0005418932956408083,6.697281982787749,0.17,0.015,0.08,-5.040981160876188,-1.6930163316731563,-0.07561471741314282,0.0021122673537327277,-1.7665187817325663,0.002,8e-05,0,4.700961533244839,0.018608544196508137,0.00037607692265958717,0.0,0.018984621119167724,0.2,0.02,0.0,0.002140268410015463,0.0026542292856036763,4.280536820030926e-05,0.0,0.0026970346538039854,-9.95891959807739,-10.0,-0.041080401922609665,39.96570091653616,40.0,0.0342990834638462,9.304272098254069,10.0,0.6957279017459318,0.01327114642801838,0,-0.01327114642801838,4.000409062963204,1.7655922335510454,-0.0026970346538039854,0.5189846211191678,0.033438920974731445,0.5062398910522461,STABILIZE
0.16,0.015,0.11,21.631464624179273,6.394414784824246,0.32447196936268907,-0.001170215786003707,6.717716538400931,0.17,0.015,0.08,-5.392536976275857,-1.693147137238742,-0.08088805464413786,0.0020762583671547967,-1.7719589335157253,0.002,8e-05,0,5.029453940044174,0.01861259055465153,0.000402356315203534,0.0,0.019014946869855064,0.2,0.02,0.0,0.0027151089412618353,0.0032570833361280447,5.4302178825236706e-05,0.0,0.0033113855149532814,-9.959689042580836,-10.0,-0.040310957419164975,39.96509240515154,40.0,0.03490759484846287,9.306295277325766,10.0,0.6937047226742337,0.016285416680640222,0,-0.016285416680640222,4.000503489640723,1.7708219253890523,-0.0033113855149532814,0.519014946869855,0.03529787063598633,0.5415103435516357,STABILIZE
0.16,0.015,0.11,22.966200965784086,6.394346101513764,0.3444930144867613,-0.0015942047910113585,6.737244911209514,0.17,0.015,0.08,-5.725380450647011,-1.6942193567143338,-0.08588070675970516,-0.0007254797789036901,-1.7808255432529425,0.002,8e-05,0,5.340348984780481,0.018617633079684906,0.0004272279187824385,0.0,0.019044860998467344,0.2,0.02,0.0,0.003290921770876552,0.003448196478472205,6.581843541753104e-05,0.0,0.0035140149138897362,-9.965996215966669,-10.0,-0.03400378403333011,39.96466313446103,40.0,0.035336865538976026,9.308816539842454,10.0,0.6911834601575472,0.017240982392361024,0,-0.017240982392361024,4.000535690509821,1.7796218150099326,-0.0035140149138897362,0.5190448609984674,0.03339791297912598,0.5749306678771973,STABILIZE
0.16,0.015,0.11,24.302319128243358,6.394210331130442,0.3645347869236504,-0.0016032941986634424,6.75714182385543,0.17,0.015,0.08,-6.058587479446956,-1.6942798389279905,-0.09087881219170434,-0.002037502893774279,-1.787196154013469,0.002,8e-05,0,5.651655374821731,0.01862259071911769,0.00045213242998573853,0.0,0.01907472314910343,0.2,0.02,0.0,0.0037961513304704325,0.0030223225762472136,7.592302660940866e-05,0.0,0.003098245602856622,-9.966351993694062,-10.0,-0.03364800630593778,39.963814569565265,40.0,0.03618543043473462,9.311295359558844,10.0,0.6887046404411565,0.015111612881236067,0,-0.015111612881236067,4.00047122920818,1.7861411022643563,-0.003098245602856622,0.5190747231491034,0.03343319892883301,0.6084020137786865,STABILIZE
0.16,0.015,0.11,25.638110460419828,6.394470239705656,0.3845716569062974,-0.0006770435230473552,6.778364853088907,0.17,0.015,0.08,-6.391691819175883,-1.6942409673527024,-0.09587537728763824,-0.003485342159282524,-1.793601686799623,0.002,8e-05,0,5.962785270756137,0.018617343258561837,0.00047702282166049096,0.0,0.019094366080222327,0.2,0.02,0.0,0.004199537157197169,0.0024137739574192803,8.399074314394338e-05,-0.0,0.0024977647005632237,-9.966123337368836,-10.0,-0.03387666263116399,39.96543899816035,40.0,0.03456100183964988,9.308671629280918,10.0,0.6913283707190817,0.012068869787096401,0,-0.012068869787096401,4.000377718233729,1.7927590809558198,-0.0024977647005632237,0.5190943660802223,0.033423662185668945,0.6417696475982666,STABILIZE
0.16,0.015,0.11,26.974368472071596,6.394697194872023,0.4046155270810739,0.0007821765733298705,6.800094898526427,0.17,0.015,0.08,-6.724707653142855,-1.693259358068863,-0.10087061479714282,-0.0006679267388843771,-1.7947978996048901,0.002,8e-05,0,6.273946062925413,0.018613349999483195,0.0005019156850340331,0.0,0.019115265684517227,0.2,0.02,0.0,0.004455659890814306,0.0015321024382296492,8.911319781628612e-05,-0.0,0.0016212156360459354,-9.960349165110959,-10.0,-0.039650834889041656,39.96685746795014,40.0,0.03314253204985577,9.306674999741597,10.0,0.693325000258402,0.007660512191148246,0,-0.007660512191148246,4.000239930808651,1.7942630789240808,-0.0016212156360459354,0.5191152656845173,0.033434152603149414,0.6752262115478516,STABILIZE
0.16,0.015,0.11,28.311675970181703,6.394612349342793,0.4246751395527255,0.0008127876991112395,6.82010027659463,0.17,0.015,0.08,-7.0580816177388925,-1.6937275859073921,-0.10587122426608338,-0.001636165594272518,-1.801234975767748,0.002,8e-05,0,6.585344237051236,0.018612684560599033,0.0005268275389640989,0.0,0.019139512099563133,0.2,0.02,0.0,0.004635275384687536,0.0010735857841953232,9.270550769375072e-05,-0.0,0.001166291291889074,-9.96310344651407,-10.0,-0.03689655348592917,39.96632718339246,40.0,0.03367281660754461,9.306342280299516,10.0,0.6936577197004847,0.005367928920976615,0,-0.005367928920976615,4.00016873660794,1.800860215728437,-0.001166291291889074,0.5191395120995631,0.03346085548400879,0.7087259292602539,STABILIZE
0.16,0.015,0.11,29.649461258687957,6.394345552208813,0.44474191888031933,-3.481308472764108e-07,6.839087122958285,0.17,0.015,0.08,-7.3915560595617595,-1.6935623071774508,-0.11087334089342639,0.0018501290495764908,-1.8025855190213007,0.002,8e-05,0,6.8968884932154575,0.018613988786498944,0.0005517510794572366,-0.0,0.01916573986595618,0.2,0.02,0.0,0.004846983520133797,0.0012649030695433723,9.693967040267595e-05,-0.0,0.0013618427399460483,-9.962131218690887,-10.0,-0.03786878130911272,39.96465970130508,40.0,0.035340298694915624,9.306994393249472,10.0,0.6930056067505282,0.0063245153477168616,0,-0.0063245153477168616,4.000198951538989,1.802143973574715,-0.0013618427399460483,0.5191657398659562,0.03347420692443848,0.7421915531158447,STABILIZE
0.16,0.015,0.11,31.03286995217154,6.394221848821393,0.4654930492825731,6.66698792245389e-05,6.85978156798319,0.17,0.015,0.08,-7.736417599411523,-1.6936002198913438,-0.11604626399117285,0.0019173125542491813,-1.8077291713282675,0.002,8e-05,0,7.219138354134694,0.018618296884855858,0.0005775310683307756,-0.0,0.019195827953186632,0.2,0.02,0.0,0.0050571109038567855,0.0012140312497367141,0.00010114221807713571,-0.0,0.00131517346781385,-9.962354234654963,-10.0,-0.037645765345036795,39.963886555133705,40.0,0.036113444866293046,9.30914844242793,10.0,0.6908515575720701,0.00607015624868357,0,-0.00607015624868357,4.00019149599503,1.8073053843333247,-0.00131517346781385,0.5191958279531866,0.03461647033691406,0.7767679691314697,STABILIZE
0.16,0.015,0.11,32.66823955185968,6.394292276309214,0.49002359327789513,-0.0007659082788094442,6.883549961308299,0.17,0.015,0.08,-8.14410873776133,-1.693701115738578,-0.12216163106641995,0.0015757937908414794,-1.8142869530141565,0.002,8e-05,0,7.6002844515237555,0.018628507182298713,0.0006080227561219005,0.0,0.019236529938420614,0.2,0.02,0.0,0.005125980380389864,0.00033659941608375836,0.00010251960760779729,-0.0,0.00043911902369155563,-9.962947739638693,-10.0,-0.03705226036130642,39.96432672693258,40.0,0.03567327306741809,9.314253591149356,10.0,0.6857464088506441,0.0016829970804187917,0,-0.0016829970804187917,4.000053290849663,1.8141694568700508,-0.00043911902369155563,0.5192365299384206,0.04092073440551758,0.8177015781402588,STABILIZE
0.16,0.015,0.11,34.005183164678215,6.394375897165466,0.5100777474701732,-0.0013555730306049594,6.903098071605035,0.17,0.015,0.08,-8.477525390073161,-1.6943428626053403,-0.12716288085109742,-0.0029929612825195895,-1.8244987047389574,0.002,8e-05,0,7.911864547562215,0.018627938353590487,0.0006329491638049772,0.0,0.019260887517395464,0.2,0.02,0.0,0.005217366952546845,0.0005463582090545571,0.00010434733905093691,-0.0,0.0006507055481054941,-9.966722721207883,-10.0,-0.03327727879211659,39.96484935728416,40.0,0.03515064271584128,9.313969176795243,10.0,0.6860308232047565,0.0027317910452727854,0,-0.0027317910452727854,4.000086985267806,1.8243079876723807,-0.0006507055481054941,0.5192608875173954,0.03345298767089844,0.8511655330657959,STABILIZE
0.16,0.015,0.11,35.34132605092166,6.394055067385381,0.5301198907638248,-0.0023263323556019636,6.921848625793603,0.17,0.015,0.08,-8.810782106029649,-1.694459985379804,-0.13216173159044473,-0.002005642358466723,-1.8286273593287152,0.002,8e-05,0,8.22356738984364,0.018645509012619535,0.0006578853911874912,0.0,0.019303394403807028,0.2,0.02,0.0,0.005239280775874084,0.00013108458920630677,0.00010478561551748169,-0.0,0.00023587020472378846,-9.967411678704728,-10.0,-0.03258832129527142,39.96284417115863,40.0,0.03715582884137328,9.322754506309767,10.0,0.6772454936902332,0.0006554229460315338,0,-0.0006554229460315338,4.000020917934027,1.828581602055466,-0.00023587020472378846,0.519303394403807,0.03343462944030762,0.8845865726470947,STABILIZE
0.16,0.015,0.11,36.67654670771324,6.39369953238886,0.5501482006156986,-0.0026934928333800685,6.941154240171178,0.17,0.015,0.08,-9.143845934659671,-1.6945546877919957,-0.13715768901989506,-0.0027371019930110215,-1.8344494788049017,0.002,8e-05,0,8.5352534903155,0.018656347779508895,0.00068282027922524,0.0,0.019339168058734136,0.2,0.02,0.0,0.00519012025740811,-0.00029425621743597543,0.0001038024051481622,-0.0,-0.00019045381228781323,-9.96796875171762,-10.0,-0.03203124828238028,39.96062207743037,40.0,0.039377922569628694,9.328173889754448,10.0,0.671826110245552,-0.001471281087179877,0,0.001471281087179877,3.999952892404862,1.834552192996851,0.00019045381228781323,0.5193391680587341,0.03341341018676758,0.918027400970459,STABILIZE
0.16,0.015,0.11,38.01394171769629,6.393982947625588,0.5702091257654444,-0.0010376893726523266,6.96315438401838,0.17,0.015,0.08,-9.477262183473407,-1.6936648526085418,-0.1421589327521011,-0.0001315318501672925,-1.8359553172108103,0.002,8e-05,0,8.847322035799197,0.018649697204440516,0.0007077857628639358,0.0,0.01935748296730445,0.2,0.02,0.0,0.005171897052700607,-0.00010890467969551184,0.00010343794105401213,-0.0,-5.466738641499708e-06,-9.96273442710907,-10.0,-0.037265572890931534,39.96239342265992,40.0,0.037606577340076816,9.324848602220259,10.0,0.6751513977797411,-0.0005445233984775592,0,0.0005445233984775592,3.9999825514027862,1.8359933320325275,5.466738641499708e-06,0.5193574829673044,0.033466339111328125,0.9514729976654053,STABILIZE
0.16,0.015,0.11,39.34951047215024,6.394043296258242,0.5902426570822537,-0.0010260464907038795,6.983259906849791,0.17,0.015,0.08,-9.810355722957494,-1.6943552420580352,-0.1471553358443624,-0.0018437324258856387,-1.8433543103282832,0.002,8e-05,0,9.158978468015281,0.018650712613085773,0.0007327182774412225,0.0,0.019383430890526996,0.2,0.02,0.0,0.004976453195413999,-0.0011696107756627796,9.952906390827998e-05,-0.0,-0.0010700817117544996,-9.966795541517854,-10.0,-0.033204458482146024,39.96277060161401,40.0,0.03722939838598863,9.325356306542886,10.0,0.6746436934571143,-0.005848053878313898,0,0.005848053878313898,3.9998118320547786,1.8437625719057364,0.0010700817117544996,0.519383430890527,0.03342032432556152,0.984900951385498,STABILIZE
0.16,0.015,0.11,40.685920313607674,6.394101488544879,0.6102888047041151,-0.0011304788970804877,7.003259814351914,0.17,0.015,0.08,-10.143613734721104,-1.6941403944137883,-0.15215420602081656,0.0005664519478591998,-1.8457281484867456,0.002,8e-05,0,9.470917921751479,0.018656070761340144,0.0007576734337401183,0.0,0.01941374419508026,0.2,0.02,0.0,0.0047427877651141405,-0.00139747593641673,9.485575530228281e-05,-0.0,-0.0013026201811144472,-9.965531731845813,-10.0,-0.03446826815418704,39.963134303405496,40.0,0.036865696594506794,9.328035380670071,10.0,0.6719646193299291,-0.006987379682083649,0,0.006987379682083649,3.999774878573923,1.8462159458864154,0.0013026201811144472,0.5194137441950802,0.03344106674194336,1.0183687210083008,STABILIZE
0.16,0.015,0.11,42.023183390054804,6.394035462691349,0.6303477508508221,-8.236880382374888e-05,7.024300844738347,0.17,0.015,0.08,-10.477121541655944,-1.6943110006331499,-0.15715682312483914,0.0004163011518481284,-1.8510515226061408,0.002,8e-05,0,9.783079832979261,0.018657270637753916,0.0007826463866383409,0.0,0.019439917024392257,0.2,0.02,0.0,0.004574029633279185,-0.001008632387462873,9.14805926655837e-05,-0.0,-0.0009171517947972892,-9.966535297842057,-10.0,-0.03346470215794311,39.96272164182093,40.0,0.037278358179071165,9.328635318876957,10.0,0.6713646811230431,-0.005043161937314364,0,0.005043161937314364,3.9998370553565006,1.8514035945572618,0.0009171517947972892,0.5194399170243923,0.0334627628326416,1.0518276691436768,STABILIZE
0.16,0.015,0.11,43.3591569347828,6.394202213812392,0.650387354021742,0.00206656544646844,7.046656133280602,0.17,0.015,0.08,-10.81034555844108,-1.6945474810265322,-0.1621551833766162,1.726926952707425e-05,-1.8566853951336213,0.002,8e-05,0,10.09500611104442,0.018661669102854255,0.0008076004888835537,0.0,0.01946926959173781,0.2,0.02,0.0,0.0044127118245059875,-0.0009651189333570919,8.825423649011975e-05,-0.0,-0.0008768646968669721,-9.9679263589796,-10.0,-0.03207364102040012,39.963763836327445,40.0,0.03623616367255489,9.330834551427127,10.0,0.6691654485728725,-0.004825594666785459,0,0.004825594666785459,3.999843611099218,1.8570222786092956,0.0008768646968669721,0.5194692695917378,0.033429622650146484,1.0852725505828857,STABILIZE
0.16,0.015,0.11,44.697741365032016,6.394339643528642,0.6704661204754803,0.0014662982159845692,7.066272062220108,0.17,0.015,0.08,-11.144255671280543,-1.6947609262690884,-0.16716383506920815,-0.0030849949704415103,-1.865009756308738,0.002,8e-05,0,10.407496944367669,0.018659380747710192,0.0008325997555494136,0.0,0.019491980503259607,0.2,0.02,0.0,0.004256118335119473,-0.0009350474412326108,8.512236670238946e-05,-0.0,-0.0008499250745302214,-9.96918191922993,-10.0,-0.03081808077006932,39.964622772054014,40.0,0.03537722794598516,9.329690373855096,10.0,0.6703096261449051,-0.004675237206163054,0,0.004675237206163054,3.999847805090538,1.8653361432297346,0.0008499250745302214,0.5194919805032596,0.03349423408508301,1.1187334060668945,STABILIZE
0.16,0.015,0.11,46.03409517420299,6.394380465991932,0.6905114276130448,0.0013858726069094945,7.086277766211887,0.17,0.015,0.08,-11.477601164251146,-1.6947301024831178,-0.1721640174637672,-0.001053975141963475,-1.8679480950888485,0.002,8e-05,0,10.719420964422289,0.018656743886077316,0.0008575536771537832,0.0,0.0195142975632311,0.2,0.02,0.0,0.004140243668563939,-0.0006930674900998804,8.280487337127877e-05,0.0,-0.0006102626167286017,-9.969000602841868,-10.0,-0.030999397158132172,39.96487791244957,40.0,0.035122087550428956,9.328371943038658,10.0,0.6716280569613415,-0.003465337450499402,0,0.003465337450499402,3.9998870162912783,1.868190017865023,0.0006102626167286017,0.5195142975632311,0.03343820571899414,1.1521763801574707,STABILIZE
0.16,0.015,0.11,47.369897795766796,6.394296222475218,0.7105484669365019,0.000800049744560238,7.10564473915628,0.17,0.015,0.08,-11.810757381258119,-1.6944443921631893,-0.17716136071887179,-0.0008541468493923462,-1.8724598997314534,0.002,8e-05,0,11.031122419696397,0.018650878934362486,0.0008824897935757118,-0.0,0.019533368727938198,0.2,0.02,0.0,0.004099195792237394,-0.0002456128962265599,8.198391584474788e-05,0.0,-0.00016362898038181203,-9.967319953901113,-10.0,-0.03268004609888816,39.96435139047011,40.0,0.03564860952989656,9.325439467181242,10.0,0.6745605328187579,-0.0012280644811327995,0,0.0012280644811327995,3.999959865208944,1.8725456343758269,0.00016362898038181203,0.5195333687279382,0.03342485427856445,1.185591697692871,STABILIZE
0.16,0.015,0.11,48.70715730651524,6.394291765376088,0.7306073595977286,0.0010530377471493274,7.125952162720965,0.17,0.015,0.08,-12.144234638559718,-1.6942282272905786,-0.18216351957839577,0.00023371475601662267,-1.8761580321129578,0.002,8e-05,0,11.343390132604625,0.018664392075667256,0.0009074712106083701,0.0,0.019571863286275627,0.2,0.02,0.0,0.0041344391006004335,0.00021065095690015552,8.268878201200868e-05,0.0,0.0002933397389121642,-9.966048395826933,-10.0,-0.0339516041730665,39.96432353360055,40.0,0.03567646639945215,9.332196037833627,10.0,0.6678039621663724,0.0010532547845007775,0,-0.0010532547845007775,4.000034488294199,1.8760845007405529,-0.0002933397389121642,0.5195718632862756,0.03346133232116699,1.2190780639648438,STABILIZE
0.16,0.015,0.11,50.044434815275125,6.394241144683007,0.7506665222291269,0.00015916346869832183,7.1450668303808325,0.17,0.015,0.08,-12.477846500966123,-1.694875858351034,-0.18716769751449183,-0.0009220706219415345,-1.8829656264874672,0.002,8e-05,0,11.655804933743454,0.018672784468482945,0.0009324643946994764,0.0,0.01960524886318242,0.2,0.02,0.0,0.004144385663160407,5.944981422379699e-05,8.288771326320815e-05,0.0,0.00014233752748700514,-9.969857990300198,-10.0,-0.030142009699802283,39.96400715426879,40.0,0.03599284573120988,9.336392234241472,10.0,0.6636077657585272,0.0002972490711189849,0,-0.0002972490711189849,4.0000097687247465,1.882944874562169,-0.00014233752748700514,0.5196052488631824,0.0334620475769043,1.2525320053100586,STABILIZE
0.16,0.015,0.11,51.38712149783386,6.394182329880673,0.7708068224675079,-0.0006457128249231944,7.1643434395232575,0.17,0.015,0.08,-12.812943417743881,-1.695546502124376,-0.19219415126615821,-0.00220097897741636,-1.8899416323679508,0.002,8e-05,0,11.968788559160224,0.018631248760210637,0.0009575030847328179,-0.0,0.019588751844943453,0.2,0.02,0.0,0.004340356805561207,0.0011665744810227772,8.680713611122415e-05,0.0,0.0012533816171340015,-9.9738029536728,-10.0,-0.026197046327199183,39.963639561754206,40.0,0.0363604382457959,9.315624380105318,10.0,0.6843756198946831,0.005832872405113886,0,-0.005832872405113886,4.000192380675567,1.8895344112618788,-0.0012533816171340015,0.5195887518449435,0.033597707748413086,1.2861378192901611,STABILIZE
0.16,0.015,0.11,52.72326408396608,6.394190419972273,0.7908489612594911,-0.0007803061210021233,7.184259075110762,0.17,0.015,0.08,-13.146430178023628,-1.695665931741866,-0.1971964526703544,-0.002623936468703956,-1.8954863208809245,0.002,8e-05,0,12.280265897074376,0.018632418339932122,0.00098242127176595,-0.0,0.019614839611698073,0.2,0.02,0.0,0.004677189270926021,0.002014914936404675,9.354378541852043e-05,0.0,0.0021084587218231955,-9.974505480834505,-10.0,-0.025494519165495323,39.963690124826705,40.0,0.03630987517329334,9.316209169966061,10.0,0.6837908300339393,0.010074574682023375,0,-0.010074574682023375,4.000333230050219,1.8947829535866851,-0.0021084587218231955,0.5196148396116981,0.03343391418457031,1.3195598125457764,STABILIZE
0.16,0.015,0.11,54.059765406738265,6.394083317108092,0.8108964811010739,-0.000874097744325109,7.204105700464841,0.17,0.015,0.08,-13.479944760870818,-1.695323823086795,-0.20219917141306226,-0.0024656657938270437,-1.8999886602936844,0.002,8e-05,0,12.591882034913349,0.01863540568898367,0.001007350562793068,-0.0,0.019642756251776736,0.2,0.02,0.0,0.005023262642403357,0.002069603236969421,0.00010046525284806713,0.0,0.002170068489817488,-9.972493076981147,-10.0,-0.027506923018853383,39.963020731925575,40.0,0.03697926807442539,9.317702844491835,10.0,0.6822971555081653,0.010348016184847103,0,-0.010348016184847103,4.000343085923965,1.8992662014959678,-0.002170068489817488,0.5196427562517767,0.033443450927734375,1.3530066013336182,STABILIZE
0.16,0.015,0.11,55.4357892920512,6.39395385639526,0.831536839380768,-0.0013727512227264193,7.224117944553302,0.17,0.015,0.08,-13.823268762480513,-1.6950270362205726,-0.20734903143720768,-0.002262457735836607,-1.9046385253936169,0.002,8e-05,0,12.912611025976352,0.0186290949520716,0.0010330088820781082,-0.0,0.019662103834149708,0.2,0.02,0.0,0.005357346456025126,0.0019404791145579874,0.00010714692912050253,0.0,0.00204762604367849,-9.97074727188572,-10.0,-0.029252728114279106,39.962211602470376,40.0,0.037788397529620994,9.3145474760358,10.0,0.6854525239641993,0.009702395572789936,0,-0.009702395572789936,4.000322471750663,1.9039611430962127,-0.00204762604367849,0.5196621038341497,0.03443312644958496,1.3874573707580566,STABILIZE
0.16,0.015,0.11,56.77358342900577,6.3938869040311275,0.8516037514350865,-0.001439738749605091,7.244050916716609,0.17,0.015,0.08,-14.157006962592588,-1.6947690333168781,-0.2123551044388888,0.00028446995667321117,-1.9068396677990935,0.002,8e-05,0,13.224546954160765,0.018635930138842825,0.0010579637563328612,-0.0,0.019693893895175688,0.2,0.02,0.0,0.005649711037375944,0.0017466682805145758,0.00011299422074751889,0.0,0.0018596625012620948,-9.96922960774634,-10.0,-0.03077039225365871,39.961793150194545,40.0,0.03820684980545247,9.317965069421412,10.0,0.6820349305785883,0.008733341402572878,0,-0.008733341402572878,4.000290604640114,1.9062299434014227,-0.0018596625012620948,0.5196938938951757,0.033476829528808594,1.4209213256835938,STABILIZE
0.16,0.015,0.11,58.11118607201465,6.39424676998259,0.8716677910802196,0.00027934212131343073,7.2661939031841225,0.17,0.015,0.08,-14.49064873023969,-1.6946172648135265,-0.21735973095359534,0.002589923212896458,-1.9093870725542252,0.002,8e-05,0,13.536458138484036,0.01863816856695685,0.001082916651078723,0.0,0.01972108521803557,0.2,0.02,0.0,0.006042922912716883,0.0023496269398079563,0.00012085845825433766,0.0,0.002470485398062294,-9.968336851844272,-10.0,-0.031663148155728266,39.964042312391186,40.0,0.035957687608815306,9.319084283478425,10.0,0.6809157165215755,0.011748134699039781,0,-0.011748134699039781,4.000391423570706,1.9085668578960322,-0.002470485398062294,0.5197210852180356,0.03347015380859375,1.4543917179107666,STABILIZE
0.16,0.015,0.11,59.447455920263565,6.393750776331473,0.8917118388039534,-0.0017934134187390744,7.283669201716687,0.17,0.015,0.08,-14.824146487262094,-1.6954437700325606,-0.22236219730893142,0.0005998620073484054,-1.9172061053341436,0.002,8e-05,0,13.8477814323872,0.01862014954063974,0.001107822514590976,-0.0,0.019727972055230716,0.2,0.02,0.0,0.0066416178197957285,0.0035807756494106164,0.00013283235639591456,0.0,0.003713608005806531,-9.973198647250356,-10.0,-0.026801352749643615,39.960942352071704,40.0,0.03905764792829276,9.31007477031987,10.0,0.6899252296801295,0.01790387824705308,0,-0.01790387824705308,4.000598896378609,1.9159560852547666,-0.003713608005806531,0.5197279720552307,0.03343939781188965,1.4878249168395996,STABILIZE
0.16,0.015,0.11,60.891979902999125,6.39393478805506,0.9133796985449868,-0.000653111321478225,7.306661375278569,0.17,0.015,0.08,-15.184542443116449,-1.6949320564070114,-0.22776813664674672,0.0009694484604737841,-1.9217307445932843,0.002,8e-05,0,14.184583501901084,0.018634949079173502,0.0011347666801520867,-0.0,0.01976971575932559,0.2,0.02,0.0,0.007233429226894287,0.0032744381445378844,0.00014466858453788574,0.0,0.00341910672907577,-9.970188567100067,-10.0,-0.0298114328999335,39.962092425344125,40.0,0.03790757465587884,9.317474539586751,10.0,0.6825254604132496,0.01637219072268942,0,-0.01637219072268942,4.000548968622908,1.920587671616488,-0.00341910672907577,0.5197697157593256,0.036147356033325195,1.523979902267456,STABILIZE
0.16,0.015,0.11,62.23018443342944,6.394026844532798,0.9334527665014416,0.00024185494922109304,7.32772146598346,0.17,0.015,0.08,-15.518494508521345,-1.6953721003269602,-0.23277741762782017,-0.0010785715428878284,-1.929228089497668,0.002,8e-05,0,14.496657817081848,0.01863888799675251,0.001159732625366548,0.0,0.019798620622119057,0.2,0.02,0.0,0.00784751713473695,0.0036676891296900265,0.000156950342694739,0.0,0.0038246394723847653,-9.972777060746823,-10.0,-0.027222939253177432,39.96266777832999,40.0,0.0373322216700097,9.319443998376254,10.0,0.6805560016237461,0.018338445648450132,0,-0.018338445648450132,4.000617275916726,1.927947725677088,-0.0038246394723847653,0.519798620622119,0.033486366271972656,1.5574719905853271,STABILIZE
0.16,0.015,0.11,63.56446486142705,6.393896430407323,0.9534669729214057,-2.0214107862118485e-05,7.347343189220866,0.17,0.015,0.08,-15.851541407924822,-1.695714817594969,-0.23777312111887233,-0.0027699909728770206,-1.9362579296867184,0.002,8e-05,0,14.80705442162013,0.018592828202785322,0.0011845643537296104,-0.0,0.019777392556514933,0.2,0.02,0.0,0.008580919855014192,0.004393099209913688,0.00017161839710028384,0.0,0.004564717607013972,-9.974793044676288,-10.0,-0.025206955323712324,39.96185269004577,40.0,0.03814730995423326,9.29641410139266,10.0,0.7035858986073392,0.02196549604956844,0,-0.02196549604956844,4.000742009680132,1.93472430652413,-0.004564717607013972,0.5197773925565149,0.03338885307312012,1.5908620357513428,STABILIZE
0.16,0.015,0.11,64.90176258519153,6.393927790282106,0.9735264387778729,-0.0013697393527773614,7.366084489707202,0.17,0.015,0.08,-16.185321762514643,-1.6956231305735652,-0.24277982643771964,-0.00293889341437982,-1.9413418504256648,0.002,8e-05,0,15.117560975539421,0.01855754003847136,0.0012094048780431537,-0.0,0.01976694491651451,0.2,0.02,0.0,0.009395573934261351,0.004868810497656261,0.00018791147868522703,0.0,0.005056721976341488,-9.974253709256265,-10.0,-0.02574629074373445,39.96204868926316,40.0,0.037951310736837024,9.27877001923568,10.0,0.7212299807643197,0.024344052488281306,0,-0.024344052488281306,4.00082448375943,1.9396421397683743,-0.005056721976341488,0.5197669449165145,0.03346419334411621,1.6243178844451904,STABILIZE
0.16,0.015,0.11,66.23801196784497,6.394063152644152,0.9935701795176745,0.0012263793544458944,7.388859711516272,0.17,0.015,0.08,-16.51905896111388,-1.696769928523515,-0.2477858844167082,-0.003840588020608029,-1.9483964009608312,0.002,8e-05,0,15.428484497611269,0.018597432687136053,0.0012342787598089017,-0.0,0.019831711446944955,0.2,0.02,0.0,0.010309577354679033,0.0054669768867155735,0.00020619154709358066,0.0,0.0056731684338091545,-9.980999579550087,-10.0,-0.019000420449913555,39.96289470402595,40.0,0.037105295974047665,9.298716343568026,10.0,0.7012836564319738,0.027334884433577865,0,-0.027334884433577865,4.000929092977286,1.9464878443609852,-0.0056731684338091545,0.519831711446945,0.033437252044677734,1.6577770709991455,STABILIZE
0.16,0.015,0.11,67.57522855593015,6.394177644258989,1.0136284283389523,0.0009968999013439312,7.408802972499286,0.17,0.015,0.08,-16.85298973470877,-1.696556489365947,-0.25279484602063157,-0.004572592792689021,-1.9539239281792675,0.002,8e-05,0,15.739893308641212,0.01861332034255785,0.0012591914646912972,-0.0,0.019872511807249145,0.2,0.02,0.0,0.011241674963859298,0.005571271838077911,0.00022483349927718597,0.0,0.005796105337355097,-9.979744055093805,-10.0,-0.02025594490619527,39.96361027661868,40.0,0.036389723381320245,9.306660171278924,10.0,0.693339828721075,0.027856359190389552,0,-0.027856359190389552,4.000949496077971,1.9519789565835302,-0.005796105337355097,0.5198725118072491,0.03346085548400879,1.6912291049957275,STABILIZE
0.16,0.015,0.11,68.91293289424017,6.394322972787604,1.0336939934136025,0.001215893644401376,7.429232859845608,0.17,0.015,0.08,-17.186828968348703,-1.6955115255902549,-0.25780243452523055,-0.00039755748660783,-1.9537115176020932,0.002,8e-05,0,16.05101274952107,0.018589666370262888,0.0012840810199616858,-0.0,0.019873747390224572,0.2,0.02,0.0,0.012100384046039182,0.005130863986414448,0.00024200768092078363,0.0,0.005372871667335232,-9.97359720935444,-10.0,-0.026402790645560253,39.964518579922526,40.0,0.03548142007747458,9.294833185131443,10.0,0.7051668148685575,0.025654319932072237,0,-0.025654319932072237,4.000874377930012,1.9519203124190825,-0.005372871667335232,0.5198737473902246,0.033472299575805664,1.724698781967163,STABILIZE
0.16,0.015,0.11,70.24872326305255,6.39437440300306,1.0537308489457882,0.0019645306598520345,7.450069782608701,0.17,0.015,0.08,-17.520440106268776,-1.696794445705227,-0.26280660159403163,-0.003044015820078663,-1.9626450631193373,0.002,8e-05,0,16.361180934120213,0.01855953174364862,0.001308894474729617,-0.0,0.019868426218378237,0.2,0.02,0.0,0.013952071608875845,0.011079941724584423,0.0002790414321775169,0.0,0.01135898315676194,-9.981143798266041,-10.0,-0.01885620173395878,39.964840018769124,40.0,0.03515998123087451,9.27976587182431,10.0,0.7202341281756903,0.05539970862292211,0,-0.05539970862292211,4.0018958257632375,1.9587765169935762,-0.01135898315676194,0.5198684262183783,0.03342413902282715,1.7581288814544678,STABILIZE
0.16,0.015,0.11,71.58634311277625,6.394420123577658,1.0737951466916438,0.002023506121158601,7.47023877639046,0.17,0.015,0.08,-17.85474938903322,-1.6980318668285548,-0.2678212408354983,-0.006781546523803153,-1.9726346541878563,0.002,8e-05,0,16.671271656621,0.018529651347721776,0.00133370173252968,-0.0,0.019863353080251455,0.2,0.02,0.0,0.016768144088871,0.016827604774306667,0.00033536288177742,0.0,0.017162967656084088,-9.988422746050322,-10.0,-0.011577253949677846,39.96512577236036,40.0,0.034874227639644144,9.264825673860887,10.0,0.7351743261391128,0.08413802387153332,0,-0.08413802387153332,4.002892471530733,1.9667585871848707,-0.017162967656084088,0.5198633530802514,0.03346967697143555,1.7916224002838135,STABILIZE
0.16,0.015,0.11,73.01757615365771,6.388279658453962,1.0952636423048656,-0.022086742134964688,7.461456558623863,0.17,0.015,0.08,-18.21238063227688,-1.6960472906100719,-0.27318570948415316,0.0016570641726674077,-1.9675759359215577,0.002,8e-05,0,17.004091483340094,0.01856918185429041,0.0013603273186672076,-0.0,0.01992950917295762,0.2,0.02,0.0,0.021562488491920998,0.026749323791780855,0.00043124976983842,0.0,0.027180573561619275,-9.97674876829454,-10.0,-0.02325123170545994,39.92674786533726,40.0,0.07325213466273865,9.284590927145205,10.0,0.715409072854795,0.13374661895890427,0,-0.13374661895890427,4.004582047368685,1.9582333082424137,-0.027180573561619275,0.5199295091729577,0.03584647178649902,1.8274500370025635,STABILIZE
0.16,0.015,0.11,74.35350651175614,6.388209341183117,1.115302597676342,-0.022846181694680258,7.480665757164779,0.17,0.015,0.08,-18.545962979003306,-1.6948345893551195,-0.2781894446850496,0.004467854547335475,-1.9685561794928335,0.002,8e-05,0,17.314359445988472,0.018545658885257305,0.001385148755679078,-0.0,0.019930807640936382,0.2,0.02,0.0,0.022613151061370663,0.00628012942432078,0.0004522630212274133,0.0,0.006732392445548193,-9.969615231500702,-10.0,-0.030384768499298047,39.92630838239448,40.0,0.07369161760551718,9.272829442628652,10.0,0.7271705573713487,0.0314006471216039,0,-0.0314006471216039,4.001078255980592,1.966363705253615,-0.006732392445548193,0.5199308076409364,0.03345990180969238,1.8609049320220947,STABILIZE
0.16,0.015,0.11,75.69045350262708,6.394027493270199,1.135356802539406,0.00046949839348227703,7.529853794203087,0.17,0.015,0.08,-18.88128589762262,-1.7039328962773188,-0.2832192884643393,-0.024066374369142017,-2.0112185591108,0.002,8e-05,0,17.625019975523813,0.018571902817448693,0.0014100015980419052,-0.0,0.0199819044154906,0.2,0.02,0.0,0.023530558599695307,0.00548444428110776,0.00047061117199390616,-0.0,0.005955055453101666,-10.023134683984228,-10.0,0.023134683984228962,39.962671832938746,40.0,0.037328167061256835,9.285951408724346,10.0,0.7140485912756539,0.0274222214055388,0,-0.0274222214055388,4.000962127228119,2.0093038966263816,-0.005955055453101666,0.5199819044154906,0.03345489501953125,1.8943853378295898,STABILIZE
0.16,0.015,0.11,77.05189151926757,6.394943564300192,1.1557783727890134,0.003955787179789105,7.554677724268995,0.17,0.015,0.08,-19.221939875724026,-1.7001265367419893,-0.2883290981358604,-0.009936662594940596,-1.9983922974727903,0.002,8e-05,0,17.942924427932844,0.018665750911416028,0.0014354339542346276,0.0,0.020101184865650656,0.2,0.02,0.0,0.02395067101394444,0.002466688849352266,0.0004790134202788888,-0.0,0.0029457022696311548,-10.000744333776407,-10.0,0.0007443337764067269,39.968397276876196,40.0,0.03160272312380356,9.332875455708013,10.0,0.6671245442919875,0.012333444246761329,0,-0.012333444246761329,4.000430079671281,1.9975312143392916,-0.0029457022696311548,0.5201011848656507,0.034062862396240234,1.9284298419952393,STABILIZE
0.16,0.015,0.11,78.38966758674817,6.3968984904955795,1.1758450138012226,0.011801353029910288,7.584544857326713,0.17,0.015,0.08,-19.556593428658015,-1.7002407303945402,-0.2933489014298702,-0.006778203172519974,-2.0003678349969305,0.002,8e-05,0,18.25577440077647,0.018699593748188952,0.0014604619520621176,0.0,0.02016005570025107,0.2,0.02,0.0,0.024127243206588718,0.0010554030865540002,0.0004825448641317744,-0.0,0.0015379479506857745,-10.001416061144353,-10.0,0.001416061144351805,39.98061556559737,40.0,0.019384434402634494,9.349796874094476,10.0,0.6502031259055229,0.005277015432770001,0,-0.005277015432770001,4.000184219500483,1.9999994213373213,-0.0015379479506857745,0.520160055700251,0.03346061706542969,1.9619202613830566,STABILIZE
0.16,0.015,0.11,79.725853318377,6.392801339061914,1.195887799775655,0.0185092650163439,7.607198403853913,0.17,0.015,0.08,-19.89180115752975,-1.7039911744486957,-0.2983770173629462,-0.022543857314877007,-2.024912049126519,0.002,8e-05,0,18.568660926795555,0.018712044994588214,0.0014854928741436446,0.0,0.02019753786873186,0.2,0.02,0.0,0.025812560918871037,0.010078970565987118,0.0005162512183774208,-0.0,0.010595221784364539,-10.023477496757033,-10.0,0.0234774967570333,39.95500836913696,40.0,0.044991630863040505,9.356022497294108,10.0,0.6439775027058919,0.05039485282993558,0,-0.05039485282993558,4.001779476293418,2.0213930418932717,-0.010595221784364539,0.5201975378687319,0.03344225883483887,1.9953680038452148,STABILIZE
0.16,0.015,0.11,81.06418003815973,6.388742847572957,1.2159627005723959,0.002148748857387568,7.606854297002741,0.17,0.015,0.08,-20.22848818284863,-1.7076882032232323,-0.30342732274272943,-0.03633643239536232,-2.0474519583613238,0.002,8e-05,0,18.882443472388463,0.01872371637860757,0.001510595477791077,0.0,0.020234311856398648,0.2,0.02,0.0,0.028999156575201857,0.01901473301190202,0.0005799831315040371,0.0,0.019594716143406056,-10.045224724842543,-10.0,0.04522472484254268,39.929642797330985,40.0,0.07035720266901815,9.361858189303785,10.0,0.6381418106962156,0.09507366505951009,0,-0.09507366505951009,4.003391927877131,2.0408117486936037,-0.019594716143406056,0.5202343118563987,0.03351712226867676,2.0288333892822266,STABILIZE
0.16,0.015,0.11,82.41459915932519,6.391320729035929,1.236218987389878,-0.011278940488731865,7.616260775937074,0.17,0.015,0.08,-20.56756891132886,-1.7051165880353418,-0.3085135336699329,-0.003580999303932554,-2.017211121009207,0.002,8e-05,0,19.199284117826203,0.018744460083248756,0.0015359427294260963,0.0,0.020280402812674854,0.2,0.02,0.0,0.02984878512376019,0.005026447409244969,0.0005969757024752038,-0.0,0.005623423111720173,-10.03009757667848,-10.0,0.030097576678480335,39.945754556474554,40.0,0.054245443525442666,9.372230041624379,10.0,0.6277699583756209,0.025132237046224845,0,-0.025132237046224845,4.000884445221752,2.0154563658650266,-0.005623423111720173,0.5202804028126748,0.03380632400512695,2.06266713142395,STABILIZE
0.16,0.015,0.11,83.74931325594689,6.390042789201073,1.2562396988392033,-0.020234658003200883,7.626047830037075,0.17,0.015,0.08,-20.903028384459862,-1.7064144428564314,-0.3135454257668979,-0.01775323439187309,-2.0377131030152023,0.002,8e-05,0,19.512738063264596,0.018758550322359246,0.0015610190450611678,0.0,0.020319569367420413,0.2,0.02,0.0,0.032356827641876834,0.015009299602500798,0.0006471365528375367,0.0,0.015656436155338335,-10.037732016802536,-10.0,0.037732016802536364,39.9377674325067,40.0,0.062232567493294616,9.379275161179622,10.0,0.6207248388203769,0.07504649801250399,0,-0.07504649801250399,4.0026655819478565,2.0324721226353564,-0.015656436155338335,0.5203195693674204,0.03341984748840332,2.0961172580718994,STABILIZE
0.16,0.015,0.11,85.0907768386926,6.392394882868375,1.2763616525803891,-0.018635929582228972,7.650120605866536,0.17,0.015,0.08,-21.240296310784718,-1.707609998704315,-0.31860444466177074,-0.020783272725149956,-2.0469977160912354,0.002,8e-05,0,19.82801390962279,0.018779560370426218,0.0015862411127698234,0.0,0.02036580148319604,0.2,0.02,0.0,0.03296164370847835,0.003602616555295066,0.0006592328741695671,0.0,0.004261849429464633,-10.044764698260675,-10.0,0.044764698260675355,39.952468017927345,40.0,0.047531982072658685,9.389780185213109,10.0,0.6102198147868917,0.018013082776475328,0,-0.018013082776475328,4.000643353015341,2.0457400645382355,-0.004261849429464633,0.520365801483196,0.03357648849487305,2.1296489238739014,STABILIZE
0.16,0.015,0.11,86.42707079923738,6.387035337931081,1.2964060619885607,-0.023804683080293765,7.659636716839349,0.17,0.015,0.08,-21.575876472395823,-1.7042077305526009,-0.32363814708593736,-0.0006625710196133098,-2.0285084486581515,0.002,8e-05,0,20.14261577225769,0.018796137614145017,0.0016114092617806155,0.0,0.020407546875925633,0.2,0.02,0.0,0.034925734137721744,0.01173461392932914,0.0006985146827544349,0.0,0.012433128612083575,-10.02475135619177,-10.0,0.024751356191769054,39.91897086206926,40.0,0.08102913793073904,9.398068807072509,10.0,0.6019311929274908,0.05867306964664569,0,-0.05867306964664569,4.002075172565439,2.0244112327817225,-0.012433128612083575,0.5204075468759256,0.03347516059875488,2.1631510257720947,STABILIZE
0.16,0.015,0.11,87.76505923067353,6.392493658744439,1.3164758884601029,0.015255716447146945,7.7242252636516895,0.17,0.015,0.08,-21.912025865947804,-1.7063936183575028,-0.32868038798921706,0.003575627037810837,-2.031498379308909,0.002,8e-05,0,20.45751015407769,0.018805845884612097,0.0016366008123262152,0.0,0.020442446696938312,0.2,0.02,0.0,0.03648407506751738,0.009306586923539353,0.0007296815013503476,-0.0,0.0100362684248897,-10.037609519750015,-10.0,0.037609519750015426,39.953085367152745,40.0,0.04691463284725561,9.402922942306049,10.0,0.5970770576939508,0.04653293461769677,0,-0.04653293461769677,4.001648567974076,2.028249098006886,-0.0100362684248897,0.5204424466969383,0.03348898887634277,2.196671962738037,STABILIZE
0.16,0.015,0.11,89.15116937207618,6.394728384233325,1.3372675405811427,0.01363068414029172,7.74562660895476,0.17,0.015,0.08,-22.261190613477662,-1.7115267456414778,-0.33391785920216493,-0.01751401752865586,-2.062958622372298,0.002,8e-05,0,20.78368724421448,0.018809958118422582,0.0016626949795371586,0.0,0.02047265309795974,0.2,0.02,0.0,0.03771728860755864,0.007111687405611295,0.0007543457721511728,0.0,0.007866033177762468,-10.067804386126339,-10.0,0.0678043861263391,39.96705240145828,40.0,0.03294759854172058,9.404979059211291,10.0,0.5950209407887087,0.03555843702805647,0,-0.03555843702805647,4.001279526069969,2.060475778036106,-0.007866033177762468,0.5204726530979598,0.03468132019042969,2.231308937072754,STABILIZE
0.16,0.015,0.11,90.48737517033486,6.395222598801362,1.3573106275550229,0.020921273688749877,7.773454500045135,0.17,0.015,0.08,-22.5980376386986,-1.7129471693407752,-0.338970564580479,-0.01785797172203169,-2.0697757056432855,0.002,8e-05,0,21.098361385487507,0.018825797475866227,0.0016878689108390007,0.0,0.020513666386705227,0.2,0.02,0.0,0.03856606119901067,0.005077894499083747,0.0007713212239802133,-0.0,0.00584921572306396,-10.076159819651618,-10.0,0.0761598196516178,39.97014124250851,40.0,0.029858757491490674,9.412898737933114,10.0,0.5871012620668868,0.025389472495418734,0,-0.025389472495418734,4.000916786723363,2.0680029829249187,-0.00584921572306396,0.5205136663867053,0.03343009948730469,2.2647359371185303,STABILIZE
0.16,0.015,0.11,91.82550418120694,6.3981758712011265,1.377382562718104,0.023424279664093575,7.7989827135833245,0.17,0.015,0.08,-22.934932421634844,-1.7115177663481713,-0.34402398632452263,-0.01048637993716136,-2.0660281326098553,0.002,8e-05,0,21.41313494448774,0.018813363413805403,0.0017130507955590193,0.0,0.02052641420936442,0.2,0.02,0.0,0.039372877819998195,0.004822175772052573,0.000787457556399964,0.0,0.005609633328452537,-10.067751566753948,-10.0,0.06775156675394804,39.98859919500704,40.0,0.011400804992961911,9.4066817069027,10.0,0.5933182930972986,0.024110878860262863,0,-0.024110878860262863,4.000869059825681,2.0643446928420013,-0.005609633328452537,0.5205264142093644,0.0334627628326416,2.2982380390167236,STABILIZE
0.16,0.015,0.11,93.17717239504331,6.398270332823233,1.3976575859256497,0.045822999826515685,7.841750918575399,0.17,0.015,0.08,-23.27630724833268,-1.7169312919431132,-0.3491446087249902,-0.035125918818537966,-2.1012018194866413,0.002,8e-05,0,21.73135949967664,0.018829387176884017,0.0017385087599741313,0.0,0.02056789593685815,0.2,0.02,0.0,0.04030528645188745,0.005517073667206419,0.000806105729037749,-0.0,0.0063231793962441685,-10.099595834959489,-10.0,0.09959583495948875,39.98918958014521,40.0,0.010810419854789172,9.414693588442008,10.0,0.5853064115579922,0.027585368336032097,0,-0.027585368336032097,4.001011171540691,2.0992757540210283,-0.0063231793962441685,0.5205678959368581,0.03380084037780762,2.3320205211639404,STABILIZE
0.16,0.015,0.11,94.50005769074858,6.396337694502921,1.4175008653612287,0.015381579650077581,7.829220139514227,0.17,0.015,0.08,-23.6095370805339,-1.711914254798858,-0.3541430562080085,-0.014713225453485017,-2.0807705364603515,0.002,8e-05,0,22.0429273224687,0.018830931674395503,0.001763434185797496,0.0,0.020594365860193,0.2,0.02,0.0,0.041582695482332795,0.007720566891988173,0.0008316539096466559,-0.0,0.008552220801634829,-10.070083851757987,-10.0,0.07008385175798662,39.97711059064326,40.0,0.022889409356742482,9.415465837197752,10.0,0.5845341628022477,0.038602834459940866,0,-0.038602834459940866,4.001401004020214,2.078075078149854,-0.008552220801634829,0.520594365860193,0.033091068267822266,2.3651034832000732,STABILIZE
0.16,0.015,0.11,95.83693578737437,6.394791752511821,1.4375540368106154,0.00016670374108318853,7.83251249306352,0.17,0.015,0.08,-23.94618232184038,-1.7109448735014767,-0.35919273482760566,0.0019445761399699785,-2.0681930321891127,0.002,8e-05,0,22.358025207444395,0.018840399146734063,0.0017886420165955518,0.0,0.020629041163329614,0.2,0.02,0.0,0.04243592726937778,0.00510166148333514,0.0008487185453875557,-0.0,0.005950380028722695,-10.064381608832216,-10.0,0.06438160883221614,39.967448453198884,40.0,0.03255154680111724,9.42019957336703,10.0,0.5798004266329699,0.025508307416675695,0,-0.025508307416675695,4.0009203712659005,2.0664120114791054,-0.005950380028722695,0.5206290411633296,0.03344917297363281,2.398590564727783,STABILIZE
0.16,0.015,0.11,97.18265962920574,6.393220841363691,1.4577398944380862,-0.008279574629067619,7.84268116117271,0.17,0.015,0.08,-24.284939954307024,-1.7099436056500115,-0.36427409931460536,0.008741687305955217,-2.0654760176586615,0.002,8e-05,0,22.67544373292334,0.018849769446059268,0.0018140354986338674,0.0,0.020663804944693137,0.2,0.02,0.0,0.04284915476361796,0.0024539345910725165,0.0008569830952723592,-0.0,0.003310917686344876,-10.058491797941244,-10.0,0.05849179794124357,39.95763025852307,40.0,0.04236974147693463,9.424884723029633,10.0,0.5751152769703677,0.012269672955362581,0,-0.012269672955362581,4.000442222101663,2.064619385540442,-0.003310917686344876,0.5206638049446931,0.03367877006530762,2.4322547912597656,STABILIZE
0.16,0.015,0.11,98.52092573978636,6.398056451575402,1.4778138860967953,-0.0005473701535672271,7.87532296751863,0.17,0.015,0.08,-24.62190419695518,-1.7116633186246601,-0.3693285629543277,-0.0001149568563415535,-2.0811068384353293,0.002,8e-05,0,22.990873828164013,0.018850320014081764,0.001839269906253121,0.0,0.020689589920334886,0.2,0.02,0.0,0.04262605518618767,-0.0013332584598050427,0.0008525211037237535,-0.0,-0.0004807373560812892,-10.068607756615647,-10.0,0.0686077566156458,39.98785282234626,40.0,0.012147177653739002,9.425160007040882,10.0,0.5748399929591177,-0.006666292299025213,0,0.006666292299025213,3.9997578387482173,2.081572219346348,0.0004807373560812892,0.5206895899203349,0.03346681594848633,2.4657137393951416,STABILIZE
0.16,0.015,0.11,99.85911602326756,6.4006578340230735,1.4978867403490133,0.009761219622737556,7.908305793994825,0.17,0.015,0.08,-24.958044929671967,-1.7082712046290602,-0.3743706739450795,0.024502830382458072,-2.058139048191682,0.002,8e-05,0,23.30591691623541,0.018835914393217957,0.001864473353298833,0.0,0.02070038774651679,0.2,0.02,0.0,0.04151779646011189,-0.006626098867202989,0.0008303559292022378,-0.0,-0.005795742938000751,-10.048654144876824,-10.0,0.048654144876823645,40.00411146264421,40.0,-0.004111462644210133,9.417957196608977,10.0,0.5820428033910221,-0.03313049433601494,0,0.03313049433601494,3.9988092408313376,2.0604516488219917,0.005795742938000751,0.5207003877465168,0.03345131874084473,2.499160051345825,STABILIZE
0.16,0.015,0.11,101.19812530800924,6.4050773364838305,1.5179718796201385,0.03595928976065265,7.959008505864622,0.17,0.015,0.08,-25.293754558481343,-1.706214097695734,-0.3794063183772201,0.016021638083430503,-2.069598777989524,0.002,8e-05,0,23.62080887059555,0.018828354508967533,0.0018896647096476441,-0.0,0.02071801921861518,0.2,0.02,0.0,0.039439361308045116,-0.012427600427750669,0.0007887872261609024,-0.0,-0.011638813201589767,-10.036553515857259,-10.0,0.03655351585725819,40.03173335302394,40.0,-0.031733353023934846,9.414177254483766,10.0,0.5858227455162333,-0.06213800213875334,0,0.06213800213875334,3.997753141888059,2.0739356109532143,0.011638813201589767,0.5207180192186152,0.03344869613647461,2.5326128005981445,STABILIZE
0.16,0.015,0.11,102.53628567387088,6.401655403678287,1.5380442851080631,0.028246022736462834,7.9679457115228125,0.17,0.015,0.08,-25.629225240768978,-1.705169833064578,-0.3844383786115347,0.016232676281315854,-2.073375535394797,0.002,8e-05,0,23.935690199514017,0.018829598195153154,0.0019148552159611214,-0.0,0.020744453411114274,0.2,0.02,0.0,0.03756413176110963,-0.011213690889121362,0.0007512826352221926,-0.0,-0.010462408253899168,-10.03041078273281,-10.0,0.030410782732809935,40.010346272989295,40.0,-0.01034627298929646,9.414799097576577,10.0,0.5852009024234239,-0.056068454445606805,0,0.056068454445606805,3.9979691230484944,2.0772888585665004,0.010462408253899168,0.5207444534111143,0.03344535827636719,2.566058397293091,STABILIZE
0.16,0.015,0.11,103.87613933115387,6.405600648745587,1.558142089967308,0.05086867793980564,8.0146114166527,0.17,0.015,0.08,-25.96480666712011,-1.7046269400940746,-0.38947210000680166,0.014961313688662266,-2.079137726412214,0.002,8e-05,0,24.250264011898654,0.01879901403537951,0.0019400211209518925,-0.0,0.020739035156331402,0.2,0.02,0.0,0.036053967490978944,-0.009024781527332845,0.0007210793498195789,-0.0,-0.008303702177513266,-10.027217294671026,-10.0,0.027217294671025627,40.035004054659915,40.0,-0.03500405465991802,9.399507017689755,10.0,0.6004929823102444,-0.045123907636664226,0,0.045123907636664226,3.998361312378256,2.082287324330478,0.008303702177513266,0.5207390351563314,0.03346705436706543,2.5995264053344727,STABILIZE
0.16,0.015,0.11,105.21461481867702,6.406176948059734,1.5782192222801552,0.033371731508116065,8.017767901848005,0.17,0.015,0.08,-26.300621015534208,-1.7077201207996937,-0.3945093152330131,0.011089076475409125,-2.0911403595572975,0.002,8e-05,0,24.564806996057293,0.018818219245275353,0.0019651845596845834,-0.0,0.020783403804959938,0.2,0.02,0.0,0.03557533832133453,-0.0028635032746462414,0.0007115067664266907,-0.0,-0.002151996508219551,-10.045412475292315,-10.0,0.04541247529231433,40.03860592537334,40.0,-0.03860592537333858,9.409109622637676,10.0,0.5908903773623253,-0.014317516373231205,0,0.014317516373231205,3.9994773246507,2.0921398454630857,0.002151996508219551,0.5207834038049599,0.033429622650146484,2.632951498031616,STABILIZE
0.16,0.015,0.11,106.55394311952968,6.4066033325211444,1.5983091467929451,0.024431646705895028,8.029344126019986,0.17,0.015,0.08,-26.637223414784515,-1.7107515234398996,-0.3995583512217677,-0.006984609838934665,-2.1172944845006016,0.002,8e-05,0,24.879929542285833,0.01884214230311417,0.0019903943633828667,0.0,0.020832536666497037,0.2,0.02,0.0,0.03612064270511224,0.0032605419449104876,0.0007224128541022448,0.0,0.003982954799012732,-10.06324425552882,-10.0,0.06324425552881974,40.041270828257154,40.0,-0.0412708282571562,9.421071151557085,10.0,0.5789288484429151,0.016302709724552437,0,-0.016302709724552437,4.000602284492774,2.1161562549603623,-0.003982954799012732,0.520832536666497,0.03344869613647461,2.6664059162139893,STABILIZE
0.16,0.015,0.11,107.8924505053849,6.404000293754945,1.6183867575807735,-0.00443863914372177,8.017948412191997,0.17,0.015,0.08,-26.974309279137874,-1.7135628999688195,-0.4046146391870681,-0.02068514132811088,-2.1388626804839985,0.002,8e-05,0,25.19511023512005,0.01884951542690389,0.0020156088188096042,0.0,0.020865124245713497,0.2,0.02,0.0,0.03618179375024538,0.0003657164270575483,0.0007236358750049076,0.0,0.001089352302062456,-10.079781764522467,-10.0,0.07978176452246774,40.0250018359684,40.0,-0.025001835968405033,9.424757713451946,10.0,0.5752422865480543,0.0018285821352877416,0,-0.0018285821352877416,4.000068259292436,2.1387350202791318,-0.001089352302062456,0.5208651242457135,0.033441781997680664,2.6998584270477295,STABILIZE
0.16,0.015,0.11,109.22965456081933,6.403242719782878,1.63844481841229,0.006512028339361711,8.04819956653453,0.17,0.015,0.08,-27.311146270591856,-1.7137639295199898,-0.4096671940588778,-0.024190033791513407,-2.147621157370381,0.002,8e-05,0,25.510256877105075,0.01886361726874807,0.002040820550168406,0.0,0.020904437818916478,0.2,0.02,0.0,0.03624935993021479,0.00040442841187397636,0.0007249871986042958,0.0,0.0011294156104782723,-10.080964291294057,-10.0,0.08096429129405769,40.02026699864299,40.0,-0.02026699864299094,9.431808634374036,10.0,0.5681913656259636,0.0020221420593698816,0,-0.0020221420593698816,4.000075793581496,2.1474799838853573,-0.0011294156104782723,0.5209044378189165,0.03341317176818848,2.733304738998413,STABILIZE
