Mode,Time,Freq,North-Vision,East-Vision,Down-Vision,Yaw-Vision,North-Desired,East-Desired,Down-Desired,Roll-UAV,Pitch-UAV,Yaw-UAV,Roll-Control,Pitch-Control,Yaw-Control,Thrust-Control,northVraw,eastVraw,downVraw,N-Velocity,E-Velocity,D-Velocity,yawVraw,yawRate,Q-Size
GUIDED_NOGPS,0.006174564361572266,162.40625726012544,-17.36694634347008,7.591495728754264,59.856840846083614,-1.328136685063909,-13.611296131333585,14.840681426448018,62.37627151306458,0.8655013478607703,0.46543080791179536,57.883831479863744,0.4296113199321836,-0.23535989516095096,-10.0,0.5042830321338676,-14.988112057645168,15.849973173871629,65.53748380708285,-21.001379191875458,-19.40060704946518,10.3609099984169,-2.515218844519082,-8.4908933176407,2
GUIDED_NOGPS,0.01629471778869629,98.88261781832756,-19.72989029703606,10.023540988773878,66.25576943970178,-0.47951392471867094,-13.611106294286955,14.841102059127753,62.37624829507789,0.8892093079958547,0.48941560415167695,58.04643779343424,0.2859710554955404,-0.36953327297925653,10.0,0.4934048140541394,-14.988112057645168,15.849973173871629,65.53748380708285,-18.02871525287628,-13.248807191848755,12.077303230762482,-2.515218844519082,-12.581573012510436,1
GUIDED_NOGPS,0.024397611618041992,123.44175643063159,-19.347944311430638,10.825457906840265,66.19441991472816,-0.9684407202152983,-13.609803116745875,14.843989583301799,62.37608670193003,0.8968279571281809,0.42739900727226854,58.17349980256398,0.2352584076830406,-0.34831448714049656,-10.0,0.49350883353824315,-16.14574730686838,16.675815780777477,65.83185339958696,-18.369853496551514,-13.880807161331177,6.666426360607147,-2.9178257262931453,-11.590476705448443,0
GUIDED_NOGPS,0.03978323936462402,65.01486522096322,-19.04445345017678,11.455436640963693,66.19815365957221,-1.3297860608466348,-13.60634309336678,14.851656152771392,62.37565091508997,0.7468763299032812,0.49523940763617064,58.361166080199254,0.19614613680161355,-0.33092772236339113,-5.501466098649925,0.4935017453343802,-16.14574730686838,16.675815780777477,65.83185339958696,-19.40191686153412,-13.18715363740921,9.332028776407242,-2.9178257262931453,-12.908778347341775,0
GUIDED_NOGPS,0.07540321350097656,28.078270707395284,-19.126170360818662,11.9573246396163,66.35305959368628,-1.7403557344747007,-13.599757307134793,14.866248651759829,62.37480788799326,0.9916745252639166,0.5158990756890196,58.95033819800455,0.16438461207289554,-0.336732516766221,-3.352627795269857,0.49323697210032186,-18.060429517859983,17.296669528600063,66.06296525537826,-18.706326186656952,-14.247691631317139,14.910121262073517,-3.9463676326119534,-8.94028476030804,0
GUIDED_NOGPS,0.12100577354431152,21.932606831349744,-19.512147873771724,12.166869871909446,66.66518228388091,-2.28540158460807,-13.589149674344236,14.889752583608406,62.373427327249026,1.084582173449015,0.39934211094616356,59.48322955704894,0.1490714566786912,-0.3616120757928561,-3.792598054778349,0.4927040165737258,-18.127586663456142,17.434069447510918,66.32707680430342,-18.79100352525711,-15.893952548503876,8.149481564760208,-4.104581894000675,-11.945614952664195,0
GUIDED_NOGPS,0.15404367446899414,30.272199086270238,-19.901085022951573,12.333482591963572,66.89847707985403,-2.8286515493475584,-13.573695189579121,14.923995959472386,62.371381673846955,0.9667783790175144,0.20241601778706,59.9669094031234,0.13650631357217466,-0.38685121707638453,-4.932098257636893,0.492303937809788,-18.461133187813907,17.36854001752905,66.51012097092186,-19.43349391222,-12.860943377017975,5.428643524646759,-4.30685918315603,-14.830039697653723,0
GUIDED_NOGPS,0.1761307716369629,45.282634278002696,-20.14301191554068,12.54156008929467,67.01589579763258,-3.271195176431416,-13.552638170693662,14.970653187016936,62.368546084364304,0.9008234043492267,0.007096006258687896,60.45371747583772,0.12294447279168426,-0.40309468658987535,-5.955838406203771,0.4920995054874439,-18.87793974586181,17.69793374685638,66.80802620965603,-20.017598569393158,-15.661048889160156,4.772797599434853,-4.837029019997383,-14.980449000913866,0
GUIDED_NOGPS,0.21015357971191406,29.39864021868648,-20.44497778037897,12.754321970031459,67.17135766802132,-3.7438125048581217,-13.525290503792764,15.031248959113091,62.36479841217294,0.770601739037261,0.01540233337748329,60.87490792119573,0.1092146673506666,-0.4232155988443358,-5.024058548259722,0.49182884926505777,-19.76175942104269,18.388649661043807,67.43409394076801,-20.017598569393158,-15.661048889160156,4.772797599434853,-5.805423617227259,-14.980449000913866,0
GUIDED_NOGPS,0.24410223960876465,29.45955399473222,-20.933113009676223,12.829227116329767,67.39744104382562,-4.319369690622653,-13.491029888212536,15.107162142533697,62.3600191886463,0.8045747264429343,-0.3304821714465049,61.40159063828458,0.10265750176148836,-0.45555061008132025,-5.983253670845372,0.4914363828461952,-20.201910024835872,18.37238840377141,67.47733084586142,-18.822912871837616,-13.479761779308319,3.9625629782676697,-6.153323482376329,-14.586604925445299,0
GUIDED_NOGPS,0.2774465084075928,29.995094148019422,-21.421870435405314,12.841176800854523,67.66959658532205,-4.826604595921614,-13.449298081500784,15.199629666649367,62.35409160436642,0.6635530913101503,-0.4706966169576108,61.860927690157105,0.10075637864528195,-0.48856453785819937,-5.938526368640716,0.4909636415323754,-20.614666713272147,18.56074424028741,67.48270140458632,-19.199374318122864,-16.96576625108719,9.307307004928589,-6.399797152008086,-11.615982339356565,0
GUIDED_NOGPS,0.3106727600097656,30.10122003731879,-21.86897299660489,12.746878872640703,67.88484560762699,-5.285629404366197,-13.399599144397518,15.309750412124432,62.34690149033095,0.46211149605772783,-0.5202401945150916,62.14963978637354,0.10630607581212317,-0.5201672736344393,-5.936863239348098,0.4905854950005967,-20.614666713272147,18.56074424028741,67.48270140458632,-18.53228360414505,-22.780054807662964,6.734845787286758,-6.399797152008086,-11.311078425938964,0
GUIDED_NOGPS,0.3461620807647705,28.18165570344888,-22.292677080964044,12.626022213139422,68.08265664145922,-5.7083403712719365,-13.341497685815451,15.438489099612887,62.338337299160145,0.7424576243971062,-0.5095121551239701,62.66262797417652,0.11449168248670918,-0.5511919373750631,-5.805352081815592,0.49023465711809155,-20.614666713272147,18.56074424028741,67.48270140458632,-18.53228360414505,-22.780054807662964,6.734845787286758,-6.399797152008086,-11.311078425938964,0
GUIDED_NOGPS,0.3800690174102783,29.497883114143047,-22.645840329717352,12.654880205764705,68.30392199996557,-6.154335705689479,-13.274617107820498,15.586680178454356,62.32829008630389,0.7620238752133712,-0.6430551066415603,63.00400765908293,0.11461455329204509,-0.5778914230976264,-6.330221912445696,0.48984142574677514,-20.191204018194536,18.677867794674835,68.23003493176563,-15.424267947673798,-10.67744866013527,5.172658711671829,-6.742868740429161,-11.757650708026384,0
GUIDED_NOGPS,0.41277146339416504,30.58209684357888,-23.022020736903432,12.677058769884468,68.39423391148549,-6.506407093834949,-13.198637850612286,15.75503171537003,62.31665349124867,0.859567941184439,-0.569585749947495,63.20735605105255,0.11670110190034642,-0.6065334454397322,-6.051716566845608,0.4896681132855974,-21.212544376239773,19.240148219704764,68.11555501733731,-15.920984745025635,-14.207012951374054,-0.84177665412426,-7.241554954708456,-6.896574339877044,0
GUIDED_NOGPS,0.44978976249694824,27.018365230386696,-23.363340652148395,12.74700433596329,68.39709971206781,-6.8410239585359145,-13.11329563750464,15.944129283158622,62.30332371872461,1.0440493763149263,-0.6983741427508158,63.580523436356195,0.1172057884837961,-0.6334736883049042,-5.915585941313007,0.48964058081131656,-21.212544376239773,19.240148219704764,68.11555501733731,-15.593452751636505,-10.632237046957016,-5.214440822601318,-7.241554954708456,-8.125835928202797,0
GUIDED_NOGPS,0.4805734157562256,32.48955436609681,-23.745491136128475,12.767739526601238,68.40642150447822,-7.191632142701555,-13.0183797199061,16.154439849392325,62.28819951991249,1.0367001994896985,-0.7430806657154583,63.789663828741986,0.12102887365067065,-0.6640017936930892,-6.5917891035895835,0.4895990226262383,-21.212544376239773,19.240148219704764,68.11555501733731,-15.593452751636505,-10.632237046957016,-5.214440822601318,-7.241554954708456,-8.125835928202797,0
GUIDED_NOGPS,0.5194356441497803,25.73729489586785,-24.075296002750203,12.843156208571791,68.49229528589599,-7.412065993219692,-12.913731122300414,16.386315665112754,62.2711821736507,1.0283188103261525,-0.9386367189765924,63.95787089743189,0.12441969299466542,-0.6915229383389896,-5.616400479553521,0.489424107709183,-22.457196293939184,19.41214867927482,68.11773944866384,-15.565510094165802,-11.80504858493805,2.625296637415886,-7.824493321969001,-3.4085828534064144,0
GUIDED_NOGPS,0.5478737354278564,35.16970626954779,-24.422000980518643,12.809813532946768,68.57935883045867,-7.6696144440487055,-12.799240887227043,16.63999815352691,62.2521754676423,1.2387064592874106,-1.059117093789092,64.12443872072099,0.13468436780632437,-0.7217977834260757,-6.368636511577424,0.4892437882832122,-22.457196293939184,19.41214867927482,68.11773944866384,-14.803777635097504,-16.143889725208282,2.0913468673825264,-7.824493321969001,-2.6568428418447025,0
GUIDED_NOGPS,0.5807855129241943,30.390203963337317,-24.686358990151945,12.892832392177546,68.59805096346241,-7.817611923652895,-12.674848320261656,16.915621798703118,62.231085679662,1.1493718538118751,-1.2008307124621627,64.14557132601301,0.14109569581618442,-0.746823411575896,-5.576797026619257,0.4891761590175393,-22.7540440480498,19.90092220134106,68.0193004935501,-13.609617948532104,-12.622174620628357,-0.11843335814774036,-7.9416345387936484,-1.9000585221375244,0
GUIDED_NOGPS,0.6163604259490967,28.11289922584537,-25.022179531489968,12.950291015449269,68.64262879115954,-8.002717374892525,-12.540539234996642,17.213218034266987,62.207821558763165,1.0493657180884293,-1.3306706875934011,64.20557453787157,0.14902305437372704,-0.7772143448218443,-5.842644818279822,0.48906082770492615,-22.7540440480498,19.90092220134106,68.0193004935501,-14.52721357345581,-10.449302941560745,0.5916545633226633,-7.9416345387936484,-2.7063950104994987,0
GUIDED_NOGPS,0.650054931640625,29.685360813067973,-25.33962620299499,13.003963212917615,68.68151711785157,-8.173043726801813,-12.396344198021602,17.53271913209736,62.18229430648485,0.8753341522229441,-1.3411857638206357,64.22762238851237,0.15856195792819755,-0.8073385601758168,-5.92519358511503,0.4889513212206766,-22.7540440480498,19.90092220134106,68.0193004935501,-14.52721357345581,-10.449302941560745,0.5916545633226633,-7.9416345387936484,-2.7063950104994987,0
GUIDED_NOGPS,0.6817784309387207,31.526401635586023,-25.645901638804823,13.135552741953958,68.63063356099484,-8.349870979883763,-12.242336773903851,17.873962091022264,62.15441755805875,0.7963831418331204,-1.3857178501571783,64.17013951645755,0.1645049814182205,-0.8369750165791063,-6.113971972259169,0.48899043279500864,-23.610917554723535,20.297468428968468,68.39754900424555,-13.396947085857391,-7.216648757457733,-5.771968141198158,-8.300461645272932,-3.0651105692930445,0
GUIDED_NOGPS,0.7169756889343262,28.416308722104038,-25.967071938367116,13.124171040733588,68.55664193936687,-8.420730065755869,-12.07863177016893,18.236692525514858,62.124107363616275,0.9643607054947414,-1.5470127674070295,64.11603758804188,0.1814141518832853,-0.8692438276761957,-5.461574003922725,0.489064691221224,-23.610917554723535,20.297468428968468,68.39754900424555,-15.80415666103363,-16.45253151655197,-6.850210577249527,-8.300461645272932,2.1842332383109593,0
GUIDED_NOGPS,0.7495670318603516,30.690178976482812,-26.256317987478635,13.190732021468975,68.51460357623274,-8.50016383810716,-11.905383482281088,18.620568554389408,62.0912821693955,0.9028513302024858,-1.6449698463794713,64.01635097710555,0.19493690443147316,-0.8997535266387232,-5.5797858569213625,0.4890803536083767,-23.610917554723535,20.297468428968468,68.39754900424555,-13.125412166118622,-9.984899312257767,-4.75020632147789,-8.300461645272932,1.4032662069605277,0
GUIDED_NOGPS,0.7821450233459473,30.700062947402323,-26.532441822591405,13.260482476676811,68.58306487512856,-8.597366494069888,-11.722783938623806,19.025164689497196,62.0558627989482,0.8455331297396793,-1.450904641987251,63.853007003104686,0.2091607026251202,-0.9303004353622882,-5.754085679732063,0.4889037564704934,-23.610917554723535,20.297468428968468,68.39754900424555,-14.045016467571259,-9.97045636177063,2.6860635727643967,-8.300461645272932,-0.5729538336211046,0
GUIDED_NOGPS,0.818021297454834,27.87727973626841,-26.790518404942866,13.200490124059765,68.71902531296803,-8.544889933995718,-11.531061145480283,19.449975724422508,62.01777243434685,0.7453318000163592,-1.4577932079303264,63.66831868794754,0.23476799771972634,-0.961118915268914,-4.834170302258626,0.488607870106344,-23.610917554723535,20.297468428968468,68.39754900424555,-13.506488502025604,-18.164339661598206,7.216601073741913,-8.300461645272932,7.9380125562166155,0
GUIDED_NOGPS,0.85202956199646,29.40750348811936,-27.062382172409887,13.118720327191701,68.8594188278661,-8.496317388933248,-11.330477332013936,19.894420623178583,61.97693659739164,0.6981371138422752,-1.4335905393280919,63.45195195541987,0.26262095343134606,-0.9936200655626514,-4.812427096811015,0.4882997802081934,-23.610917554723535,20.297468428968468,68.39754900424555,-13.506488502025604,-18.164339661598206,7.216601073741913,-8.300461645272932,7.9380125562166155,0
GUIDED_NOGPS,0.890239953994751,26.176770891842974,-27.29017390835037,13.251348704336134,68.79673460270718,-8.380830347490011,-11.121327195248917,20.35784640890353,61.93328313081746,0.6559927122291809,-1.3932816443327327,63.30400322780823,0.28043797049497904,-1.021918115050865,-4.380245003449265,0.4883321324977875,-23.610917554723535,20.297468428968468,68.39754900424555,-12.328813970088959,-4.586979374289513,-5.23940771818161,-8.300461645272932,10.857892813187679,0
GUIDED_NOGPS,0.9203345775604248,33.230895996577324,-27.49422803995043,13.404448953872343,68.70685725718337,-8.307761119587648,-10.903936145050594,20.839532052556326,61.88674217950092,0.4406617672169788,-1.4516181833121058,63.11326336504645,0.2975955475590523,-1.0494296427609442,-4.536365068055087,0.48840580436793984,-23.610917554723535,20.297468428968468,68.39754900424555,-10.749295353889465,-2.6314962655305862,-6.813690811395645,-8.300461645272932,7.950383736350801,0
GUIDED_NOGPS,0.9529087543487549,30.70590646871065,-27.647005949475982,13.533461548835445,68.7230983358101,-8.143749963201037,-10.67865854910607,21.338692361612736,61.83724617166736,0.37642917415829796,-1.344048573578223,62.64549785973813,0.31937000071063426,-1.0741740977101506,-3.8791235817432304,0.4882940513209573,-23.610917554723535,20.297468428968468,68.39754900424555,-11.528285592794418,-6.2514230608940125,0.5325515754520893,-8.300461645272932,12.432866987674565,0
GUIDED_NOGPS,0.986156702041626,30.08092717701565,-27.78847884144653,13.603066192045354,68.73461737898361,-7.9774672393662,-10.445875977904677,21.854481868761276,61.78472980009785,0.24608427195658117,-1.2064333885722773,62.29773194795776,0.3458816873809625,-1.0991961169161026,-3.7879116853078343,0.4881851911158942,-23.610917554723535,20.297468428968468,68.39754900424555,-10.836335271596909,-9.617013484239578,0.32068192958831787,-8.300461645272932,12.399422966403598,0
GUIDED_NOGPS,1.0197794437408447,29.74957974848745,-27.93027599933825,13.771918011549797,68.76258853638622,-7.910408049535084,-10.205995449718468,22.385998720599172,61.7291300033362,0.2334358555112018,-0.9938083190493109,62.02631389071979,0.3655691070266538,-1.1244679874753494,-4.345545869488825,0.488043120493815,-23.610917554723535,20.297468428968468,68.39754900424555,-10.683021694421768,-2.550046145915985,1.3899849727749825,-8.300461645272932,6.204557502417923,0
GUIDED_NOGPS,1.055053472518921,28.352343934836245,-28.039479582722002,13.966400157861493,68.7002199483042,-7.76700353198017,-9.959447675582739,22.932288566328292,61.67038594689597,0.07169537513971314,-1.0260518278519428,61.58497438731025,0.3864124974108905,-1.1475514512313554,-3.8500596947515877,0.488049282197606,-23.610917554723535,20.297468428968468,68.39754900424555,-8.810767531394958,-0.5506389774382114,-4.29561622440815,-8.300461645272932,10.720538562752369,0
GUIDED_NOGPS,1.0869450569152832,31.363268602364414,-28.145306035553954,14.156126457318251,68.56562251459276,-7.625629540707104,-9.706685304276515,23.49234844645111,61.608439004467456,-0.099431999626768,-1.0153027109239294,61.15034212966566,0.40841126250423576,-1.1708681533237801,-3.6877314008222952,0.48817278803278696,-23.610917554723535,20.297468428968468,68.39754900424555,-8.386936783790588,-0.39096130058169365,-8.819640427827835,-8.300461645272932,10.378822491029338,0
GUIDED_NOGPS,1.122687578201294,27.98254720128094,-28.21976444739952,14.290633382495061,68.42897534636711,-7.460057763734236,-9.44818116730305,24.065130681466666,61.543232739124726,-0.22892947812372721,-0.8877831858414972,60.71054624900854,0.4352732184098064,-1.1929059124575967,-3.549188038938542,0.48829423756768797,-23.610917554723535,20.297468428968468,68.39754900424555,-8.676320314407349,-4.701366275548935,-8.652026206254959,-8.300461645272932,11.80802762202346,0
GUIDED_NOGPS,1.1547071933746338,31.23504267139304,-28.292929078856975,14.397105424669475,68.40860061575081,-7.347739101361986,-9.184426523870345,24.64954676056649,61.4747128845326,-0.21006588301832715,-0.9168174662295752,60.43185404030451,0.4634666896302318,-1.215766980661582,-3.6953170197185408,0.488212390856929,-23.610917554723535,20.297468428968468,68.39754900424555,-7.71709680557251,-5.726433545351028,-1.2798439711332321,-8.300461645272932,8.396843320316915,0
GUIDED_NOGPS,1.1900684833526611,28.283515964799893,-28.324263291425662,14.544976932522307,68.33167312057535,-7.174178542320221,-8.915929305871623,25.244471230330596,61.40282732615367,-0.25237191465482745,-1.1688103587463199,59.867653094104774,0.4915138573828547,-1.2355563567744474,-3.338433117680281,0.48822096214948313,-23.610917554723535,20.297468428968468,68.39754900424555,-6.921269744634628,-3.4761715680360794,-4.8578619956970215,-8.300461645272932,12.342310632111245,0
GUIDED_NOGPS,1.227245807647705,26.901394358428366,-28.371155147073424,14.60134376035544,68.28769227648446,-6.917753063247237,-8.64321236286586,25.848745583423387,61.327526082455314,-0.09707481063074669,-1.0260274953030246,59.55963205310471,0.5273640321811177,-1.2563407041567758,-2.766875382056039,0.4881677174701504,-23.610917554723535,20.297468428968468,68.39754900424555,-5.902712047100067,-8.116614073514938,-2.690664678812027,-8.300461645272932,16.88048126951177,0
GUIDED_NOGPS,1.257343053817749,33.2327390856509,-28.37048971538575,14.742506666263012,68.27710229109675,-6.687609001210468,-8.366811707058265,26.46118214728964,61.24876128611669,-0.14076070056214826,-1.222819439277961,59.100943869203334,0.5585635602519016,-1.273936775968248,-2.485551566911148,0.4880518202915339,-23.610917554723535,20.297468428968468,68.39754900424555,-5.183282122015953,-3.386443108320236,-0.6518244743347168,-8.300461645272932,15.659994766722189,0
GUIDED_NOGPS,1.2918033599853516,29.0233124589143,-28.32017451995083,14.923087786174529,68.16011791444389,-6.508403624523027,-8.087274758280785,27.08056797285045,61.166487165235736,-0.28948316054070994,-1.3507408783043662,58.69661716090609,0.5871450244300931,-1.2888324663841007,-2.8583986302184234,0.4881108277263461,-23.610917554723535,20.297468428968468,68.39754900424555,-3.80873866379261,-1.32858632132411,-7.5293488800525665,-8.300461645272932,13.373672611877755,0
GUIDED_NOGPS,1.327021837234497,28.39918478444861,-28.27329543138145,15.11443130727882,68.05304166549614,-6.2906004892214105,-7.8051585889726205,27.70566872319916,61.08066002453619,-0.36211774005215275,-1.4472214624773216,58.144512479726444,0.6163623346249185,-1.3034720787668777,-2.5447668974212245,0.4881469512103681,-23.610917554723535,20.297468428968468,68.39754900424555,-2.0192909985780716,0.7040371187031269,-6.725882738828659,-8.300461645272932,14.822944838653372,0
GUIDED_NOGPS,1.35786771774292,32.4232496656643,-28.18270080281564,15.299784616975927,67.93476087004302,-6.100070611909172,-7.521028169160704,28.335232562297342,60.9912382265746,-0.22888465500729901,-1.7635625276601086,57.74865520600002,0.6459612017708045,-1.3157938876460296,-2.4196614297586443,0.4881960115061037,-23.610917554723535,20.297468428968468,68.39754900424555,0.220211292617023,0.21782191470265388,-7.545634359121323,-8.300461645272932,13.636108970357155,0
GUIDED_NOGPS,1.391883134841919,29.403586500848252,-28.076489648488913,15.486432693075974,67.82024992535963,-5.922324006097826,-7.235454611440213,28.967994043670757,60.89818217294731,-0.010112521953027004,-1.4796856717675098,57.41185174783752,0.6755535700508362,-1.3272497241690437,-2.5145909066148366,0.48823248482089904,-23.610917554723535,20.297468428968468,68.39754900424555,0.220211292617023,0.21782191470265388,-7.545634359121323,-8.300461645272932,13.636108970357155,0
GUIDED_NOGPS,1.426299810409546,29.060312753323956,-28.007321192661784,15.600434831855699,67.85254008722387,-5.687173326063825,-6.949013415955086,29.60267799910526,60.801454285497485,-0.06448514997541265,-1.6350398185433306,57.029740229815744,0.7107903719009322,-1.3405340546561242,-2.0443139850009278,0.48801315413706514,-23.610917554723535,20.297468428968468,68.39754900424555,-1.0301196947693825,-3.7836775183677673,2.080308645963669,-8.300461645272932,16.35164021264519,0
GUIDED_NOGPS,1.460120677947998,29.57171361088589,-27.93296678438411,15.682838468343151,67.81571206408803,-5.4658957553760725,-6.662282715378495,30.238003427342772,60.70101898752211,-0.22895727912808328,-1.4741007114605549,56.39070773106935,0.7477729204100598,-1.3536236697809008,-1.9528860815611222,0.4879050217698379,-23.610917554723535,20.297468428968468,68.39754900424555,-0.7976084016263485,-5.584830790758133,-2.4146072566509247,-8.300461645272932,15.532577587755602,0
GUIDED_NOGPS,1.4928255081176758,30.583434808922075,-27.805260735448805,15.824410428721562,67.75287133792244,-5.249453389761532,-6.3758415198933704,30.87268738277726,60.596842684979,-0.05168961765861357,-1.54259822404738,56.01112338304048,0.7814723108970956,-1.3629803216584906,-1.834974299009951,0.48783475128999615,-23.610917554723535,20.297468428968468,68.39754900424555,1.6662972047924995,-1.8155962228775024,-4.327363893389702,-8.300461645272932,16.184476455351007,0
GUIDED_NOGPS,1.5261764526367188,29.987373899863442,-27.670603558984634,15.991382614942747,67.80548503188062,-5.052514658550618,-6.090267962172881,31.505448864150676,60.4888937476938,-0.1335836658483458,-1.3813864430063325,55.53075276361889,0.8131938653256277,-1.3717672642244252,-1.8582336391386332,0.4875617948168824,-23.610917554723535,20.297468428968468,68.39754900424555,2.1125249564647675,0.1044125179760158,2.969638630747795,-8.300461645272932,15.0541706477204,0
GUIDED_NOGPS,1.5605409145355225,29.105282149498986,-27.533130422786524,16.166618936248714,67.81717646086396,-4.82731868954814,-5.806137542360963,32.13501270324886,60.377142490566996,0.06656649004241537,-1.2360720339801956,55.1547952460393,0.845001637855165,-1.3796226951121835,-1.5840192446701282,0.48735194225049516,-23.610917554723535,20.297468428968468,68.39754900424555,2.3970790207386017,0.9358836337924004,0.33781505189836025,-8.300461645272932,16.73127578709284,0
GUIDED_NOGPS,1.5955500602722168,28.565910004154492,-27.368965794640218,16.31246598248603,67.86261372311712,-4.691649405490126,-5.524021373052797,32.76011345359758,60.26156115478093,0.15368998185671792,-0.8920180098486109,54.60790882938554,0.876346055208005,-1.3870233330192063,-2.0408985667789294,0.48707821063382845,-23.610917554723535,20.297468428968468,68.39754900424555,4.0747374296188354,-0.7985617034137249,2.3915469646453857,-8.300461645272932,11.27652449892787,0
GUIDED_NOGPS,1.6288714408874512,30.01763426084965,-27.20079036250463,16.456084592415596,67.9101813931111,-4.554452621727826,-5.244484424275317,33.37949927915838,60.14212388900677,-0.09180390562348026,-0.809979006902001,54.17442404352152,0.9075901402742609,-1.393848249875952,-1.905858993765238,0.4867943022430226,-23.610917554723535,20.297468428968468,68.39754900424555,4.0747374296188354,-0.7985617034137249,2.3915469646453857,-8.300461645272932,11.27652449892787,0
GUIDED_NOGPS,1.6600852012634277,32.04008922296575,-27.018784932947224,16.641781246231798,67.99569931496802,-4.328846592934311,-4.968083768467718,33.991935843024635,60.01880673061158,-0.12550416571002895,-0.6485421497834606,53.726653917008406,0.9381753129615722,-1.3978439516303305,-1.1618729778053585,0.486439282606594,-23.610917554723535,20.297468428968468,68.39754900424555,5.085243284702301,2.2087538614869118,4.741345718502998,-8.300461645272932,18.061743703445256,0
GUIDED_NOGPS,1.6963441371917725,27.58521266170774,-26.841749073769062,16.74409506783941,68.0375074287424,-4.1816871916573515,-4.695366825461967,34.59621019611741,59.891587586865256,0.03341931519607903,-0.4539156425796828,53.24468161822646,0.9713812925846663,-1.4033514616394813,-1.6935881224658171,0.48615193626880887,-23.610917554723535,20.297468428968468,68.39754900424555,4.60142157971859,-3.034251183271408,1.9113188609480858,-8.300461645272932,14.059828293255357,0
GUIDED_NOGPS,1.7299282550811768,29.78084195428823,-26.615968826915317,16.97731230497268,68.2043253057504,-4.04070974890615,-4.426869607463235,35.191134665881535,59.76044621614759,-0.06076944702564638,-0.19638968318541955,52.80126232221464,0.9962992068600846,-1.405043026887619,-1.587474063356337,0.4856454055476752,-23.610917554723535,20.297468428968468,68.39754900424555,8.438622206449509,5.890551209449768,9.84511598944664,-8.300461645272932,11.8886716655538,0
GUIDED_NOGPS,1.763768196105957,29.555251772200066,-26.412713954144156,17.17786371753723,68.06602361201996,-3.8749445474488593,-4.163114964030534,35.77555074498136,59.625364209155244,-0.06480059265727617,-0.2601637464352104,52.41337246415503,1.0230939463174413,-1.4073328681511235,-1.3356815157016424,0.48565087901513,-23.610917554723535,20.297468428968468,68.39754900424555,6.5189361572265625,3.8152415305376053,-9.469299763441086,-8.300461645272932,14.933165308837161,0
GUIDED_NOGPS,1.7977700233459473,29.413896602990267,-26.192014343360576,17.36999431654781,67.98717519377313,-3.7753180067998473,-3.9046108270570663,36.34833297999691,59.48632497010877,-0.10694918309732239,-0.06696157379721829,51.94286463789495,1.0481796679367548,-1.4093189425560035,-1.684206844803297,0.4855485546197706,-23.610917554723535,20.297468428968468,68.39754900424555,7.731083035469055,3.499859943985939,-5.635238438844681,-8.300461645272932,11.285040037275582,0
GUIDED_NOGPS,1.8328886032104492,28.48191658404748,-25.949983205706808,17.581839806499058,67.90668281943772,-3.7162808901844206,-3.651848455750841,36.90839286011973,59.34331369795959,-0.046473701010251015,0.09043305197250431,51.48039935938256,1.0704384598019376,-1.4102348677857337,-1.8931138573897155,0.48544227249348715,-23.610917554723535,20.297468428968468,68.39754900424555,9.239225089550018,5.0185758620500565,-5.705470964312553,-8.300461645272932,9.077533142811216,0
GUIDED_NOGPS,1.864483118057251,31.654407824728498,-25.674294908874497,17.926819439089027,67.65441739410294,-3.5723227377689755,-3.4053006816151132,37.45468270584885,59.19631736759705,0.21627516530410343,0.06951207582304948,51.04112940329153,1.0861424394316006,-1.4065484608920866,-1.2342963279143113,0.48562122995494,-23.610917554723535,20.297468428968468,68.39754900424555,11.542581766843796,13.761641085147858,-16.36814922094345,-8.300461645272932,14.100251914084431,0
GUIDED_NOGPS,1.897362232208252,30.42128320060345,-25.42202937631831,18.135292580221947,67.53346853812548,-3.533370021458754,-3.165420153428908,37.986199557686746,59.04532471105538,0.1130102022533418,0.05619164613657756,50.63569278925416,1.106490009620129,-1.406262579162571,-1.8832383639635544,0.48557015549398086,-23.610917554723535,20.297468428968468,68.39754900424555,10.310519486665726,5.501784384250641,-8.378873765468597,-8.300461645272932,9.33926940690069,0
GUIDED_NOGPS,1.9319007396697998,28.958388279399884,-25.16319727166467,18.33187764444412,67.43457577138894,-3.4984626611004983,-2.9326375822275104,38.50198906483527,58.890326198720736,0.36202593270475425,0.011166041946915109,50.191122606367195,1.1265585178001838,-1.4051968366430705,-1.8963693932210877,0.4854747757264641,-23.610917554723535,20.297468428968468,68.39754900424555,10.854291915893555,4.873195290565491,-6.874776631593704,-8.300461645272932,8.642371545505949,0
GUIDED_NOGPS,1.9686791896820068,27.192479496904276,-24.964999789979277,18.363341070196476,67.3904445877078,-3.4276876239478815,-2.707359986282981,39.00114937389171,58.731314020538186,0.3203902734631201,-0.08588301873725851,49.66659822905606,1.1562079043983393,-1.4071038562121019,-1.6720942113561135,0.4852794780358117,-23.610917554723535,20.297468428968468,68.39754900424555,6.925668567419052,-5.538653209805489,-3.39144729077816,-8.300461645272932,10.620483121600852,0
GUIDED_NOGPS,1.9997403621673584,32.200219565935036,-24.728913451815313,18.448336578852683,67.29871949052212,-3.3729734241117244,-2.4899689360846544,39.48283501754449,58.56828206721872,0.43936021597369473,-0.060793566131152985,49.23552108487446,1.1813772544150676,-1.4062796957286219,-1.6714925241375316,0.48515825638038423,-23.610917554723535,20.297468428968468,68.39754900424555,9.59743782877922,-1.7622385174036026,-6.3795968890190125,-8.300461645272932,9.523699882416667,0
GUIDED_NOGPS,2.034242630004883,28.98901068520797,-24.495457257818035,18.54820656175142,67.32161132938977,-3.2582415432551493,-2.2808187993196505,39.94626080326941,58.40122591144625,0.7483737955179537,-0.15432332181967795,48.84875137783874,1.2060518626039816,-1.4036950161992228,-1.289001945521938,0.484835344789496,-23.610917554723535,20.297468428968468,68.39754900424555,10.249102860689163,-0.10571482125669718,0.19581587985157967,-8.300461645272932,15.223279301380744,0
GUIDED_NOGPS,2.0673258304595947,30.23096106442173,-24.25768851574775,18.648123860433994,67.33893239365584,-3.120616060996696,-2.0802349858532914,40.3907057020255,58.23014278908463,0.6981625136082512,-0.04276437468240519,48.532250656984104,1.230182540100245,-1.3996915498725662,-1.0414931781552061,0.48451505767222897,-23.610917554723535,20.297468428968468,68.39754900424555,10.249102860689163,-0.10571482125669718,0.19581587985157967,-8.300461645272932,15.223279301380744,0
GUIDED_NOGPS,2.108102798461914,24.527376392503143,-24.05525725071927,18.783686219728146,67.09077270605691,-3.04393967255952,-1.888512192709772,40.81551673695081,58.055031580384664,0.837800768629843,-0.07732511187234987,48.11384692880746,1.2494191356885527,-1.3983239739196187,-1.42518362686449,0.48463924008635717,-23.610917554723535,20.297468428968468,68.39754900424555,8.383087813854218,2.5723978877067566,-16.70083850622177,-8.300461645272932,12.349266326007255,0
GUIDED_NOGPS,2.135012626647949,37.16707133362871,-23.84462047480861,18.884739419247463,67.07893016393531,-2.926582079818391,-1.7059126490525038,41.22011287205861,57.8758927911911,0.9776822424189108,-0.2276090371385198,47.92149855649615,1.2705553782437546,-1.3950117132520847,-0.9587390985425267,0.4843548364663348,-23.610917554723535,20.297468428968468,68.39754900424555,8.945588022470474,0.48588491044938564,-1.6648918390274048,-8.300461645272932,14.143551044554082,0
GUIDED_NOGPS,2.1697194576263428,28.81712687823345,-23.693064573443888,18.939785024611904,67.1061516078295,-2.899916661701687,-1.5326643611646595,41.603988900933146,57.69272853414962,0.871195217668475,-0.17238079452045782,47.65842357532935,1.290843191152901,-1.3967182842474783,-1.581478462974646,0.4839971807747442,-23.610917554723535,20.297468428968468,68.39754900424555,6.767868250608444,-1.644914597272873,-0.1905672252178192,-8.300461645272932,11.403017041035566,0
GUIDED_NOGPS,2.202033281326294,30.950389987971988,-23.464481771634517,19.18015740582435,67.09536420619716,-2.9170961870040895,-1.368959357429734,41.96671933542578,57.50554250991391,0.9131359942669383,-0.2673429689439814,47.417655991991815,1.2979544138820804,-1.3935912581045775,-1.8529676426335961,0.4836973031163185,-23.610917554723535,20.297468428968468,68.39754900424555,11.121158301830292,10.195977240800858,-2.090887166559696,-8.300461645272932,7.004944682569405,0
GUIDED_NOGPS,2.236332893371582,29.15829428694576,-23.306285083771055,19.285229432880858,67.11419597711648,-2.9220117109879356,-1.2149519333119763,42.30796229435066,57.31433998835257,0.6856556901860174,-0.20042859282114495,47.14092404757958,1.3119994956955556,-1.3941739299259734,-1.7818748778216578,0.4833402448191014,-23.610917554723535,20.297468428968468,68.39754900424555,6.790264695882797,1.6898570582270622,-0.3460065461695194,-8.300461645272932,8.056588909076268,0
GUIDED_NOGPS,2.2702889442443848,29.454175181354064,-23.162718237095024,19.366650323505716,67.12421971829981,-3.002283590474405,-1.0707568963369347,42.62746339218103,57.11912778975623,0.7647495475790295,-0.3515062407637446,46.96178526112307,1.3243081907335104,-1.3967965011936412,-2.274807073665389,0.4829913437214759,-23.610917554723535,20.297468428968468,68.39754900424555,6.084000691771507,0.37620607763528824,-0.9082010015845299,-8.300461645272932,3.3134976555365516,0
GUIDED_NOGPS,2.3043806552886963,29.336951808071625,-23.010357748067747,19.44258954139166,67.14225196725015,-3.0417709150628056,-0.9364478110719183,42.9250596277449,56.91991426604446,0.7317634691475703,-0.5270301496020248,46.80052449481907,1.3366833832059823,-1.3973330231580767,-2.056586538484079,0.48262202590795034,-23.610917554723535,20.297468428968468,68.39754900424555,7.227285951375961,0.3783405292779207,-0.5821011960506439,-8.300461645272932,6.20712053090397,0
GUIDED_NOGPS,2.3401567935943604,27.95419949080924,-22.86800988473188,19.51409571289205,67.17328089129947,-3.079291009605804,-0.8120552441065421,43.20068327292111,56.716709281972825,0.6012772407269723,-0.4242738488814439,46.70744609190472,1.3480552910594314,-1.397790172915934,-2.0574371596852385,0.4822238282641447,-23.610917554723535,20.297468428968468,68.39754900424555,6.867998093366623,0.31536566093564034,0.17566252499818802,-8.300461645272932,6.470516530961757,0
GUIDED_NOGPS,2.3732025623321533,30.26935900581672,-22.719377824134533,19.58575345504969,67.20232914324899,-3.1079435216417535,-0.6975650090331733,43.454365761335254,56.5095241963399,0.49461316466664507,-0.5721871448867707,46.56208259089392,1.358372600283078,-1.3970107708705235,-2.0380934068567775,0.48182223159025456,-23.610917554723535,20.297468428968468,68.39754900424555,6.867998093366623,0.31536566093564034,0.17566252499818802,-8.300461645272932,6.470516530961757,0
GUIDED_NOGPS,2.4139533042907715,24.54373840635259,-22.630764981918986,19.62855829127776,67.24314509679769,-3.1760841265788655,-0.5929164114274776,43.68624157705568,56.298371843194246,0.5666530908334736,-0.719318384232131,46.51548362528151,1.367983732318869,-1.4002144582212768,-2.241647480273801,0.4813938854688741,-23.610917554723535,20.297468428968468,68.39754900424555,3.9258815348148346,-0.9756769984960556,0.5699647590517998,-8.300461645272932,5.189631519115402,0
GUIDED_NOGPS,2.4475255012512207,29.7918415762819,-22.510040829414432,19.61820955488974,67.29091421507844,-3.292085387945988,-0.4980004938289362,43.89655214328937,56.08326651304143,0.6938144045104505,-0.8729067136640921,46.5015022280505,1.3784526845393659,-1.4021955695824768,-2.674214096395642,0.4809469989065371,-23.610917554723535,20.297468428968468,68.39754900424555,4.327325522899628,-4.81499470770359,1.4788812026381493,-8.300461645272932,0.18436324084133449,0
GUIDED_NOGPS,2.4850728511810303,26.637097440001018,-22.457803107990998,19.539675913167976,67.28653606006735,-3.4134490059425806,-0.41265828072129906,44.08564971107799,55.864223934051026,0.7625753596279969,-1.3219494965186467,46.36507261447408,1.391390591231663,-1.4080510953607948,-2.9248331994224523,0.48058206938577225,-23.610917554723535,20.297468428968468,68.39754900424555,2.568265050649643,-8.044587075710297,-2.407240867614746,-8.300461645272932,2.598410573495243,0
GUIDED_NOGPS,2.508898973464966,41.979982384498356,-22.42825802426576,19.456084973552336,67.28720344629993,-3.553022475185715,-0.33667902351308143,44.25400124799364,55.64126125326365,0.8844040031104863,-1.4527116539095426,46.30413708179381,1.4028712654461457,-1.41515386586337,-2.953094986139559,0.48020189827183835,-23.610917554723535,20.297468428968468,68.39754900424555,2.568265050649643,-8.044587075710297,-2.407240867614746,-8.300461645272932,2.598410573495243,0
GUIDED_NOGPS,2.5422401428222656,29.997668447515036,-22.314481565520403,19.517218020962098,67.22817465433604,-3.7028669841373727,-0.2697984455181306,44.40219232683512,55.41439701779791,0.7810948839539575,-1.9049638786220628,46.22720866117196,1.404559744146382,-1.4163473886580347,-3.114472870933241,0.4799165780178852,-23.610917554723535,20.297468428968468,68.39754900424555,6.657477468252182,1.0539835318922997,-5.676167830824852,-8.300461645272932,0.19036900483418553,0
GUIDED_NOGPS,2.5759243965148926,29.695869500573483,-22.17607544398862,19.72828404229428,67.02535078548912,-3.857338802244098,-0.2116969869360581,44.530931014323585,55.18365115605748,0.7520918196648206,-1.9622952058546805,46.16008497710365,1.396131799690331,-1.414989322242021,-3.2338236813440626,0.4798691106299662,-23.610917554723535,20.297468428968468,68.39754900424555,8.686313033103943,10.751496255397797,-14.64739441871643,-8.300461645272932,-0.016206331353147755,0
GUIDED_NOGPS,2.610607624053955,28.835749888281597,-22.063749924674113,19.797103869706223,67.1716881894504,-3.9422792965691102,-0.16199804983279975,44.64105175979864,54.94904495893803,0.6494001922979434,-2.21111835698801,46.051642063651364,1.396763088664452,-1.4134791859714146,-2.858121834603719,0.47922150650812895,-23.610917554723535,20.297468428968468,68.39754900424555,7.223696261644363,1.7461512237787247,7.117146253585815,-8.300461645272932,4.206000608816233,0
GUIDED_NOGPS,2.648463487625122,26.42147833646202,-21.91124545434613,19.97850888686053,67.2017529520839,-4.036429312324167,-0.1202662431210193,44.73351928391435,54.710601061034325,0.5853706906453646,-2.1804589184642924,45.985122851324604,1.389583364767763,-1.40876698053047,-2.922065055387173,0.47876504178521573,-23.610917554723535,20.297468428968468,68.39754900424555,10.10901853442192,9.044667333364487,-0.1820202451199293,-8.300461645272932,3.421852203416457,0
GUIDED_NOGPS,2.6770987510681152,34.92692025847712,-21.776423626496605,20.130232071168166,67.228623766552,-4.146940487509215,-0.08600562754082475,44.80943246733494,54.46834342184714,0.5163332729489915,-2.0692363314632165,45.94195605577013,1.3827632059878723,-1.4050977584335693,-3.2537773613227956,0.47830752341400173,-23.610917554723535,20.297468428968468,68.39754900424555,9.473291784524918,7.390596717596054,-0.5156060680747032,-8.300461645272932,2.537521784922107,0
GUIDED_NOGPS,2.710540533065796,29.906763829271423,-21.65499857066239,20.322045888853857,67.24994083993857,-4.3388111796620805,-0.05865796063993045,44.87002823943109,54.22229730699031,0.40014465817364003,-2.181296470411265,45.90610097772215,1.3706266262474103,-1.4034963363841482,-3.7495435611181405,0.47785300599398794,-23.610917554723535,20.297468428968468,68.39754900424555,10.181882232427597,10.727384686470032,-1.1605102568864822,-8.300461645272932,-1.9080918918185172,0
GUIDED_NOGPS,2.7515511512756348,24.38832422374695,-21.511507702184137,20.52178838225194,67.26514735457647,-4.515759629707471,-0.03760094175448714,44.91668546697559,53.97248926939777,0.3924732618382315,-2.016245589448142,45.880576560793806,1.35770740716741,-1.3996761867340364,-3.5851378598727424,0.4774024812551962,-23.610917554723535,20.297468428968468,68.39754900424555,10.181882232427597,10.727384686470032,-1.1605102568864822,-8.300461645272932,-1.9080918918185172,0
GUIDED_NOGPS,2.7777950763702393,38.10959576227296,-21.398562926324782,20.681177833099348,67.4180404187003,-4.639677990157507,-0.0221464569893719,44.950928842839545,53.71894713053048,0.22818688181447344,-1.817170548021423,45.89284016544857,1.3476660332705803,-1.3961717105326525,-3.699918286941056,0.4767115414101113,-23.610917554723535,20.297468428968468,68.39754900424555,7.989087700843811,8.008994907140732,7.570549100637436,-8.300461645272932,1.0723832421479607,0
GUIDED_NOGPS,2.812652587890625,28.69332384711685,-21.27118231592519,20.85134167953011,67.4683909205399,-4.779998046553247,-0.01153882419877661,44.97443277468821,53.461699961583506,0.2649515489608307,-1.6311216378372706,45.973709605221515,1.3360575563235288,-1.3917527372205758,-3.6734579782215713,0.47618862536977413,-23.610917554723535,20.297468428968468,68.39754900424555,12.028869986534119,10.526759922504425,0.7829304784536362,-8.300461645272932,0.6838291481915678,0
GUIDED_NOGPS,2.8484601974487305,27.92981428086274,-21.099024464216345,21.066346248345614,67.58771799610818,-4.91401290431377,-0.004953037966796359,44.98902527367659,53.200778064692976,0.27218170440368583,-1.5201061976671162,46.04836357284976,1.3216690484966533,-1.383946112444763,-3.696352327218707,0.47554220211659415,-23.610917554723535,20.297468428968468,68.39754900424555,12.887293100357056,12.341214716434479,5.46329990029335,-8.300461645272932,0.093808806268717,0
GUIDED_NOGPS,2.8782081604003906,33.62032784257144,-20.93976719219213,21.279823463930036,67.70631280353123,-5.07535935026065,-0.0014930145876768108,44.99669184314624,52.936212954143116,0.2778994798734857,-1.4889122968408448,46.119226785488635,1.3062933266527426,-1.3772588577516869,-4.130311043795898,0.4748908302560402,-23.610917554723535,20.297468428968468,68.39754900424555,12.653644382953644,12.706537544727325,5.4037779569625854,-8.300461645272932,-1.5706495975252106,0
GUIDED_NOGPS,2.9120874404907227,29.525500327333393,-20.799668363917313,21.47834557257088,67.82298128774113,-5.235501752300987,-0.00018983704661579281,44.99957936732031,52.66803733757325,0.33050359582894046,-1.5215290114485944,46.260717569240036,1.2915095726822312,-1.37154048793735,-4.087270937230028,0.4742365952847146,-23.610917554723535,20.297468428968468,68.39754900424555,12.653644382953644,12.706537544727325,5.4037779569625854,-8.300461645272932,-1.5706495975252106,0
GUIDED_NOGPS,2.946396589279175,29.153835460283037,-20.68312788495601,21.604765205457586,67.99756941019345,-5.452416476268927,-1.0658141036401503e-14,44.99999999999997,52.396285097184816,0.27050998892389877,-1.633570367376426,46.4235356186748,1.2794454441504024,-1.3687523516519489,-4.539039760156338,0.4734778166678853,-23.610917554723535,20.297468428968468,68.39754900424555,9.633736312389374,7.038986682891846,9.084782004356384,-8.300461645272932,-5.515207426942869,0
GUIDED_NOGPS,2.9792239665985107,30.46591899587425,-20.517675799551228,21.775722211423464,68.22504753217166,-5.645303064348688,0.0,45.0,52.120991270948316,0.17753601319865717,-1.6759852017919703,46.61053936796058,1.2655991475669612,-1.3621638499597009,-4.5599452679727595,0.4726231043559203,-23.610917554723535,20.297468428968468,68.39754900424555,13.372498750686646,10.38697361946106,12.479182332754135,-8.300461645272932,-4.144449505337017,0
GUIDED_NOGPS,3.0129268169403076,29.676749237616125,-20.35940764085356,21.93998051538365,68.45068006887958,-5.834984851673313,0.0,45.0,51.84219203381041,0.2722834101892956,-2.0039275567234354,46.7983080984334,1.2522436522724825,-1.3558973989818215,-4.62618973331443,0.4717655703403824,-23.610917554723535,20.297468428968468,68.39754900424555,13.372498750686646,10.38697361946106,12.479182332754135,-8.300461645272932,-4.144449505337017,0
GUIDED_NOGPS,3.046647071838379,29.662687411598302,-20.220723104347172,22.10218619332869,68.57737095110006,-6.106765732026929,0.0,45.0,51.55992467890087,0.15959738845747817,-2.0760195630826854,47.005969754863884,1.2370060226786472,-1.3525129100353734,-5.282797647407882,0.4710703413372614,-23.610917554723535,20.297468428968468,68.39754900424555,11.980625987052917,10.262271761894226,6.143450736999512,-8.300461645272932,-9.42812931422891,0
GUIDED_NOGPS,3.0822229385375977,28.109507884701735,-20.03797847015559,22.207907424110687,68.74765320347714,-5.943460234122518,0.0,45.0,51.274227598739586,0.36017876674066246,-2.3077996846895408,47.26283609407514,1.2356821340905848,-1.3374191183242883,-2.6523487393296534,0.47029517647194613,-21.568798825246255,22.999302706111592,65.82427947016744,9.539937227964401,-0.7585387676954269,16.398856043815613,0.660321387089557,-8.187451064705481,0
GUIDED_NOGPS,3.113666296005249,31.80876687395723,-19.759122024703622,22.55380390254223,68.67961031157428,-5.813670474311685,0.0,45.0,50.98514026644357,0.41868672745994706,-2.3455430965996196,47.48449280811498,1.2197563018325719,-1.3158689923002556,-2.661257565259023,0.4699194009232778,-21.568798825246255,22.999302706111592,65.82427947016744,16.475345194339752,15.482477843761444,1.1518165469169617,0.660321387089557,-9.695844555163083,0
GUIDED_NOGPS,3.1477127075195312,29.37557955484585,-19.501977945796067,22.8800877375771,68.60618635830082,-5.689875461884874,0.0,45.0,50.69270321693401,0.35483230276570277,-2.415472707756326,47.625744535245424,1.204645639396131,-1.2959369073176588,-2.686895283779309,0.46954707865967643,-21.568798825246255,22.999302706111592,65.82427947016744,16.475345194339752,15.482477843761444,1.1518165469169617,0.660321387089557,-9.695844555163083,0
GUIDED_NOGPS,3.1813228130340576,29.757600266763156,-19.19348176112018,23.20997460038429,68.60230338806775,-5.539110892061936,0.0,45.0,50.396958028143196,0.2921272708427247,-2.3158727548450844,47.752868016077706,1.1901373844322016,-1.2724287102569403,-2.4267988926172492,0.4690509128881283,-20.668896440366694,22.825326197898963,65.96016287916979,16.42194092273712,15.61351865530014,4.773266613483429,0.5710379920223199,-7.060179568613652,0
GUIDED_NOGPS,3.2157304286956787,29.066958655005614,-18.884785893797687,23.541400020110533,68.62385150371784,-5.397965848561865,0.0,45.0,50.097947302221606,0.5049901963674515,-2.3799920094522253,47.96080629516957,1.1752133863705843,-1.2491827093587058,-2.4181968998841317,0.4685059628574564,-20.668896440366694,22.825326197898963,65.96016287916979,17.426352202892303,16.43604338169098,6.459584832191467,0.5710379920223199,-7.241759293924794,0
GUIDED_NOGPS,3.247648000717163,31.334214871093778,-18.549797381839543,23.846528782214683,68.6190518554386,-5.161123309916929,0.0,45.0,49.79571464674486,0.4919993900094987,-2.3292345258523333,48.03896414984202,1.1639416253667496,-1.222649365773733,-1.6111649429895618,0.46800032674522063,-20.34170657983296,22.691205038232898,65.92419383036741,18.79076659679413,15.719439089298248,4.943462088704109,0.44302808231855595,-0.5732287487351976,0
GUIDED_NOGPS,3.2829360961914062,28.345829193952788,-18.226685270626746,24.17539549218938,68.58394987450873,-4.893467925042026,0.0,45.0,49.49030465592075,0.7212030361953785,-2.0400571229986872,48.1512148937566,1.1516341439517486,-1.1961994609532614,-1.4175177788428395,0.4675408031284004,-20.34170657983296,22.691205038232898,65.92419383036741,19.039006531238556,18.2325541973114,3.174346685409546,0.44302808231855595,1.643782353959241,0
GUIDED_NOGPS,3.3189313411712646,27.782183333222935,-17.884164473022267,24.514969461188453,68.49518823954344,-4.657167008465346,0.0,45.0,49.18176289179624,0.6578817931432184,-1.9470852283467084,48.14094911943407,1.137919193288983,-1.1693020327577914,-1.48376576684784,0.46716717690882975,-20.34170657983296,22.691205038232898,65.92419383036741,19.820263981819153,18.415310978889465,-0.6855200044810772,0.44302808231855595,0.21650589763200292,0
GUIDED_NOGPS,3.354167938232422,28.383425930312033,-17.508714586924143,25.019312049028883,68.32876726448929,-4.150007763034116,0.0,45.0,48.87013586546446,0.7689882669284042,-1.6387368718750117,48.16723851754945,1.119673693267839,-1.1345261299474716,0.39135754324716787,0.4669203266216578,-19.49052587844488,26.387498638791136,64.20646397146177,19.820263981819153,18.415310978889465,-0.6855200044810772,6.385207406678848,0.21650589763200292,0
GUIDED_NOGPS,3.3875327110290527,29.97622944375755,-17.02586524810144,25.549841354894966,68.27819044157303,-3.629466922058385,0.0,45.0,48.55547101827174,0.8668163727194093,-1.5185247954308467,48.11326294763342,1.1000007428301393,-1.093379118756018,0.943224012105174,0.4664713769803878,-17.537242465749337,25.202585176249944,64.19398526746389,24.55795556306839,26.77803933620453,7.036039978265762,6.074216607532893,2.906386364492057,0
GUIDED_NOGPS,3.418830156326294,31.95611495443879,-16.553732100227723,26.027841212038226,68.17168203645325,-3.1260864575844862,0.0,45.0,48.23781670302459,0.8569805267886207,-1.3099099007243242,48.078521190420155,1.082471717282813,-1.0538229742993261,1.523169261589702,0.4661124289331713,-17.207814166942192,25.193340542052503,64.00938831071386,21.966813504695892,22.759144008159637,3.5570114850997925,6.062598965198427,2.7914690720368274,0
GUIDED_NOGPS,3.4567909240722656,26.3477856649287,-16.090004258968527,26.46165815095625,68.22840607881061,-2.6509500008968194,0.0,45.0,47.917222165196726,0.9661528830999293,-1.0284952213058092,47.870548760382434,1.0664591502091263,-1.0158124634850196,0.8856406850701088,0.4654709873468564,-17.207814166942192,25.193340542052503,64.00938831071386,25.285694003105164,23.387058079242706,14.125551283359528,6.062598965198427,2.4447680294367453,0
GUIDED_NOGPS,3.4845192432403564,36.069174872081526,-15.52790060732168,27.041302485879747,67.9674153481194,-2.1110452795832364,0.0,45.0,47.59373752413605,0.8593177855060873,-0.7139535374433504,47.61660232704136,1.042471073199299,-0.9707336971440773,2.4600650600529814,0.4653647476992283,-17.207814166942192,25.193340542052503,64.00938831071386,25.447702407836914,27.15058922767639,-7.286012172698975,6.062598965198427,6.268996068368762,0
GUIDED_NOGPS,3.517608165740967,30.22943588782622,-15.01987833024182,27.391872151948593,67.81903576177805,-1.5254733035699632,0.0,45.0,47.2674137542717,0.9202648974914334,-0.6068204728469666,47.52715075457629,1.0321222400105516,-0.9289984728741644,2.617964304193493,0.4650622425872392,-14.718528664972382,24.27040482810574,63.904703748009176,24.013441801071167,23.1706440448761,1.031424105167389,6.130397386142693,11.20330999366721,0
GUIDED_NOGPS,3.5520901679992676,29.004647045806596,-14.343354019922167,27.785571013248052,67.63494969605375,-0.8888022292344696,0.0,45.0,46.938302666321015,1.1382921130393509,-0.4619433560102692,47.20063014620925,1.0193919049879459,-0.8765194097198997,3.162430513669463,0.46481570004945433,-12.482452787620595,23.204568010209968,64.0457276418611,26.03267729282379,26.116594672203064,-2.276693843305111,6.29469134690704,14.209121714359851,0
GUIDED_NOGPS,3.586158275604248,29.35789679984321,-13.666374391313745,28.070400800898746,67.5291488454382,-0.25845437353837947,0.0,45.0,46.60645688849655,0.9102926078598031,-0.36937932503736054,46.65204301245216,1.01206678766649,-0.8245561486443412,3.551019503602582,0.46443142367319923,-11.001668457567709,22.658294370717403,63.95843982160704,22.687402367591858,20.72533518075943,2.714095823466778,6.585278156409869,13.649432961880557,0
GUIDED_NOGPS,3.619086742401123,30.372598573445817,-13.064183217898341,28.186562275581647,67.39840767510876,0.33605867650985144,0.0,45.0,46.271929847713125,1.04375279669456,-0.414182777991279,46.255854474550986,1.0133864296737645,-0.7779205619485958,3.8048235301760025,0.46408498769342743,-10.511699472667166,22.35696590475156,63.965965572553486,18.29853355884552,11.830072849988937,0.9248243644833565,6.728410392253433,12.15092360892561,0
GUIDED_NOGPS,3.654755115509033,28.040727642249248,-12.37134740929535,28.392296394118098,67.20303079251369,0.9637824846411527,0.0,45.0,45.93477575079473,1.1320716249744676,-0.5444528949576695,45.936990508243525,1.0088066933011453,-0.7254149546067371,4.110537784382343,0.46384396642907777,-9.417414513053698,21.704418382073616,63.871767155799986,22.730450332164764,20.16828805208206,-3.123144991695881,7.078492261115869,14.433557461618237,0
GUIDED_NOGPS,3.6860032081604004,32.00586044808009,-11.630775901675584,28.621473258354904,66.93855410723526,1.5993324577371633,0.0,45.0,45.59504956568165,0.9807729030183416,-0.6566269059657871,45.358702296880644,1.0018056717022397,-0.6701472277280835,5.015515234388035,0.46371604227935886,-8.363691790960436,21.545633441545952,63.99401313724783,22.52248227596283,21.21555358171463,-8.042024075984955,7.361312096684198,14.321019849758523,0
GUIDED_NOGPS,3.7220523357391357,27.743592118057162,-10.93296413669324,28.75365699316288,66.82129507728702,2.2293517696163345,0.0,45.0,45.25280700263741,0.9930318119180451,-0.8781452553140803,44.902790584876875,0.9995601372945061,-0.6175626682433787,4.832370587105465,0.4633335702730957,-7.1703091017331415,21.092997856177846,63.86831249669082,21.278782188892365,19.251450896263123,1.3973542489111423,7.883816284996841,15.160622561029633,0
GUIDED_NOGPS,3.75523042678833,30.158142611646785,-10.083130057454774,29.021601506477285,66.61701532319134,2.912068660786364,0.0,45.0,44.90810449545578,1.1077097275872072,-0.9863996982339627,44.34533103538794,0.988201295541938,-0.5555012404246458,5.880799027582636,0.4630948515928496,-6.276181069042808,21.07110830683971,63.76347165654215,26.095664501190186,25.05173683166504,-3.9633169770240784,8.291280494397364,16.11732715807332,0
GUIDED_NOGPS,3.7892136573791504,29.42214989197228,-9.37939977256613,29.14789780048806,66.5738796490576,3.58748507212717,0.0,45.0,44.560999182667786,0.9202779175395387,-1.077531924121681,43.79021424078433,0.9844758860980165,-0.5021468440069206,6.115007049504072,0.4625781032071373,-6.276181069042808,21.07110830683971,63.76347165654215,21.746787428855896,19.206370413303375,5.816613137722015,8.291280494397364,18.489526988899616,0
GUIDED_NOGPS,3.8226990699768066,29.870343334496535,-8.648965386603468,29.339446012049354,66.38541998058652,4.278065672866492,0.0,45.0,44.21154888874874,0.978539644603159,-0.9838024120803596,43.312148810207624,0.9757263976773907,-0.4473982447003525,6.695267248650541,0.46230441914387577,-6.087131617005602,20.9212722356518,63.67608906617851,23.589995503425598,23.619677126407623,-3.3682551234960556,8.546923600506842,19.85332281330711,0
GUIDED_NOGPS,3.856658458709717,29.45045253793384,-7.922428135863453,29.246159021300883,66.31412969324587,4.938853401952146,0.0,45.0,43.85981210532522,0.7245678648569618,-0.7230191728235144,42.66484836747093,0.9826446743415492,-0.3922035024428111,6.850962116573337,0.4618276601005349,-3.052588756076972,19.35316796580685,63.755429250110566,17.101770639419556,10.014486312866211,3.511413186788559,9.9518125100792,15.038983722100875,0
GUIDED_NOGPS,3.889209747314453,30.724125553968427,-7.212601912693547,29.149110791863865,66.24763335775951,5.578306880525978,0.0,45.0,43.50584797238206,0.669187463766882,-0.45713698390784296,42.097539685198846,0.9886159524569467,-0.33825852936798784,7.268271138800088,0.4613389648448583,-3.052588756076972,19.35316796580685,63.755429250110566,17.101770639419556,10.014486312866211,3.511413186788559,9.9518125100792,15.038983722100875,0
GUIDED_NOGPS,3.9232680797576904,29.366324294426125,-6.434312235504659,29.257237642079808,66.20460253484164,6.171219700638591,0.0,45.0,43.1497162594694,0.626788477524646,-0.2762745085008309,41.54711523055503,0.9805933679583596,-0.28228076959469106,7.194429067090093,0.4608066933318672,-3.052588756076972,19.35316796580685,63.755429250110566,24.027931690216064,23.900015652179718,4.681015759706497,9.9518125100792,14.203250312994578,0
GUIDED_NOGPS,3.95672607421875,29.89567919713752,-5.618913435204091,29.34155022333851,66.14102056114798,6.828414174154447,0.0,45.0,42.79147734690971,0.5862337490800192,0.1687895290796327,41.08021374417671,0.9729268607556792,-0.22303941127538307,8.024348107763117,0.46030577653579496,-1.533506971557653,18.50334874523666,63.630232645425565,22.58167415857315,23.9792138338089,3.4999076277017593,10.874190411785573,15.958424514580264,0
GUIDED_NOGPS,3.9912781715393066,28.946596916451572,-4.777263968884041,29.366627430700163,66.0923855650459,7.587313972199813,0.0,45.0,42.4311922070047,0.2923624054409877,0.457707304703539,40.41886018722272,0.9676364681854335,-0.16027534291270093,8.947721733049754,0.45977597129132997,-0.07278228823555283,18.25668718200518,63.34840614977471,22.967928647994995,21.55034691095352,4.962730407714844,11.931155882916777,21.14292741540263,0
GUIDED_NOGPS,4.024007320404053,30.558033470059815,-3.908981553423003,29.45054156877335,65.9056190998064,8.227207854711626,0.0,45.0,42.0689223852424,0.3293484667659885,0.694407457029478,39.99420342086093,0.9569280322814601,-0.0986184591034639,8.844171933262075,0.4594776155852412,0.1843553540586474,18.269935037394703,63.20157366611515,24.867776036262512,24.630294740200043,-3.53081114590168,12.21428275268595,13.707836201926042,0
GUIDED_NOGPS,4.0579729080200195,29.44507704728141,-3.0982704100858927,29.508208762425518,65.72992362327193,8.85169741043894,0.0,45.0,41.704729981504165,0.20511006050716724,1.0246599633651412,39.51416748070868,0.9470422215648747,-0.04065195678978589,8.982924411266195,0.4591571708089948,0.1843553540586474,18.269935037394703,63.20157366611515,25.021260976791382,24.332720041275024,-3.1026186421513557,12.21428275268595,15.69880219403891,0
GUIDED_NOGPS,4.0933473110198975,28.272839414631516,-2.1915706731485214,29.515087126475457,65.54675770405309,9.527710160749706,0.0,45.0,41.338677631271686,0.1420413343510992,1.1517835509191243,39.13951794435514,0.9380440564839594,0.02410766419421817,9.538490500444283,0.4588462638762716,2.6538308101226047,16.855783160091697,62.96115943573267,25.021260976791382,24.332720041275024,-3.1026186421513557,13.515471534760888,15.69880219403891,0
GUIDED_NOGPS,4.126027822494507,30.603964947355365,-1.2993769271988076,29.491898844310843,65.42969957042804,10.129266096543175,0.0,45.0,40.97082848683392,0.30107044306550435,1.1742191215170295,38.79572378757713,0.9296942781680974,0.08689674226337035,9.758726357743955,0.45841991915789,3.8450314034956925,16.8945836390613,62.836181584545116,22.38304764032364,21.86673730611801,1.1565754190087318,13.786413943623739,11.321977700307011,0
GUIDED_NOGPS,4.159305572509766,30.053553643209778,-0.5121167902523819,29.392695547233703,65.38714500384376,10.644784080592945,0.0,45.0,40.60124619849423,0.23095700377058964,1.249318332101789,38.56743495985321,0.9259992312052915,0.14278025425358642,9.492598809872966,0.4578639720309058,3.8450314034956925,16.8945836390613,62.836181584545116,20.099934935569763,18.50167065858841,5.384013056755066,13.786413943623739,9.404140836090178,0
GUIDED_NOGPS,4.1956329345703125,27.53685758554584,0.31079845584358357,29.27652460353535,65.24325658873907,11.178842563792866,0.0,45.0,40.22999489577724,0.23185231884081667,1.3425604461128064,38.25877188107116,0.9218937482213209,0.2011946922625592,9.653496385790021,0.4574774551219649,4.958028815681843,16.627524582669018,62.584725961460165,19.950124621391296,17.31436401605606,-0.5189421586692333,14.44716274103628,9.725276694070315,0
GUIDED_NOGPS,4.229686737060547,29.3681748799171,1.1302013733989313,29.1371210985233,65.16991745861364,11.611179553869867,0.0,45.0,39.857139168635996,0.3512546176619384,1.3452989250831584,38.10162288864751,0.9186471801008697,0.25798677169027745,9.496232080120247,0.456968276907038,4.958028815681843,16.627524582669018,62.584725961460165,18.32076907157898,13.97547572851181,3.719332069158554,14.44716274103628,2.841334362176386,0
GUIDED_NOGPS,4.267078161239624,26.746999630135065,1.8464612674144927,28.94841072304625,65.08719831196242,11.997160207165567,0.0,45.0,39.48274404865881,0.3796225277191169,1.3240285420689752,38.00221290037256,0.9190306538163483,0.30855993331438547,9.274819857404491,0.45647242775238384,4.787517435390703,16.494416658710378,62.60100924913013,17.979875206947327,13.086022436618805,2.6586567983031273,14.60201469766352,3.1334758536864062,0
