Mode,Time,Freq,North-Vision,East-Vision,Down-Vision,Yaw-Vision,North-Desired,East-Desired,Down-Desired,Roll-UAV,Pitch-UAV,Yaw-UAV,Roll-Control,Pitch-Control,Yaw-Control,Thrust-Control,northVraw,eastVraw,downVraw,yawVraw,zGyro
GUIDED_NOGPS,0.003889799118041992,260.5481426264132,255.3945995183608,34.84584716831093,-6.446303213802899,0.00013196098001021838,254.36938577354303,29.210469632950936,-14.045198475551391,-4.603039078382252,2.317597591053924,93.72397190413086,8.633985294599695,-1.963438701859873,-5.278439200408735e-06,0.4981002761845629,255.3945995183608,34.84584716831093,-6.446303213802899,0.3300344110055562,-3.495042550298022
GUIDED_NOGPS,0.009462356567382812,179.28973241001967,257.02623505474605,36.01338033179823,-5.084649681897396,-0.006404421885196421,254.36937269741412,29.210382215660225,-14.04517463634893,-4.603039078382252,2.317597591053924,93.72397190413086,1.0356100618211403,-1.4660501128057435,0.0002561768754078568,0.4977598687613871,258.65787059113126,37.18091349528552,-3.722996149991892,-7.37324897232368,-3.495042550298022
GUIDED_NOGPS,0.012121915817260742,377.1856115107914,257.49098256081305,37.92120710282575,-3.289423625163019,-0.015049022055999176,254.36928221973594,29.209777349070663,-14.045008719647331,-4.603039078382252,2.317597591053924,93.72397190413086,3.657480978279348,-1.1625115154446708,0.0006019608822399671,0.49731110372637893,258.42047757294694,41.73686064488077,0.3010284883057357,-7.663759999279918,-3.495042550298022
GUIDED_NOGPS,0.045873403549194336,29.633347463614527,257.0919030141221,39.427461546620414,-2.0291187917593634,-0.02053084988453123,254.36903982154885,29.20815685473819,-14.044561272982314,-4.504094823631331,2.4101927580844946,93.49533815185386,0.5858145428780126,-0.0775229803646411,0.0008212339953812492,0.4969961393796943,255.89466437404937,43.94622487800442,1.7517957084516023,-2.613338148341896,-4.239887683968092
GUIDED_NOGPS,0.09586215019226074,20.00784227674078,256.85245528610756,40.331214212897216,-1.2729358917171703,-0.15899550810230342,254.3685740895937,29.205043316625737,-14.043695690022334,-3.985322319374999,1.9745039555526667,93.0024102296432,0.5188410398144104,-0.09878648696084921,0.006359820324092137,0.4968073100504237,255.89466437404937,43.94622487800442,1.7517957084516023,-2.613338148341896,-6.531718864491385
GUIDED_NOGPS,0.1308140754699707,28.61873115080719,256.7191258641204,43.2644975276457,0.7124305083289523,-0.4148593790716657,254.36781667347424,29.199979794725238,-14.042278191272773,-3.3553099392012538,1.5796482650349966,92.71274873713213,0.897234046392911,-0.09242768594381509,0.016594375162866628,0.49631132282509954,256.0524787541845,49.512263742053364,3.480528786427713,-18.25418193737393,-7.276563998161455
GUIDED_NOGPS,0.16835975646972656,26.65859890424193,257.04465228893434,46.493540183692545,2.3203066736951254,-0.6153380474221245,254.3667022428203,29.192529538679572,-14.040177804780122,-1.6783887880495802,0.745059446223205,92.35218988103632,1.0416856165833064,-0.16668193095433706,0.024613521896884982,0.4959098788803812,258.99781083781807,53.32612677551976,4.3163846768389735,-9.212467881590982,-6.359831525952138
GUIDED_NOGPS,0.20969486236572266,24.192371361169272,256.7168592044587,49.2836817068429,2.94855279939019,-0.8224445692321442,254.36516844445018,29.182275701404546,-14.03726634683616,-1.0869091335218737,-0.40228015950632684,104.1803289950709,1.0758869502174302,-0.0631279495974739,0.03289778276928577,0.4957535452134434,254.42230761312896,55.68756826063254,3.4422591167810572,-2.8291950377828385,-6.0733526283867265
GUIDED_NOGPS,0.2373037338256836,36.23307043080884,257.1759549503798,53.159804361778335,2.8030557962244016,-1.070949807526777,254.36315585953358,29.168821052710868,-14.033418402682155,-0.74878334006389,-0.569052514944558,104.07435861009814,1.5288574013791174,-0.19587999943511805,0.042837992301071076,0.49579088145027334,259.0673654857298,63.326838152681624,1.0243106926226613,-4.806432500462876,-6.474423084978302
GUIDED_NOGPS,0.2761054039001465,25.778422430641772,257.2271418122046,57.035927016713764,2.6575587930586133,-1.2286772899238876,254.36060796075432,29.151787692926113,-14.028511307213025,0.13084494675415578,-0.9501655446870451,103.78219726835084,1.5223454505649137,-0.11794389026773328,0.0491470915969555,0.4958284824749321,259.0673654857298,63.326838152681624,1.0243106926226613,-4.806432500462876,-5.901465289847479
GUIDED_NOGPS,0.3161122798919678,25.023888504403025,256.43463510822204,60.138749989282495,1.8511686592874255,-1.4420427077047924,254.35747106947312,29.13081676651671,-14.022425125681545,0.6376592038363973,-1.153552356470746,103.56882898886882,1.5561082223229956,0.034021372010234294,0.05768170830819169,0.49603160155375775,252.08042394108654,65.02637860489703,-0.5514218824282265,3.364607551352563,-5.614986392282068
GUIDED_NOGPS,0.34982895851135254,29.649267658202795,256.3507829904476,63.27863941718429,0.6300530935197399,-1.655383133274797,254.3536943128903,29.105568175709887,-14.01504263440252,0.9675568071394842,-1.123156200395191,103.36646414413968,1.7449832681572957,-0.03803130680911978,0.06621532533099188,0.49633872606801943,255.22384743185395,69.0255739150287,-1.789193151999455,-0.14441500018901365,-5.557690612768986
GUIDED_NOGPS,0.3865938186645508,27.206590341517206,256.2886233001348,67.24585547032143,-0.6049990464912178,-1.8363137937858545,254.3492295812086,29.07572029411568,-14.006249301456968,1.312103992273485,-1.0340831698205257,103.18273205546633,1.9696576739195057,-0.026378290329547,0.07345255175143418,0.49664968743625854,255.39738685154694,75.52364852631825,-2.7330015832737313,-0.016907030029955195,-5.500394833255903
GUIDED_NOGPS,0.41791415214538574,31.948082416117607,256.2067368123051,69.68521754504876,-1.3564615016704962,-2.024371444928804,254.3440314847958,29.04096968034887,-13.995933267396317,1.5104106374185773,-0.8951001327115792,103.0315253276206,1.948692580827955,-0.01244670441680329,0.08097485779715216,0.49684013205856853,255.39738685154694,75.52364852631825,-2.7330015832737313,-0.016907030029955195,-5.156620156177409
GUIDED_NOGPS,0.4525563716888428,28.86909358717573,256.33237349427804,73.06016750581949,-2.163703674615883,-2.1693323125981037,254.3380573113477,29.001030791650983,-13.983985325946577,1.7234465855088024,-0.8715230667486356,102.85607825841048,2.1597115229367962,-0.03719144344966305,0.08677329250392415,0.49704492958716734,260.00290429360155,80.20158795653528,-3.0119001721042737,-3.205961759064323,-4.698253920072751
GUIDED_NOGPS,0.4838285446166992,31.987797623587195,256.8806677047627,76.64084505449634,-2.4678073698129266,-2.330713564376622,254.33126698305068,28.95563569751224,-13.970298904712532,1.8281692870192592,-0.7559265439969597,102.76240221394376,2.386862328709651,-0.12024342761445991,0.09322854257506488,0.4971243771162751,258.8086612970061,82.92976634828132,-2.071940358413444,-5.8339086843854915,-4.5263665815335035
GUIDED_NOGPS,0.5124084949493408,35.00065923978804,256.77768102304094,80.03667131379338,-2.3559715999318915,-2.472635902034727,254.32362301374448,28.90453379329355,-13.954770045881922,1.9003261801756242,-0.53966418529755,102.64895277182984,2.53086735083185,0.0024926619030581215,0.09890543608138908,0.4971003003885125,258.2434720319555,86.00470521151385,-1.230014302594279,-5.651957076449648,-4.640958140559668
GUIDED_NOGPS,0.5515596866607666,25.547763057712807,257.0385371957541,82.98264751115912,-1.9398775168920046,-2.6052152934457924,254.31509046608502,28.847491513848457,-13.937297386929627,2.045429280224314,-0.35188523622140094,102.43654754902079,2.484300597405236,-0.05817134372002132,0.10420861173783169,0.4970006450324906,261.15421486743463,90.25352951314692,-0.6525311680742973,-6.661998673260683,-4.698253920072751
GUIDED_NOGPS,0.5912728309631348,25.18723314817595,259.0892915374916,87.59071347329493,-0.9187641026982523,-2.7736221786324142,254.30563690870719,28.78429204714514,-13.917782141321855,2.1848223421268727,-0.2386630312995243,102.3016376525347,2.8536926352869716,-0.36204971763862726,0.11094488714529657,0.4967502454903441,268.48645867498624,98.56397833699735,2.3725654876950313,-12.066199202374008,-4.010704565915763
GUIDED_NOGPS,0.62331223487854,31.218536244073448,259.7091611633944,91.24333784321809,0.3048919341011277,-2.9313780468866795,254.29523237338742,28.71473504788837,-13.896128079220325,2.2246327400345267,-0.09095442752588637,102.19320156927157,2.9856086474515404,-0.21598626322012116,0.11725512187546717,0.49644974499666966,260.1828044390763,98.46470980615116,3.1063800118926257,-8.766444692502532,-3.724225668350351
GUIDED_NOGPS,0.6584620475769043,28.457953944065245,260.51375592643865,95.03301228366684,1.589582417733051,-3.0520312899624757,254.28384931220666,28.638636351141486,-13.872241508186455,2.3031453376570004,0.0653667779868732,102.03788989773464,3.1241568893273057,-0.26178717124647766,0.12208125159849903,0.49613454401852014,261.83414495590074,101.87813855052498,4.351512059746172,-10.260119942718205,-3.666929888837269
GUIDED_NOGPS,0.7045495510101318,21.70234651902828,261.92742946931196,99.10143466406105,2.8565340587523993,-3.1797212220014797,254.2714625547129,28.55582768594835,-13.846031253885537,2.4085680268356775,0.06360624336744952,101.87071418760942,3.2172158711473244,-0.3591958712364861,0.12718884888005919,0.4958243586718405,266.70677519453324,106.34681711348496,5.104743902502462,-23.469315053391554,-3.2658594322456924
GUIDED_NOGPS,0.7468793392181396,23.629349197764558,262.53564245171066,102.73326566610747,4.196417051050821,-3.3324915324841173,254.25804926508425,28.466156388955362,-13.817408640790934,2.400460805734284,0.12215462493279883,101.7580638776284,3.3569332178835842,-0.29265108896964104,0.13329966129936469,0.49549654357703954,264.8686081527912,108.41268452337901,6.046883793417807,-13.526890317289073,-2.864788975654116
GUIDED_NOGPS,0.7813887596130371,28.985604997823128,263.95942181900597,105.65725499849866,5.085397124538462,-3.4559214384363375,254.2435888992913,28.369485118033385,-13.786287472888258,2.4589647910700285,0.19501812250314282,101.66860205987957,3.489987761120648,-0.48391885121603617,0.1382368575374535,0.4952820788506433,270.19889623536864,113.1839249989533,6.817465855133239,-15.070369356397265,-2.521014298575622
GUIDED_NOGPS,0.8201277256011963,25.820158455581343,263.70883404527365,108.43772615003373,5.859010913640082,-3.5458083235657334,254.2280631622601,28.265691565899743,-13.752584014379558,2.550449412030237,0.18267981265433791,101.56709178843484,3.540190387038302,-0.22548871781129579,0.14183233294262934,0.4950971012679951,256.238769842097,112.36706556382647,6.974448957400732,-4.6501762066672825,-2.521014298575622
GUIDED_NOGPS,0.8621108531951904,23.827075912765366,263.25317672235195,111.09837721775159,6.463286886645919,-3.6381346751287302,254.21145596503501,28.15466817374019,-13.716216970387496,2.5667633188628125,0.2291545542012203,101.45543868607264,3.6197348283540136,-0.17029069267554112,0.14552538700514922,0.49495512403574166,257.5089562840612,115.18139388911433,7.372891924775352,-6.137303415795444,-2.177239621497128
GUIDED_NOGPS,0.8990018367767334,27.11320266845943,261.743913146251,113.16787884731426,6.957185907630903,-3.71198104219559,254.19375338194118,28.03632184483088,-13.67710746765955,2.6368374312091465,0.23223742411612902,101.39734792718168,3.659107834518844,0.05640618936938249,0.1484792416878236,0.49484142665617736,256.4123500661785,116.69432526129826,7.574239007427378,-4.780785411653127,-1.3750987083139758
GUIDED_NOGPS,0.9331481456756592,29.294128328875043,261.629213503119,115.52815332053612,7.188963046333868,-3.7679062677475925,254.17494360774748,27.910573658160335,-13.63517903527218,2.658238121426089,0.31999863148332863,101.34652448956761,3.830819921080313,-0.1081848742276717,0.15071625070990372,0.4947939644795985,259.26520729402046,120.21405688948836,7.205769486932634,-4.323540937031893,-1.260507149287811
GUIDED_NOGPS,0.9655783176422119,30.845006618620385,262.5874115025244,118.25006179647542,7.4874092732608,-3.8240740186307494,254.1550169148293,27.777358582051427,-13.590357585335022,2.7086043632525865,0.36851565295289773,101.30280444869037,4.017173999621995,-0.3044581137796645,0.15296296074522997,0.49473055828535106,269.49972895114365,126.79346737864984,8.30969698976791,-15.561786083396655,-1.432394487827058
GUIDED_NOGPS,1.0006318092346191,28.539669578944505,261.85058095954315,120.6677079891703,7.729812446152367,-3.8677620754025157,254.13396561033116,27.63662518778335,-13.542571393695072,2.716904964084856,0.5036749047045479,101.26753335181643,4.044359333367509,-0.012417125151300723,0.15471048301610063,0.49468190404003815,260.8121308506834,124.45529652730089,8.186464821858568,-7.9867725563644285,-1.2032113697747289
GUIDED_NOGPS,1.0387623310089111,26.23063020243776,260.63069151308446,122.31356078154707,7.913302204268713,-3.8946563951237763,254.1117839933295,27.488335363213565,-13.49175108064087,2.7487925559987065,0.5287285721886836,101.2388397271132,4.005432107268376,0.10102623798500915,0.15578625580495106,0.4946487366787726,255.10949258112188,123.4106578509982,8.290340715357079,-4.412870083751585,-0.4583662361046586
GUIDED_NOGPS,1.0728178024291992,29.399464483478894,259.83187314807,124.82669145990785,8.201428443620198,-3.9132570879240194,254.08846831199554,27.332464026399826,-13.437829591606688,2.796093536991749,0.6876338837243823,101.2374941798467,4.240198005869271,0.11448484920480959,0.15653028351696077,0.49459018549119327,263.80834931525254,129.2599786531022,9.0148702041848,-9.922227483556867,0.0
GUIDED_NOGPS,1.1035046577453613,32.5796489047693,260.4027293282269,126.6700514287792,8.687836977144313,-3.921759889555054,254.06401672075793,27.1689988392221,-13.380742177876707,2.7805540028563236,0.698939020739517,101.23944078376016,4.282426164148604,-0.12200014156417122,0.15687039558220214,0.49448285521124474,260.8056192833526,129.43085673384508,9.637812154553206,-6.928543721506358,0.0
GUIDED_NOGPS,1.1359374523162842,30.83979029874341,260.6336980977842,127.3180926552343,9.043325541209558,-3.924108523590442,254.0384292374655,26.997939921004562,-13.320426377289209,2.8215594704253184,0.750523704280921,101.2434637651813,4.155152069405721,-0.08683726010263348,0.1569643409436177,0.4944090620203753,259.35670644051976,130.0336735109253,10.087139810094131,-7.038974197857328,0.11459155902616465
GUIDED_NOGPS,1.1701290607452393,29.256122484567364,261.3788911066118,128.96993841893507,9.53220961165037,-3.9293868751964935,254.01170770055006,26.819299562137573,-13.256821994940758,2.917944965558423,0.8323408328012112,101.24773946360172,4.354659265850616,-0.18686211061807023,0.15717547500785975,0.49430274209835223,262.37389413679927,132.7145253458047,10.630885174062628,-9.902295111800484,0.0
GUIDED_NOGPS,1.2020559310913086,31.32742781172042,261.58402594056224,130.90885171250642,10.029789501739463,-3.9245557882721687,253.98385572618915,26.633101937699635,-13.189871083890388,3.0070563092254634,0.9276813089913035,101.26507448371521,4.477816571359347,-0.1112581640913089,0.15698223153088675,0.49419508485359254,260.9062859656242,133.10522431885485,10.778240165802542,-8.67381869923966,0.40107045659157625
GUIDED_NOGPS,1.2438154220581055,23.952532422662458,260.1523013523241,131.5870383428816,10.439525316473341,-3.9075088275277507,253.9548786654688,26.43938282107938,-13.11951792586379,2.941507410647674,0.9734339714768687,101.30860327929571,4.319610391901232,0.14995036734376385,0.15630035310111004,0.4941102391894157,258.0459322452384,132.65091180497828,11.063549277854197,-5.325820064077675,0.8021409131831525
GUIDED_NOGPS,1.2796125411987305,27.94190849255203,260.17311978459236,132.89478665905025,10.951232853823589,-3.890385468641722,253.92478356154623,26.23818929759754,-13.045709011957483,2.9668973582267273,1.0234137740067313,101.32428539363006,4.478525980515231,-0.018234843600839712,0.1556154187456689,0.49400076453355474,260.97867830882956,135.9695983146882,12.196349841304432,-6.975591011089676,0.6875493541569879
GUIDED_NOGPS,1.3202273845672607,24.627612163772906,260.9067680005558,134.08197161980286,11.373074860065651,-3.876201997729888,253.89357910681267,26.029579478128902,-12.968393023343015,2.970928877384327,1.0770491151247257,101.3624729812796,4.51314784681823,-0.14219768746958755,0.15504807990919553,0.49391463302914784,260.97867830882956,135.9695983146882,12.196349841304432,-6.975591011089676,0.5156620156177409
GUIDED_NOGPS,1.3562281131744385,27.785312081826252,261.10700092106435,135.33243291997383,11.835281461656447,-3.8621154224625593,253.86127560005605,25.813622212724297,-12.887520811971147,3.0118453390507,1.074973164503865,101.37025256674424,4.596204072943003,-0.0878732086307718,0.15448461689850237,0.4938192994315931,265.41021267932103,138.96683184665946,12.941918182016607,-9.896988984550461,0.4583662361046586
GUIDED_NOGPS,1.3871550559997559,32.340249666520165,260.7671684476437,135.87346308282545,12.237444953118018,-3.836179260148729,253.8278849036238,25.590396804232572,-12.80304538127602,3.035704043595201,1.0174509121396043,101.40678724861465,4.5555962447967095,0.003874588784205324,0.15344717040594916,0.4937398774164015,258.08695949598786,135.81037513311296,12.789057623110399,-4.640650152020896,0.9167324722093172
GUIDED_NOGPS,1.4268693923950195,25.188745758640362,261.1527267214522,137.1689638587734,12.728023935082174,-3.8040744242257767,253.79342040058563,25.35999272192256,-12.714921866879362,3.018446076553283,1.0558344408409603,101.46033593170755,4.682421659411843,-0.1131741493534888,0.15216297696903108,0.4936392635495096,262.44117263098775,139.12841568471802,13.51644418767497,-7.987492370618128,1.260507149287811
GUIDED_NOGPS,1.4705595970153809,22.89379772606942,260.5626802360127,137.38788120463755,12.956499918622267,-3.759397398006994,253.75789695189619,25.122509315105038,-12.62310751729466,3.054626228917075,1.0796792715637096,101.50272408569664,4.581279624470901,0.02052284119110581,0.15037589592027975,0.49360509814102077,257.65352225328314,137.06418504400906,13.3387297590049,-2.3523951821782845,1.3750987083139758
GUIDED_NOGPS,1.5077414512634277,26.901566899488817,261.8827113313434,139.14476913364487,13.370773878302128,-3.7262740690857834,253.72133085355787,24.87805552675473,-12.527561674631347,3.111556495979366,1.0306639130889939,101.53075518205037,4.856737246152556,-0.27811541218772445,0.14905096276343133,0.49352541611176665,271.46653472826995,144.7540379597249,14.26771963970373,-11.7214678399245,0.8594366926962349
GUIDED_NOGPS,1.5476675033569336,25.05333452796942,262.26338287970657,139.2640417230892,13.567042016918483,-3.680662815357481,253.68373979378364,24.626749607132243,-12.428245755298988,3.1013543277934827,1.068985863366114,101.588832280563,4.68896293339205,-0.18515963412210357,0.14722651261429925,0.49350117805694566,261.09130463214376,139.56319479388114,13.923258875098384,-5.521697212973933,1.4896902673401404
GUIDED_NOGPS,1.581059455871582,29.953965363327978,262.2774611701209,140.01460565524286,13.793882267316082,-3.6245069440016398,253.64514281015965,24.368718827406074,-12.325123230711466,3.1239635346066943,1.0321772268769749,101.60729428188954,4.805659151010851,-0.1389458728897357,0.14498027776006558,0.4934702486254931,261.09130463214376,139.56319479388114,13.923258875098384,-5.521697212973933,1.776169164905552
GUIDED_NOGPS,1.6156196594238281,28.941204071071244,263.7741552430555,141.35492109468495,14.037056022997394,-3.578511115306168,253.60556024680812,24.104099193274553,-12.218159607991163,3.178885085722767,0.9442127146602616,101.64679326585971,4.958151945464728,-0.423529703748619,0.14314044461224673,0.49343619609225287,272.9522308923061,145.82999288192855,14.732312966081528,-13.051281309284192,1.7188733853924698
GUIDED_NOGPS,1.6550204753875732,25.386636968350714,263.4028531749033,141.93200023897012,14.245185960968376,-3.53626534119942,253.56501371155,23.833035158587833,-12.107322410673152,3.272707979256647,0.9620991658275267,101.73566768733993,4.877823316116351,-0.15286428108423378,0.14145061364797681,0.4934118729070896,262.439796134104,139.94958076543486,14.379379448859826,-4.148207071384533,1.2032113697747289
GUIDED_NOGPS,1.705244779586792,19.913704041324824,264.5778751216143,141.47434575887692,14.271283445436996,-3.478084876380859,253.5235260330677,23.55567933896986,-11.992581159409369,3.3235696232413816,0.8854151379119126,101.82421425973997,4.785908308717292,-0.38712430339074305,0.13912339505523436,0.4934340338487884,267.48713506967556,142.46576555925884,14.398207062046817,-6.8100902095824125,1.6615776058793874
GUIDED_NOGPS,1.7415080070495605,27.58339854924733,265.14405561789584,141.97175545309517,14.360653510313643,-3.412932711565546,253.48112121806804,23.272192225440335,-11.873907352672813,3.3783460328375914,0.798614959505275,101.8716772442824,4.918417586999107,-0.3784914300535794,0.13651730846262186,0.4934413597842534,266.97061660124,142.05024326497244,14.370109199481625,-6.451797229000135,1.260507149287811
GUIDED_NOGPS,1.7741875648498535,30.60798493793466,266.9282395420822,142.81966481051526,14.522983437317729,-3.3712710842185833,253.43782440844475,22.982741898036704,-11.751274447461721,3.3855392892506724,0.7666784890501763,101.91793811553089,5.034738979978789,-0.6616970591419755,0.13485084336874334,0.49343143552880514,271.92699364677424,143.80274158098172,14.734908510118812,-7.591835204317547,1.2032113697747289
GUIDED_NOGPS,1.8089423179626465,28.807032967032967,266.9857969068953,142.4142145503259,14.523502546125187,-3.3282567707829,253.39366183844137,22.687503739436107,-11.624657840003756,3.419458435555779,0.7081537997035104,101.95578419372193,4.864788068172265,-0.4165022050426766,0.13313027083131598,0.4934629599034678,271.92699364677424,143.80274158098172,14.734908510118812,-7.591835204317547,1.4896902673401404
GUIDED_NOGPS,1.8458948135375977,27.05461488347492,267.5520315603456,142.4512433507541,14.468603934216741,-3.2860883415176607,253.348660791814,22.386660148577377,-11.49403484646019,3.495602451640139,0.5523596393347526,101.9959457060416,4.9343575226869225,-0.5140365347274664,0.13144353366070644,0.4935093403048308,265.6211818597463,140.1347247675759,14.104886389317599,-4.978296372564429,1.260507149287811
GUIDED_NOGPS,1.889054775238037,23.173718465805496,268.5128292027773,142.11469867081715,14.34877917700183,-3.249058529683211,253.302849558994,22.08040025428299,-11.35938468363009,3.590436640058004,0.44645873019246846,102.03282872755968,4.9007046148936935,-0.6042872828750611,0.12996234118732844,0.493572959034842,268.7776857715976,140.78304215957405,13.799083275972258,-5.052937648733106,0.9167324722093172
GUIDED_NOGPS,1.9268367290496826,26.475347645228283,268.16110179886823,141.88609423750543,14.17615110447333,-3.203948736631303,253.25625739425078,21.768919628881044,-11.220688449654505,3.63915979450229,0.34669053051206244,102.06165212585712,4.907316128661821,-0.43595395818053423,0.12815794946525214,0.49365079011146806,270.1384116610334,140.9072210984139,13.506968836839125,-5.722488251458515,1.0313240312354819
GUIDED_NOGPS,1.961923599243164,28.506888325528603,269.35424193302686,141.36746409424103,13.87478071418055,-3.1630473842613975,253.20891447285453,21.45242000182724,-11.077929104720647,3.6745632262914047,0.23621755677239528,102.09107658080154,4.884271801321943,-0.7195229918622156,0.1265218953704559,0.4937618225452747,271.98491720737275,141.2095908646599,13.228056558654913,-5.917455971107188,1.1459155902616465
GUIDED_NOGPS,1.9946260452270508,30.58744940747493,270.7139162596951,141.3109664711596,13.54559632814912,-3.1364090655451906,253.160851848239,21.13110897332685,-10.931091451766079,3.731898395505431,0.18276876519610674,102.11457926173556,4.957421661437379,-0.8274436609546344,0.12545636262180762,0.4938808280550212,278.3645296830214,143.52025346557448,13.088986579961654,-8.830253512040855,0.7448451336700702
GUIDED_NOGPS,2.0294981002807617,28.711787134711088,271.30026058471543,141.18397911189194,13.222606583155354,-3.1196516258613194,253.1121014091642,20.805199727956673,-10.780162117182897,3.7118735615194227,0.18149904370157197,102.13700960296987,4.952563877845216,-0.7383016399971591,0.12478606503445278,0.4939993078249154,271.66137120140286,139.49978797123762,12.489937664348773,-6.699097882045251,0.4583662361046586
GUIDED_NOGPS,2.065312385559082,27.919774740892116,271.5234947258783,140.94570753197326,12.900525350028976,-3.097641077039824,253.06269583687933,20.474910748287034,-10.625129531521917,3.8120553611705845,0.11316785689320744,102.13496737640804,4.942550413716432,-0.7001333435301771,0.12390564308159296,0.4941185862796123,273.7128667760774,139.5916842599805,12.188677110340373,-7.045553664345931,0.6875493541569879
GUIDED_NOGPS,2.101520538330078,27.624091941910628,271.5325379128602,140.36748089145232,12.607913206546367,-3.0691789329421515,253.0126685622852,20.14046552850374,-10.465983910196854,3.8110103422275725,-0.004075755304646437,102.1635858690304,4.895874851055605,-0.6787994269578124,0.12276715731768606,0.4942315257208142,271.999339142629,138.01608789580928,12.04390811942607,-4.302867384374693,0.8594366926962349
GUIDED_NOGPS,2.1397759914398193,26.148049324838222,272.12759995072145,139.40798341918133,12.281826694342348,-3.055832228819323,252.96205372309737,19.802092288030043,-10.302717234188528,3.815990403906158,-0.10214996134918351,102.16982183174261,4.839401751226355,-0.7931292587516233,0.12223328915277293,0.4943538640178673,270.38167816263586,136.41210350330505,11.597623997634818,-2.619954719414906,0.17188733853924698
GUIDED_NOGPS,2.173074722290039,30.037841786384405,273.1003673863353,138.42497054478173,12.003022139636698,-3.0510439632119373,252.91088612100856,19.46002368514865,-10.135323230749009,3.868354476064884,-0.07954280892880822,102.15820367996443,4.8114077792929075,-0.9128566467696242,0.1220417585284775,0.4944654136574036,276.5598252565084,138.60518909357637,11.694963806433407,-5.832318678390436,-0.057295779513082325
GUIDED_NOGPS,2.2122654914855957,25.51962812431551,273.50084365994036,137.73459394908028,11.787287375469651,-3.045553032066108,252.8592011788517,19.114496530623647,-9.963797354105845,3.812986401331822,-0.09752760414795093,102.16928907698735,4.8369744479112535,-0.8398642191939956,0.12182212128264432,0.49456222881760614,273.3422218498742,136.0479049927303,11.411263843513538,-4.956559349005303,0.11459155902616465
GUIDED_NOGPS,2.245029926300049,30.532452028069766,276.3162096889618,138.67098024074082,11.844914561613821,-3.0501413144939056,252.8070348977624,18.765751501322505,-9.788136766166218,3.8144241561521097,-0.09413337365642484,102.16294383124841,5.109992074726767,-1.3503114303277841,0.12200565257975622,0.494591737168055,294.50784543954444,144.27361571828322,12.476813041061218,-15.990699878675954,-0.17188733853924698
GUIDED_NOGPS,2.280705690383911,28.03885312422705,278.3341241585272,139.9224858052356,11.93149554594085,-3.0706441663307045,252.754423814342,18.414032853838044,-9.608340317221142,3.803600867638578,-0.1610839284375212,102.11164228039245,5.196261168869616,-1.2990553308588746,0.12282576665322818,0.4946150410342095,294.50784543954444,144.27361571828322,12.476813041061218,-15.990699878675954,-0.6875493541569879
GUIDED_NOGPS,2.3224635124206543,23.9537635636779,278.939312567103,139.54282277511535,12.011924743829583,-3.1053268667071245,252.70140495782007,18.05958813811039,-9.42440852664964,3.8182550385028406,-0.22244047824709776,102.04862012492075,5.00627462638402,-1.1281585058979686,0.12421307466828499,0.4946409166823802,276.5028784700093,134.5137883527038,11.999769987078482,-4.994136321792482,-1.3750987083139758
GUIDED_NOGPS,2.3607261180877686,26.139412560217874,279.37166534269306,138.38952328658874,12.074637154473276,-3.142548193442085,252.64801580721726,17.702667911048973,-9.236343563622937,3.8357979524991954,-0.3688840029204024,101.98675227141877,4.8968906335698055,-1.1402378902559658,0.1257019277376834,0.49467225482047594,277.17168898079814,132.83869165094333,12.00852585965187,-4.588273694310345,-1.2032113697747289
GUIDED_NOGPS,2.390993356704712,33.04995744949097,278.7792264353176,136.61160787569202,12.105806465050449,-3.1783878461645654,252.59429424850813,17.34352545015448,-9.044149227808635,3.856711137964128,-0.4294253056195145,101.95011513671082,4.728307780509477,-0.9677687780268687,0.12713551384658262,0.4947125110767852,267.2598278836254,127.15832793824669,11.567110396399405,3.00755231174071,-1.2032113697747289
GUIDED_NOGPS,2.42899751663208,26.317366697202807,280.80636269241023,134.870861392711,11.961505487789768,-3.2238229530675575,252.5402785317838,16.98241646714085,-8.847830930074911,3.8962540912770938,-0.5754109408141638,101.87237392357773,4.744528769947359,-1.4292447748422634,0.1289529181227023,0.4947976658955338,286.59876821937746,135.56988330337822,11.755308154757813,-6.609003325648487,-1.6615776058793874
GUIDED_NOGPS,2.4611406326293945,31.117323243564062,281.0509405618639,132.11781148679512,11.7389615244727,-3.281888299641949,252.4860072284147,16.619598821557194,-8.647395673194689,3.9050752805901654,-0.5852676508384327,101.82135924066691,4.488036003678789,-1.227882066872082,0.13127553198567796,0.49490341070058314,278.51644821213773,130.50836618870372,11.364093224475875,-3.5622519740000342,-1.8334649444186344
GUIDED_NOGPS,2.499812126159668,25.868250473353438,281.24926041509167,130.77729288694695,11.488822244798921,-3.3302913285223457,252.43151918821343,16.25533223440984,-8.442852032549832,3.8568771969383238,-0.6324434472705934,101.74119331037846,4.647264887489059,-1.2143348651855552,0.13321165314089384,0.4950170814306628,274.9287806756959,127.81119535346309,10.749073588709592,-1.7471615412404873,-1.6615776058793874
GUIDED_NOGPS,2.5374867916107178,26.54639586326496,280.2901414299107,130.65048128532686,11.290101459771387,-3.3909253043241994,252.37685349659736,15.88987800178424,-8.234210136835323,3.753285425344033,-0.6601905038043884,101.67339002248775,4.7745217391870955,-1.0047978001155404,0.13563701217296797,0.49511892210084835,286.83489355809667,132.20463364284302,11.014921934514192,-9.032328251673448,-1.6615776058793874
GUIDED_NOGPS,2.573561668395996,27.767469265347465,278.6917490894123,130.96742308644522,11.186249329455126,-3.461948184134944,252.32204943175154,15.523498708466995,-8.02148164876345,3.64028378750758,-0.6274416143640285,101.60993073490916,4.845057071375691,-0.8230772069967907,0.13847792736539777,0.49519806725544535,281.7207067155572,128.74303694383843,11.047849744818103,-6.356608051556876,-2.119943841984046
GUIDED_NOGPS,2.6105668544769287,27.015928838734194,278.8562291852729,129.0580955188845,10.981289484932393,-3.527104648844508,252.26714642179135,15.156457941567794,-7.804679745768002,3.524787636520192,-0.5578132252218904,101.52185544556184,4.553760637733379,-1.091972952777386,0.14108418595378033,0.4953035076923249,277.81871923689397,126.02324546557459,10.73050893214414,-3.1606807489099396,-2.0626480624709638
GUIDED_NOGPS,2.649383306503296,25.769078118760177,279.6129015572731,128.40343218536788,10.971200746288453,-3.5981380238888976,252.2121840019253,14.789020004141374,-7.583819100708432,3.455642003014156,-0.47938835284156933,101.43742064704215,4.695805051322043,-1.1895608685273593,0.1439255209555559,0.4953612450382508,283.22506795679965,127.23504952112062,11.313649531256175,-6.3321214493867615,-2.119943841984046
GUIDED_NOGPS,2.684732437133789,28.29610939829588,281.423203336584,127.66177026545442,11.326475748356936,-3.6701155288765395,252.15720177161774,14.421449628809572,-7.358915862574062,3.422785804898633,-0.347971617868263,101.38974592663546,4.6870390047072155,-1.437892592135516,0.14680462115506157,0.49532865209726723,281.74224211811236,124.10288575389573,12.525448599052003,-4.6226539692441975,-1.948056503444799
GUIDED_NOGPS,2.7243077754974365,25.272067772917346,281.62542819402177,126.38460471476787,11.811816843993265,-3.7434846130816686,252.10223935175168,14.05401169138317,-7.129987637188261,3.409808872362432,-0.2456482871080375,101.28564018330613,4.591191146487927,-1.2216550133080013,0.14973938452326674,0.4952645488797046,288.21656707887973,125.81880588941031,13.441627412695833,-10.986197878908257,-2.2345354010102105
GUIDED_NOGPS,2.7597665786743164,28.209518172769094,282.0135111392214,124.93130584233211,12.41622467991965,-3.8267606288519698,252.0473363417915,13.686970924483948,-6.897053467912623,3.4367253672209825,-0.24976118156629587,101.19598712026054,4.5228439194843055,-1.2725318532731198,0.1530704251540788,0.49517168046304194,281.62111177373475,121.47654258165957,14.069888924450021,-6.789868287384081,-2.2345354010102105
GUIDED_NOGPS,2.7895901203155518,33.54530767631204,282.63902367934804,123.60942422221115,13.169368095021378,-3.8859052352171304,251.99253227694567,13.320591631166714,-6.660133816351163,3.376585765022432,-0.21134320843439888,101.14627700348119,4.486632444358168,-1.3572200134993533,0.15543620940868522,0.49504262452215686,279.93288099670923,119.41383736496978,14.496226007652782,-5.535018046526588,-1.7188733853924698
GUIDED_NOGPS,2.8286569118499756,25.603906846137413,282.6323667079274,122.36179962529418,13.99772413172777,-3.9453081014789704,251.9378665853296,12.955137398541115,-6.4192505430544875,3.304934732751471,-0.16268504750893384,101.0753454889506,4.486923206735129,-1.246281519341836,0.15781232405915882,0.49489575633130445,286.7816377867315,120.9969265365358,15.455429714788135,-9.425213374301677,-2.0626480624709638
GUIDED_NOGPS,2.864686965942383,27.76030180687008,282.4076612683528,120.88488955078401,14.730832743563804,-4.0278848920426,251.88337854512832,12.590870811393753,-6.174426888224003,3.272255692667545,-0.2414816315904917,100.97987310473216,4.410985350066042,-1.207615056649869,0.161115395681704,0.49477368509205305,279.9230631989605,116.71833538134487,16.190991658232164,-6.044621705178727,-2.3491269600363753
GUIDED_NOGPS,2.898210287094116,29.83570920472329,282.4308008436363,118.64032984275912,15.269150399051881,-4.0995911535688885,251.82910724175923,12.228053165810106,-5.925687452416071,3.23166537253404,-0.2885638597671086,100.91527317556218,4.240261832601735,-1.2533893905892122,0.16398364614275554,0.494701290537133,278.00383583916215,114.59600734928584,16.133215690136225,-4.3432796772394795,-2.0053522829578814
GUIDED_NOGPS,2.9307260513305664,30.764464264757656,282.59506443857305,117.48987249113618,15.75809429648111,-4.151845416849142,251.7750915250349,11.866944182796463,-5.673058177246222,3.1337588796501388,-0.28034852957775835,100.86324079446503,4.339811153186637,-1.275771272395691,0.16607381667396567,0.49464221188156815,284.53917671629387,115.72425582354498,16.514608411596168,-9.112345119356462,-1.3750987083139758
GUIDED_NOGPS,2.9610862731933594,32.94844421401582,283.06598951723055,116.43614852283922,16.265058705883224,-4.20845621492151,251.72136996632577,11.507801721901966,-5.41656632609331,3.114559644780056,-0.31763728034078187,100.8175809798635,4.326831347098674,-1.351216537672606,0.1683382485968604,0.4945795937420059,285.5096427473722,114.14521752348499,17.031048054663344,-33.26483603441358,-1.3178029288008934
GUIDED_NOGPS,2.9882164001464844,36.87689250734143,282.9201811358421,114.9093381536643,16.608435785934354,-4.248405113191005,251.66798081572298,11.150881494840565,-5.15624046480373,3.103665919940709,-0.28611729134249525,100.80392743171264,4.192645846330767,-1.2509344021377249,0.16993620452764022,0.49455883093731545,287.0501000277717,113.36287469066112,17.1723151150438,-9.790130377549843,-1.2032113697747289
GUIDED_NOGPS,3.030797243118286,23.48802723831284,283.90055940168565,114.03491823892296,16.82506056342299,-4.292510300796998,251.61496195920103,10.796436779112913,-4.892110442395573,3.0769361880672754,-0.2898016714716147,100.72494995433978,4.3128341906595065,-1.4287601098539664,0.1717004120318799,0.49457070724854535,289.4641379004836,112.3462358076382,17.27411554567534,-21.47813569717762,-1.432394487827058
GUIDED_NOGPS,3.0630834102630615,30.98377052692231,284.19909092490434,112.6929538143135,17.04435161927457,-4.353515568044138,251.56235087578062,10.444718131628438,-4.624207371762836,3.0408495239177475,-0.3473770712453545,100.68705606482455,4.196879603335232,-1.3850965813273661,0.1741406227217655,0.49458286025224063,282.3211331824589,107.88618522623861,17.229670969394107,-8.495774757724604,-1.3750987083139758
GUIDED_NOGPS,3.0968782901763916,29.59926042497336,283.5245398960388,110.69300427772882,17.187308778538842,-4.380339558589981,251.51018459469134,10.095973102327303,-4.352563610379585,2.9614635158551588,-0.31372256809015964,100.63705224991088,4.051905244264515,-1.2181292152003618,0.17521358234359924,0.4946150319027704,281.38522955580714,105.72450814062165,17.22939420791754,-8.124358061608916,-0.6875493541569879
GUIDED_NOGPS,3.1347873210906982,26.38939467342817,283.90040770298276,108.76454033311764,17.28865492597721,-4.40700694930009,251.45849965253447,9.750445947802287,-4.077212741004155,2.927877554715502,-0.3611599661036171,100.61057843668792,4.027218841392157,-1.387378189063386,0.1762802779720036,0.49465853308325464,282.9300056545123,104.5028978004291,17.537778791855192,-6.732069317869687,-0.5729577951308232
GUIDED_NOGPS,3.173452138900757,25.8890075365253,283.9109997447681,106.25822678228742,17.370196569565923,-4.431482049258797,251.4073320504457,9.408377344920911,-3.798189552383331,2.9154858840138065,-0.3742613361487594,100.58298447244107,3.886507153585684,-1.3511694578183997,0.17725928197035187,0.4947079034695127,278.0885721734447,100.83130693651009,17.58002333298737,-1.1711029858893056,-0.5156620156177409
GUIDED_NOGPS,3.2039055824279785,32.827756776006325,283.69944995295947,103.90796984704522,17.573098201943665,-4.456618058711804,251.35671721125783,9.070004104447218,-3.515530019956522,2.911425336552234,-0.37166244916956953,100.56671496183809,3.7654706032963685,-1.317299172338544,0.17826472234847215,0.49472784294452493,282.8467783818245,100.59495113142724,18.288623707564064,-8.534254485648248,-0.4583662361046586
GUIDED_NOGPS,3.246471405029297,23.498422907340903,283.3532295731665,102.00591822191286,17.848585852991956,-4.471852909866455,251.3066899366637,8.735558884663913,-3.2292712865599746,2.91867664957326,-0.3713281434262092,100.54756994159455,3.816954570793828,-1.2895219215932179,0.17887411639465822,0.494730535715112,282.73987970902857,98.37592710057677,18.60710922463557,-7.311402883028762,-0.40107045659157625
GUIDED_NOGPS,3.284278631210327,26.4571442989428,282.66056730741445,99.99882511920086,18.116909983599818,-4.479926677323638,251.25728436437882,8.405269904994281,-2.939451643130912,2.843590032149783,-0.42074034656387305,100.55054790407267,3.715072335738723,-1.2151971171929568,0.17919706709294553,0.4947359095933173,281.50880190175513,95.68904262706168,18.571014860956858,-6.6924522943937745,0.17188733853924698
GUIDED_NOGPS,3.3309268951416016,21.453911193178623,281.65732196120564,97.80841242093572,18.383375769117904,-4.480015022398399,251.20853392530404,8.079360659624104,-2.646110509411775,2.773410265314725,-0.47564781041478243,100.55315020614646,3.654942676743614,-1.1558350546781182,0.17920060089593598,0.4947426284303676,281.43817513081297,93.55083430910341,18.870107719445617,-6.98538788036457,0.2291831180523293
GUIDED_NOGPS,3.371356964111328,24.730566037735848,281.29561659811384,95.34502330640758,18.68897925150781,-4.481453725599674,251.1604713006885,7.758049631123715,-2.3492884146543496,2.707234269993764,-0.5569915214482262,100.54588288486956,3.523605519448522,-1.2145599919429175,0.17925814902398696,0.49474043308345944,279.42749027772476,88.51436136386937,19.108040744936886,-1.5754941317324267,0.057295779513082325
GUIDED_NOGPS,3.410592555999756,25.493569327271402,282.02224848071177,92.40773163269755,18.9386484198951,-4.478260430694516,251.11312837929225,7.441550004069899,-2.0490269783239974,2.650809010043231,-0.5861618720111754,100.55540416857255,3.376489337866867,-1.4031474561331292,0.17913041722778064,0.49475308115044525,287.19828461659057,85.90849276287709,19.536969549500512,-7.447097600404405,0.2291831180523293
GUIDED_NOGPS,3.4599039554595947,20.282228465596695,282.64834295014765,89.44903540795094,19.140424458800343,-4.471931485676831,251.06653621454902,7.130069378667972,-1.745368890803812,2.626288204036062,-0.5585956020469742,100.57964450993693,3.3286833242793907,-1.4099300775079417,0.17887725942707325,0.494778551662599,287.9387614099992,83.58244597684374,19.615989419161778,-7.186048577398196,0.2864788975654116
GUIDED_NOGPS,3.5060231685638428,21.686748981406797,283.16124308433456,86.1938001207524,19.353044322267785,-4.470927434516926,251.02072498172902,6.823809484373573,-1.438357894098825,2.528120242972996,-0.5778281874501137,100.58141352893196,3.171633506124871,-1.443732775937485,0.17883709738067705,0.49480214944590833,282.19177324694004,79.41286619106889,19.634114178294062,-6.7301021068028035,0.0
GUIDED_NOGPS,3.5291664600372314,43.221087559123276,282.7898745028674,82.70201093325554,19.47130404104586,-4.472935049682364,250.97572393510166,6.52296589351484,-1.1280387625401715,2.4427644361324043,-0.6053819709747384,100.5907640579057,2.7401316584521314,-1.3308357345148272,0.17891740198729456,0.4948501642991035,279.87582973008733,76.09188837161915,19.461406313336003,-26.543274921760897,0.2291831180523293
GUIDED_NOGPS,3.5638694763183594,28.845665554829615,282.2904335238695,79.70785227291974,19.54852939499093,-4.45361260666841,250.93156136509828,6.227727734914257,-0.8144572834892863,2.3999045722037513,-0.6360931695257603,100.60962904039329,2.8683681770662632,-1.3040533258132214,0.17814450426673642,0.49490925333037994,278.7443518770457,73.54356806219035,19.49416751466222,-0.7800164996523762,0.7448451336700702
GUIDED_NOGPS,3.60357403755188,25.19252807976455,282.55405922022635,76.9799171935994,19.65159293790399,-4.4401812578588,250.888264555475,5.938277407510615,-0.4976602380420889,2.3331584695305057,-0.6479572081140724,100.6401463256049,2.8460709524332133,-1.4270500492941733,0.177607250314352,0.49496268670601345,283.61780747261,72.26881736627541,20.052287264065843,-4.664918282004422,0.4583662361046586
GUIDED_NOGPS,3.6399495601654053,27.490113059151238,283.05132940964285,74.23317250533759,19.882374621484136,-4.425282221270313,250.84585974047533,5.654790293981069,-0.17769538173315702,2.258385827365437,-0.5971441225054683,100.6677539502301,2.7330062039889436,-1.4983810966728246,0.17701128885081255,0.4949849824991957,285.41633664614477,69.84872253553465,20.769897837062484,-17.00503666017086,0.6302535746439055
GUIDED_NOGPS,3.6765289306640625,27.343338070589464,283.20301579039955,71.03231315426112,20.054918451398493,-4.391275727022144,250.80437206199304,5.377434474363117,0.14538857476007472,2.1899977045270385,-0.6324542795237302,100.70832527389997,2.5612092493350533,-1.4766386339670932,0.17565102908088576,0.49502261753084037,280.6409813237783,63.40856943568656,20.49683332786585,-4.430167672462218,1.2032113697747289
GUIDED_NOGPS,3.713885545730591,26.777736634447184,282.18824605919156,67.83299037044178,20.28944679293749,-4.361736001044634,250.7638255267349,5.106370439676386,0.47154198491313615,2.1580462930331303,-0.7020256259141281,100.74172489894133,2.437568307175869,-1.28355266625115,0.17446944004178538,0.49504552379799394,279.0801267669267,60.0952744525224,20.63404802103098,-22.590324717990242,1.2032113697747289
GUIDED_NOGPS,3.75146746635437,26.616644032947924,281.41949591001867,64.71297288729666,20.580404126081028,-4.3238529971790145,250.72424296338338,4.84175080554488,0.8007142856503293,2.104755022694575,-0.6297980296276828,100.8093574321028,2.3296370958379384,-1.2896634237792466,0.17295411988716058,0.4950550775398923,281.78876021661597,57.9434806464647,20.948954180379907,-12.959373907893323,1.3178029288008934
GUIDED_NOGPS,3.788235664367676,27.205355057987184,281.103852682753,61.25138311039048,20.74297738797616,-4.2786025861248005,250.68564597975939,4.58372002581871,1.1328540166405645,2.038552773833992,-0.6588954359047305,100.87375928578685,2.1649079453350217,-1.3506903681553049,0.17114410344499204,0.4950974691571661,279.6666274288146,54.960868481744505,20.865153573541512,-1.769754199170265,1.3750987083139758
GUIDED_NOGPS,3.822878122329712,28.87823686149228,281.35446812636246,57.78128009229728,20.81469594119467,-4.2186881134261505,250.64805491998516,4.3324141061962145,1.4679088395931537,2.0309958098476075,-0.7462742594001153,100.90043117449575,2.0180770961860786,-1.457533893588462,0.16874752453704603,0.4951633032245996,281.8807532789632,52.49820744506864,21.12849060315504,-1.2082897044971332,1.8907607239317168
GUIDED_NOGPS,3.8525502681732178,33.7067866757745,281.9540961916669,55.02079689173494,20.97941406750582,-4.1545562159005405,250.61148882164684,4.087960317845901,1.8058255575536286,2.013832825123835,-0.731763575869276,100.95450578215474,1.9566646289584533,-1.5617104458889557,0.16618224863602163,0.49520660287251195,283.541376399481,49.60615343287486,21.320423959421607,-14.679512542315663,2.291831180523293
GUIDED_NOGPS,3.886223316192627,29.710383713599626,281.6067596094351,52.24461512457824,21.106753514880342,-4.088701952383287,250.5759653729574,3.850476911028384,2.1465501341995754,1.9467778698340579,-0.7114329841962042,101.03357888217597,1.8697901947622508,-1.4011345213048791,0.1635480780953315,0.4952599491548298,280.8391148147551,46.21436561673891,21.270745257903588,-16.460275506421283,2.635605857601787
GUIDED_NOGPS,3.933234453201294,21.27543965547851,280.91854943735785,49.24127182823513,21.21530748235073,-4.005674027536039,250.54150086991922,3.620072828718367,2.4900277131364064,1.87348161574677,-0.6825924037041196,101.16031304222557,1.8323697775296333,-1.3540337457710552,0.16022696110144158,0.4953186800576964,279.9106552695271,42.92676416474915,21.491724017731848,-9.824439084937424,2.979380534680281
GUIDED_NOGPS,3.9476683139801025,69.42143069946043,280.8631943589647,46.22934033787486,21.406009958887502,-3.908783160776484,250.50811017348695,3.3968474202266243,2.8362026371932423,1.8002940043559679,-0.6538593986914626,101.2449664067987,1.1838295357094273,-1.4612708817993532,0.15635132643105937,0.49535754816957644,280.19814069663295,39.90121102994315,21.81866595622534,-3.299421431472794,3.151267873219528
GUIDED_NOGPS,3.984285354614258,27.30808896296682,281.00294610017795,43.70994105484977,21.54404502950156,-3.8454505587049583,250.47580666673036,3.180890154822027,3.185018467718674,1.6168700212472158,-0.6352895017203731,101.42185464592369,1.6137603426259994,-1.4739934565914052,0.15381802234819833,0.4954102433595543,280.19814069663295,39.90121102994315,21.81866595622534,-3.299421431472794,3.896113006889598
GUIDED_NOGPS,4.017162322998047,30.424593243821587,280.75543563851375,40.491691529944525,21.710045385885653,-3.718958069516578,250.44460221199677,2.9722803353533926,3.536418003876566,1.5201215655927487,-0.6054802083049102,101.54715446624758,1.3713560060794403,-1.426930661711033,0.14875832278066312,0.49545659315449775,279.80867652330227,33.514905808348644,22.150425741342076,-2.6142807172912654,4.068000345428845
GUIDED_NOGPS,4.056410312652588,25.483191669046303,281.0560871487496,37.331310985129804,21.94952820265437,-3.599304451616457,250.41450710807422,2.771086811871559,3.890343301941929,1.348606444188737,-0.5894585055027645,101.7352647061789,1.3224423430206707,-1.5249574330025786,0.14397217806465828,0.4954852037748219,282.0718395107014,30.41246289266532,22.46815934174718,-10.002277160256156,4.239887683968092
GUIDED_NOGPS,4.091799736022949,28.26655164977356,279.9856027346892,33.95952887616848,22.0484223202457,-3.4417815780271694,250.38553004735388,2.5773676952512865,4.246735694596712,1.2543214456688234,-0.6105385503546865,101.86974430074727,1.1102376555448759,-1.2978882907721692,0.13767126312108677,0.49554957834358776,273.31687796648026,26.067853619942518,21.98619460568847,-13.96993946574068,4.755549699585833
GUIDED_NOGPS,4.128848314285278,26.99436853588369,279.19179668928365,30.51438318587221,22.190511348428494,-3.2884205605706525,250.35767807299297,2.391170070813377,4.605535810225572,1.1379151719745306,-0.645448927863091,102.07777137229836,1.0006142313738426,-1.3189215284400042,0.1315368224228261,0.49560375611544927,277.1909280362367,22.675482578461768,22.52911109713931,-10.57013031988194,5.213915935690491
GUIDED_NOGPS,4.164313077926636,28.205724123090167,278.5894790218949,26.406119004833755,22.348391583370102,-3.121442957812148,250.33095653607754,2.212529711946363,4.966683592211766,0.9899307993131535,-0.5273984462086765,102.26580648014881,0.7403135691668478,-1.3278920927149371,0.12485771831248592,0.49565457300221044,276.02057347564516,19.359890124750873,22.60806713093338,-7.394444546001111,4.870141258611998
GUIDED_NOGPS,4.203230142593384,25.702597036510486,277.9861824448776,22.79686189153226,22.437302718646457,-2.9490317676667575,250.30536905278512,2.0414707937288377,5.330118318232916,0.9202038526757264,-0.49594910697961725,102.4989754780347,0.6879091768945899,-1.311618290293813,0.1179612707066703,0.4957232038998966,275.08428265338904,15.468620241841153,22.594981417723865,-13.51993743400223,5.557690612768986
GUIDED_NOGPS,4.2393786907196045,27.671658727750142,277.16264735270653,19.07723639539404,22.533614077606277,-2.7546033574233517,250.2809174615475,1.8780056065511026,5.695778619556815,0.8321060984093449,-0.5148495210735119,102.67912171739378,0.49996071298423383,-1.2480333567470938,0.11018413429693408,0.49579054113548765,273.6098599592642,11.814335411974213,22.949716136546282,-10.121060961290866,5.557690612768986
GUIDED_NOGPS,4.275799512863159,27.463652911826717,276.2637811968347,15.551946784812651,22.643669645576512,-2.5666891348806753,250.25760178021352,1.722134269737385,6.063602500337279,0.7932097185508561,-0.5619175285828334,102.87485444843884,0.3810444223639998,-1.2018597770118138,0.10266756539522702,0.4958549832136902,273.00721144965837,8.441405567035572,22.536472445539644,8.449145880578115,5.385803274229739
GUIDED_NOGPS,4.312700033187866,27.106368953371895,275.61076472662234,11.297086888048932,22.780817148750767,-2.3797106011832234,250.23542016321187,1.5738444451675697,6.4335273569099485,0.6311622531926872,-0.5061878807105837,103.07702804787122,0.13866163039010018,-1.2170990849919163,0.09518842404732894,0.4959131775520398,274.5845447616032,1.401183094643166,23.21484861301058,8.343359928898224,5.271211715203574
GUIDED_NOGPS,4.3387322425842285,38.422747842655866,274.6748528829851,7.705345482027392,22.902173445166206,-2.1826748481835114,250.21436885871373,1.433111050899516,6.8054899970881095,0.5805666664204656,-0.48426388060934195,103.21129590657533,-0.09260109518317955,-1.0913374023246252,0.08730699392734045,0.4959758291379805,274.5845447616032,1.401183094643166,23.21484861301058,8.343359928898224,5.729577951308232
GUIDED_NOGPS,4.376094579696655,26.775514373080878,275.15133800553383,4.12323574798729,22.955511486155512,-2.0331094747141463,250.19444216579555,1.299895974790605,7.179426659458475,0.4608270469677952,-0.56759389603079,103.41947324228815,-0.08354138961761443,-1.3612883528978545,0.08132437898856586,0.49605597879332575,277.1287589468704,-2.4419284283593523,22.86167162267038,11.586955214774633,5.7868737308213145
GUIDED_NOGPS,4.409863233566284,29.61995423858083,274.4970538486325,0.518063202520245,22.910454326920345,-1.852880847116353,250.17563239160185,1.1741477881200701,7.555273032677036,0.29405506505553436,-0.4902034237837556,103.60750151994942,-0.23529494021122802,-1.1755759707779851,0.07411523388465412,0.49616120467643915,271.95665478102575,-6.211527315361014,22.724430340370446,-5.465619394136084,5.328507494716656
GUIDED_NOGPS,4.440284013748169,32.88257522304279,274.45682473614875,-3.97127939996168,23.0112056438056,-1.6666885741790538,250.15792980850802,1.0558014592107448,7.932964274764881,0.18487916024750847,-0.553427390001096,103.76688398423168,-0.5957327277706427,-1.2701996611644155,0.06666754296716215,0.49623043965773983,275.698740575775,-14.005307445374052,23.04022902996591,-3.0164174487106834,5.500394833255903
GUIDED_NOGPS,4.476304292678833,27.76820459856866,274.533631976447,-7.052577507965124,22.976281727196664,-1.5038056085471223,250.1413226112829,0.9447780670511641,8.312435032403972,-0.024443939698579813,-0.503038629894679,103.99536064215778,-0.4715082380074347,-1.2870972834743208,0.06015222434188489,0.49633403832630185,275.698740575775,-14.005307445374052,23.04022902996591,-3.0164174487106834,5.67228217179515
GUIDED_NOGPS,4.516740798950195,24.73844266452762,274.2321623805685,-10.845187082550199,22.922393147279756,-1.317134571345754,250.12579687425173,0.8409845149175688,8.693619460233013,-0.10668626083491657,-0.6019461723788104,104.20695990264477,-0.661566342265943,-1.2278378203782774,0.05268538285383016,0.4964428065782383,271.19810319223666,-17.561864778282203,22.945405713426048,-0.6430568228135201,5.271211715203574
GUIDED_NOGPS,4.547691822052002,32.31533287619517,274.1158076329739,-15.345935868978279,22.857250290717293,-1.1051188436481258,250.11133650845878,0.7443132439955669,9.076451240143196,-0.1596368754886173,-0.6570647851246084,104.35264783764114,-1.042390209349536,-1.247189356065429,0.044204753745925036,0.4965548002373565,272.07637346890135,-24.945672360499746,22.535957339858044,-0.2689832805989312,5.385803274229739
GUIDED_NOGPS,4.592046022415161,22.552446499623617,273.277656568221,-19.76337758933974,22.71994872538041,-0.9519569765499769,250.09792321883012,0.6546419470025917,9.460863600574104,-0.13134780609158475,-0.9009546720473379,104.58934121313877,-1.0538228491159243,-1.1252961284804657,0.03807827906199908,0.49668522871879844,267.8793362435802,-28.29873591716831,22.037922513686027,-5.746324775308551,5.156620156177409
GUIDED_NOGPS,4.625619649887085,29.793534547056023,272.2227317775548,-23.320506933783882,22.35761960570118,-0.7391453754075055,250.0855364613364,0.5718332818094503,9.846789335809444,-0.11129709209192475,-0.9647906872473349,104.78889885011903,-1.2048215427712061,-1.0147569201806845,0.02956581501630022,0.49687229243252706,266.1451464362737,-31.79095416759477,21.22858343156977,-7.548260550308143,5.099324376664327
GUIDED_NOGPS,4.659918785095215,29.159307846858685,270.6618113743887,-27.44521369647412,21.888274742751012,-0.5725573159611204,250.0741534001556,0.49573458506255363,10.234160825272891,-0.05076555442889167,-1.1006134812046813,104.9591413151816,-1.4358755246906865,-0.8638747382533353,0.022902292638444816,0.49708647152063046,264.6413957215412,-34.62884125882524,20.69350471521507,18.627343404487775,4.640958140559668
GUIDED_NOGPS,4.695144891738892,28.395724024940932,269.6564888101073,-31.636415760300586,21.32285170672917,-0.4195896505323738,250.06374886483584,0.42617758580580656,10.62291005282395,0.031503567195809455,-1.2763354655288919,105.12505344031037,-1.6036554619133006,-0.8946775687404548,0.01678358602129495,0.4973250145865237,263.91407426677466,-38.517875097414546,20.118290533316863,-10.94722828852673,4.583662361046586
GUIDED_NOGPS,4.725647449493408,32.809524554514304,268.41216892729454,-35.079731628100284,20.70948842091076,-0.26910046741923005,250.054295307458,0.36297811910246836,11.012968626053684,0.05324516656165752,-1.3184841360102173,105.25803039326135,-1.7174586939131717,-0.7680836695556469,0.010764018696769202,0.49757587005128573,265.7441815132729,-42.162251699498235,19.469140910765983,-5.415845847479446,4.297183463481175
GUIDED_NOGPS,4.760706186294556,28.52123297452043,266.73794068289493,-38.39377520566389,20.061149407338903,-0.14606100135382136,250.04576275979855,0.30593583965735505,11.404267795580616,0.1325766264923788,-1.4934339887930992,105.41160719674909,-1.776028159014984,-0.6477401709589442,0.005842440054152854,0.49783577959706043,262.304914620578,-44.868953804986354,18.79622744582674,-6.588972068917798,4.18259190445501
GUIDED_NOGPS,4.794530630111694,29.60469236361583,265.9733714752048,-41.79199665841267,19.488777928567565,-0.013458647047238592,250.03811879049235,0.2548339354386435,11.796738474346462,0.1967216677316792,-1.521900829871537,105.49117207039056,-1.9405106958519491,-0.7302276242861259,0.0005383458818895437,0.49807699013644474,265.08154953071573,-48.782061431338654,18.366726037713097,-1.468636887724216,3.896113006889598
GUIDED_NOGPS,4.828385353088379,29.51324270314391,264.71665429681434,-45.21719192678857,18.87724327920035,0.11034580221595158,250.03132846219532,0.2094388412999031,12.190311256912029,0.21256611912073528,-1.4828807061951947,105.63119094837583,-2.073502489685406,-0.5937295673584541,-0.004413832088638063,0.4983282669944279,262.02263604177784,-51.754817600704754,17.63583146837898,-2.7798698657008174,3.724225668350351
GUIDED_NOGPS,4.866086959838867,26.530108288634754,264.00254559725585,-48.502466811271326,18.32545042350786,0.2258694763614835,250.02535428874722,0.16949995260207018,12.584916438752938,0.27436613763847345,-1.5102991132360357,105.77442001527099,-2.1548493640277604,-0.6427788996034673,-0.00903477905445934,0.49856486650381127,262.1664666471123,-54.94424951982833,17.359326254854423,-2.6295041311127534,3.2658594322456924
GUIDED_NOGPS,4.904949426651001,25.737610760658796,262.94652805761547,-51.55181282546535,17.782741487548257,0.3494169752174436,250.02015619233444,0.13474933883525253,12.980484035555559,0.25831364562420966,-1.603781671250179,105.89154409915838,-2.2426546721107687,-0.5441325452766897,-0.013976679008697743,0.4987994356370018,257.6970061191506,-57.40898177046837,16.755596230967967,-3.6468917636517233,3.151267873219528
GUIDED_NOGPS,4.939114093780518,29.2785871348295,262.6954813236112,-54.89265204734695,17.444509796782945,0.4662075916740403,250.0156914606527,0.10490145724104494,13.376943802512688,-0.04617366627465969,-1.4511238483709261,106.00637323948463,-2.456255991594983,-0.6246570770181469,-0.018648303666961612,0.49898310850143246,262.63302184950703,-61.57314991439437,17.105068992000206,-0.8881664984739501,2.807493196141034
GUIDED_NOGPS,4.978321313858032,25.516678326996196,262.6668434225439,-58.14466214858552,17.19491176624099,0.5548075665300769,250.0119147040699,0.07965286643421976,13.774225253619488,-0.38032739790537695,-1.3796158231857125,106.08608837728785,-2.5369076364613274,-0.6520016741509612,-0.022192302661203075,0.49914482837184465,263.68497105823576,-65.04211193753152,17.118735885003307,1.684976205630491,2.4064227395494577
GUIDED_NOGPS,5.004663705825806,37.969528810030326,261.857249767995,-61.876453663518326,17.050403986096505,0.652331140637535,250.0087778127887,0.058681940024815304,14.172257680969192,-0.6063520712802918,-1.252058305176022,106.14038155100027,-2.8884812321200064,-0.4596256345037816,-0.026093245625501398,0.4992804634237182,259.26743227688183,-70.41377517536878,16.91329256765656,1.276051766616149,2.46371851906254
GUIDED_NOGPS,5.033612489700317,34.55002553584079,261.4775644750329,-64.97035879462642,16.96119724865693,0.7089065709917615,250.00622991400945,0.04164858024008211,14.570970174049041,-0.8311940547117367,-1.2013602655662503,106.17445736476947,-2.8945874553591775,-0.5203832132020058,-0.02835626283967046,0.499402443231348,259.26743227688183,-70.41377517536878,16.91329256765656,1.276051766616149,2.0626480624709638
GUIDED_NOGPS,5.077081203460693,23.01123595505618,260.31087626282107,-68.0259677284283,16.985465892399738,0.7576681865358581,250.00421732909285,0.028193931546372397,14.970291639035931,-1.438823744892791,-0.9445052388558086,106.2737136737881,-2.8740577570954393,-0.39068731101418847,-0.030306727461434323,0.49949620643665904,255.74804383302103,-72.68702643947772,16.876939449682,0.29722201757670064,1.5469860468532228
GUIDED_NOGPS,5.117441177368164,24.782439658483263,259.09056149597376,-70.65826717879376,16.850547553576245,0.8324570422949965,250.00268353072272,0.01794009427128529,15.370150818092473,-1.7341491717730948,-0.7305109298476663,106.31923688460623,-2.9593351758040605,-0.30787750016060017,-0.03329828169179986,0.49962990081612907,252.26011790699923,-74.73464716622173,16.430477297882767,-0.07573122155690726,1.3178029288008934
GUIDED_NOGPS,5.150927782058716,29.872470745760538,257.66235411272686,-73.68871074635777,16.735954630126564,0.8957465439494582,250.0015691000688,0.010489838225669956,15.770476308662506,-1.8702436791933608,-0.6911788586253247,106.35596964196256,-3.1796644251875126,-0.16846668371013773,-0.03582986175797833,0.499758630419634,250.74080758113735,-80.19432977535152,16.54577126775491,-1.3477708645889663,1.3750987083139758
