Mode,Time,Freq,North-Vision,East-Vision,Down-Vision,Yaw-Vision,North-Desired,East-Desired,Down-Desired,Roll-UAV,Pitch-UAV,Yaw-UAV,Roll-Control,Pitch-Control,Yaw-Control,Thrust-Control,northVraw,eastVraw,downVraw,N-Velocity,E-Velocity,D-Velocity,N-Acceleration,E-Acceleration,D-Acceleration,yawVraw,yawRate,Landing-State,Q-Size
GUIDED_NOGPS,0.005168914794921875,193.98316529460735,-16.569617653707656,44.77825361347291,74.15776356945719,5.415023594860222,-16.662539231410136,44.49915860887964,73.51517644333047,-0.2260324640594369,0.1488628523825172,14.968306632116876,-0.13483125762658157,1.304085806753116,10.0,0.4987146058806038,-15.282981651334396,44.15753980655815,74.5531250562455,0.5968031007796526,13.650651276111603,20.298151671886444,49.52808618545532,20.266036689281464,95.70415616035461,5.45305474357322,0.7580566558835046,False,3
GUIDED_NOGPS,0.029497861862182617,41.110148393546744,-16.29146397777275,45.73831647528706,76.85979202308123,5.607635078527524,-16.747476381386463,44.92573336924317,74.198807159743,-0.2690731145576838,0.19638842920537664,15.099196962276416,-0.12289373223589775,0.9190176346684654,6.512519233224021,0.49467260027853793,-15.311833782959283,44.538927654339076,75.14537875619223,0.5968031007796526,13.650651276111603,20.298151671886444,49.52808618545532,20.266036689281464,95.70415616035461,5.442364886020816,0.7580566558835046,False,2
GUIDED_NOGPS,0.04771780967712402,54.893519003245736,-16.257989706860915,45.845848184113855,76.92084297174715,5.594782489595555,-16.842142536131202,45.375196383285804,74.93206459287596,-0.3725264680995762,0.14999452935062368,15.183078515473342,-0.06426217886207158,0.46290828354812197,3.0758991886288403,0.4960141020842051,-15.443233059416226,44.90864662155181,75.72535801530364,0.5968031007796526,13.650651276111603,20.298151671886444,49.52808618545532,20.266036689281464,95.70415616035461,5.419535397363662,0.7580566558835046,False,2
GUIDED_NOGPS,0.059421539306640625,85.48290058288835,-16.283628462865405,46.06323549939038,77.12892996430413,5.519071229150843,-16.945686596731164,45.845377902333425,75.71175221672154,-0.3725264680995762,0.14999452935062368,15.183078515473342,-0.05230641817057173,0.45072733099363543,0.7157051874482225,0.4971559806082669,-15.440788845880828,45.11249176490939,76.00316579477537,-3.995325043797493,16.94672405719757,18.126612901687622,-28.849372267723083,25.876110792160034,-53.38149070739746,5.4048081206890375,-4.135814865565652,False,1
GUIDED_NOGPS,0.07108640670776367,85.75905782285106,-16.35321201785283,46.21693597084105,77.19616353980913,5.423965430980582,-17.057283524732792,46.334174643782454,76.5347435878868,-0.3725264680995762,0.14999452935062368,15.183078515473342,-0.021047340097347676,0.27127979484219117,-0.00010903127636074927,0.4986668776827149,-15.440788845880828,45.11249176490939,76.00316579477537,-7.017998397350311,17.63768345117569,17.360077798366547,-45.58721482753754,18.723568320274353,4.469846934080124,5.4048081206890375,-5.865428791729858,False,1
GUIDED_NOGPS,0.0875997543334961,60.57806406886392,-16.31739762551897,46.37642689979049,77.24524836774476,5.291532228125742,-17.176134026209013,46.83954898869925,77.39798174117041,-0.4487958821882293,0.21090642317306185,15.32422778976624,-0.039900471220859865,0.631675853790755,-0.04381547004259945,0.5002953854257882,-15.356927121874424,46.775981895518775,78.39430385911176,-0.08934643119573593,18.47342699766159,16.75672084093094,-2.323177456855774,34.00552570819855,-10.415319353342056,5.20743619725709,-9.28705773333782,False,0
GUIDED_NOGPS,0.11293411254882812,39.478031700613684,-16.31629505485775,46.520024433290956,77.30448769617013,5.223708988567257,-17.30146423582608,47.35952817941954,78.29847858513928,-0.40395014075839497,0.21344704010089505,15.369081642045714,-0.0009547444005883893,0.37927458328420244,2.065577922848128,0.5019799191785677,-15.266869502628042,46.94479278415369,78.70129366067496,-3.2065827399492264,18.33294928073883,15.666282176971436,-60.138022899627686,16.44642949104309,-22.78519570827484,5.166799030965779,-5.6850669745250935,False,0
GUIDED_NOGPS,0.1498568058013916,27.08676306289434,-16.279815569098123,46.88299912587256,77.76402323070404,5.127158337085422,-17.43252540091046,47.89220351714784,79.23331429770518,-0.5650228634168091,0.31125401499415534,15.724654460047407,0.007590769289810055,0.3671153111867277,2.0293384776574994,0.5029348554857479,-15.287992990320015,47.79822529619843,79.50359739723737,-0.7199926301836967,18.337181210517883,16.463293135166168,-49.48955476284027,4.510562494397163,-43.322646617889404,4.955618224874922,-6.75049281522975,False,0
GUIDED_NOGPS,0.17226958274841309,44.62500265985743,-16.28920307847672,47.39088514137821,78.47643061274255,5.00334410047866,-17.568593565515645,48.4357295595569,80.19963672170148,-0.5702261335430365,0.43035346429469573,15.75892664175524,0.0028345555265416045,0.44683276623235346,0.7720641165873108,0.5034457472803773,-15.553634441613891,48.05102164776229,79.698277934539,-3.6100011318922043,18.949532508850098,19.567321240901947,9.768737852573395,16.28763973712921,144.48730945587158,4.864300627444445,-7.24359149216965,False,0
GUIDED_NOGPS,0.20886850357055664,27.326948386172027,-16.29913041198039,47.73435778076481,78.89270829512394,4.901660632021996,-17.70896925448903,48.98832331838709,81.19466076045975,-0.575004064310872,0.5739796960179288,16.197382097787745,0.0221495340746091,0.3287474871839283,1.8368973358206842,0.5046100240370024,-15.505931132522573,48.49280358502281,80.26298531277256,-3.3795446157455444,19.099119305610657,19.338488578796387,-40.08065462112427,15.876927971839905,10.80213338136673,4.672463575588323,-6.491118515932631,False,0
GUIDED_NOGPS,0.23770666122436523,34.68373439179691,-16.290029979520344,48.270380840646084,79.59369777807295,4.74324721226317,-17.852977157538774,49.548263457045856,82.21566777338647,-0.5060902303497937,0.6559904177125065,16.451972276458093,0.014113360372512977,0.4480583069253023,0.6398638432058541,0.5052560839648023,-15.149901332238063,48.97940446302978,80.91992381371122,-2.6958979666233063,19.174154102802277,18.464455008506775,-27.4362713098526,10.265880823135376,101.82662010192871,4.437439311299329,-7.987566432418705,False,0
GUIDED_NOGPS,0.2780437469482422,24.795185566157084,-16.27651026913239,48.72143742995532,80.13643498525235,4.587365305964624,-17.999965813300633,50.11388948820713,83.26000497153964,-0.41849561556531895,0.6225858834726783,16.893002713807693,0.025278545218325538,0.38135600367837075,1.2010792268443513,0.5062693275592655,-15.00493202549019,49.78708496178739,81.7507897861677,-2.6958979666233063,19.174154102802277,18.464455008506775,-27.4362713098526,10.265880823135376,101.82662010192871,4.08152616410506,-7.987566432418705,False,0
GUIDED_NOGPS,0.3042781352996826,38.124490983129725,-16.303441139043176,49.21509115786003,80.70634566209597,4.432554022004534,-18.149307293404817,50.68360097141075,84.32508481320545,-0.32620257768381583,0.49589526587905053,17.11421546555148,0.02544119613550022,0.4318440595514756,0.2971672758742603,0.507267254509591,-15.119337733346585,49.99524498936854,82.01015512733004,-5.0993625074625015,18.827039003372192,15.763737261295319,-41.661521792411804,9.221155941486359,20.898647606372833,3.9627039474256067,-6.847500711350971,False,0
GUIDED_NOGPS,0.3370697498321533,30.499149227032767,-16.327218972909904,49.62021488329747,81.14043719825544,4.293105776563804,-18.300396886542863,51.25585671066189,85.40838439947503,-0.281671558564331,0.38087978945450174,17.37420832385531,0.0360478956759379,0.3937940075078973,0.8870089051025449,0.5085769475121595,-15.064023154740376,50.25777772499372,82.27219735970073,-5.0993625074625015,18.827039003372192,15.763737261295319,-41.661521792411804,9.221155941486359,20.898647606372833,3.8280428689029,-6.847500711350971,False,0
GUIDED_NOGPS,0.3748133182525635,26.4975930254596,-16.34062331935497,50.128934623334864,81.6625759786823,4.115082376929736,-18.452652782534464,51.82917395203048,86.50744486982093,-0.21993902818528638,0.18822085697936364,17.718579631618184,0.03976759131063616,0.3949902936252259,0.5788650560648279,0.5097453926427166,-14.763265148392955,50.31447253238096,82.62053281697122,-4.677260294556618,20.113445818424225,12.878414988517761,-93.00382137298584,7.3375798761844635,-47.4142849445343,3.672267647482241,-7.806951471327825,False,0
GUIDED_NOGPS,0.4095168113708496,28.824058166224557,-16.35575928367971,50.69869467211165,82.24506163700083,3.919141591429562,-18.605515756394343,52.40212758125064,87.61987079767398,-0.09572899655998973,0.09471060468257025,17.951026336999348,0.039317609785549434,0.42300284219622075,0.09251675610969867,0.5108201917709636,-14.638743210104238,50.673365019920595,82.87431161841036,-4.677260294556618,20.113445818424225,12.878414988517761,-93.00382137298584,7.3375798761844635,-47.4142849445343,3.5618451393287907,-7.806951471327825,False,0
GUIDED_NOGPS,0.44101524353027344,31.753620664854758,-16.46871205082371,51.16969255741329,82.62942754082549,3.76155138813443,-18.75844885239909,52.97334932132007,88.74332958599983,0.06498530124955741,0.005856140161345464,18.155429993195735,0.05445874835548866,0.27139745606854254,0.0822391723146425,0.5123125550505889,-14.997908627020088,51.1640939056782,83.01357205654304,-11.003357917070389,20.66998779773712,10.500229150056839,-106.85216188430786,5.921498686075211,-49.04584586620331,3.451041698142055,-6.94966497340873,False,0
GUIDED_NOGPS,0.47188758850097656,32.38919820536383,-16.50185378371328,51.65438613865584,82.97544475538996,3.6034826233951835,-18.91093706815402,53.541526930099536,89.87555086287563,0.042969467120490684,-0.1026925345013764,18.421353163246426,0.04953798758348907,0.41440087536672354,0.2524231170028206,0.5139032397280823,-15.180271304706828,51.96198645942462,84.04117266051901,-4.875373095273972,21.699590981006622,7.790973782539368,-53.22882533073425,14.904792606830597,-66.41270518302917,2.9153702311438687,-6.096105624342345,False,0
GUIDED_NOGPS,0.5051696300506592,30.052692293913232,-16.543198634755907,52.194979868367426,83.38176673044762,3.431201017027136,-19.062487038660045,54.10540339791223,91.01432587706671,0.09862878538863037,-0.174613786131376,18.621358177617324,0.05235493823437101,0.4036068284396645,0.010051545834934394,0.5153886851830337,-15.180271304706828,51.96198645942462,84.04117266051901,-4.875373095273972,21.699590981006622,7.790973782539368,-53.22882533073425,14.904792606830597,-66.41270518302917,2.9153702311438687,-6.096105624342345,False,0
GUIDED_NOGPS,0.5400755405426025,28.65274893430976,-16.60220394942234,52.803612511610375,83.73886513860842,3.265993781007031,-19.21262672038049,54.663776145143196,92.15750689360326,0.16196022036369268,-0.17989853827996757,18.848473920351296,0.05336534140957494,0.3708501058859581,0.06754853699091257,0.5169843731980681,-15.214773867158595,53.256697838010126,84.87313901809219,-5.945897102355957,23.57407510280609,3.4326642751693726,1.5747666358947754,17.86263734102249,-56.916141510009766,2.444445415202068,-4.519727419094198,False,0
GUIDED_NOGPS,0.572664737701416,30.689729856294086,-16.669300248083715,53.44472171298154,84.1032159212647,3.08867904670802,-19.36090507530799,55.21549621983883,93.3030065893569,0.20035602206121356,-0.2728446062791473,19.04398637779562,0.050910078485698465,0.3710893745812201,-0.3380797132980673,0.5185704927631071,-15.363439440337922,54.13980966764004,85.38049822809785,-5.945897102355957,23.57407510280609,3.4326642751693726,1.5747666358947754,17.86263734102249,-56.916141510009766,2.091476056372856,-4.519727419094198,False,0
GUIDED_NOGPS,0.6112322807312012,25.93254564452606,-16.71011289601927,54.05787802802004,84.51443306194993,2.869941734257109,-19.50689175503131,55.75946749530622,94.4487974486175,0.02885274676654371,-0.30192445683559394,19.1803801328789,0.048509187121252836,0.39176412261994076,-0.5365977337794667,0.5200704281500679,-15.341540203886051,54.83168623805852,86.01465678255573,-4.533157870173454,23.41412454843521,8.880528807640076,101.22309923171997,18.809640407562256,-52.71919369697571,1.702634845921831,-7.313299549065154,False,0
GUIDED_NOGPS,0.6420948505401611,32.40271007315962,-16.76551046258566,54.77666823054934,85.0015204586752,2.6219442483119955,-19.650176784802216,56.29464586771259,95.59291115866966,0.04266531025901356,-0.34117915482124395,19.239703740915044,0.042190331053145444,0.40600509422932446,-1.634088160218323,0.5214106877456535,-15.412069829533353,55.53128934179452,86.308463179692,-4.533157870173454,23.41412454843521,8.880528807640076,101.22309923171997,18.809640407562256,-52.71919369697571,1.4869878727111874,-7.313299549065154,False,0
GUIDED_NOGPS,0.6727170944213867,32.66362949637487,-16.6912841297775,55.372688637397324,85.37095911947719,2.4395118032250185,-19.79037024760232,56.820038453684745,96.73343800536952,0.035371735442497755,-0.24624913031158704,19.52779428991701,0.029222743553245556,0.6742151839774734,-0.9291352354828435,0.5229805852561511,-15.412069829533353,55.53128934179452,86.308463179692,2.9907716438174248,24.92983490228653,9.874855726957321,106.71038627624512,21.142292022705078,84.7346305847168,1.4869878727111874,-5.598252708853292,False,0
GUIDED_NOGPS,0.7076210975646973,28.65411915806445,-16.637706593947172,55.98506270939466,85.74771156724081,2.2636605921517976,-19.927101968209932,57.33470278790849,97.86852626872134,0.054351123598670684,-0.21977969267855468,19.712933397559375,0.030546794779502028,0.5940203065142657,-0.652458202331964,0.5245311795310574,-15.098478816434952,56.08206286579113,86.7087704196775,0.732492096722126,25.622549653053284,10.260232537984848,48.486530780792236,16.312405467033386,106.32715225219727,1.2810194050307062,-4.96694472717136,False,0
GUIDED_NOGPS,0.7442746162414551,27.290320901543346,-16.639021371432325,56.68145578344682,86.17282706556719,2.0787815264786413,-20.06002119726694,57.83774602072802,98.99638161845417,-0.0474463359563167,-0.20184692429098042,19.861640276168895,0.028352504270964002,0.4939612533073729,-0.7744727205857185,0.5259741842151688,-15.017360427941858,56.95551771850326,87.14145615577232,-2.831357903778553,26.23312473297119,10.361836850643158,-10.702873766422272,26.832619309425354,55.10936379432678,0.989973849528337,-4.159121178561028,False,0
GUIDED_NOGPS,0.777198076248169,30.3743581944716,-16.657540514158065,57.37706971726022,86.53722013602402,1.9202286327533138,-20.18879629534562,58.328324115745396,100.11526650959851,-0.09207100337262478,-0.22204080545894625,19.938792385486064,0.021739930437145165,0.4871205345390414,-0.7684260819305289,0.5275190379758862,-15.035195223063674,58.16639572286145,87.47013878756033,-4.127808660268784,26.221555471420288,8.238822966814041,-53.149425983428955,12.656132876873016,17.78397709131241,0.716799250998306,-2.64315834439917,False,0
GUIDED_NOGPS,0.8133342266082764,27.67731930871106,-16.67520202067306,58.07060968846226,86.89443323768648,1.7637893489156389,-20.313114417015527,58.805641047419925,101.22349957806304,-0.014941145531108674,-0.11251669440538192,20.062674941557173,0.014862360744745909,0.4725917775201628,-0.6757025381031028,0.5290624464854933,-15.000102981391043,58.48596773006522,87.62241019590304,-4.127808660268784,26.221555471420288,8.238822966814041,-53.149425983428955,12.656132876873016,17.78397709131241,0.6347981033955865,-2.64315834439917,False,0
GUIDED_NOGPS,0.8416767120361328,35.2916270499045,-16.635492799819918,58.898572253989634,87.31098447050609,1.6322114035968862,-20.432681194910323,59.2689479986676,102.31945503621118,-0.020148097556185584,-0.06881650376540566,20.127906663225378,-0.003582427992720915,0.6458452476421254,-0.8829549657422061,0.5304551880813667,-15.145637529892323,60.580203008794385,88.70898510206138,0.3819538280367851,27.066242694854736,7.774703204631805,40.84993302822113,18.723152577877045,15.480044484138489,0.511095265718553,-0.24315793610362738,False,0
GUIDED_NOGPS,0.8770692348480225,28.25645896912495,-16.557479294276916,59.54104038937642,87.57171138045611,1.533902757076932,-20.54722042379465,59.71754255846053,103.40156206843781,-0.12280338618224426,-0.10142713523592575,20.20977843325903,-0.010317164758193373,0.6490308852930904,-0.18874530399051426,0.5321428490056134,-14.782822620364575,60.5483534664241,88.18480254702925,1.0215016081929207,27.451449632644653,7.551414519548416,-55.353838205337524,11.63690835237503,-18.139375746250153,0.307658484817953,-0.44038242315209586,False,0
GUIDED_NOGPS,0.9100632667541504,30.31420703811045,-16.530294253758367,60.27139858587582,87.93931638732609,1.3704516977059717,-20.656473744630965,60.15076791942636,104.46830422674593,-0.20823624609441,-0.13687346915076473,20.256652313985533,-0.018750309965004135,0.5820104835538222,-1.1574239896391267,0.5335847935596976,-14.782822620364575,60.5483534664241,88.18480254702925,-1.7896013334393501,27.797743678092957,10.967477411031723,26.019394397735596,15.849769115447998,77.82713174819946,0.307658484817953,-3.6364610160064887,False,0
GUIDED_NOGPS,0.9423964023590088,30.93212976688275,-16.65397809518878,61.04261567306542,88.25983576324167,1.2694788077306105,-20.760200328646416,60.568012075447655,105.51821882632326,-0.22907584694320648,-0.07593740286196708,20.301021222833935,-0.02553748978101366,0.295515463519326,-0.48881577160392553,0.5350881773582931,-15.990626029441032,62.129695243903456,88.7994282594031,-8.490527421236038,27.761155366897583,7.2269536554813385,-36.30153238773346,15.218241512775421,32.31724798679352,0.2396258281083146,0.2819647230901126,False,0
GUIDED_NOGPS,0.9751734733581543,30.5149034928811,-16.623196195078375,61.83388440284773,88.61543274338855,1.1879998500432996,-20.858176561399677,60.96870701926143,106.54989634111902,-0.26642513559383446,-0.14249567533303728,20.31573686540073,-0.04661607172157727,0.578736444523637,-0.2824676729741704,0.5364873217772133,-15.387647242632891,63.645730987036565,89.32116449474267,-0.03051187377423048,28.34027409553528,10.264822095632553,-5.138513073325157,5.044242739677429,22.057929635047913,0.19772381952950344,0.9262242375422695,False,0
GUIDED_NOGPS,1.0090556144714355,29.51843536888332,-16.59766339851994,62.649884039061774,88.9857594297252,1.0893969296087214,-20.95019572684781,61.35232794005843,107.56197979942048,-0.2842907760284722,-0.09982161389414963,20.341519121970233,-0.06256500069013318,0.5602363746985317,-0.5093020843168286,0.5378212363859697,-15.57856887516408,63.97190312579795,89.43948677229956,0.21755967754870653,29.414471983909607,11.114196479320526,-22.417479753494263,5.5824533104896545,39.87901210784912,0.1715395912739337,-0.2797216462779981,False,0
GUIDED_NOGPS,1.0447804927825928,27.994873985476293,-16.51748928429289,63.489000937123606,89.3509843814325,0.9843307236047723,-21.03606769141311,61.718392421082676,108.55316417942964,-0.38577842247157607,-0.14553809772145482,20.3209363469064,-0.08190724778816888,0.6444403882615131,-0.5854174392025947,0.5391280524656215,-14.26354080366375,64.82928288246445,89.5034878113939,0.21755967754870653,29.414471983909607,11.114196479320526,-22.417479753494263,5.5824533104896545,39.87901210784912,-0.0700720474109668,-0.2797216462779981,False,0
GUIDED_NOGPS,1.076399326324463,31.63172898535423,-16.486916652509663,64.33905378696693,89.7157263208034,0.8897107156061576,-21.115618588049976,62.06645963723081,109.52219580484,-0.3266878412800041,-0.15582767098437325,20.318798497696186,-0.09998042348231063,0.5837677247870607,-0.6643834283680556,0.5403866821901032,-15.444596817888788,65.8097959878414,89.90327765311771,0.21755967754870653,29.414471983909607,11.114196479320526,-22.417479753494263,5.5824533104896545,39.87901210784912,0.024336039267920398,-0.2797216462779981,False,0
GUIDED_NOGPS,1.1098217964172363,29.927249375668925,-16.499053781761297,65.10778495741936,90.05503694197633,0.8054441739100191,-21.188690500311747,62.39612955265156,110.46787174041303,-0.4635453555357545,-0.15339943201272793,20.313155053894466,-0.11535308523470626,0.48910710051999323,-0.5255374028403577,0.5416539762553033,-15.444596817888788,65.8097959878414,89.90327765311771,-2.8090760111808777,29.245126247406006,12.271872907876968,59.445250034332275,11.796679347753525,52.94685363769531,0.024336039267920398,-0.46750958665785936,False,0
GUIDED_NOGPS,1.1437358856201172,29.489379952331067,-16.40382619537771,65.96067768743937,90.43960753430817,0.7169499036931345,-21.255141146417564,62.70704211834514,111.389039187555,-0.5312599043281138,-0.1715865182251794,20.259189729262193,-0.13867605955368012,0.6808846443166466,-0.6209139187931174,0.5427836116547833,-12.818575355480458,67.48516395235033,90.7918768248776,-2.8090760111808777,29.245126247406006,12.271872907876968,59.445250034332275,11.796679347753525,52.94685363769531,-0.04909435035955059,-0.46750958665785936,False,0
GUIDED_NOGPS,1.1793699264526367,28.06530699641347,-16.24420950803707,66.82890494009186,90.80611609186514,0.6755319642795491,-21.314843563319222,62.998876469762706,112.28459487989358,-0.5814919436095908,-0.14913024361635263,20.205482244271092,-0.16237670991393544,0.7772941307758633,-0.05638438602343204,0.5439033624088175,-12.755632408104011,68.34482469636777,91.12127745919418,1.4936854131519794,29.679906368255615,11.107640713453293,28.8364976644516,-1.8926721066236496,-22.092199325561523,-0.036980736603238376,2.3094175857491877,False,0
GUIDED_NOGPS,1.2151906490325928,27.921633370390836,-16.139964112454297,67.66918321869859,91.1717498649854,0.6347727726390305,-21.36768579076802,63.27135012440573,113.15348447885444,-0.6350818746417753,-0.0782764224875791,20.174474892986524,-0.18353339107584474,0.6867989371200902,-0.0747984222937042,0.5449727949142796,-12.755632408104011,68.34482469636777,91.12127745919418,-2.027817629277706,29.994621872901917,12.18370571732521,-34.51893329620361,2.096281573176384,14.01732861995697,-0.036980736603238376,1.9869257217753928,False,0
GUIDED_NOGPS,1.2446415424346924,33.960325814130485,-16.080908710485293,68.57325151117081,91.50611944092492,0.6214366824081146,-21.41357055538163,63.524218179425475,113.99470196923806,-0.704605409707983,-0.12342621405718479,20.084215650652098,-0.20897214916515897,0.6452689189693974,0.1920497886327281,0.5460395685299531,-14.650579671220127,69.48509649849002,91.2120388830356,0.5186802241951227,29.69081401824951,9.19836163520813,8.493132889270782,-13.703697919845581,-112.07915544509888,-0.017913340991578215,3.78324690391194,False,0
GUIDED_NOGPS,1.2791695594787598,28.965187666171747,-16.047461040289555,69.41397821780656,91.83507705841538,0.6204783108270612,-21.452414954710928,63.757272509222375,114.80728905479623,-0.6499804382122771,-0.07968536244730579,20.045507261078345,-0.2323823995901003,0.563343320769183,0.3611872840127051,0.5470702984722028,-14.669792469397457,72.15499002786818,92.3173938166617,-1.2993216514587402,29.661953449249268,11.50740161538124,-87.48582005500793,7.5951628386974335,-6.219445914030075,0.10895252847721487,3.0083967338500783,False,0
GUIDED_NOGPS,1.3157033920288086,27.375283098913293,-15.952271660817582,70.32889351155352,92.2255057936658,0.5742955099447541,-21.484150141306863,63.97034096304548,115.59033455380879,-0.610657438334927,0.012540974368083881,19.978731916657715,-0.2609369884917319,0.6566557739663423,-0.1610536901877937,0.5479238223216407,-14.930882636933074,71.47674372309626,92.15066787165817,3.7788815796375275,30.862683057785034,13.234099745750427,24.126243591308594,16.028258204460144,18.10600459575653,0.06300722902490535,0.613781662910826,False,0
GUIDED_NOGPS,1.3509931564331055,28.339700407429678,-15.908421553091701,71.257078791492,92.61730799876776,0.5913050392146841,-21.508721006787297,64.1632865625919,116.34297379466034,-0.7269446106055676,-0.014591525222968646,19.92993363013256,-0.28965121928945864,0.570163222590602,0.5477966295375211,0.548712403578,-14.328183605253056,74.30982649335411,93.19775475063986,-1.358285080641508,30.094486474990845,13.39617520570755,-73.03597927093506,-2.2202273830771446,-17.918461561203003,0.18631217062423122,3.9131084368277467,False,0
GUIDED_NOGPS,1.3785820007324219,36.25342714401784,-15.91378588404533,72.20942909257293,93.09054840966334,0.5962427733169469,-21.52608586590389,64.33600669960619,117.06438801141678,-0.7141491049691949,0.09712838492704898,19.773520590591975,-0.31995774815071826,0.48082127386801493,0.42959737619297644,0.5492614715235246,-16.064771196444397,74.38459793199411,93.40099680160833,0.3608446568250656,30.382493138313293,17.65183061361313,12.763725221157074,4.837166517972946,66.07421636581421,0.293963111402905,2.84048955315342,False,0
GUIDED_NOGPS,1.411634922027588,30.258658875302096,-15.99837270345299,72.99309499031233,93.47297593532558,0.591868151159902,-21.536216140608914,64.48843233347976,117.75380373940206,-0.7000377740613899,0.21567506915249435,19.684069018126902,-0.3434496593165014,0.3141211140468279,0.3023638726125094,0.5499398757983798,-17.528657102562214,74.99079583880346,93.36824012722866,-1.0246844962239265,30.4141104221344,17.917600274086,-36.362457275390625,-0.915963388979435,38.46612274646759,0.31495194894317585,1.3750209201432921,False,0
GUIDED_NOGPS,1.4455602169036865,29.480260059743454,-15.903413663952193,73.92729341698814,94.00569383603762,0.6143196178045307,-21.539096044122125,64.62052718885039,118.4104922107748,-0.6440499663828549,0.2679478408919242,19.605909455907153,-0.37904239189459615,0.6295605368691998,0.6333083100864356,0.5502540521382016,-14.324012756603711,75.96082017240849,94.75241031347707,2.049309015274048,30.195626616477966,20.356449484825134,-8.331890404224396,-8.577954769134521,68.08897852897644,0.5108899321604904,3.0623345242822575,False,0
GUIDED_NOGPS,1.4839906692504883,26.024260248558967,-15.81803570172779,74.86335053723093,94.49992121208268,0.6576446775620319,-21.534722264997615,64.73228695320154,119.03376875010501,-0.5774994312354539,0.35662472049472865,19.501743948422583,-0.4120353862480718,0.589459093032086,0.846282909447657,0.5505874528039378,-13.372689113378387,76.5874744883423,95.16944779050621,-1.190731953829527,30.16071915626526,17.31559932231903,-33.29518139362335,-1.0267860256135464,-18.829770386219025,0.6369917031599859,3.9909542372324975,False,0
GUIDED_NOGPS,1.5165140628814697,30.7518329520793,-15.607271849293664,75.8485521256866,95.09427538018848,0.7052723521400196,-21.52310365119068,64.82373847446183,119.62299216995068,-0.5060965269304348,0.4983935142896885,19.419675810450293,-0.4514234479460538,0.8446413952579142,1.007267170739431,0.5506411934014108,-10.342446031519632,75.80675464137127,96.54007966755682,-1.190731953829527,30.16071915626526,17.31559932231903,-33.29518139362335,-1.0267860256135464,-18.829770386219025,0.7626444091560388,3.9909542372324975,False,0
GUIDED_NOGPS,1.5504124164581299,29.504523136228702,-15.206199295661635,76.6260830214121,95.66003341797882,0.7786757919327476,-21.50426089412465,64.8949389586045,120.17756416643451,-0.618159440642834,0.4916671653394011,19.295231471319955,-0.4854050634855781,1.185756387279887,1.3345238528944137,0.5506852207822792,-7.8395611558128975,75.14773456072261,97.14008337894276,4.8322465270757675,30.309104919433594,19.954922795295715,25.191950798034668,-7.316888868808746,46.024250984191895,0.8520019499418716,5.039118482357239,False,0
GUIDED_NOGPS,1.5833983421325684,30.318589572144194,-14.953016603491836,77.41988831832124,96.23144353432987,0.8197250084064835,-21.478226212757747,64.94597516724673,120.69692871482043,-0.4631823950143918,0.5604032542995004,19.267707516512093,-0.5124425413237333,0.9389894991741149,0.9892001518002715,0.5506457446442503,-10.114507471742733,75.36043752399864,96.92583543483863,1.926870457828045,30.498158931732178,20.911839604377747,89.33483958244324,-2.1393995732069016,111.75934076309204,0.9590930628940573,2.5601230943290907,False,0
GUIDED_NOGPS,1.6173746585845947,29.43825713443479,-14.870261892964017,78.19053809225147,96.79139777700381,0.8344559824256093,-21.44504303764995,64.97696261524916,121.18057146509048,-0.49709284350047706,0.6234127098882201,19.133468686111957,-0.5375986508717994,0.6178888455984718,0.6747069202132419,0.5505591828043752,-12.879121546621443,75.81544651074836,97.41075560659515,-1.132921315729618,31.124478578567505,20.718765258789062,16.868102550506592,1.3911757618188858,48.499953746795654,0.7064036197403677,1.4791082006175262,False,0
GUIDED_NOGPS,1.651291847229004,29.48834331674119,-14.783729591044874,79.06500860690971,97.38384980192839,0.9015299575923267,-21.40476569502985,64.98804476831529,121.6280191375213,-0.4825316806028032,0.6955843306399829,18.94246756861443,-0.5728249513189485,0.6149408276311367,1.3328854949125293,0.5503348799378784,-13.06220175326377,78.79242597316059,98.53966794809276,-0.16224259743466973,30.664467811584473,20.368745923042297,20.917576551437378,3.497035801410675,66.81644916534424,1.1308172325116732,3.716875394425988,False,0
GUIDED_NOGPS,1.6936142444610596,23.630014816984886,-14.607864974518034,79.94426784918801,97.96819164025305,0.957701691968584,-21.357459090861493,64.97939224059087,122.03883891826086,-0.47998343307300667,0.8330317491244403,18.859106817341715,-0.6107883600795068,0.7244117262337316,1.103916501662453,0.5500695801059495,-10.379650643160009,79.8638735160381,99.23505564230987,-1.550268568098545,30.740568041801453,19.48048770427704,-53.94679307937622,3.693859279155731,-8.657190203666687,1.1487398613791338,2.934826418422344,False,0
GUIDED_NOGPS,1.7205543518066406,37.12989208855997,-14.382027339093755,81.15112247671462,98.70040093683762,1.0255733039989787,-21.30319839491122,64.95120199226332,122.4126378549051,-0.6298876758605393,0.8427370210482052,18.676633191022947,-0.6649155278897546,0.9392981827145682,1.6283832828710167,0.5494035969081663,-9.962490770488127,82.98767084865258,99.91073092364644,0.32021990045905113,31.42113983631134,20.511755347251892,-61.95395588874817,0.6857424043118954,59.94122624397278,1.3513672122974012,2.9440732138980716,False,0
GUIDED_NOGPS,1.7520835399627686,31.719041389063243,-14.330218457277933,81.90113797989277,99.11126019144545,1.124437199515538,-21.24206872481457,64.90369652716126,122.74906225207458,-0.6489095926164661,0.8165401506517387,18.56727332467458,-0.6905388002881326,0.5354788082249765,1.9244915951143358,0.5493145606502687,-12.63200259270069,84.01177879141142,100.05668767694078,-1.9076943397521973,31.12894892692566,17.441491782665253,-61.426842212677,-4.142992198467255,-57.13587999343872,1.2812052900593407,5.6643343621863425,False,0
GUIDED_NOGPS,1.7852110862731934,30.190921785698862,-14.265935321263568,82.81285930533207,99.65573709234395,1.149448611806248,-21.17416483014307,64.83712309035374,123.04779706699118,-0.6980834861851201,0.8222555782440114,18.427216880648885,-0.7301225327528107,0.5456624967008045,0.992214908135318,0.5488849586602794,-11.194317736130943,84.76489481370945,100.43938132980418,-5.340282246470451,31.046289205551147,20.275801420211792,-90.41872024536133,-11.010827124118805,42.47127175331116,1.3555270961666015,0.48545067933848457,False,0
GUIDED_NOGPS,1.8189964294433594,29.602811851559082,-14.375515120220893,83.62481864374757,100.16895849193196,1.219241531017632,-21.099590776471143,64.75175286574988,123.30856530505477,-0.6119542671427303,0.840798527984391,18.344148119963187,-0.7595511110453376,0.20944058528300913,1.5575867951837086,0.5484426150040277,-12.774835268270508,81.85616577512468,101.5021528365624,-12.21928671002388,31.493675708770752,14.543764293193817,-84.83922481536865,-8.106932044029236,-48.20981323719025,1.6215959495917098,2.700441219977363,False,0
GUIDED_NOGPS,1.8532638549804688,29.18832551601275,-14.01040255117036,84.5037368422646,100.81009552183002,1.329633620302377,-21.01845962944293,64.64788017369816,123.5311274154198,-0.7322436634627338,0.7793866963312197,18.155482927161803,-0.8189071629653156,1.0537827690111654,2.085282380468845,0.5476678053374984,-5.299525233205882,83.69404578299631,103.57197074405111,-1.5103841200470924,31.89224898815155,18.06083619594574,-3.8319215178489685,4.608882591128349,-11.533066630363464,2.0186178387503624,4.330552950312824,False,0
GUIDED_NOGPS,1.886922836303711,29.713119863984133,-13.656868596442564,85.4765249238474,101.45474583855601,1.4420133328589173,-20.930893138839153,64.52582166858579,123.71528068657202,-0.7992224728154359,0.7497371119484588,18.024495266806593,-0.8647183260985248,1.0497162611630708,2.199526488893839,0.5468068060983233,-5.31439847615029,86.65344799316244,104.17206254556743,-1.5103841200470924,31.89224898815155,18.06083619594574,-3.8319215178489685,4.608882591128349,-11.533066630363464,2.099693077872493,4.330552950312824,False,0
GUIDED_NOGPS,1.9198415279388428,30.385360446836717,-13.432621639950113,86.48508444524245,102.02666807331872,1.5249615106082783,-20.83702142264396,64.38591553643835,123.86085864190505,-0.8896726936423578,0.6468184875133844,17.89432722915178,-0.9061738502819714,0.8224024755540876,1.923828022338539,0.5460115644722491,-7.335265979797965,88.98301290009162,103.99385157176059,-3.613118827342987,31.261536478996277,15.955111384391785,-50.32433867454529,-3.010638803243637,-35.578423738479614,2.06652134314413,2.6458620320934374,False,0
GUIDED_NOGPS,1.9530656337738037,30.10013994043561,-13.2409869508263,87.52865765942418,102.57625665826387,1.6300991051062559,-20.73698265111179,64.22852069251896,123.96773043529728,-0.957174385992536,0.7005970491605376,17.766863946408296,-0.9538656226107607,0.7548882296942762,2.244640058911255,0.5451829528073834,-8.258708030101271,91.07641589052557,103.76442144397096,-2.534121461212635,31.57380521297455,17.399518191814423,-15.468159317970276,-1.2102225795388222,-16.267475485801697,2.1842001163410316,3.9942399851100965,False,0
GUIDED_NOGPS,1.9876105785369873,28.955789357413085,-13.071560056401239,88.64393670242555,103.12273315489149,1.7134622971091498,-20.630922730834246,64.05401597892791,124.03580024668824,-1.0018716775296284,0.6579765620179523,17.636627606861786,-1.005046365614611,0.7023200308954821,1.9951651107243635,0.5442838261999643,-8.953839547707553,93.46152186987007,104.5415334152612,-1.5954911708831787,30.81149458885193,15.621902048587799,42.823755741119385,0.9929506108164787,-40.47579765319824,2.4319303180120513,1.931014433559903,False,0
GUIDED_NOGPS,2.0202624797821045,30.63145594765132,-13.018610454640848,89.71363297169819,103.65358450286064,1.7950417582057543,-20.518994988806906,63.86279936220193,124.06500667765539,-0.970424846260655,0.7673882951153287,17.55143124224963,-1.0494449515182134,0.47556163121657224,2.085451154936222,0.5433333760239966,-8.953839547707553,93.46152186987007,104.5415334152612,-8.907002955675125,30.21843731403351,15.870815515518188,-87.27720975875854,-10.142422467470169,-73.34029078483582,2.4319303180120513,1.9731387714923105,False,0
GUIDED_NOGPS,2.0540449619293213,29.60364760520038,-13.000201299730005,90.82083598134268,104.18595080768773,1.8738343220190778,-20.40135985649617,63.65528713091376,124.05532214699087,-1.0416890123481581,0.8762799733404322,17.40158372204872,-1.1002896160237046,0.39999345081463317,2.047370974465357,0.5423035474395637,-9.595372796793928,95.99625820943997,105.47021089288657,-8.907002955675125,30.21843731403351,15.870815515518188,-87.27720975875854,-10.142422467470169,-73.34029078483582,2.4665338684338027,1.9731387714923105,False,0
GUIDED_NOGPS,2.087916135787964,29.526747435780106,-12.911014051451561,91.94920514473985,104.7692839170116,2.026798416837721,-20.278184553906193,63.43191309327139,124.00675228627796,-1.0203132950103686,0.970017062622864,17.29977121473322,-1.1593480915789056,0.5070023239468611,3.0228191174190124,0.5410918599772092,-10.142302690490684,96.49358228516397,105.88629879456388,-2.3439474403858185,30.645543336868286,18.192560970783234,26.810184121131897,-2.588002011179924,41.23130738735199,2.7008667545088687,6.272626313912624,False,0
GUIDED_NOGPS,2.124596118927002,27.266193410822478,-12.756063770580495,93.05976661895072,105.36849712408338,2.1400080677199838,-20.149642773645663,63.19312777471765,123.9193353354679,-1.0524960791624107,1.028198428242031,17.143776524279296,-1.218244452912842,0.6086859989201057,2.518394331781157,0.5397730430003117,-7.926940470029656,97.13024030995294,106.37315500976086,-3.9827562868595123,30.290433764457703,19.207987189292908,-19.984859228134155,-7.4002765119075775,16.109538078308105,2.8371482968216553,3.4035987363030094,False,0
GUIDED_NOGPS,2.155317783355713,32.555372721910025,-12.631121099696195,94.0915959841569,105.97203634737473,2.2661017613909715,-20.015914364994657,62.93939761552957,123.79314153845652,-1.1281611282312236,1.0817652540249136,17.093538775386563,-1.2685663415847352,0.543399127851476,3.0031516837425962,0.5383573302529381,-8.192181505930682,96.64594509992213,107.63014293180078,-4.774591699242592,30.42413890361786,18.050476908683777,-46.6507762670517,-6.6396914422512054,-59.87228751182556,3.1914686783604838,3.5380813190791525,False,0
GUIDED_NOGPS,2.1895217895507812,29.23960235907589,-12.459612857365148,95.07592903691982,106.54511210838966,2.3722570967968477,-19.877185017971552,62.67120416841781,123.62827253866092,-1.1153920895778848,1.0494108613699749,16.991661381273943,-1.3228452889890132,0.6166090748266575,2.662502776906744,0.5369282720797203,-7.486891895984688,98.70856843930208,107.80510525972736,-3.1990330666303635,30.399838089942932,20.579272508621216,-16.61868393421173,3.477369248867035,74.72569942474365,3.2675791540538572,2.6949228540148162,False,0
GUIDED_NOGPS,2.2231132984161377,29.772808904221414,-12.3536196428089,96.15123401568499,107.11135435786817,2.4832975580918104,-19.73364594739981,62.389043296126026,123.42486077459594,-1.2338648156612235,0.9251220157649587,16.904059082526654,-1.3727794794839898,0.4847348914001911,2.8143943713178334,0.5354327317993601,-8.668921607706693,100.12997598699704,108.66059619277306,-3.8063399493694305,29.332664608955383,15.887315571308136,18.608401715755463,-5.029391869902611,-51.988184452056885,3.267904878290211,2.8535875081039777,False,0
GUIDED_NOGPS,2.2575631141662598,29.034764429799665,-12.24005531620037,97.19310419670799,107.71546589577837,2.606518276858971,-19.58549357697489,62.0934243690304,123.18306887545117,-1.1977159327572253,0.9171820275765246,16.88241250549959,-1.4274686160433072,0.4838653313048987,2.9981718529327233,0.5337834483835532,-7.520816012778592,100.7295478489454,109.73428490742263,-6.198099255561829,29.409629106521606,17.57710874080658,3.924909606575966,-23.41630607843399,26.07148289680481,3.5714665078933683,3.1381035202925016,False,0
GUIDED_NOGPS,2.2904789447784424,30.38800217351929,-12.09983621824521,98.1991926619035,108.28292893973828,2.729364117927812,-19.432929223331044,61.78486946273898,122.90308905666728,-1.3502798405353904,0.8961932831438986,16.810955066402915,-1.4828055615479299,0.5155686413914843,3.135011096674742,0.5321269445939194,-7.520816012778592,100.7295478489454,109.73428490742263,-3.9896320551633835,30.114442110061646,16.878195106983185,-34.08496975898743,-7.118409126996994,78.37096452713013,3.5714665078933683,3.4039908318500505,False,0
GUIDED_NOGPS,2.3238368034362793,29.98480136687613,-11.928035396468394,99.26054314932085,108.81777322070187,2.806681526152124,-19.276158780108233,61.46391255569109,122.58514251551289,-1.4109481420643823,0.8383065227935413,16.81123851925347,-1.541230684511993,0.561951459376649,2.6060284613095637,0.5304583064549964,-7.757471063217917,103.66968053114721,110.3040164144029,-0.7927417755126953,29.432830214500427,15.315811336040497,31.83201551437378,-7.36299529671669,-9.245391935110092,3.62707932069158,0.5683250997979516,False,0
GUIDED_NOGPS,2.369410991668701,21.9444261325883,-11.89179007170193,100.33188913856706,109.37490185860409,2.862824586843972,-19.115392402018934,61.13109872675691,122.22947882666116,-1.3994613647060077,0.8289289398673783,16.787170640165638,-1.5878765155564507,0.35765768277298515,2.2107636229968803,0.5286795595777095,-8.314567647528222,104.54118880271139,110.59882210859963,-7.918627560138702,29.09853160381317,16.713078320026398,55.752551555633545,-5.011520534753799,121.18269205093384,3.6529276533933466,-0.7620093077005321,False,0
GUIDED_NOGPS,2.390275478363037,47.94092971687869,-11.876415112691644,101.7413064825193,110.16393049825254,2.9540073385378913,-18.950844188915,60.786983352836685,121.83637533776638,-1.3994613647060077,0.8289289398673783,16.787170640165638,-1.6441772119390075,0.07411651721371663,3.5253466749724565,0.5263347246087461,-8.314567647528222,104.54118880271139,110.59882210859963,-8.82333219051361,29.127398133277893,19.437134265899658,16.252501308918,-19.6006178855896,74.87719655036926,3.6529276533933466,0.03990217857462605,False,0
GUIDED_NOGPS,2.42490553855896,28.878634526539017,-11.845110978698724,102.41478577961038,110.50417919994428,2.9643321299900216,-18.782731869854544,60.43213130646029,121.40613656504075,-1.512608784392558,0.7667639731365072,16.80777902843886,-1.694749766992609,0.254782248009927,1.8975233642702258,0.5248240373339365,-8.42395368708693,106.33370431793608,111.69147674993181,-7.652013748884201,28.40128242969513,16.375969350337982,-27.479198575019836,-10.864005982875824,149.55273866653442,3.803809021026395,-1.984220326533833,False,0
GUIDED_NOGPS,2.4629039764404297,26.321000050203324,-11.83437525982929,103.55351021824227,111.0452816679289,3.001076144126109,-18.611276487168773,60.06711615338654,120.93909358883111,-1.4970788552106529,0.8499809702715327,16.902056129552545,-1.7528052582969673,0.20906644587822176,2.2053689031016455,0.522836490108389,-8.937582942959882,109.1204400085729,111.73853661714213,-6.87752291560173,27.352675795555115,15.891973674297333,14.769718050956726,-12.978088855743408,-147.27773666381836,3.8002357527163744,-1.8118758707541938,False,0
GUIDED_NOGPS,2.491823196411133,34.58107495321092,-11.841354047432672,104.5811141002665,111.5846702742884,3.029805838809346,-18.43670208052876,59.692519350202794,120.43560344919524,-1.5115769989410628,0.75198861977533,16.948142830977208,-1.8034202010833884,0.10132434240594317,2.1928848984921037,0.5207724314888634,-9.303138826211931,108.60268109138991,112.80749080768443,-6.87752291560173,27.352675795555115,15.891973674297333,14.769718050956726,-12.978088855743408,-147.27773666381836,3.760557601455384,-1.8118758707541938,False,0
GUIDED_NOGPS,2.532555341720581,24.5546585487223,-11.822434697236803,105.48977291219046,112.01307662360682,3.057604565670933,-18.259235371012537,59.30892944192424,119.89604854147896,-1.4977187585585185,0.7662983463341827,17.06252288636553,-1.8608363240271815,0.2053530769402805,2.109821832908535,0.5188619845024983,-9.303138826211931,108.60268109138991,112.80749080768443,-5.155356600880623,27.526313066482544,12.895958125591278,18.43366026878357,6.238657236099243,-69.03187036514282,3.760557601455384,-1.3918720640427713,False,0
GUIDED_NOGPS,2.5610272884368896,35.126997420521924,-11.787514940917845,106.51329716971966,112.48004736671226,3.0619495697561945,-18.07910544517164,58.91694125959326,119.32083601189255,-1.537608557415274,0.7294102555350893,17.11682630536172,-1.9131965904304504,0.12376529746373856,1.8975659970189314,0.5167933663531851,-8.824630364358,110.45466914191516,112.88607650794472,-5.085843428969383,26.93578600883484,13.472220301628113,39.021679759025574,-17.972882091999054,21.322423219680786,3.723986390104379,-2.9786220182672887,False,0
GUIDED_NOGPS,2.59238338470459,31.89730329900984,-11.776980789367059,107.33899715503077,112.8326769230401,3.0318918165495665,-17.896543439098174,58.51715511787903,118.7103971530874,-1.6960283919113728,0.6015589860302354,17.15168246824359,-1.9599560249966137,0.08203337434230379,1.4352189113709783,0.5148819553260153,-8.824630364358,110.45466914191516,112.88607650794472,-6.983224302530289,26.93924307823181,12.890854477882385,40.17777442932129,-13.635611534118652,92.67590045928955,3.723986390104379,-4.727837306688962,False,0
GUIDED_NOGPS,2.6274473667144775,28.52511238514952,-11.799176982398583,108.31086080471106,113.30430290486017,3.0266584834031884,-17.71178222249163,58.110176012676874,118.06518679973271,-1.6438256829717885,0.5650682735026191,17.2465691637407,-2.0128752197127175,0.03863630657910336,1.756289832490933,0.5126616364097654,-9.045649546638188,112.46754151728976,114.07545075174889,-8.121206611394882,26.160022616386414,14.708828926086426,46.03166580200195,-16.39883667230606,67.09696054458618,3.650475693918187,-3.001280743951983,False,0
GUIDED_NOGPS,2.66070556640625,30.0688508136784,-11.841329355292276,109.3826766655587,113.74765722673155,3.0038888076385506,-17.525056082725627,57.69661281870753,117.38568272409248,-1.7892212004943193,0.3991002262000099,17.451759999238927,-2.068201192935549,-0.03975117677593583,1.5288112828122415,0.5104256108759012,-8.513864322945992,114.1409554468575,114.23514942219602,-10.571379214525223,25.52856206893921,10.741054266691208,-4.119137674570084,-20.272576808929443,52.40211486816406,3.6486851938262443,-4.200839547124643,False,0
GUIDED_NOGPS,2.6961567401885986,28.212933690285606,-11.870156744271224,110.38569797050468,114.23340495700235,2.9744130093230927,-17.336600408914943,57.277077487116834,116.67238503160142,-1.8495281423275354,0.30543074511819057,17.540233147105393,-2.126455888363889,-0.014524517140081988,1.4515983419442302,0.5080344274377265,-8.76982188013437,114.32365973487269,114.48632297870329,-8.790988475084305,24.391864240169525,14.987988770008087,-3.454473614692688,-30.633220076560974,77.96118259429932,3.588623078691241,-4.286664289140438,False,0
GUIDED_NOGPS,2.7310683727264404,28.646291072757943,-11.93235554488539,111.44739973949423,114.70438813913657,2.9230943760367585,-17.146651375982245,56.852184243075044,115.92581555644225,-1.9371133656019013,0.1545646195964498,17.786872985581848,-2.1815345063969898,-0.10025482501933856,1.1661142572217416,0.5056027348829656,-9.352871854028653,115.7511830922027,114.76001466491307,-9.0162493288517,23.919518291950226,12.85170316696167,-13.153651356697083,-27.229318022727966,37.362027168273926,3.2889262627990394,-4.795408368147899,False,0
GUIDED_NOGPS,2.762413263320923,31.90822296099628,-11.996644203250264,112.47883631880958,115.17854733171939,2.8688559032689183,-16.955445628724927,56.42254878337614,115.14651725712224,-1.9039118160464694,0.13513780068878814,17.969501998704235,-2.236189953629182,-0.1771055086624932,1.0290732940125227,0.503095739591211,-9.36856577748902,116.15327137372417,115.38381281294068,-9.0162493288517,23.919518291950226,12.85170316696167,-13.153651356697083,-27.229318022727966,37.362027168273926,3.274823687205531,-4.795408368147899,False,0
GUIDED_NOGPS,2.7980310916900635,28.080526488447916,-11.963839944955504,113.32692192461872,115.54626582560844,2.813589032446518,-16.763219965882087,55.98878747403735,114.3350536120498,-1.9934438566777006,0.08911539909186043,18.152407634488004,-2.297707217068323,0.028765590643363967,1.0636043874319756,0.5007339455151835,-9.36856577748902,116.15327137372417,115.38381281294068,-3.196057677268982,23.57351779937744,11.898695677518845,59.547680616378784,-16.779977083206177,72.15572595596313,3.274823687205531,-4.810955159359317,False,0
GUIDED_NOGPS,2.841259479522705,23.13524366364213,-12.01016938877769,114.27608644624628,115.95484393863198,2.7783885686964798,-16.57021102420128,55.55151654789874,113.49200801511086,-1.903107774715112,0.06334552224022544,18.225671658620147,-2.349228270003228,-0.05190644869813906,1.342517918102362,0.49822214942100496,-9.612229393080593,117.14873936776712,115.20661661989145,-7.171618938446045,22.693191468715668,12.457961589097977,2.4582892656326294,-22.810855507850647,17.36711859703064,3.115730555481423,-2.9058527559631497,False,0
GUIDED_NOGPS,2.8643620014190674,43.30900605084361,-12.027024430452876,115.44222133309954,116.44198157501962,2.686257971125211,-16.376654962505377,55.11135130222221,112.61798317124627,-2.0694008963335313,-0.004674944321756384,18.28729874795388,-2.4026465861838324,-0.28225431138282897,0.01879678316747979,0.49549274716639663,-9.344271549455748,118.45180118966879,116.01740522849862,-4.625636339187622,20.956790447235107,8.817266672849655,52.35724449157715,-25.862962007522583,58.26982259750366,2.854937711332344,-5.6013920345505595,False,0
GUIDED_NOGPS,2.9038479328155518,25.329299297667145,-12.033828045556994,116.03872715293883,116.62497316249123,2.5974786467767976,-16.18278714575946,54.66890529629141,111.71360049202741,-2.0439699676194585,-0.06743531144918215,18.60544042175661,-2.4547760891662733,-0.05602299866464986,0.6578577923511009,0.49330250623716426,-10.31540998304604,119.59264969742307,116.31881776150544,-4.625636339187622,20.956790447235107,8.817266672849655,52.35724449157715,-25.862962007522583,58.26982259750366,2.617862255503567,-5.6013920345505595,False,0
GUIDED_NOGPS,2.9318573474884033,35.70440867263116,-12.079334420830262,116.90605656565558,116.99005961807308,2.5064513472923204,-15.988841829137606,54.22478954901071,110.77949949123406,-2.1680789871502326,-0.184019703670424,18.780127632421564,-2.4974560938643435,-0.27860440209076864,0.2092734961432554,0.4906901574219801,-10.703965072210984,120.02491024478917,117.3051602143654,-4.3357521295547485,20.346245169639587,8.989985287189484,18.047553300857544,-20.125684142112732,32.87740349769592,2.305810503717553,-4.414305583689167,False,0
GUIDED_NOGPS,2.9653801918029785,29.835921439190777,-12.124243439312634,117.61961911579328,117.27405844555942,2.433417317704586,-15.795051842089858,53.77961173650499,109.81633718042997,-2.246068648414377,-0.22090496634431428,18.92143058597079,-2.546827865768076,-0.21359897331501088,0.586764317111377,0.48817587678528584,-10.596646501701072,120.97728159722897,117.12065399872174,-5.617192015051842,19.660697877407074,10.174229741096497,19.885878264904022,-33.03215503692627,152.6747465133667,2.2257861636070846,-3.484235309313945,False,0
GUIDED_NOGPS,3.0001261234283447,28.78489074338421,-12.213412418640031,118.46739386448252,117.58814380522517,2.3251623209645,-15.601648272408994,53.333975389718965,108.82478746454035,-2.4117265624399855,-0.3269264710141314,19.039734585037287,-2.595578700245073,-0.2931937270343903,0.1483888558527573,0.48554025638173626,-10.596237543888481,121.95499318251746,117.23603990057147,-7.8183285892009735,19.31683123111725,8.345180749893188,-30.277878046035767,-31.19025230407715,47.75390326976776,2.08282713162045,-5.200847543506209,False,0
GUIDED_NOGPS,3.0323166847229004,31.06891851851852,-12.298179550792135,119.30373566784154,117.87068406975852,2.222712711533303,-15.408860150297341,52.888479092016375,107.80554053742783,-2.5535123249861646,-0.37064405729215005,19.18729399186624,-2.6453599479493497,-0.3413947776426935,0.06136119523445438,0.48291074604671425,-10.544739413902274,122.37560861440059,117.2632868768836,-7.477626949548721,17.628344893455505,6.135942414402962,-20.218493044376373,-43.87454092502594,-10.740479826927185,2.040610275546163,-4.653813424011656,False,0
GUIDED_NOGPS,3.065276861190796,30.341838174123776,-12.374906100275572,120.08502982015516,118.10346924749841,2.1216726807709527,-15.21691413243373,52.443715676779796,106.7593022774698,-2.457741546878361,-0.3387263698572689,19.285498451752687,-2.695222456308283,-0.3316375111937642,0.04750538272854321,0.48032276940187624,-10.549166822465137,123.49777626419133,117.21642723886062,-7.477626949548721,17.628344893455505,6.135942414402962,-20.218493044376373,-43.87454092502594,-10.740479826927185,1.9422288342308407,-4.653813424011656,False,0
GUIDED_NOGPS,3.108929395675659,22.911681160686975,-12.435272495831358,120.83301607979399,118.26930650917,2.0476813745942133,-15.026034186040325,52.00027142500962,105.68679364313448,-2.502179824835522,-0.37658984368635195,19.378216562188317,-2.747479390330282,-0.2122749310857808,0.5389636973131849,0.4778028787401878,-10.948736535186711,123.86411076744565,117.07438529592991,-5.012969672679901,14.22702819108963,1.7688121646642685,-49.54497814178467,-41.936346888542175,-78.51817011833191,1.8352780446890695,-2.4878865867802125,False,0
GUIDED_NOGPS,3.141190767288208,31.003925105149946,-12.478810041020305,121.7454198821442,118.58343314780822,1.9278485730673702,-14.836441272949415,51.558725262924014,104.58875006855794,-2.5591258867102686,-0.4099193525670159,19.461377530427807,-2.798861974769795,-0.30290499956359457,-0.30781936064392434,0.4749418953215656,-10.522977812661512,123.95791063236724,118.00298445965112,-3.474128618836403,13.06595653295517,3.5465773195028305,-34.72053408622742,-38.070088624954224,-30.74113130569458,1.6784799425865722,-4.20277035622564,False,0
GUIDED_NOGPS,3.174384832382202,30.1273820383712,-12.494435972953811,122.40036909824909,118.7788607042683,1.814376873169544,-14.64835303367026,51.11964795955776,103.46592085912071,-2.3888161869730586,-0.3911168022773228,19.556166895729245,-2.844642184867153,-0.25307756527393804,-0.2687540153293728,0.47226441851908346,-10.646387846886523,124.75861453766946,118.36114528737393,-3.474128618836403,13.06595653295517,3.5465773195028305,-34.72053408622742,-38.070088624954224,-30.74113130569458,1.3466681461403165,-4.20277035622564,False,0
GUIDED_NOGPS,3.2086989879608154,29.145934527159902,-12.516329786703357,123.05081244523454,118.98163693063769,1.70026807763444,-14.461983471456138,50.68360132436229,102.31906858702443,-2.310492486769818,-0.3034291261654066,19.640837335775306,-2.8881413916599294,-0.26351188539988046,-0.3087769420670752,0.4695193782959887,-10.741957647834262,124.76899762135466,118.5484818680973,-3.474128618836403,13.06595653295517,3.5465773195028305,-34.72053408622742,-38.070088624954224,-30.74113130569458,1.3209417330261546,-4.20277035622564,False,0
GUIDED_NOGPS,3.251859188079834,23.172054119453943,-12.687444554682235,123.683503719655,119.00816471607634,1.6173842712714346,-14.277542636370931,50.251137404804346,101.148968486868,-2.2633080458794894,-0.25595450895705785,19.687873433494598,-2.926620200808544,-0.41950235233705174,0.2018726471738692,0.46706449070730616,-10.882672900469665,125.39457171127432,118.37843783534058,-12.997595965862274,12.30737566947937,-6.682059168815613,-60.79254746437073,-30.43319284915924,-95.75988054275513,1.255025013051754,-2.1440956316533795,False,0
GUIDED_NOGPS,3.274914503097534,43.38202165840944,-12.730445416706125,124.26354796578897,119.14096108144747,1.5105671535809306,-14.095236309356128,49.8227976839662,99.95640785122534,-2.350998923642579,-0.28145011102483447,19.68934704680803,-2.964847030927701,-0.5239997688318364,-0.9442507465765484,0.4643783417353715,-11.395503055818459,126.1800233165897,118.262291038051,-3.4023724496364594,10.34444347023964,2.1712832152843475,12.615659832954407,-41.20489954948425,27.298280596733093,1.226908072747062,-3.9963189239387193,False,0
GUIDED_NOGPS,3.3183088302612305,23.049805734006714,-12.724217150829478,124.59919995158093,119.18363078466041,1.4802677566223423,-13.91526568629758,49.399112278144614,98.7421854262213,-2.328283422010409,-0.16128819378238687,19.68294032936656,-3.004011305580966,-0.1933480769636367,0.6071128870629329,0.461794036972149,-10.98693920162443,126.33314265186806,118.50870739950545,-3.5099726170301437,10.057082027196884,1.8976293504238129,30.820956826210022,-31.58051073551178,-59.72921848297119,1.208355021937097,-0.5127124189152384,False,0
GUIDED_NOGPS,3.3474974632263184,34.26187111477793,-12.713185686181639,125.35871164275002,119.37206255219978,1.4153182606630965,-13.737827062092652,48.98059913445043,97.50711080710826,-2.3474036828182134,-0.13463903679681855,19.671001158697376,-3.0485939541751224,-0.302055495288869,-0.034114185986320766,0.4588955767874571,-11.187556789982938,127.26759924519641,118.20029741797723,1.5243001282215118,8.127909898757935,1.399042084813118,72.5304126739502,-28.269821405410767,6.538170576095581,1.0842910323296922,0.2512765230666867,False,0
GUIDED_NOGPS,3.3927295207977295,22.110661268556004,-12.714743693602168,125.79359897887144,119.40568072027274,1.3938788208412687,-13.563111514716596,48.56776322840783,96.25200383384286,-2.488052432310997,-0.14863249358058794,19.58330665239629,-3.084829442449307,-0.2103485025850057,0.6465711714588397,0.4562344145301427,-11.396956576205156,127.73067695180177,118.14905843602469,-1.738918013870716,7.27393701672554,-0.19237276865169406,-79.76957559585571,-52.57181525230408,-35.68222224712372,1.010307830310452,1.1692283876678657,False,0
GUIDED_NOGPS,3.4162399768829346,42.53728588379664,-12.718106334788125,126.36658407507011,119.49870088401494,1.3494097138471088,-13.391304589289799,48.161095761553845,94.97769398666308,-2.528954806712207,-0.13491064353803234,19.538867734108894,-3.1188487465631223,-0.4346479710896334,0.0550358297565291,0.4534535138369516,-11.652530872397334,128.22770946301588,118.06810726099872,0.1481152605265379,6.386566907167435,0.5635453388094902,42.96179413795471,-25.111931562423706,101.07476711273193,0.9459611664029648,0.6040844484758476,False,0
GUIDED_NOGPS,3.4507782459259033,28.96278751804001,-12.67494184046974,126.61556105146354,119.47624460385026,1.3649846199659914,-13.222585982144402,47.76107335903785,93.6850197816646,-2.6248967664360836,-0.15544518039085253,19.424306678707563,-3.149804819442162,-0.22116809788283637,1.0016426226839898,0.45084270219355443,-11.652530872397334,128.22770946301588,118.06810726099872,0.7925167679786682,4.745166003704071,0.010396470315754414,8.829763531684875,-50.15913248062134,4.824758321046829,0.9459611664029648,2.8099129306733888,False,0
GUIDED_NOGPS,3.4842326641082764,29.896531569418507,-12.687877942102862,127.0995764693426,119.51611546921579,1.3687392349604575,-13.057129224891387,47.36815726722111,92.37482816637697,-2.7050165929476253,-0.24489504530863201,19.284205838452262,-3.1822410263531955,-0.33172079990428216,0.8656040950319054,0.4480690668181817,-11.417796654440028,129.70296939541856,117.73409382475802,-1.9762035459280014,4.282164573669434,0.523194158449769,-16.51119291782379,-48.573464155197144,60.59863567352295,1.2018322175409084,2.327398485626069,False,0
GUIDED_NOGPS,3.517334222793579,30.21158098695536,-12.717110286621592,127.51961537391442,119.50341408924672,1.401619386248373,-12.895101368487111,46.982792551275736,91.0479739153417,-2.7151201502773668,-0.2150781746520587,19.173688255039576,-3.213123871847461,-0.38063150079404157,1.2388664523045942,0.4453655155283681,-11.417796654440028,129.70296939541856,117.73409382475802,-3.2795701175928116,2.7637043967843056,-2.2120006382465363,-52.725398540496826,-44.338420033454895,-11.367984116077423,1.2018322175409084,4.038669511887384,False,0
GUIDED_NOGPS,3.5516624450683594,29.13318052372022,-12.726328310935592,127.91463821176512,119.47809631906013,1.4411214620557242,-12.73666266730051,46.60540729278449,89.70531902568685,-2.93926027841074,-0.33544296985719685,18.976208703114292,-3.244792476559473,-0.3420760461005112,1.3236527850325008,0.44264884474112753,-10.989265351805932,129.89071107016167,117.64248814954522,-3.2795701175928116,2.7637043967843056,-2.2120006382465363,-52.725398540496826,-44.338420033454895,-11.367984116077423,1.2914002204707806,4.038669511887384,False,0
GUIDED_NOGPS,3.587458848953247,27.94190849255203,-12.78481738568027,128.2651645339054,119.37856781302852,1.493693976452204,-12.581966263179652,46.23641178734015,88.34773211270547,-2.9219649587717984,-0.3119820171101435,18.825229079058452,-3.2710689990801947,-0.42938014751368564,1.485995410881419,0.44004421374208896,-11.112238687857634,130.05154134035286,117.47747604361643,-6.211723759770393,0.5994093604385853,-6.4524635672569275,-61.76648139953613,-41.77265763282776,-52.32604742050171,1.322643939263386,4.709357376115847,False,0
GUIDED_NOGPS,3.6185357570648193,32.18144291929136,-12.769009658242137,128.5826970952972,119.26627316763732,1.5872359163975631,-12.431157869518811,45.876197742145074,86.97608780543207,-3.022723695964415,-0.36433488348976234,18.604103412226582,-3.299880977815986,-0.34821270028469825,2.15626417000832,0.4374452305454743,-11.261369735122958,129.70795306436668,117.72376578547743,-0.6171505432575941,-0.7058029528707266,-8.059147000312805,-60.83101034164429,-41.82477295398712,-90.8086359500885,1.3392708186727047,7.295123561910104,False,0
