Mode,Time,Freq,time2delay,actualDelay,North-Desired,East-Desired,Down-Desired,Roll-UAV,Pitch-UAV,Yaw-UAV,Roll-Control,Pitch-Control,Yaw-Control,Thrust-Control,North-Pos,East-Pos,Down-Pos,Yaw-Ang,North-Vel,East-Vel,Down-Vel,Yaw-Vel,North-Acc,East-Acc,Down-Acc,North-Avg,East-Avg,Down-Avg,Yaw-Avg,North-Dif,East-Dif,Down-Dif,Yaw-Dif,North-One,East-One,Down-One,Yaw-One,North-Two,East-Two,Down-Two,Yaw-Two,Landing-State,Q-Size,Kalman-Time,Kalman-Dt
STABILIZE,0.04225039482116699,23.67322703541696,0.03279307683308919,0.04032182693481445,0.0,0.0,0.0,0.6726628561156548,-0.7131731883306764,0.4796514218463206,-0.016875474859688554,0.01617647697780831,0.0021141229884099892,0.4,0.015751615222476534,0.013292485207545118,0.7446022937244617,0.02097127090287566,-0.0990595668554306,0.5269733723253012,1.6314119100570679,0.08888637431125344,1.7771413549780846,7.400422543287277,24.67130869626999,0.0,0.0,0.0,0.0,0.0,0.0,0.0,0.0,0.0,0.0,0.0,0.0,0.0,0.0,0.0,0.0,False,0,3.5196938514709473,0.03492626953125
STABILIZE,0.07514786720275879,30.399014314187355,0.03180673917134603,0.03194260597229004,0.0,0.0,0.0,0.6726654174365936,-0.7122868645641616,0.4846059236763715,-0.00360355013861951,0.011449500078985347,0.0024663759933409688,0.4,0.020503419834741944,0.0068269432244529105,0.744450371095962,0.02433144874229056,0.321658537723124,-0.35837662871927023,1.3400145806372166,0.22135355769435336,3.479810804128647,-12.352130562067032,20.1345294713974,0.0,0.0,0.0,0.0,0.0,0.0,0.0,0.0,0.0,0.0,0.0,0.0,0.0,0.0,0.0,0.0,False,0,3.549232006072998,0.034927001953125
STABILIZE,0.10857701301574707,29.91465597786162,0.03239897092183431,0.03253006935119629,0.0,0.0,0.0,0.673260497668031,-0.7116727345082422,0.4765842933830146,-0.006852766393413249,0.005653075061180943,0.0016740621792084667,0.4,0.01535536499195052,0.015018730686158731,0.7465555032830629,0.016299275805075966,-0.30853867065161467,0.3756794612854719,1.4577851630747318,-0.03924474618658588,-4.425337165594101,3.399241343140602,19.599877297878265,0.0,0.0,0.0,0.0,0.0,0.0,0.0,0.0,0.0,0.0,0.0,0.0,0.0,0.0,0.0,0.0,False,0,3.606732130050659,0.029937255859375
STABILIZE,0.14213895797729492,29.79628603498004,0.03241923650105794,0.03255629539489746,0.0,0.0,0.0,0.6726918844196274,-0.7127166328733434,0.47813405263351993,-0.007639673955134294,0.0024300576419039894,0.0015625566651255854,0.4,0.009550430727553207,0.020804039159102866,0.7446258617815389,0.015083302916490932,-0.30853867065161467,0.3756794612854719,1.4577851630747318,-0.03924474618658588,-4.425337165594101,3.399241343140602,19.599877297878265,0.0,0.0,0.0,0.0,0.0,0.0,0.0,0.0,0.0,0.0,0.0,0.0,0.0,0.0,0.0,0.0,False,0,3.6353509426116943,0.029937255859375
STABILIZE,0.17550349235534668,29.96958957356808,0.0323055108388265,0.03245401382446289,0.0,0.0,0.0,0.6711995948076854,-0.7113973391464732,0.479824097566275,-0.004776669636742958,0.003171052242015133,0.002153434884081108,0.4,0.013654716454563745,0.016352734414897183,0.7413570057242276,0.020852530438593014,0.28481404297053814,-0.23840242065489292,1.3610939495265484,0.3819690178641337,7.4026137590408325,-0.5657725501805544,18.08828115463257,0.0,0.0,0.0,0.0,0.0,0.0,0.0,0.0,0.0,0.0,0.0,0.0,0.0,0.0,0.0,0.0,False,0,3.6641056537628174,0.03492578125
STABILIZE,0.20898985862731934,29.863962918396265,0.032414944966634114,0.03253960609436035,0.0,0.0,0.0,0.6727285966864162,-0.709932477012917,0.4728225666976301,-4.0653639449451145e-05,0.00122502283675452,0.0027641204456446355,0.4,0.01780271850882248,0.011991334291316916,0.7418294207161763,0.026780309387082174,0.28481404297053814,-0.23840242065489292,1.3610939495265484,0.3819690178641337,7.4026137590408325,-0.5657725501805544,18.08828115463257,0.0,0.0,0.0,0.0,0.0,0.0,0.0,0.0,0.0,0.0,0.0,0.0,0.0,0.0,0.0,0.0,False,0,3.6931121349334717,0.03492578125
STABILIZE,0.24239063262939453,29.938998536707235,0.032358678181966145,0.03247570991516113,0.0,0.0,0.0,0.6722990418206458,-0.7113120151427009,0.4802222228896927,-0.0008648387802197664,-0.0016242866186863536,0.002680024289593903,0.4,0.011673203497247745,0.00865724318653733,0.7469673298677634,0.02576705038497143,-0.3355714026838541,-0.17221292946487665,1.6479315236210823,-0.03719527588897215,-7.469490170478821,-4.386750236153603,24.25253689289093,0.0,0.0,0.0,0.0,0.0,0.0,0.0,0.0,0.0,0.0,0.0,0.0,0.0,0.0,0.0,0.0,False,0,3.721799612045288,0.069817626953125
STABILIZE,0.27590203285217285,29.841015972395148,0.03240207036336263,0.03254222869873047,0.0,0.0,0.0,0.6727243278181849,-0.7121576779393131,0.4797933617150099,0.0018321116622153862,0.00032430621361662765,0.004160948902597868,0.4,0.014229443651852382,0.007907384928044816,0.7707686743788146,0.04030626793690462,0.17823658417910337,-0.005727922689402476,1.3143384829163551,0.7458555901483346,13.155196607112885,1.4241291210055351,20.113982260227203,0.0,0.0,0.0,0.0,0.0,0.0,0.0,0.0,0.0,0.0,0.0,0.0,0.0,0.0,0.0,0.0,False,0,3.7503838539123535,0.029936767578125
STABILIZE,0.30928659439086914,29.952895808041134,0.032305034001668294,0.03243756294250488,0.0,0.0,0.0,0.6740006126976253,-0.7112200210323173,0.47651278984014106,0.0012717131005291673,0.0055094335674284,0.0023396475015417025,0.4,0.02779715787062547,0.014742266984983076,0.7665408607525902,0.0219466375715414,0.34873534459620714,0.11088743340224028,1.4349974691867828,-0.1579220310994813,0.38745375350117683,-8.29920545220375,23.477686941623688,0.0,0.0,0.0,0.0,0.0,0.0,0.0,0.0,0.0,0.0,0.0,0.0,0.0,0.0,0.0,0.0,False,0,3.80791974067688,0.029935791015625
STABILIZE,0.34270691871643066,29.92212535848303,0.03241136868794759,0.03253173828125,0.0,0.0,0.0,0.6738152370946829,-0.710915917531693,0.4806983084191837,0.0018293661351355191,0.003024043405764554,0.0024268734220120776,0.4,0.022392956132102022,0.009088197825086224,0.7588707591358876,0.022667280199918618,-0.26149172335863113,-0.28966451063752174,1.2403192929923534,0.09016033132348643,-4.1297513991594315,3.21684293448925,17.340995371341705,0.0,0.0,0.0,0.0,0.0,0.0,0.0,0.0,0.0,0.0,0.0,0.0,0.0,0.0,0.0,0.0,False,0,3.8367137908935547,0.034927001953125
STABILIZE,0.3761122226715088,29.934297765438885,0.03243449529012044,0.03254103660583496,0.0,0.0,0.0,0.6743582371336989,-0.7096978493427565,0.47853724723796226,0.0023962369128853285,0.0005816151616040294,0.0025259124943642864,0.4,0.01718974245625357,0.003490082363279162,0.7552103296392502,0.023500588106383256,-0.26149172335863113,-0.28966451063752174,1.2403192929923534,0.09016033132348643,-4.1297513991594315,3.21684293448925,17.340995371341705,0.0,0.0,0.0,0.0,0.0,0.0,0.0,0.0,0.0,0.0,0.0,0.0,0.0,0.0,0.0,0.0,False,0,3.8656156063079834,0.034927001953125
STABILIZE,0.4095942974090576,29.868854326895686,0.03245690663655599,0.03257417678833008,0.0,0.0,0.0,0.6746143692275745,-0.7107285142163408,0.48112044612640226,0.00018555989582663435,0.0010497509030751907,0.0018335418227430843,0.4,0.013607098550283874,0.007119191993323395,0.7502427192524425,0.016466743584750088,-0.16736711841076612,0.22863622289150953,1.1653897352516651,-0.3512225211089246,1.9133131951093674,7.088111340999603,15.012694895267487,0.0,0.0,0.0,0.0,0.0,0.0,0.0,0.0,0.0,0.0,0.0,0.0,0.0,0.0,0.0,0.0,False,0,3.894033908843994,0.03492626953125
STABILIZE,0.4430558681488037,29.884602778767366,0.03240087827046712,0.032529354095458984,0.0,0.0,0.0,0.6741837471447463,-0.7101138505518926,0.4833412181020084,0.0007738163421399949,0.0012010701293358815,0.001927110835802264,0.4,0.016323265810580807,0.004685212013616276,0.7448099836587898,0.01728680433961974,0.18654539017006755,-0.11447691358625889,1.1379221454262733,0.09113650809616274,10.998736321926117,-6.624249368906021,13.43250721693039,0.0,0.0,0.0,0.0,0.0,0.0,0.0,0.0,0.0,0.0,0.0,0.0,0.0,0.0,0.0,0.0,False,0,3.922696590423584,0.029936767578125
STABILIZE,0.47650671005249023,29.895892285651154,0.03231361707051595,0.03243303298950195,0.0,0.0,0.0,0.6741793715548092,-0.7094356874725043,0.47930991238781995,0.0036061518484474626,-0.001306567372418893,0.002020457923422655,0.4,0.018962533865827653,0.0023334368316589747,0.7361254865553272,0.018099255466289026,0.18654539017006755,-0.11447691358625889,1.1379221454262733,0.09113650809616274,10.998736321926117,-6.624249368906021,13.43250721693039,0.0,0.0,0.0,0.0,0.0,0.0,0.0,0.0,0.0,0.0,0.0,0.0,0.0,0.0,0.0,0.0,False,0,3.95145320892334,0.029936767578125
STABILIZE,0.5099501609802246,29.900367846245974,0.03236130078633626,0.03249955177307129,0.0,0.0,0.0,0.6751468038177181,-0.7092386792036318,0.48035968044673916,0.0031329127794584902,-0.003342629901395336,0.0023504203324313964,0.4,0.007033129007475886,-0.0013087992636863863,0.7482301505351625,0.02125667087619489,-0.2247406868264079,-0.3509458852931857,1.36611582711339,0.32877915982649736,4.809590056538582,-8.573044091463089,16.817128658294678,0.0,0.0,0.0,0.0,0.0,0.0,0.0,0.0,0.0,0.0,0.0,0.0,0.0,0.0,0.0,0.0,False,0,4.00878643989563,0.02993701171875
STABILIZE,0.543475866317749,29.827858651514397,0.03239110310872396,0.032547712326049805,0.0,0.0,0.0,0.675424173531044,-0.709927567814451,0.4807333664995329,0.0025780733133764166,-0.00012020581978584517,0.001740495643027095,0.4,0.014113317097692143,-0.004667857364625139,0.7396379811023863,0.015056579493424972,0.409107469022274,-0.16931371064856648,1.2436388060450554,-0.28776512784061375,9.179434180259705,-2.5963036343455315,19.46452409029007,0.0,0.0,0.0,0.0,0.0,0.0,0.0,0.0,0.0,0.0,0.0,0.0,0.0,0.0,0.0,0.0,False,0,4.0374860763549805,0.03492578125
STABILIZE,0.5768325328826904,29.977729176494133,0.032329829533894856,0.03245425224304199,0.0,0.0,0.0,0.6727499410275725,-0.7095655144275874,0.4776678922226666,0.0048195543247606274,0.0027108802673060247,0.0011384716777953845,0.4,0.02116485269590858,-0.00812540169107765,0.7349476263433566,0.008976331188596745,0.409107469022274,-0.16931371064856648,1.2436388060450554,-0.28776512784061375,9.179434180259705,-2.5963036343455315,19.46452409029007,0.0,0.0,0.0,0.0,0.0,0.0,0.0,0.0,0.0,0.0,0.0,0.0,0.0,0.0,0.0,0.0,False,0,4.066121816635132,0.03492578125
STABILIZE,0.6103641986846924,29.823404769692402,0.03242543538411458,0.032553672790527344,0.0,0.0,0.0,0.6721244451099874,-0.708698507289819,0.47671315984274576,0.0035857135223789226,0.0013971599192423335,0.001350863201032236,0.4,0.01877294997177789,-0.006606177455400824,0.7304800919307303,0.011026476385731758,-0.10101424995809793,0.09627199615351856,1.2420404702425003,0.14973981131934982,0.8282187394797802,-4.659805446863174,16.02422446012497,0.0,0.0,0.0,0.0,0.0,0.0,0.0,0.0,0.0,0.0,0.0,0.0,0.0,0.0,0.0,0.0,False,0,4.094813823699951,0.03492724609375
STABILIZE,0.6437780857086182,29.92660877755025,0.03233936627705892,0.032470703125,0.0,0.0,0.0,0.6713709898671704,-0.7076980446589708,0.4740787878963835,0.004283268661652348,0.0010001799546884983,0.0014325427087622563,0.4,0.01959854599531363,-0.010796322009277284,0.7271725673703968,0.011764555072054546,0.07439922192133963,-0.2161652548238635,1.292476151138544,0.07621787417486733,6.887327879667282,-2.6390440762043,20.33083885908127,0.0,0.0,0.0,0.0,0.0,0.0,0.0,0.0,0.0,0.0,0.0,0.0,0.0,0.0,0.0,0.0,False,0,4.124935626983643,0.029936767578125
STABILIZE,0.677203893661499,29.917856684308887,0.03236368497212728,0.03249621391296387,0.0,0.0,0.0,0.6737982683434637,-0.7050503858602388,0.4702562831995565,0.00284537683863615,0.0030019359492984214,0.0016329907417396553,0.4,0.016538152382048026,-0.009747854855317414,0.7207730825801326,0.013677539490346618,-0.13089670101180673,0.05471882177516818,1.2854213826358318,0.13952614386966844,-10.474544763565063,3.1624704599380493,19.517654180526733,0.0,0.0,0.0,0.0,0.0,0.0,0.0,0.0,0.0,0.0,0.0,0.0,0.0,0.0,0.0,0.0,False,0,4.152658939361572,0.034926025390625
STABILIZE,0.7106304168701172,29.915509432616524,0.032402785619099934,0.03252387046813965,0.0,0.0,0.0,0.6741479953733095,-0.7044822528595113,0.4779119114029359,0.0009594504630359283,-0.003489912313910072,0.0022970953295245898,0.4,-0.0006465239655847358,-0.00709630904073803,0.7182578371569454,0.020183644816797044,-0.44378223828971386,0.07838702877052128,1.359731238335371,0.21214724976575633,-3.355848416686058,-0.8082391694188118,18.42353045940399,0.0,0.0,0.0,0.0,0.0,0.0,0.0,0.0,0.0,0.0,0.0,0.0,0.0,0.0,0.0,0.0,False,0,4.209666728973389,0.03492626953125
STABILIZE,0.7452352046966553,28.899129092713043,0.032425673802693684,0.03350067138671875,0.0,0.0,0.0,0.6728546350209441,-0.7049456918668672,0.4623842767377052,0.0009679170116393531,-0.004015456831039003,0.0025214793473973952,0.4,0.0036133530734991245,-0.010290950422083237,0.7229431669848342,0.022274281546603575,0.2674506278708577,-0.17607463523745537,1.678241603076458,0.14727595397839993,21.073171496391296,-2.639414370059967,21.638309955596924,0.0,0.0,0.0,0.0,0.0,0.0,0.0,0.0,0.0,0.0,0.0,0.0,0.0,0.0,0.0,0.0,False,0,4.238452196121216,0.029966796875
STABILIZE,0.7785329818725586,30.03074455669557,0.032201321919759114,0.03233504295349121,0.0,0.0,0.0,0.669106355270488,-0.7049578047804734,0.4560034393098853,-0.0011845141641149445,-0.002844971526165122,0.002077685324453032,0.4,0.005757214824804232,-0.002480399133195898,0.718354284077416,0.017717706341730477,0.1431139069609344,0.4321038257330656,1.3394974172115326,-0.21611342855899165,-4.653278365731239,15.18612653017044,26.82618498802185,0.0,0.0,0.0,0.0,0.0,0.0,0.0,0.0,0.0,0.0,0.0,0.0,0.0,0.0,0.0,0.0,False,0,4.267124652862549,0.034926025390625
STABILIZE,0.8120036125183105,29.877577769388033,0.032369407018025716,0.03251981735229492,0.0,0.0,0.0,0.667640959528403,-0.7047604229856306,0.4690330390078895,-0.0025367443735569667,-0.0035607971776751516,0.0014428332839248135,0.4,0.0038966913254206243,-0.0021809278856266094,0.7154989002089449,0.011293574553545902,-0.08010462624952197,0.014283477503340691,1.2260038405656815,-0.3300642492466647,-0.8938870392739773,-18.093129992485046,26.623883843421936,0.0,0.0,0.0,0.0,0.0,0.0,0.0,0.0,0.0,0.0,0.0,0.0,0.0,0.0,0.0,0.0,False,0,4.296090126037598,0.03492724609375
STABILIZE,0.8454082012176514,29.93622062979987,0.03236821492513021,0.032492876052856445,0.0,0.0,0.0,0.6697251277206089,-0.7028208627047585,0.4616916528671836,0.002462521198452536,-0.006618439424466148,0.0031688137229164983,0.4,-0.009668583496962313,-0.016186790987139387,0.7118521488838176,0.028363770668167882,-0.7433758117258549,-0.794951431453228,1.178627461194992,0.9994283907974678,-12.506575882434845,-6.628771871328354,17.602401971817017,0.0,0.0,0.0,0.0,0.0,0.0,0.0,0.0,0.0,0.0,0.0,0.0,0.0,0.0,0.0,0.0,False,0,4.324729919433594,0.029935791015625
STABILIZE,0.878852128982544,29.901433653428008,0.03240493138631185,0.03252863883972168,0.0,0.0,0.0,0.6704927769502949,-0.7018964392892796,0.46245668741507795,-0.003278972169865526,-0.0025537762530871665,0.0015388764402080551,0.4,-0.009826436415363364,0.0033648227287570824,0.7091753746348081,0.011984251467889163,0.0009002593287732452,1.109289936721325,1.4161705039441586,-0.8964770561595714,17.256230115890503,40.66140949726105,26.348644495010376,0.0,0.0,0.0,0.0,0.0,0.0,0.0,0.0,0.0,0.0,0.0,0.0,0.0,0.0,0.0,0.0,False,0,4.353653192520142,0.034927001953125
STABILIZE,0.912353515625,29.849298300549403,0.03240254720052083,0.03266763687133789,0.0,0.0,0.0,0.661612677255632,-0.699245205313404,0.4951677440107384,-0.007141883854721151,-0.0019262885025535506,0.002479460999928051,0.4,-0.004002051552845514,0.01217166663421904,0.7117534526229847,0.02124746567877131,0.3563608508557081,0.4985896870493889,1.5068220905959606,0.5663917827368677,10.631836950778961,-20.08180022239685,21.726804971694946,0.0,0.0,0.0,0.0,0.0,0.0,0.0,0.0,0.0,0.0,0.0,0.0,0.0,0.0,0.0,0.0,False,1,4.382380723953247,0.03492578125
STABILIZE,0.9458644390106201,29.83889303880767,0.032488377888997395,0.03265738487243652,0.0,0.0,0.0,0.6729214428087633,-0.7051319212434558,0.46700500643292464,-0.003643106162204321,0.00030664231254286164,0.0008571761402384266,0.4,0.005831641996880601,0.008669477622903895,0.7067204827897068,0.0049911764812402,0.510255852714181,0.9539138525724411,1.3560102321207523,-1.275920744980225,13.778577744960785,33.05276036262512,32.94453024864197,0.0,0.0,0.0,0.0,0.0,0.0,0.0,0.0,0.0,0.0,0.0,0.0,0.0,0.0,0.0,0.0,False,0,4.43982195854187,0.029936767578125
STABILIZE,0.9793586730957031,29.857160144932696,0.03247645696004232,0.032599449157714844,0.0,0.0,0.0,0.6741776640075167,-0.7097681789468664,0.46828513329377314,-0.0027186816025657396,0.00023547080438816704,0.0026998706210320028,0.4,0.003984174490824548,0.0061663014583121355,0.6928571078403091,0.023262519954051257,-0.09705448755994439,-0.14273716369643807,0.7377614267170429,1.0962643582506757,-9.792184084653854,-51.97150707244873,4.438533261418343,0.0,0.0,0.0,0.0,0.0,0.0,0.0,0.0,0.0,0.0,0.0,0.0,0.0,0.0,0.0,0.0,False,0,4.4685070514678955,0.034926025390625
STABILIZE,1.0128865242004395,29.827222301237377,0.03241709073384603,0.032550811767578125,0.0,0.0,0.0,0.6693371943200933,-0.7124623684093191,0.5213681362234958,-0.007571100260531072,0.007838648204160498,-0.0030437847701180825,0.4,0.019558136194379835,0.008159417151136513,0.6966516065151386,-0.03394687990959264,0.9149565361440182,0.11284133652225137,1.5567156486213207,-3.2983943997343608,20.54927796125412,38.108640909194946,15.128922462463379,0.0,0.0,0.0,0.0,0.0,0.0,0.0,0.0,0.0,0.0,0.0,0.0,0.0,0.0,0.0,0.0,False,0,4.497226715087891,0.03492724609375
STABILIZE,1.0462682247161865,29.954821062554903,0.032305272420247395,0.032441139221191406,0.0,0.0,0.0,0.6720418425097126,-0.715703880139872,0.4805748847664475,-0.007016262903575641,0.018862361490940723,-0.00371563052553253,0.4,0.05886697388931965,0.024020412816774327,0.7044038076330444,-0.0403950970933679,2.2882524877786636,0.9198924526572227,1.782039925456047,-0.3233890733542995,4.502555727958679,8.400671929121017,13.552358746528625,0.0,0.0,0.0,0.0,0.0,0.0,0.0,0.0,0.0,0.0,0.0,0.0,0.0,0.0,0.0,0.0,False,0,4.525792837142944,0.029935791015625
STABILIZE,1.0797271728515625,29.888223012406204,0.0324127991994222,0.0325927734375,0.0,0.0,0.0,0.6645135866621834,-0.7190096383373052,0.5350871581408482,0.00231305712482104,0.015328168637844773,-0.004321424108611779,0.4,0.05116185366875083,0.003921427762168191,0.71559368572738,-0.046144068300583686,-0.41165403090417385,-1.168343611061573,2.1816255524754524,-0.34121455974713694,-34.83642339706421,-63.70781660079956,30.458134412765503,0.0,0.0,0.0,0.0,0.0,0.0,0.0,0.0,0.0,0.0,0.0,0.0,0.0,0.0,0.0,0.0,False,0,4.5546276569366455,0.03492724609375
STABILIZE,1.1133248805999756,29.764357742500906,0.03245261510213216,0.03258013725280762,0.0,0.0,0.0,0.6628717799404416,-0.7247048955271852,0.5405846066490622,0.004980638024470003,0.015712266207800987,-0.006427664053200241,0.4,0.06092681127051662,-0.007183371969667864,0.7385068419277422,-0.06675949170516021,1.005611289292574,0.5345034413039684,1.7655523493885994,-0.8112273306945267,33.60784649848938,71.44105434417725,30.882173776626587,0.0,0.0,0.0,0.0,0.0,0.0,0.0,0.0,0.0,0.0,0.0,0.0,0.0,0.0,0.0,0.0,False,0,4.611851692199707,0.03492578125
STABILIZE,1.1478168964385986,28.991014404600627,0.03229835828145345,0.03347468376159668,0.0,0.0,0.0,0.6615790599183109,-0.7282796991448935,0.4888408010443381,-0.002490497757689885,0.02332426181900346,-0.0112263097271528,0.4,0.08717104151868879,0.013572388512120262,0.7332557160471498,-0.11396037980937646,1.5554293058812618,1.2201521545648575,0.9994282387197018,-2.749400869721661,26.01754069328308,-21.055489778518677,19.739216566085815,0.0,0.0,0.0,0.0,0.0,0.0,0.0,0.0,0.0,0.0,0.0,0.0,0.0,0.0,0.0,0.0,False,0,4.647114276885986,0.02993701171875
STABILIZE,1.1812121868133545,29.944769683296684,0.03230288823445638,0.032449960708618164,0.0,0.0,0.0,0.6645107051761273,-0.7704257015835745,0.5279935798009667,0.009309331477239679,0.020928624234266023,-0.007679190425824906,0.4,0.09193064264080583,-0.02005437991110967,0.72954828930429,-0.07796700927687225,0.3651192644611001,-1.9854651764035225,1.318839192390442,2.0545012655459716,-40.11342525482178,-40.869349241256714,35.33639311790466,0.0,0.0,0.0,0.0,0.0,0.0,0.0,0.0,0.0,0.0,0.0,0.0,0.0,0.0,0.0,0.0,False,0,4.676133632659912,0.03492626953125
STABILIZE,1.2192692756652832,26.276313563834787,0.03237322171529134,0.03704690933227539,0.0,0.0,0.0,0.673284403330126,-0.7831867894698327,0.5560948456762504,0.006398292837028013,-0.00016275557203613842,-0.005857397774824408,0.4,0.045201590386800834,0.005513968135389045,0.717551315241834,-0.05929839391340072,-2.73441132158041,1.5225580893456936,0.5941690877079964,1.088027363555052,-95.1278567314148,102.5484561920166,-26.02846622467041,0.0,0.0,0.0,0.0,0.0,0.0,0.0,0.0,0.0,0.0,0.0,0.0,0.0,0.0,0.0,0.0,False,0,4.704531908035278,0.034888671875
STABILIZE,1.252638578414917,29.96744830739772,0.032303841908772786,0.032462358474731445,0.0,0.0,0.0,0.6723480270835995,-0.7139081807183933,0.45583908788298183,-0.014806253869863475,0.003619889184977073,-0.013083701570187518,0.4,0.0519747339813399,0.05103733151035171,0.6802317107087765,-0.1306870140317049,0.46444605104625225,2.6776522397994995,-0.8811641484498978,-4.24717426979354,115.10155200958252,73.42450022697449,-27.915558218955994,0.0,0.0,0.0,0.0,0.0,0.0,0.0,0.0,0.0,0.0,0.0,0.0,0.0,0.0,0.0,0.0,False,0,4.7332305908203125,0.02993603515625
STABILIZE,1.292050838470459,25.373429399345444,0.03241470654805501,0.03844618797302246,0.0,0.0,0.0,0.6715089810327458,-0.7412539636384501,0.48796488264413684,-0.0004749669626989459,0.007364355633999458,0.0006443091528792878,0.4,0.07702208320817434,-0.010031768254847466,0.7006195826090319,0.006541606347096801,1.580866426229477,-3.6177940666675568,2.724611759185791,8.06612726825219,86.49640083312988,-62.114912271499634,4.987391829490662,0.0,0.0,0.0,0.0,0.0,0.0,0.0,0.0,0.0,0.0,0.0,0.0,0.0,0.0,0.0,0.0,False,0,4.766270875930786,0.0349267578125
STABILIZE,1.3255088329315186,29.888010033206495,0.0323520024617513,0.0325009822845459,0.0,0.0,0.0,0.6802557853168876,-0.6996574712628377,0.48342104593793295,0.018515283809915795,0.03639234633750181,0.011557459977488143,0.4,0.20260893323742252,-0.049076220740713626,0.5928454770196441,0.11490395494225383,5.967269837856293,1.347730215638876,-6.508803367614746,-1.8710948915186736,173.52091073989868,83.17518830299377,-263.7258052825928,0.0,0.0,0.0,0.0,0.0,0.0,0.0,0.0,0.0,0.0,0.0,0.0,0.0,0.0,0.0,0.0,False,0,4.8233935832977295,0.03492626953125
STABILIZE,1.358910322189331,29.93793004996431,0.03234294255574544,0.032469987869262695,0.0,0.0,0.0,0.6825692984548178,-0.708833723691044,0.47261520642329674,-0.0011403861056959383,0.03289771926535246,-0.020895249036752297,0.4,0.194145796708747,-0.01971559296473669,0.5653729471800865,-0.2082308104949478,-0.4771338775753975,1.7414918169379234,-0.2592336852103472,-19.163878395844147,28.699642419815063,40.83531200885773,-162.39264011383057,0.0,0.0,0.0,0.0,0.0,0.0,0.0,0.0,0.0,0.0,0.0,0.0,0.0,0.0,0.0,0.0,False,0,4.8521716594696045,0.029936767578125
STABILIZE,1.3923184871673584,29.93258876003568,0.032402785619099934,0.032557010650634766,0.0,0.0,0.0,0.6768438923830546,-0.7021191141283927,0.5060735817636918,0.013339348966606067,0.015338462493393476,0.0021059810843779363,0.4,0.0959114905782246,-0.04328690046716299,0.5742493043573795,0.021636698355859935,-5.661765486001968,-1.4353633858263493,1.9546560943126678,13.633141253162783,-79.17818427085876,-49.98713731765747,-43.334102630615234,0.0,0.0,0.0,0.0,0.0,0.0,0.0,0.0,0.0,0.0,0.0,0.0,0.0,0.0,0.0,0.0,False,0,4.881139278411865,0.034926025390625
STABILIZE,1.4258677959442139,29.807932571014348,0.03247574170430501,0.03260540962219238,0.0,0.0,0.0,0.6774802739146294,-0.6952433014291584,0.4807651695678558,0.02475248221691938,0.02239132699013021,-0.012714507769978102,0.4,0.1271052575533959,-0.03653164518848035,0.574396553276094,-0.12572687040584704,1.9932392984628677,0.39505744352936745,1.3095484115183353,-8.814738199400391,12.747769057750702,11.218395084142685,134.80535745620728,0.0,0.0,0.0,0.0,0.0,0.0,0.0,0.0,0.0,0.0,0.0,0.0,0.0,0.0,0.0,0.0,False,0,4.909518718719482,0.03492626953125
STABILIZE,1.459319829940796,29.89418766259221,0.03236559232076009,0.03249073028564453,0.0,0.0,0.0,0.6811938691107066,-0.710713786620943,0.4724372479789062,0.008314346233731942,0.018034862860946924,-0.013378562357012925,0.4,0.12951952948904033,-0.03378370186141274,0.553087250103995,-0.1314879529055806,0.2707600127905607,0.14360164059326053,0.010523590026423335,-0.30716769424063656,35.93927025794983,-13.551469147205353,-78.3431887626648,0.0,0.0,0.0,0.0,0.0,0.0,0.0,0.0,0.0,0.0,0.0,0.0,0.0,0.0,0.0,0.0,False,0,4.9391796588897705,0.029936767578125
STABILIZE,1.4927082061767578,29.949901459541287,0.032346518834431966,0.03246569633483887,0.0,0.0,0.0,0.6735763939171441,-0.6968201146320793,0.5012179042331946,0.0014983685374599445,-0.016507734135233675,-0.008738743045152639,0.4,0.11317793288187587,-0.048471274905737535,0.5555748275455253,-0.08452459041958871,-0.7758467923849821,-0.9254520758986473,1.5013545751571655,2.7142198459673947,-15.811708569526672,-20.61551660299301,43.619516491889954,0.0,0.0,0.0,0.0,0.0,0.0,0.0,0.0,0.0,0.0,0.0,0.0,0.0,0.0,0.0,0.0,False,0,4.966864109039307,0.03492724609375
STABILIZE,1.5261907577514648,29.86672743067918,0.03240779240926107,0.03255176544189453,0.0,0.0,0.0,0.6753812714053199,-0.6985318774319608,0.4815903951578109,0.00942253992900152,-0.021427304684135937,-0.007539200772026936,0.4,0.08826818006908385,-0.04588652007614061,0.5694594067215223,-0.07204708497808701,-0.3860366530716419,1.033161859959364,1.748359203338623,-2.076180285971592,-13.281133770942688,34.722861647605896,47.552984952926636,0.0,0.0,0.0,0.0,0.0,0.0,0.0,0.0,0.0,0.0,0.0,0.0,0.0,0.0,0.0,0.0,False,0,5.024487733840942,0.0399150390625
STABILIZE,1.5596277713775635,29.906124107836774,0.032384665807088216,0.03251194953918457,0.0,0.0,0.0,0.6779621224162327,-0.7091553295514165,0.47362041817005224,0.0037707031865969443,0.0011593477897551194,-0.006778271506294904,0.4,0.08495465240587881,-0.04994722102820404,0.5705323413882658,-0.06400961520914107,-0.03912603133358061,-0.25663075502961874,1.116915512830019,0.44931348246126934,11.5534208714962,-30.98757266998291,8.760760724544525,0.0,0.0,0.0,0.0,0.0,0.0,0.0,0.0,0.0,0.0,0.0,0.0,0.0,0.0,0.0,0.0,False,0,5.053029775619507,0.02494775390625
STABILIZE,1.5931055545806885,29.870981526058657,0.03239920934041341,0.03252410888671875,0.0,0.0,0.0,0.6740411669458223,-0.6984656032526705,0.49791331997452487,0.007462249628903744,-0.00753791799968162,-0.005058679944978806,0.4,0.08046670747060397,-0.05494959802292671,0.5690639150548207,-0.046502637901479286,-0.054183293832466006,-0.40126568637788296,1.346675492823124,0.9134366293121247,-9.511590003967285,6.400486081838608,16.906824707984924,0.0,0.0,0.0,0.0,0.0,0.0,0.0,0.0,0.0,0.0,0.0,0.0,0.0,0.0,0.0,0.0,False,0,5.081750154495239,0.034926025390625
STABILIZE,1.6265614032745361,29.889287953936492,0.032353909810384114,0.032508134841918945,0.0,0.0,0.0,0.6753677177486856,-0.7029904434952453,0.4849741135613175,0.0039702849026147175,-0.010863111638104652,-0.007152917711016614,0.4,0.07056164005362223,-0.042022144694181404,0.5720956641765591,-0.06699645298934535,-0.41674613021314144,0.7264384068548679,1.3186042197048664,-1.307785285005627,-12.841075658798218,18.43334436416626,20.014795660972595,0.0,0.0,0.0,0.0,0.0,0.0,0.0,0.0,0.0,0.0,0.0,0.0,0.0,0.0,0.0,0.0,False,0,5.1103515625,0.034926025390625
STABILIZE,1.6600220203399658,29.887158146759965,0.03237751324971517,0.03251481056213379,0.0,0.0,0.0,0.674615543166338,-0.7051760506687964,0.4905180393723993,0.00193628202980561,-0.006216133799345253,-0.0066641092567421715,0.4,0.07313845648222721,-0.04904407987822623,0.5701151791279703,-0.06169562900955571,0.33002824056893587,-0.47674188390374184,1.0095502249896526,0.2412247791251022,3.6969609558582306,-25.00494420528412,7.007464021444321,0.0,0.0,0.0,0.0,0.0,0.0,0.0,0.0,0.0,0.0,0.0,0.0,0.0,0.0,0.0,0.0,False,0,5.139117479324341,0.034927001953125
STABILIZE,1.693427562713623,29.93472504728259,0.032358678181966145,0.032488346099853516,0.0,0.0,0.0,0.6744502312440825,-0.7014410577707102,0.49272520433051836,0.003788822450579636,-0.0024924770236107356,-0.008830913513851254,0.4,0.06510836952027432,-0.05224144994283927,0.5712402358388448,-0.08280988066166894,-0.3054236760362983,-0.24744574911892414,1.1882462538778782,-1.3331271010953727,0.26243398897349834,14.258374273777008,6.216098740696907,0.0,0.0,0.0,0.0,0.0,0.0,0.0,0.0,0.0,0.0,0.0,0.0,0.0,0.0,0.0,0.0,False,0,5.167752742767334,0.02993701171875
STABILIZE,1.7299792766571045,27.357605959012222,0.03218844731648763,0.0354154109954834,0.0,0.0,0.0,0.6769344991112631,-0.7063251232749453,0.48352798108712597,0.0034207832290763245,-0.003767669462468055,-0.010934288243308608,0.4,0.057078501448673484,-0.05495969156307414,0.5700696845358202,-0.10309039020849468,-0.3054236760362983,-0.24744574911892414,1.1882462538778782,-1.3331271010953727,0.26243398897349834,14.258374273777008,6.216098740696907,0.0,0.0,0.0,0.0,0.0,0.0,0.0,0.0,0.0,0.0,0.0,0.0,0.0,0.0,0.0,0.0,False,1,5.197814464569092,0.02993701171875
STABILIZE,1.7642500400543213,29.282062022647622,0.032402785619099934,0.03314971923828125,0.0,0.0,0.0,0.6765257549781202,-0.7038473654318175,0.48952280610513443,-0.0004129286495737539,-0.005312701224093754,-0.010987438108405825,0.4,0.04748910558458777,-0.04782589898141698,0.5653317717299478,-0.1029205437975181,-0.1584923709742725,-0.41783791966736317,0.8907671086490154,-0.002926736059350464,-11.169061064720154,-17.591147124767303,-9.199370443820953,0.0,0.0,0.0,0.0,0.0,0.0,0.0,0.0,0.0,0.0,0.0,0.0,0.0,0.0,0.0,0.0,False,0,5.257455110549927,0.034926025390625
STABILIZE,1.797555685043335,29.916789706060673,0.032166274388631184,0.03230690956115723,0.0,0.0,0.0,0.6769479460461916,-0.7040201478734776,0.4877060825076168,0.00280442995387508,-0.002786775203536985,-0.011944856301684119,0.4,0.04804617666636713,-0.045860412710310466,0.5633125553487722,-0.11174674288093352,0.19246272277086973,0.04954710020683706,0.9565399028360844,-0.6196787308463387,5.965451896190643,16.09370857477188,1.7995646223425865,0.0,0.0,0.0,0.0,0.0,0.0,0.0,0.0,0.0,0.0,0.0,0.0,0.0,0.0,0.0,0.0,False,0,5.289277076721191,0.029936767578125
STABILIZE,1.8312134742736816,29.712277917882748,0.0323670228322347,0.03250455856323242,0.0,0.0,0.0,0.6773341718994147,-0.7078057802209572,0.4868071655798197,-0.0016062345034324817,-0.004583361452607672,-0.011869174127942372,0.4,0.043753332681880946,-0.038925137876076946,0.5544045600960631,-0.11025179236679053,-0.11200944427400827,0.33088468480855227,0.6851965095847845,-0.0683758765226605,-0.5204930901527405,0.1640728092752397,-9.234379976987839,0.0,0.0,0.0,0.0,0.0,0.0,0.0,0.0,0.0,0.0,0.0,0.0,0.0,0.0,0.0,0.0,False,0,5.321831941604614,0.034926025390625
STABILIZE,1.864443063735962,30.093013244557966,0.032149346669514973,0.03228330612182617,0.0,0.0,0.0,0.6761975857328422,-0.7041658230018693,0.4886709534495869,-0.0006481884942757477,-0.0031663663210350686,-0.01229752977703466,0.4,0.04192445803912416,-0.044624137361684454,0.5590996022241046,-0.1137746762345785,0.0363311730325222,-0.4182389937341213,1.3455248437821865,-0.3179211600781605,-10.273630917072296,-0.7695662323385477,36.54646575450897,0.0,0.0,0.0,0.0,0.0,0.0,0.0,0.0,0.0,0.0,0.0,0.0,0.0,0.0,0.0,0.0,False,0,5.350788116455078,0.034927001953125
STABILIZE,1.9012575149536133,27.163422058156854,0.03238371213277181,0.035955190658569336,0.0,0.0,0.0,0.6772362013735073,-0.7063087414931079,0.4808203980505977,-0.0030600609499234614,-0.002587473444638728,-0.012844830094553025,0.4,0.037282171940663265,-0.039150180526485306,0.5620216256138995,-0.11837462119632321,-0.138392997905612,0.25522138457745314,1.2326325289905071,-0.39194525619887777,-2.787259593605995,16.18921309709549,5.5435799062252045,0.0,0.0,0.0,0.0,0.0,0.0,0.0,0.0,0.0,0.0,0.0,0.0,0.0,0.0,0.0,0.0,False,0,5.379456043243408,0.02993701171875
STABILIZE,1.934762716293335,29.84653701371247,0.03246119817097982,0.03259873390197754,0.0,0.0,0.0,0.676647417722711,-0.7052337871116242,0.48803953447733095,-0.0014198153330139927,-0.0011683322010438487,-0.013246774973309698,0.4,0.034286022775121744,-0.03776399626100907,0.5652620484080807,-0.12158021408816379,-0.0535696221049875,-0.002645512722665444,1.4016707427799702,-0.37695872726238555,2.86982711404562,-18.32314431667328,30.43154776096344,0.0,0.0,0.0,0.0,0.0,0.0,0.0,0.0,0.0,0.0,0.0,0.0,0.0,0.0,0.0,0.0,False,0,5.4080376625061035,0.034926025390625
STABILIZE,1.9684500694274902,29.68494062026696,0.03241017659505208,0.032788991928100586,0.0,0.0,0.0,0.6775987350080469,-0.7059523977175036,0.48207886040517256,0.00021033857225011951,-0.002208864022457735,-0.013143989462162635,0.4,0.031005737655827034,-0.04089238831618444,0.5696955288079448,-0.11974555398437794,-0.06745851133018732,-0.26399579364806414,1.3029790483415127,-0.01874254601061745,-6.083546578884125,5.17730750143528,31.94573223590851,0.0,0.0,0.0,0.0,0.0,0.0,0.0,0.0,0.0,0.0,0.0,0.0,0.0,0.0,0.0,0.0,False,1,5.43748664855957,0.034926025390625
STABILIZE,2.0019214153289795,29.87502403931764,0.03241899808247884,0.03259849548339844,0.0,0.0,0.0,0.678188052267372,-0.7079945175576317,0.47892678146406453,-0.00027994570284183614,-0.0016139292458597402,-0.013252380358534412,0.4,0.02943541297421133,-0.03319205767858934,0.5806686118938934,-0.12002555604583653,0.2442952012643218,-0.06030424847267568,1.481478288769722,0.18734863381822509,5.693705379962921,-14.221207797527313,31.371620297431946,0.0,0.0,0.0,0.0,0.0,0.0,0.0,0.0,0.0,0.0,0.0,0.0,0.0,0.0,0.0,0.0,False,0,5.4947509765625,0.03492724609375
STABILIZE,2.0354843139648438,29.79586269606729,0.03245118459065755,0.03259468078613281,0.0,0.0,0.0,0.6768125162015549,-0.7069211640017348,0.4865825697500026,-0.002070222710171362,-0.001295043820072996,-0.013280320832837523,0.4,0.02897529104714236,-0.03291737546228193,0.5814261645948273,-0.11950470201755135,0.08199024014174938,-0.05958427209407091,1.0671311989426613,-0.12527434051662859,-2.312643639743328,9.055009484291077,24.85843598842621,0.0,0.0,0.0,0.0,0.0,0.0,0.0,0.0,0.0,0.0,0.0,0.0,0.0,0.0,0.0,0.0,False,0,5.523453712463379,0.034926025390625
STABILIZE,2.068912982940674,29.91465597786162,0.03234675725301107,0.032488346099853516,0.0,0.0,0.0,0.6760708003463738,-0.707339513088398,0.47944635608866154,-0.0006618905752548455,-0.0003835796920268748,-0.01329248786927101,0.4,0.028622649294870323,-0.03266751047365422,0.5820481349831856,-0.11883121853054918,0.08199024014174938,-0.05958427209407091,1.0671311989426613,-0.12527434051662859,-2.312643639743328,9.055009484291077,24.85843598842621,0.0,0.0,0.0,0.0,0.0,0.0,0.0,0.0,0.0,0.0,0.0,0.0,0.0,0.0,0.0,0.0,False,0,5.552148818969727,0.034926025390625
STABILIZE,2.1023097038269043,29.941776959209605,0.032381566365559895,0.03250885009765625,0.0,0.0,0.0,0.6765205256145369,-0.7065979573157756,0.4775335295950877,-0.0018457678416581582,-0.0020652495881954606,-0.013385645430421839,0.4,0.020012780183634435,-0.027880328753443224,0.5858751703319813,-0.11896718430553388,-0.4150906577706337,0.21175260189920664,1.2651941739022732,-0.18139065446913769,-9.058383852243423,1.2121420353651047,23.97838681936264,0.0,0.0,0.0,0.0,0.0,0.0,0.0,0.0,0.0,0.0,0.0,0.0,0.0,0.0,0.0,0.0,False,0,5.580871343612671,0.02993701171875
STABILIZE,2.135848045349121,29.818316247458448,0.03243425687154134,0.03256416320800781,0.0,0.0,0.0,0.674636567342377,-0.7067572928225073,0.4881081031732955,-0.0021309772698455405,-0.0031121434754064936,-0.012961987995099854,0.4,0.013460805434356486,-0.02979787721476411,0.5849293051362172,-0.11396811688818007,-0.30750667210668325,-0.19104761304333806,1.157265156507492,0.0774971139115365,-3.823237866163254,-10.529562085866928,23.860590159893036,0.0,0.0,0.0,0.0,0.0,0.0,0.0,0.0,0.0,0.0,0.0,0.0,0.0,0.0,0.0,0.0,False,0,5.609508275985718,0.034926025390625
STABILIZE,2.16921329498291,29.969161295854352,0.032306702931722005,0.03244471549987793,0.0,0.0,0.0,0.6746314447004994,-0.7078453206129491,0.481315426682865,-0.0007300933669627318,-0.003698748062021394,-0.013634696105729534,0.4,0.010018215910465304,-0.027098466187604038,0.5948662371039609,-0.1198930986934776,-0.04133484326303005,0.13041940983384848,1.4462601393461227,-0.4825871225289567,-6.847809255123138,-0.8397395722568035,22.885294258594513,0.0,0.0,0.0,0.0,0.0,0.0,0.0,0.0,0.0,0.0,0.0,0.0,0.0,0.0,0.0,0.0,False,0,5.666812896728516,0.029937255859375
STABILIZE,2.2026689052581787,29.89163109245494,0.032436402638753255,0.03256416320800781,0.0,0.0,0.0,0.674433902823098,-0.7074208350282034,0.4807525764065736,-0.0001341936389887471,-0.005744333334576794,-0.012822467050075477,0.4,0.0023007442416013487,-0.028632792054046185,0.5895804418606133,-0.11102814351766428,-0.39750286377966404,-0.16344960313290358,0.9029742330312729,0.30383434848225876,-1.0774029418826103,-7.013549655675888,12.120359390974045,0.0,0.0,0.0,0.0,0.0,0.0,0.0,0.0,0.0,0.0,0.0,0.0,0.0,0.0,0.0,0.0,False,0,5.695462226867676,0.034927001953125
STABILIZE,2.2361669540405273,29.853334946653664,0.032425673802693684,0.032536983489990234,0.0,0.0,0.0,0.6731007352744761,-0.707668642829028,0.48697002290284214,0.0004891965933062424,-0.007887036145027275,-0.012062741400175216,0.4,-0.005664595110819475,-0.030268863385236083,0.5873853977158463,-0.10274393413150247,-0.39750286377966404,-0.16344960313290358,0.9029742330312729,0.30383434848225876,-1.0774029418826103,-7.013549655675888,12.120359390974045,0.0,0.0,0.0,0.0,0.0,0.0,0.0,0.0,0.0,0.0,0.0,0.0,0.0,0.0,0.0,0.0,False,0,5.7242512702941895,0.034927001953125
STABILIZE,2.269649028778076,29.868854326895686,0.032343419392903645,0.03247880935668945,0.0,0.0,0.0,0.672933288918105,-0.7083100402807745,0.4820883586369871,0.00080322562502332,-0.004624837439464858,-0.012094711997846744,0.4,-0.0013545739322257137,-0.026890968788869447,0.5889871481655162,-0.10237868505760328,0.3308963729068637,0.13801392633467913,1.1402979493141174,-0.17681608191166875,4.324054718017578,8.841182291507721,18.995432555675507,0.0,0.0,0.0,0.0,0.0,0.0,0.0,0.0,0.0,0.0,0.0,0.0,0.0,0.0,0.0,0.0,False,0,5.75303840637207,0.03492578125
STABILIZE,2.30300235748291,29.97751491977272,0.03230264981587728,0.032457590103149414,0.0,0.0,0.0,0.6726010642480074,-0.708585222199132,0.48113752159932727,-0.0006719449463479648,-0.0019289123443732216,-0.012338856189229362,0.4,0.002679655071343679,-0.02416285662455104,0.5891418795799199,-0.10412327153827616,0.300574186258018,0.09759299573488533,1.0607967153191566,-0.30160882739074535,0.23131603375077248,-2.959037385880947,18.058383464813232,0.0,0.0,0.0,0.0,0.0,0.0,0.0,0.0,0.0,0.0,0.0,0.0,0.0,0.0,0.0,0.0,False,0,5.781707525253296,0.029937255859375
STABILIZE,2.3365824222564697,29.7835910982347,0.032451661427815755,0.03258848190307617,0.0,0.0,0.0,0.671878558299867,-0.7084531007273746,0.48442145520792823,0.0012986445080391488,-0.00276315620394035,-0.011919680495263535,0.4,-0.0032451490101885515,-0.027638356831307137,0.5889124027544917,-0.09926716388617945,-0.31529038678854704,-0.2736853901296854,1.2144499458372593,0.06694353115883461,1.3762841001152992,-3.000050224363804,16.2517711520195,0.0,0.0,0.0,0.0,0.0,0.0,0.0,0.0,0.0,0.0,0.0,0.0,0.0,0.0,0.0,0.0,False,0,5.8103861808776855,0.03492578125
STABILIZE,2.369990825653076,29.92981204241533,0.03231218655904134,0.032445669174194336,0.0,0.0,0.0,0.6719647894381384,-0.7073777194590678,0.48145704638643694,-0.00016552006817017835,0.0004561927332234684,-0.011607020815064128,0.4,0.0016640743065922657,-0.02459881797770083,0.5971830961117195,-0.09550165856933866,0.09020278230309486,-0.08949264883995056,1.2221460230648518,0.010596638290878103,-2.4465441703796387,-4.971126094460487,11.676733195781708,0.0,0.0,0.0,0.0,0.0,0.0,0.0,0.0,0.0,0.0,0.0,0.0,0.0,0.0,0.0,0.0,False,0,5.86794900894165,0.034927001953125
STABILIZE,2.4034647941589355,29.873960113960113,0.032360108693440755,0.032492637634277344,0.0,0.0,0.0,0.6712439910372905,-0.7076208315048379,0.48288087402412017,-0.000472705375718752,0.002618872895228715,-0.011319590156947383,0.4,0.002579330673523903,-0.025121465253258656,0.5999655689449458,-0.09201189537673499,0.09020278230309486,-0.08949264883995056,1.2221460230648518,0.010596638290878103,-2.4465441703796387,-4.971126094460487,11.676733195781708,0.0,0.0,0.0,0.0,0.0,0.0,0.0,0.0,0.0,0.0,0.0,0.0,0.0,0.0,0.0,0.0,False,0,5.897763252258301,0.034927001953125
STABILIZE,2.4368622303009033,29.941776959209605,0.032337458928426106,0.03246712684631348,0.0,0.0,0.0,0.6710711018739245,-0.7078306463784042,0.481739752185052,8.579028998383488e-05,0.001086186478048094,-0.010917691815689103,0.4,0.0007841048164869407,-0.023766037774058245,0.6022032452311881,-0.08740822789654265,-0.07431705598719418,0.023112091002985835,1.1964176781475544,0.07574088818098376,4.380561038851738,4.854345321655273,13.975133001804352,0.0,0.0,0.0,0.0,0.0,0.0,0.0,0.0,0.0,0.0,0.0,0.0,0.0,0.0,0.0,0.0,False,0,5.925458669662476,0.02993701171875
STABILIZE,2.4703049659729004,29.90164682398232,0.03239301045735677,0.03250765800476074,0.0,0.0,0.0,0.6707338612836551,-0.708541733104026,0.48048363770800434,5.1467675173552857e-05,0.00013321559570452372,-0.010519317697949398,0.4,0.0008244633095417504,-0.021216961586706596,0.6023638716644131,-0.08287037030712316,0.02432671026326716,0.09236454498022795,1.2576278299093246,0.06019445715532237,10.168330371379852,1.0411689057946205,15.958496928215027,0.0,0.0,0.0,0.0,0.0,0.0,0.0,0.0,0.0,0.0,0.0,0.0,0.0,0.0,0.0,0.0,False,0,5.954129695892334,0.034926025390625
STABILIZE,2.5038836002349854,29.781687790677033,0.03237584431966146,0.03265666961669922,0.0,0.0,0.0,0.6703709007622924,-0.7087649415516679,0.4825425128559401,-0.0018135363718978198,0.0015407179446595188,-0.010146325772948434,0.4,0.0007824844008634042,-0.018716880135245775,0.6057110820388821,-0.07861209014999651,0.02432671026326716,0.09236454498022795,1.2576278299093246,0.06019445715532237,10.168330371379852,1.0411689057946205,15.958496928215027,0.0,0.0,0.0,0.0,0.0,0.0,0.0,0.0,0.0,0.0,0.0,0.0,0.0,0.0,0.0,0.0,False,0,5.982819080352783,0.034926025390625
STABILIZE,2.5373764038085938,29.85737268469084,0.032401355107625325,0.03254413604736328,0.0,0.0,0.0,0.6708020564536494,-0.7092464165273009,0.48020733521173614,-0.001198376359393524,0.0010821986031980424,-0.00995676939033145,0.4,0.003347115404265306,-0.01783085859460223,0.6049344263779303,-0.076206582441184,0.17534837825223804,-0.002909006980189588,1.0208186693489552,-0.047965947266500046,3.8601476699113846,4.974294453859329,16.42846167087555,0.0,0.0,0.0,0.0,0.0,0.0,0.0,0.0,0.0,0.0,0.0,0.0,0.0,0.0,0.0,0.0,False,0,6.01154637336731,0.064863037109375
STABILIZE,2.5708353519439697,29.888223012406204,0.03237107594807943,0.03251075744628906,0.0,0.0,0.0,0.6692300457274887,-0.7092027139887834,0.4830255886571598,-0.003429782252687111,-0.0007195872611163038,-0.00960263329747626,0.4,-0.002330609326081201,-0.01161865144836401,0.6187051810779061,-0.07218235757327068,-0.12974358396604657,0.11647505452856421,1.0317047126591206,-0.05185320535831,-0.5585984326899052,-0.889174547046423,14.492923021316528,0.0,0.0,0.0,0.0,0.0,0.0,0.0,0.0,0.0,0.0,0.0,0.0,0.0,0.0,0.0,0.0,False,0,6.069396018981934,0.0349267578125
STABILIZE,2.604245185852051,29.931307134038864,0.03236201604207357,0.032488107681274414,0.0,0.0,0.0,0.6684277119434238,-0.7088844165012903,0.48386276707816234,-0.003056063597789964,0.0009994991379812686,-0.008943530934202241,0.4,0.0022897997393368057,-0.011512326991484793,0.6217573158987186,-0.06515552879454829,0.2678545191884041,-0.04234699299558997,1.35934641584754,0.20488586488374685,6.260531395673752,-4.676274210214615,19.239798188209534,0.0,0.0,0.0,0.0,0.0,0.0,0.0,0.0,0.0,0.0,0.0,0.0,0.0,0.0,0.0,0.0,False,0,6.097602367401123,0.03492626953125
STABILIZE,2.640164852142334,27.838978382217267,0.03240063985188802,0.03498220443725586,0.0,0.0,0.0,0.6691681471381354,-0.7090301983513877,0.4813169741475988,-0.002504227830871947,0.0021571830846531317,-0.009102494449636345,0.4,0.006726865949566899,-0.010830230256595167,0.6206429522001798,-0.06626945830037188,0.25480908807367086,-0.007643984281457961,1.1268431320786476,-0.2365853998117975,3.8971513509750366,4.979972541332245,15.663260221481323,0.0,0.0,0.0,0.0,0.0,0.0,0.0,0.0,0.0,0.0,0.0,0.0,0.0,0.0,0.0,0.0,False,0,6.134687423706055,0.029936767578125
STABILIZE,2.6735849380493164,29.92169843625157,0.032383235295613606,0.032517433166503906,0.0,0.0,0.0,0.6673559058522607,-0.7089538389709011,0.48391180570196896,-0.0012006400292324424,0.0017096862963405489,-0.008914230340344956,0.4,0.005089543968976229,-0.01250199499147516,0.6155701417618163,-0.06395879704428512,-0.07839956087991595,-0.13201964320614934,1.0686162859201431,-0.04587655971587075,1.4417131431400776,-2.690684236586094,18.44743639230728,0.0,0.0,0.0,0.0,0.0,0.0,0.0,0.0,0.0,0.0,0.0,0.0,0.0,0.0,0.0,0.0,False,0,6.162914514541626,0.03492724609375
STABILIZE,2.7070462703704834,29.885667462324985,0.0323820432027181,0.0325164794921875,0.0,0.0,0.0,0.666654530801865,-0.7091242201741812,0.4836469224282194,-0.0015878639875196124,0.002758932152310363,-0.008984412765069415,0.4,0.011034320699091394,-0.010540990640521209,0.6185938159897469,-0.06423099090474027,0.3416103310883045,0.06913485121913254,1.3355307281017303,-0.17964448725935483,7.550877332687378,3.2876357436180115,22.217857837677002,0.0,0.0,0.0,0.0,0.0,0.0,0.0,0.0,0.0,0.0,0.0,0.0,0.0,0.0,0.0,0.0,False,0,6.19152307510376,0.029931396484375
STABILIZE,2.7465226650238037,25.33144096100304,0.0323822816212972,0.03852438926696777,0.0,0.0,0.0,0.6675489654180193,-0.7084537410576092,0.4811614272614223,-0.0003012058870680928,0.003944954898628995,-0.00873118789478793,0.4,0.010321686912401115,-0.00855254418765056,0.6204003514124703,-0.06121557411865987,-0.02482905692886561,0.07631494663655758,1.4372723177075386,0.004520504673277404,1.0699186474084854,-0.6082996260374784,22.24808633327484,0.0,0.0,0.0,0.0,0.0,0.0,0.0,0.0,0.0,0.0,0.0,0.0,0.0,0.0,0.0,0.0,False,0,6.22026252746582,0.03492724609375
STABILIZE,2.7801129817962646,29.77175224656095,0.03239396413167318,0.03254842758178711,0.0,0.0,0.0,0.6668149335256546,-0.7088631255209868,0.48416703066134525,-0.0009405160955160727,0.0026713506245446285,-0.008487514236240327,0.4,0.009708632619291089,-0.0065417377062606495,0.6255289318711489,-0.05838769616401336,-0.02482905692886561,0.07631494663655758,1.4372723177075386,0.004520504673277404,1.0699186474084854,-0.6082996260374784,22.24808633327484,0.0,0.0,0.0,0.0,0.0,0.0,0.0,0.0,0.0,0.0,0.0,0.0,0.0,0.0,0.0,0.0,False,0,6.26664662361145,0.03492724609375
STABILIZE,2.8135600090026855,29.899088977915913,0.03226784070332845,0.03241610527038574,0.0,0.0,0.0,0.6673418185870975,-0.7091544224169173,0.4820110387611484,-0.0010664970366194397,0.001495636919268805,-0.008114285885375305,0.4,0.009033166377418198,-0.005596662778468878,0.6277952734030522,-0.054292253062017806,-0.027086457703262568,0.018026368343271315,1.2772899121046066,0.08023577964487362,2.81863771378994,1.2441582046449184,14.30772989988327,0.0,0.0,0.0,0.0,0.0,0.0,0.0,0.0,0.0,0.0,0.0,0.0,0.0,0.0,0.0,0.0,False,0,6.295151948928833,0.034926025390625
STABILIZE,2.8472094535827637,29.722173799046182,0.03227117856343587,0.03241729736328125,0.0,0.0,0.0,0.6675396806296163,-0.7101060065065177,0.4819713382865977,-0.0016159314184157145,0.0019210051508213345,-0.007842675122364078,0.4,0.009146559430838301,-0.005443768467962259,0.6279166716078262,-0.05123313064766588,0.018571830878499895,-0.02434585621813312,1.159592717885971,0.02543887948115382,0.8393486961722374,1.2854489497840405,17.913880944252014,0.0,0.0,0.0,0.0,0.0,0.0,0.0,0.0,0.0,0.0,0.0,0.0,0.0,0.0,0.0,0.0,False,0,6.323786973953247,0.029936767578125
STABILIZE,2.880331039428711,30.186576079915937,0.0320773442586263,0.03226423263549805,0.0,0.0,0.0,0.6665423662890887,-0.7099487520730486,0.48389739827168843,-0.0014265173755929985,0.0006608973950872296,-0.007062604055111483,0.4,0.00972096439938714,-0.004256517467437062,0.6213879574929643,-0.04314374198883483,0.04946966073475778,0.04189886385574937,0.9612263180315495,0.3204333890322558,-0.16440395265817642,-0.6650808732956648,18.176817893981934,0.0,0.0,0.0,0.0,0.0,0.0,0.0,0.0,0.0,0.0,0.0,0.0,0.0,0.0,0.0,0.0,False,1,6.352516174316406,0.034927001953125
STABILIZE,2.9139339923858643,29.757600266763156,0.032468350728352864,0.03261160850524902,0.0,0.0,0.0,0.6659439776847721,-0.7097853611414973,0.4834328920472747,-0.0023104515885347594,0.0004909712533089244,-0.0059180690986051915,0.4,0.00858537045312901,-9.182428483217207e-05,0.6190256162889552,-0.03148719427586398,-0.08898888481780887,0.1409984426572919,1.193053275346756,0.07183446687287942,2.8409719467163086,3.285514935851097,18.878065049648285,0.0,0.0,0.0,0.0,0.0,0.0,0.0,0.0,0.0,0.0,0.0,0.0,0.0,0.0,0.0,0.0,False,0,6.409903526306152,0.034926025390625
STABILIZE,2.9474377632141113,29.849935593147965,0.03234842618306478,0.03250837326049805,0.0,0.0,0.0,0.665589021291343,-0.7100562741916234,0.4841145235821008,-0.001642524849562703,0.0014884922273902866,-0.005403526019027973,0.4,0.011625895493351898,-0.00029275226559290137,0.6260099080536966,-0.02616682405114649,0.18890369683504105,-0.03696610510814935,1.5509901568293571,0.17619550853276283,3.77180315554142,-0.5434459075331688,22.542834281921387,0.0,0.0,0.0,0.0,0.0,0.0,0.0,0.0,0.0,0.0,0.0,0.0,0.0,0.0,0.0,0.0,False,0,6.438656568527222,0.064863037109375
STABILIZE,2.9807872772216797,29.983086590082138,0.03231790860493978,0.032446861267089844,0.0,0.0,0.0,0.6641858443037285,-0.7090699521867914,0.4852529773785244,-0.0016688936525667611,0.0012387422360730946,-0.005125642407341244,0.4,0.010145823374124504,0.0006312769345140789,0.6432893297126303,-0.023232606627963222,-0.09489564690738916,-0.005846175190526992,1.0958055034279823,-0.0382853447320371,-8.927414566278458,3.2728824764490128,21.172258257865906,0.0,0.0,0.0,0.0,0.0,0.0,0.0,0.0,0.0,0.0,0.0,0.0,0.0,0.0,0.0,0.0,False,0,6.467335224151611,0.034927001953125
STABILIZE,3.0143260955810547,29.817680304269008,0.03242233594258626,0.03257036209106445,0.0,0.0,0.0,0.6647302317249197,-0.709184838103065,0.4849988196362059,-0.0030310482647142568,3.66965484561075e-05,-0.005033021363884612,0.4,0.005928554166326902,0.004845537609420678,0.6407310135063766,-0.022158059949268786,-0.20666983909904957,0.2103396924212575,1.1322402395308018,-0.04447199201102779,-5.6517064571380615,-0.7602987810969353,13.399259746074677,0.0,0.0,0.0,0.0,0.0,0.0,0.0,0.0,0.0,0.0,0.0,0.0,0.0,0.0,0.0,0.0,False,0,6.496907711029053,0.034926025390625
STABILIZE,3.047926425933838,29.759922802934625,0.03232386906941732,0.03258848190307617,0.0,0.0,0.0,0.6649085636952805,-0.7094809908366085,0.4852968399996006,-0.002857455172105429,0.0009265227267331229,-0.004725954101717453,0.4,0.00961800050066514,0.00538901485954726,0.6381322216701101,-0.018959896912836727,0.2169998362660408,0.015803962014615536,1.1222035624086857,0.07638657451128136,6.678225100040436,-0.5389681551605463,17.99551099538803,0.0,0.0,0.0,0.0,0.0,0.0,0.0,0.0,0.0,0.0,0.0,0.0,0.0,0.0,0.0,0.0,False,0,6.525471448898315,0.02993701171875
STABILIZE,3.081247091293335,30.011190772621244,0.032326491673787434,0.03244590759277344,0.0,0.0,0.0,0.6647259628566885,-0.7093043664135402,0.48483633583915364,-0.001690873798094603,0.00031158301305400275,-0.004456670526594331,0.4,0.006446994721514908,0.005610465382361873,0.6386175393501786,-0.01615915863012061,-0.15250388532876968,0.00901633029570803,1.4473559334874153,0.07423547179923064,1.729532703757286,1.4099587686359882,19.787925481796265,0.0,0.0,0.0,0.0,0.0,0.0,0.0,0.0,0.0,0.0,0.0,0.0,0.0,0.0,0.0,0.0,False,0,6.554057598114014,0.034926025390625
STABILIZE,3.1147077083587646,29.88609335698966,0.03245666821797689,0.03258156776428223,0.0,0.0,0.0,0.6659802630647378,-0.7095138077611364,0.484296590812164,-0.0018659554906059273,-0.001284522418449288,-0.004174217447355858,0.4,0.003334393574197176,0.005950555803052903,0.6425624723453829,-0.013246028624458126,-0.15250388532876968,0.00901633029570803,1.4473559334874153,0.07423547179923064,1.729532703757286,1.4099587686359882,19.787925481796265,0.0,0.0,0.0,0.0,0.0,0.0,0.0,0.0,0.0,0.0,0.0,0.0,0.0,0.0,0.0,0.0,False,0,6.590415000915527,0.034926025390625
STABILIZE,3.148571491241455,29.535064185168753,0.032433541615804036,0.032750844955444336,0.0,0.0,0.0,0.6661251911411891,-0.7092348905830765,0.48384387733623907,-0.0017523263979936303,-0.00019717999506525628,-0.0036109904770009146,0.4,0.00596975578436976,0.006437675120503975,0.6317601511968723,-0.007562885702223209,0.32497465144842863,-0.023876610794104636,1.0319524444639683,0.026554935059576547,1.952030323445797,1.2735803611576557,13.399350643157959,0.0,0.0,0.0,0.0,0.0,0.0,0.0,0.0,0.0,0.0,0.0,0.0,0.0,0.0,0.0,0.0,False,0,6.64788031578064,0.039916015625
STABILIZE,3.181908369064331,29.99294923592886,0.03218653996785482,0.03232312202453613,0.0,0.0,0.0,0.6670654093691236,-0.7079687442656855,0.4828326358131069,-0.0020220809993463334,0.0012715988999130973,-0.0038782190199077977,0.4,0.007615298925532658,0.011012771792486446,0.6380877935638339,-0.010167119393404998,0.10493658483028412,0.24230352137237787,1.3880682177841663,-0.22701414367006756,5.2881646901369095,3.3755041658878326,18.5429185628891,0.0,0.0,0.0,0.0,0.0,0.0,0.0,0.0,0.0,0.0,0.0,0.0,0.0,0.0,0.0,0.0,False,0,6.67652153968811,0.029936767578125
STABILIZE,3.2154452800750732,29.819800220397426,0.032317431767781575,0.03244662284851074,0.0,0.0,0.0,0.6663914617971137,-0.7075955918214206,0.48210431353200145,-0.0011915859651338014,0.0008332176026062781,-0.003517435421590518,0.4,0.009183411741796453,0.009005677715966259,0.6306317905519646,-0.006515708380095293,0.10449145920574665,-0.10517799528315663,0.978814996778965,0.15318582851860638,4.518487304449081,-0.6709759123623371,13.533157110214233,0.0,0.0,0.0,0.0,0.0,0.0,0.0,0.0,0.0,0.0,0.0,0.0,0.0,0.0,0.0,0.0,False,0,6.707180023193359,0.03492626953125
STABILIZE,3.248839855194092,29.943059481995487,0.03221300443013509,0.0323483943939209,0.0,0.0,0.0,0.6668241115923518,-0.7080838436253707,0.4817935932856187,-0.0016674606115772781,0.0023296112936432214,-0.0036180026305351826,0.4,0.011812975537853794,0.010624439438020876,0.628879679219997,-0.0074714012374501254,0.16168212750926614,0.09068920044228435,1.1050346307456493,-0.11243390504212197,5.210941657423973,1.2500441633164883,10.142721235752106,0.0,0.0,0.0,0.0,0.0,0.0,0.0,0.0,0.0,0.0,0.0,0.0,0.0,0.0,0.0,0.0,False,0,6.735952377319336,0.039916015625
STABILIZE,3.282238483428955,29.942204454597373,0.032265456517537434,0.0323948860168457,0.0,0.0,0.0,0.6680795857391647,-0.7075054119800352,0.48102279576561224,-0.0016675522435435862,0.004238842415736024,-0.0038143076519889145,0.4,0.01597281550739213,0.010924877062389423,0.6206123209937665,-0.009371763057360516,0.23942850530147552,0.009945529018295929,0.5757996346801519,-0.16754810217734323,3.951878100633621,-0.6897705141454935,11.381196975708008,0.0,0.0,0.0,0.0,0.0,0.0,0.0,0.0,0.0,0.0,0.0,0.0,0.0,0.0,0.0,0.0,False,0,6.766624927520752,0.02494775390625
STABILIZE,3.3156750202178955,29.9054844137695,0.03233197530110677,0.032462120056152344,0.0,0.0,0.0,0.6687412603150097,-0.7073010932743167,0.48178329464101083,-0.001355072487866577,0.0038503218943830094,-0.0037380772149477144,0.4,0.01681443258075842,0.010417456799870198,0.6154494226207138,-0.008552264212925513,0.08107316098175943,-0.009074850095203146,1.252138800919056,0.011487631132020977,4.352263733744621,-0.6193970795720816,14.046110212802887,0.0,0.0,0.0,0.0,0.0,0.0,0.0,0.0,0.0,0.0,0.0,0.0,0.0,0.0,0.0,0.0,False,0,6.795118093490601,0.03492626953125
STABILIZE,3.349120616912842,29.899728398406033,0.0323515256245931,0.03247809410095215,0.0,0.0,0.0,0.6695756106108091,-0.7075995405245346,0.481986812933936,-0.0001888687478429538,0.003095953079624514,-0.003521558963615744,0.4,0.015510856854341028,0.011012655410534485,0.6151943988196087,-0.0063446404324460776,-0.06091244285926223,0.038455246249213815,1.167314127087593,0.08065147402910558,0.3616620786488056,1.3532817363739014,12.947461009025574,0.0,0.0,0.0,0.0,0.0,0.0,0.0,0.0,0.0,0.0,0.0,0.0,0.0,0.0,0.0,0.0,False,0,6.82379412651062,0.029936767578125
STABILIZE,3.382570266723633,29.896105377202485,0.03234532674153646,0.03247261047363281,0.0,0.0,0.0,0.6699822203098363,-0.707239888376051,0.48078155134969325,-0.001390780636934176,0.0023588238084648002,-0.00315548873754551,0.4,0.014202185220028356,0.012809619172069183,0.6121256997514948,-0.0026660753630743826,0.032839737832546234,0.09404959273524582,1.3312354683876038,0.06472780845393322,0.5146497394889593,-0.4133072216063738,18.888913094997406,0.0,0.0,0.0,0.0,0.0,0.0,0.0,0.0,0.0,0.0,0.0,0.0,0.0,0.0,0.0,0.0,False,0,6.881262302398682,0.034926025390625
STABILIZE,3.416100025177002,29.825313413307356,0.03234604199727376,0.03252720832824707,0.0,0.0,0.0,0.6700817916613305,-0.7069785802794452,0.4825492363234043,-0.0012257541365007566,0.0014627115172564716,-0.002635042250977616,0.4,0.01323606155633172,0.013757305405130357,0.6119656823331483,0.002521520108503251,-0.03934103879146278,0.06253173924051225,1.131072361022234,0.265845743453147,-0.5501587875187397,1.3404352590441704,11.974097043275833,0.0,0.0,0.0,0.0,0.0,0.0,0.0,0.0,0.0,0.0,0.0,0.0,0.0,0.0,0.0,0.0,False,0,6.911501407623291,0.034927001953125
STABILIZE,3.449456214904785,29.978157699125166,0.03229716618855794,0.032430171966552734,0.0,0.0,0.0,0.6699561802136257,-0.7066296003015398,0.4816570962239243,-0.0009911092771165446,0.001013933419567832,-0.0023267698793877868,0.4,0.015181525956780899,0.013317010000549107,0.6087718305234726,0.00556701126173751,0.13321464648470283,-0.017374614253640175,0.9544789791107178,0.141522346695884,5.700377374887466,1.23565923422575,8.010555058717728,0.0,0.0,0.0,0.0,0.0,0.0,0.0,0.0,0.0,0.0,0.0,0.0,0.0,0.0,0.0,0.0,False,0,6.939862966537476,0.02993603515625
STABILIZE,3.483163595199585,29.670031478796023,0.03240636189778646,0.032691001892089844,0.0,0.0,0.0,0.6695427403254284,-0.7061466845828788,0.48165997770998037,-0.0009453635315162779,0.0013188674013138236,-0.002049181594819487,0.4,0.01699000439808834,0.012716521895461777,0.6027068900680439,0.00828720080432379,0.13321464648470283,-0.017374614253640175,0.9544789791107178,0.141522346695884,5.700377374887466,1.23565923422575,8.010555058717728,0.0,0.0,0.0,0.0,0.0,0.0,0.0,0.0,0.0,0.0,0.0,0.0,0.0,0.0,0.0,0.0,False,0,6.968703746795654,0.02993603515625
STABILIZE,3.5175561904907227,29.07380912771031,0.03227880795796712,0.03239178657531738,0.0,0.0,0.0,0.6694548016398645,-0.705927318116645,0.4818575195873818,-0.0003390188892284485,0.0015174691499553806,-0.0021740512109619616,0.4,0.016562067803409325,0.011396069686199644,0.5957557181002792,0.006990444735348831,0.001011163112707436,-0.06082889158278704,0.880134291946888,-0.09455619171451772,1.088772714138031,-0.6458944641053677,13.404391705989838,0.0,0.0,0.0,0.0,0.0,0.0,0.0,0.0,0.0,0.0,0.0,0.0,0.0,0.0,0.0,0.0,False,0,6.997294902801514,0.034927001953125
STABILIZE,3.5499558448791504,30.862936990897786,0.03134015401204427,0.03146505355834961,0.0,0.0,0.0,0.6703257574807469,-0.7060481804484424,0.48123639925973377,-0.0002819904977357257,0.0019130104221595499,-0.0023913141915971486,0.4,0.01684055862713835,0.012788329335921757,0.5966659450798563,0.004786716309987967,0.03582672507036477,0.09631046559661627,1.1680878698825836,-0.1592006505162356,-0.10402370244264603,-0.48412694595754147,20.015378296375275,0.0,0.0,0.0,0.0,0.0,0.0,0.0,0.0,0.0,0.0,0.0,0.0,0.0,0.0,0.0,0.0,False,0,7.0259599685668945,0.034926025390625
STABILIZE,3.5835490226745605,29.769005287625536,0.032381804784139,0.032637834548950195,0.0,0.0,0.0,0.6688643104417757,-0.705338854630966,0.4818070935814001,-0.0004641852512871452,0.00221909251345807,-0.0026209931682502486,0.4,0.01709778994085823,0.014179971077863795,0.5975752659438829,0.0024733178317237143,0.03582672507036477,0.09631046559661627,1.1680878698825836,-0.1592006505162356,-0.10402370244264603,-0.48412694595754147,20.015378296375275,0.0,0.0,0.0,0.0,0.0,0.0,0.0,0.0,0.0,0.0,0.0,0.0,0.0,0.0,0.0,0.0,False,1,7.0550267696380615,0.034926025390625
STABILIZE,3.617029905319214,29.868854326895686,0.032349379857381184,0.032471656799316406,0.0,0.0,0.0,0.6686159690324223,-0.7048127699823165,0.48216807975120585,-0.001998156641255426,0.002907932562537494,-0.003185179043984199,0.4,0.021215616748845242,0.01836939899878364,0.61291137841427,-0.003147491183822882,0.24848002940416336,0.04229304031468928,0.881044939160347,-0.21840630438706643,1.0276282206177711,1.333886757493019,16.686566174030304,0.0,0.0,0.0,0.0,0.0,0.0,0.0,0.0,0.0,0.0,0.0,0.0,0.0,0.0,0.0,0.0,False,0,7.112293004989624,0.034927001953125
