Mode,Time,Freq,time2delay,actualDelay,North-Desired,East-Desired,Down-Desired,Roll-UAV,Pitch-UAV,Yaw-UAV,Roll-Control,Pitch-Control,Yaw-Control,Thrust-Control,North-Pos,East-Pos,Down-Pos,Yaw-Ang,North-Vel,East-Vel,Down-Vel,Yaw-Vel,North-Acc,East-Acc,Down-Acc,North-Avg,East-Avg,Down-Avg,Yaw-Avg,North-Dif,East-Dif,Down-Dif,Yaw-Dif,North-One,East-One,Down-One,Yaw-One,North-Two,East-Two,Down-Two,Yaw-Two,Landing-State,Q-Size,Kalman-Time,Kalman-Dt
STABILIZE,0.034386634826660156,29.089335376975733,0.032779963811238606,0.0329136848449707,-10.0,40.0,10.0,2.632419366033206,-0.9376731286950918,-105.8223406224878,4.000469337534537,3.99953060738957,-0.0013490786938801262,0.5187631033280514,0.005232954239775364,0.02133768786148415,0.6308421587872952,-0.006723159441467355,0.08595591061748564,0.021208322141319513,1.1139413341879845,-0.21303086546898706,3.8780488073825836,0.21806012373417616,13.326805830001831,0.0,0.0,0.0,0.0,0.0,0.0,0.0,0.0,0.0,0.0,0.0,0.0,0.0,0.0,0.0,0.0,False,0,3.503335475921631,0.0349208984375
STABILIZE,0.06766557693481445,30.04946267373549,0.03229955037434896,0.032410383224487305,-10.0,40.0,10.0,2.6328823247928863,-0.9384122832293341,-105.8287883210643,4.000655381424718,3.999344511176482,-0.0018883965464358491,0.518790265560074,0.004887514967757698,0.02149428025370138,0.6297695947687305,-0.00938841663115876,0.0009264345862902701,0.053864053916186094,1.1411124840378761,-0.15181081272110494,0.12409328483045101,2.2167539224028587,17.16679036617279,0.0,0.0,0.0,0.0,0.0,0.0,0.0,0.0,0.0,0.0,0.0,0.0,0.0,0.0,0.0,0.0,False,0,3.5317704677581787,0.06485400390625
STABILIZE,0.10115265846252441,29.862899780708,0.032480748494466145,0.032611846923828125,-10.0,40.0,10.0,2.632722669121037,-0.9391329749084762,-105.83365824594252,4.00081084589459,3.9991889897043142,-0.0023416234688438515,0.5187840162028661,0.007183965713861613,0.020385640562979267,0.6454130775840821,-0.011615689414566694,0.1488549169152975,-0.039161150925792754,1.139508280903101,-0.07912544701792341,1.171114481985569,-1.627671718597412,18.783757090568542,0.0,0.0,0.0,0.0,0.0,0.0,0.0,0.0,0.0,0.0,0.0,0.0,0.0,0.0,0.0,0.0,False,0,3.5674166679382324,0.034921875
STABILIZE,0.13556742668151855,29.058500762089512,0.03244641621907552,0.033434152603149414,-10.0,40.0,10.0,2.633208039438931,-0.9404488535407615,-105.83779734057954,4.000993874807088,3.999005878184748,-0.002875868324671804,0.5188157159387179,0.010708187518967129,0.01966872114213511,0.6424281575189851,-0.014237977164831056,0.2026640810072422,0.008857643842929974,1.14419125020504,-0.14684677263859985,2.359450049698353,2.2222768515348434,17.199106514453888,0.0,0.0,0.0,0.0,0.0,0.0,0.0,0.0,0.0,0.0,0.0,0.0,0.0,0.0,0.0,0.0,False,0,3.5961201190948486,0.02993212890625
STABILIZE,0.16905856132507324,29.858010322121373,0.03233006795247396,0.03246760368347168,-10.0,40.0,10.0,2.6333083578423655,-0.9401933617771207,-105.84269458621445,4.001023854859279,3.728876680959524,-0.003184730592065622,0.5188599885870684,0.011327207406423907,0.019289324863579888,0.6328306027202076,-0.015729649747712727,-0.1291656168177724,0.06693548639304936,1.2037668377161026,0.02757879308936402,0.7727040909230709,2.2179102525115013,17.12087094783783,0.0,0.0,0.0,0.0,0.0,0.0,0.0,0.0,0.0,0.0,0.0,0.0,0.0,0.0,0.0,0.0,False,0,3.6546661853790283,0.034921875
STABILIZE,0.2049391269683838,27.869129568106313,0.032293113072713216,0.0350337028503418,-10.0,40.0,10.0,2.6330426207949698,-0.9404606996501031,-105.85057662451663,4.000410021845991,1.7305469347480114,-0.002762860420598314,0.5188844076159651,0.005019175633872263,0.016982184478799435,0.6340960260866632,-0.01357148488497191,-0.3301044460386038,-0.08326267707161605,1.3124821707606316,0.10726571967667017,3.0981838703155518,-1.7555760219693184,18.223808705806732,0.0,0.0,0.0,0.0,0.0,0.0,0.0,0.0,0.0,0.0,0.0,0.0,0.0,0.0,0.0,0.0,False,0,3.686797857284546,0.034921142578125
STABILIZE,0.23857879638671875,29.72638681190954,0.03247693379720052,0.03261303901672363,-10.0,40.0,10.0,2.6333431491184505,-0.9410577008722446,-105.85394390777745,4.000351346763321,1.7371282044858247,-0.0023734802359739035,0.5189076508650254,0.006949914907592272,0.017849971371800746,0.6350178346047421,-0.011585789021737104,0.12398713734000921,0.09069432853721082,1.288134604692459,0.09561027533241448,2.1889302879571915,2.3609377443790436,23.46815913915634,0.0,0.0,0.0,0.0,0.0,0.0,0.0,0.0,0.0,0.0,0.0,0.0,0.0,0.0,0.0,0.0,False,0,3.715503692626953,0.034864501953125
STABILIZE,0.2720515727996826,29.874172892969323,0.032253297170003255,0.03264045715332031,-10.0,40.0,10.0,2.63231605942201,-0.9409885452068982,-105.86377938018227,4.000352385631108,1.7401228618099107,-0.0023841457041762167,0.5189385748246554,0.005460923143593911,0.01624335744474132,0.6321753699047881,-0.0116000499275899,-0.06561020272783935,-0.04702797159552574,1.078111119568348,-0.0161449530321102,0.11250614188611507,0.14947173185646534,13.520312309265137,0.0,0.0,0.0,0.0,0.0,0.0,0.0,0.0,0.0,0.0,0.0,0.0,0.0,0.0,0.0,0.0,False,0,3.744312286376953,0.02993310546875
STABILIZE,0.3056035041809082,29.804967134482148,0.032518895467122395,0.03265571594238281,-10.0,40.0,10.0,2.632153842429222,-0.9412474520651241,-105.86861515411464,4.000317928925605,1.7435927647608598,-0.0021601691304958407,0.5189682387300814,0.005469818652618147,0.01591819163429206,0.6298902330834915,-0.010445201082748889,0.01662291178945452,0.024217508325818926,1.2656677514314651,0.04386887763617707,-0.19386839121580124,-1.6310874372720718,20.19025832414627,0.0,0.0,0.0,0.0,0.0,0.0,0.0,0.0,0.0,0.0,0.0,0.0,0.0,0.0,0.0,0.0,False,0,3.773252010345459,0.034921875
STABILIZE,0.3390934467315674,29.861198917841378,0.03244188626607259,0.03256344795227051,-10.0,40.0,10.0,2.632194396677419,-0.9414746625767327,-105.87116281467506,4.000486170467982,1.746686377913681,-0.0032703037981868903,0.5189893529570442,0.003549535189592859,0.015408155727510916,0.6318657651537326,-0.01594255473590609,-0.09212783770635724,0.011137605179101229,1.3201672583818436,-0.3252111330371062,3.297635167837143,2.088046260178089,12.59857714176178,0.0,0.0,0.0,0.0,0.0,0.0,0.0,0.0,0.0,0.0,0.0,0.0,0.0,0.0,0.0,0.0,False,0,3.8017497062683105,0.02993212890625
STABILIZE,0.3725297451019287,29.90719032543282,0.03239110310872396,0.032512664794921875,-10.0,40.0,10.0,2.631697286971889,-0.9411452126709854,-105.87900387184223,4.000289540368394,1.753119936139068,-0.0019803256045191403,0.5190278160185885,0.0007104558846365077,0.015475991109319305,0.6251733296928399,-0.009461027788217787,-0.3005623584613204,-0.024288556596729904,1.053906138986349,0.09782159576695239,-6.053720042109489,2.1535400301218033,15.113547444343567,0.0,0.0,0.0,0.0,0.0,0.0,0.0,0.0,0.0,0.0,0.0,0.0,0.0,0.0,0.0,0.0,False,0,3.8590002059936523,0.0349208984375
STABILIZE,0.4059886932373047,29.887584083912895,0.03238871892293294,0.03253340721130371,-10.0,40.0,10.0,2.633076131410585,-0.9406011454149116,-105.88278779664242,4.00022735690029,1.7537727810509312,-0.001578421455181837,0.5190576601941854,-0.0048187772987605074,0.014403810970451576,0.6228028976570158,-0.00742665504775049,-0.3005623584613204,-0.024288556596729904,1.053906138986349,0.09782159576695239,-6.053720042109489,2.1535400301218033,15.113547444343567,0.0,0.0,0.0,0.0,0.0,0.0,0.0,0.0,0.0,0.0,0.0,0.0,0.0,0.0,0.0,0.0,False,0,3.8877036571502686,0.0349208984375
STABILIZE,0.43947458267211914,29.863112402190087,0.0323970635732015,0.03252911567687988,-10.0,40.0,10.0,2.6332351467521997,-0.9402201489252718,-105.88661270257762,4.0001977252656635,1.7603238596540207,-0.001384365384810625,0.5190804614945306,-0.0036561623026976978,0.01459161692172868,0.623961472980674,-0.006434826034654103,0.08147010812535882,0.04707328334916383,1.2556148692965508,0.0378355794432344,2.089153416454792,2.252928726375103,15.707363188266754,0.0,0.0,0.0,0.0,0.0,0.0,0.0,0.0,0.0,0.0,0.0,0.0,0.0,0.0,0.0,0.0,False,0,3.916471004486084,0.0349208984375
STABILIZE,0.4729316234588623,29.891418064681652,0.032361777623494466,0.03249335289001465,-10.0,40.0,10.0,2.6326249120385414,-0.9399648706050426,-105.89474062768994,4.000167094891044,1.7678358658719153,-0.001184016372129612,0.5191028524552971,9.340640030793945e-05,0.01563917851533694,0.6252959834413863,-0.0054149871362018254,0.22628656588494778,0.09513152181170881,1.2643643654882908,0.03975677358555214,4.206789657473564,-1.6108516603708267,20.040209591388702,0.0,0.0,0.0,0.0,0.0,0.0,0.0,0.0,0.0,0.0,0.0,0.0,0.0,0.0,0.0,0.0,False,0,3.9450626373291016,0.02993310546875
STABILIZE,0.5063776969909668,29.896105377202485,0.03234604199727376,0.032491445541381836,-10.0,40.0,10.0,2.6328526561586787,-0.9400661495038292,-105.9003755337552,4.00013606066191,1.773028089078028,-0.000983250792945269,0.519137431217238,-0.0011654779012980599,0.016124549376731676,0.6205600974469905,-0.004396448661408398,-0.06654002354480326,0.06530118407681584,1.0834257118403912,0.04165370188001781,3.464151918888092,0.23472050670534372,16.249272227287292,0.0,0.0,0.0,0.0,0.0,0.0,0.0,0.0,0.0,0.0,0.0,0.0,0.0,0.0,0.0,0.0,False,0,3.973886728286743,0.039909912109375
STABILIZE,0.5397706031799316,29.945197264146902,0.03237751324971517,0.03249788284301758,-10.0,40.0,10.0,2.633447309503293,-0.940429536912015,-105.90473319444567,4.000071979580851,1.7808425780692134,-0.0005686546095071359,0.5191496797456324,0.0008301110609947515,0.015087396063277473,0.626973950390295,-0.0023157234969713196,0.12583885109052062,-0.029757790616713464,1.3694108463823795,0.10000865702374484,3.308515250682831,0.38148127496242523,22.415253520011902,0.0,0.0,0.0,0.0,0.0,0.0,0.0,0.0,0.0,0.0,0.0,0.0,0.0,0.0,0.0,0.0,False,0,4.00250768661499,0.02993310546875
STABILIZE,0.5731778144836426,29.934084129091193,0.03243211110432943,0.03254055976867676,-10.0,40.0,10.0,2.633629590176768,-0.9412205581952672,-105.91089402507701,3.9999810653385097,1.7875341179580242,1.6279597191585325e-05,0.5191722385269348,-0.0009707816625759822,0.014794062576866421,0.6282218911566493,0.00060691935153644,0.0012898568456876092,0.04785103956237435,1.2427505105733871,0.1052995656807387,1.0843613184988499,2.214362472295761,16.178874671459198,0.0,0.0,0.0,0.0,0.0,0.0,0.0,0.0,0.0,0.0,0.0,0.0,0.0,0.0,0.0,0.0,False,0,4.060426950454712,0.034921142578125
STABILIZE,0.6067335605621338,29.803061093978712,0.032456429799397786,0.032578229904174805,-10.0,40.0,10.0,2.6341845430468314,-0.941613720959366,-105.91543610087508,3.9999163656265773,1.7920881533126636,0.00043149591266139264,0.519194132660058,-0.0010497652434849618,0.015066199739613463,0.6298107554954147,0.0026740571937777704,0.0012898568456876092,0.04785103956237435,1.2427505105733871,0.1052995656807387,1.0843613184988499,2.214362472295761,16.178874671459198,0.0,0.0,0.0,0.0,0.0,0.0,0.0,0.0,0.0,0.0,0.0,0.0,0.0,0.0,0.0,0.0,False,0,4.089101791381836,0.034921142578125
STABILIZE,0.640082836151123,29.984587009050486,0.03233054478963216,0.032460689544677734,-10.0,40.0,10.0,2.634154874412624,-0.9418110493933559,-105.92021723329408,3.99987959923028,1.79779412223668,0.0006667445202682427,0.5192216021605627,0.002654135035371026,0.015472895046178721,0.6286149658933677,0.0038374638665776254,0.22181463427841663,0.05511740455403924,1.0832619853317738,0.05342100391214569,10.206866264343262,-1.7928654327988625,13.414789736270905,0.0,0.0,0.0,0.0,0.0,0.0,0.0,0.0,0.0,0.0,0.0,0.0,0.0,0.0,0.0,0.0,False,0,4.1179518699646,0.034921875
STABILIZE,0.6735775470733643,29.855247423267468,0.03241732915242513,0.03254055976867676,-10.0,40.0,10.0,2.634457750613632,-0.9424732575777298,-105.92497787514559,3.9998471082482823,1.8040555685111022,0.0008737424567441454,0.5192550004928421,0.0035327357854012973,0.015914686815529114,0.6244588013669732,0.004856211428504618,0.054092437494546175,0.0566233997233212,0.915010366588831,0.04675804765509246,7.299956679344177,0.12802426936104894,10.406460613012314,0.0,0.0,0.0,0.0,0.0,0.0,0.0,0.0,0.0,0.0,0.0,0.0,0.0,0.0,0.0,0.0,False,0,4.146607875823975,0.02993212890625
STABILIZE,0.7070713043212891,29.8582228739838,0.032379897435506184,0.03258991241455078,-10.0,40.0,10.0,2.6354419381843486,-0.942023425587861,-105.92988878115882,3.9998231592904885,1.8074857941941176,0.001027519130287387,0.5192856171100876,0.0024594751903248583,0.014484686473848726,0.6217206797916108,0.005606308740934813,-0.05874137277714908,-0.04986185231246054,1.1768404394388199,0.0403132739203495,-3.923426941037178,0.25204969570040703,20.918329060077667,0.0,0.0,0.0,0.0,0.0,0.0,0.0,0.0,0.0,0.0,0.0,0.0,0.0,0.0,0.0,0.0,False,0,4.179179906845093,0.0349208984375
STABILIZE,0.7405626773834229,29.856947608200457,0.03242662747701009,0.03255939483642578,-10.0,40.0,10.0,2.6340624534154173,-0.9416508601129779,-105.93579006460172,3.9997614197776903,1.8128812982076357,0.0014195831309383336,0.519310862891293,0.0014950614976836844,0.01465958835136991,0.6216578644031129,0.007541379002252759,-0.05353460437618196,0.040869228541851044,1.1422598734498024,0.10446338110562121,2.9696863144636154,-1.7692485824227333,12.91513741016388,0.0,0.0,0.0,0.0,0.0,0.0,0.0,0.0,0.0,0.0,0.0,0.0,0.0,0.0,0.0,0.0,False,0,4.207958459854126,0.034921875
STABILIZE,0.7739858627319336,29.91913715867264,0.03238728841145833,0.03251242637634277,-10.0,40.0,10.0,2.634396278911102,-0.9415193789714552,-105.93979255545534,3.9998018175759276,1.8162830237677279,0.0011659953623511857,0.5193416913174289,-0.0009096240054851015,0.012815771353905435,0.618787351559008,0.00625253934879073,-0.13758157147094607,-0.07842585328035057,0.9801038540899754,-0.08393093199617035,-4.13752868771553,0.12017773697152734,7.565483450889587,0.0,0.0,0.0,0.0,0.0,0.0,0.0,0.0,0.0,0.0,0.0,0.0,0.0,0.0,0.0,0.0,False,0,4.236687898635864,0.02993310546875
STABILIZE,0.8076825141906738,29.67737918347131,0.032413752873738606,0.03268003463745117,-10.0,40.0,10.0,2.633483167996436,-0.9410727486327598,-105.94742187675824,3.9998425642466477,1.821661849485406,0.000909258599912251,0.5193763815930699,0.0024944558784366477,0.014015068189999464,0.6140581177908667,0.004952214515386635,0.2054555108770728,0.10375797282904387,1.0447933338582516,-0.07607495380050615,2.542731538414955,2.1525943651795387,8.225291967391968,0.0,0.0,0.0,0.0,0.0,0.0,0.0,0.0,0.0,0.0,0.0,0.0,0.0,0.0,0.0,0.0,False,1,4.265147924423218,0.0349208984375
STABILIZE,0.8410778045654297,29.945197264146902,0.03229668935139974,0.03242135047912598,-10.0,40.0,10.0,2.6345755713768146,-0.9420643000011752,-105.9486854617547,3.999860494959774,1.8213075025479828,0.000799551090869278,0.5194009260711853,-0.0050726564834842995,0.011739287982997622,0.6143384813648833,0.004389002085768872,-0.22045283112674952,-0.03822188882622868,1.1466211639344692,-0.0189561961954853,-4.773833975195885,0.1491289585828781,11.101865768432617,0.0,0.0,0.0,0.0,0.0,0.0,0.0,0.0,0.0,0.0,0.0,0.0,0.0,0.0,0.0,0.0,False,0,4.3244452476501465,0.034922119140625
STABILIZE,0.8745460510253906,29.87970621130844,0.03234246571858724,0.03248143196105957,-10.0,40.0,10.0,2.6332488071305398,-0.941734316486899,-105.95662214157025,4.000100268476558,1.8274983004745322,-0.0007090387113955347,0.5194276107323537,-0.0032401903936547655,0.011996450947813733,0.6135560659602961,-0.003143431433093369,0.11369326384738088,0.04437395837157965,1.0951877571642399,-0.4443439328707033,1.6953811049461365,-1.5874695032835007,24.59077686071396,0.0,0.0,0.0,0.0,0.0,0.0,0.0,0.0,0.0,0.0,0.0,0.0,0.0,0.0,0.0,0.0,False,0,4.35320520401001,0.029931884765625
STABILIZE,0.9079625606536865,29.923192717362614,0.032324822743733723,0.03246927261352539,-10.0,40.0,10.0,2.6334340760117763,-0.9422033583838085,-105.96069293431559,4.000147551273905,1.8324981182751217,-0.0010060402465182571,0.5194627389737132,-0.003819183422808804,0.011727147838582013,0.6085608731395327,-0.0046130047001710596,-0.034897951991297305,0.013934547314420342,1.0164622217416763,-0.08689592778704346,1.0320290923118591,2.094005234539509,11.775971949100494,0.0,0.0,0.0,0.0,0.0,0.0,0.0,0.0,0.0,0.0,0.0,0.0,0.0,0.0,0.0,0.0,False,0,4.381805419921875,0.034922119140625
STABILIZE,0.9413683414459229,29.934084129091193,0.03238704999287923,0.03251218795776367,-10.0,40.0,10.0,2.6330535064089595,-0.9423557569796644,-105.96451784025079,4.000062430523217,1.8386312339348754,-0.00047382059983839034,0.5194910658374216,-0.004156568534917229,0.009868171494779733,0.6069634011015258,-0.0019454000992047528,-0.017449156439397484,-0.08293652790598571,1.0332508012652397,0.16289914459094465,1.0492317378520966,-1.6433419659733772,23.158547282218933,0.0,0.0,0.0,0.0,0.0,0.0,0.0,0.0,0.0,0.0,0.0,0.0,0.0,0.0,0.0,0.0,False,0,4.41049599647522,0.0349208984375
STABILIZE,0.9748573303222656,29.860561144215914,0.03243068059285482,0.03257131576538086,-10.0,40.0,10.0,2.6327181868093943,-0.9425219226755661,-105.97075380296302,3.999970057556592,1.842719376412746,0.00010208615812701898,0.5195158049239096,-0.003399191087048451,0.012838299371732155,0.6071651016170732,0.0009310185339466196,0.046421855222433805,0.20369431003928185,1.1429857462644577,0.17181935830676806,2.8107980266213417,4.254452884197235,22.40513116121292,0.0,0.0,0.0,0.0,0.0,0.0,0.0,0.0,0.0,0.0,0.0,0.0,0.0,0.0,0.0,0.0,False,0,4.439190626144409,0.02993310546875
STABILIZE,1.008467674255371,29.752745226002325,0.032406123479207356,0.03276634216308594,-10.0,40.0,10.0,2.636269244847566,-0.9497673660027744,-105.972440859688,3.999814768423111,1.8547665762048358,0.001064261048647542,0.5195384475046935,0.0013128445850896886,0.011495459718020651,0.6084932583957234,0.00572262344202914,0.27948261704295874,-0.05194683326408267,1.379826758056879,0.2871534790643538,4.114935919642448,-3.5887964069843292,20.503702759742737,0.0,0.0,0.0,0.0,0.0,0.0,0.0,0.0,0.0,0.0,0.0,0.0,0.0,0.0,0.0,0.0,False,1,4.467803716659546,0.0349208984375
STABILIZE,1.0421652793884277,29.675069512738695,0.03245499928792318,0.03281855583190918,-10.0,40.0,10.0,2.6301451264830034,-0.941444246890585,-105.98600561537965,4.000353652010392,1.8555062776710145,-0.0022712365917637424,0.519572919833073,-0.0022082061814513564,0.009237327360194607,0.6039123529788322,-0.01091810174543877,-0.10685017332434654,-0.04168791929259896,0.98003800958395,-0.49513812873738405,5.9584856033325195,-5.273991078138351,34.959083795547485,0.0,0.0,0.0,0.0,0.0,0.0,0.0,0.0,0.0,0.0,0.0,0.0,0.0,0.0,0.0,0.0,False,0,4.525254964828491,0.0349208984375
STABILIZE,1.0757441520690918,29.783168119976143,0.032465489705403645,0.0326695442199707,-10.0,40.0,10.0,2.63263024812383,-0.9418940788804538,-105.98768584191548,3.999940894781647,1.8608244240013436,0.0002775933388071463,0.5195979602401908,-0.0035645603049342485,0.009708555223751813,0.6039986352445329,0.0018199434247493183,-0.08063638815656304,0.05327337421476841,1.1276854202151299,0.7602713447218812,-14.37101662158966,4.206382855772972,19.492478668689728,0.0,0.0,0.0,0.0,0.0,0.0,0.0,0.0,0.0,0.0,0.0,0.0,0.0,0.0,0.0,0.0,False,0,4.5544657707214355,0.02993310546875
STABILIZE,1.109163522720337,29.9212715262024,0.032404216130574544,0.032520294189453125,-10.0,40.0,10.0,2.631367303457613,-0.9408765941375336,-105.99024033266505,3.9995374340026277,1.864930875125675,0.002766123282924712,0.5196207020173145,-0.00654178886392043,0.0072319391030586135,0.6051897180152875,0.014215075058219765,-0.1809729146771133,-0.12293258914723992,1.3623307459056377,0.7405441575732976,-7.4606627225875854,-5.070523172616959,45.57086229324341,0.0,0.0,0.0,0.0,0.0,0.0,0.0,0.0,0.0,0.0,0.0,0.0,0.0,0.0,0.0,0.0,False,0,4.583234071731567,0.034922119140625
STABILIZE,1.1425893306732178,29.918070089091465,0.03230455716451009,0.03242778778076172,-10.0,40.0,10.0,2.627706322062486,-0.940452482078758,-106.00342259776318,3.9990393026621445,1.8676405793292499,0.005840569390870348,0.5196761328844155,-0.011177155080952853,0.00886348960177543,0.5900632122340965,0.029488678250898407,-0.27518398128449917,0.12192224385216832,0.2049558563157916,0.9007022752131648,23.717273771762848,2.334386110305786,16.452954709529877,0.0,0.0,0.0,0.0,0.0,0.0,0.0,0.0,0.0,0.0,0.0,0.0,0.0,0.0,0.0,0.0,False,0,4.612212181091309,0.0349208984375
STABILIZE,1.1760036945343018,29.925327663582074,0.032416613896687825,0.03253030776977539,-10.0,40.0,10.0,2.6274518975159027,-0.940010547495117,-106.00416025819355,3.9994505203452992,1.8677598907770296,0.00332636019054516,0.5197369666336284,-0.013903301595160334,0.008131194631267187,0.5722538765414923,0.01686126166773863,-0.16006153309717774,-0.020974790095351636,0.0609392998740077,-0.7622824085456268,16.410082578659058,-13.860660791397095,-11.378805339336395,0.0,0.0,0.0,0.0,0.0,0.0,0.0,0.0,0.0,0.0,0.0,0.0,0.0,0.0,0.0,0.0,False,0,4.641425848007202,0.0349208984375
STABILIZE,1.209441900253296,29.90655058575228,0.03246763547261556,0.032587528228759766,-10.0,40.0,10.0,2.6283822973469055,-0.9395720280060611,-106.00868867361326,3.9998713284461287,1.8717775482699972,0.0007445354010365839,0.5197982391844237,-0.016614761656440984,0.007402221178888739,0.5542466984135539,0.003938971577273175,-0.16006153309717774,-0.020974790095351636,0.0609392998740077,-0.7622824085456268,16.410082578659058,-13.860660791397095,-11.378805339336395,0.0,0.0,0.0,0.0,0.0,0.0,0.0,0.0,0.0,0.0,0.0,0.0,0.0,0.0,0.0,0.0,False,0,4.673700571060181,0.0349208984375
STABILIZE,1.242906093597412,29.88204784770807,0.03246763547261556,0.0325777530670166,-10.0,40.0,10.0,2.6282713067728927,-0.9377269164348055,-106.011209013417,4.001043410736137,1.8865298309649243,-0.006398609021861953,0.5198318526806869,0.0012343526787783402,0.001817914948519338,0.550078765720609,-0.03167085492173874,1.0505132377147675,-0.3075279062613845,0.8829569444060326,-2.0871628032701497,-5.565246939659119,0.17875649500638247,16.408483684062958,0.0,0.0,0.0,0.0,0.0,0.0,0.0,0.0,0.0,0.0,0.0,0.0,0.0,0.0,0.0,0.0,False,1,4.702346086502075,0.03492578125
STABILIZE,1.2763960361480713,29.861624115393926,0.03243974049886068,0.03256678581237793,-10.0,40.0,10.0,2.6277684340952505,-0.9393460981549218,-106.02236271233163,4.000513697717826,1.8949584224707186,-0.003180363667027246,0.5198070581531195,0.0025550783911866175,0.001382959329414119,0.5750902916405912,-0.015527672707153762,0.33666042145341635,0.10363225592300296,1.3312933966517448,-1.394898798340439,-3.3735275268554688,8.067942410707474,13.866403698921204,0.0,0.0,0.0,0.0,0.0,0.0,0.0,0.0,0.0,0.0,0.0,0.0,0.0,0.0,0.0,0.0,False,0,4.759741544723511,0.029932861328125
STABILIZE,1.3098499774932861,29.890992018244013,0.03239324887593587,0.032529354095458984,-10.0,40.0,10.0,2.627180397496395,-0.9434291638964142,-106.0207507876875,4.001297336839681,1.9043142767394248,-0.007902035953120994,0.5198294391881789,0.008348074019054177,0.002885930499738021,0.5765104280235891,-0.03900553965426208,0.33666042145341635,0.10363225592300296,1.3312933966517448,-1.394898798340439,-3.3735275268554688,8.067942410707474,13.866403698921204,0.0,0.0,0.0,0.0,0.0,0.0,0.0,0.0,0.0,0.0,0.0,0.0,0.0,0.0,0.0,0.0,False,0,4.788513660430908,0.029932861328125
STABILIZE,1.3433692455291748,29.83337482484654,0.03238085110982259,0.0325312614440918,-10.0,40.0,10.0,2.6269432618661486,-0.942134736326991,-106.02880358071896,4.000476919816495,1.9180840774152867,-0.0029589753207934677,0.5198441505008159,0.01715397156279637,-0.004750666005621117,0.5817679108177768,-0.014242551512617906,0.5239842459559441,-0.44307331554591656,1.5490863472223282,1.4678705117204454,10.087557137012482,-22.888463735580444,30.120432376861572,0.0,0.0,0.0,0.0,0.0,0.0,0.0,0.0,0.0,0.0,0.0,0.0,0.0,0.0,0.0,0.0,False,0,4.817067384719849,0.034921142578125
STABILIZE,1.3770103454589844,29.725122782648135,0.03234723409016927,0.032788753509521484,-10.0,40.0,10.0,2.6279575449578956,-0.9461533421581915,-106.03171324130538,4.000619498845084,1.9244491122953786,-0.003810484133744423,0.5198607390917341,0.017606092282135822,0.002485508515255871,0.5861755665983552,-0.018437900527126457,0.011005923443008214,0.4511381033807993,1.320438552647829,-0.24959096044557447,-10.58308258652687,21.772560477256775,20.157961547374725,0.0,0.0,0.0,0.0,0.0,0.0,0.0,0.0,0.0,0.0,0.0,0.0,0.0,0.0,0.0,0.0,False,0,4.845743894577026,0.034922119140625
STABILIZE,1.4105300903320312,29.83464807767543,0.032450230916341145,0.03258681297302246,-10.0,40.0,10.0,2.627162681693235,-0.9443274404939767,-106.02303890105946,4.000145044937236,1.9218051434700494,-0.0009905904121232194,0.5198806173701354,0.01742547837005003,0.004253284829429204,0.588835075876512,-0.004323960792835691,-0.020971306366845965,0.11728095123544335,1.2179058976471424,0.8380890239571588,16.055774688720703,-11.376569420099258,15.450873970985413,0.0,0.0,0.0,0.0,0.0,0.0,0.0,0.0,0.0,0.0,0.0,0.0,0.0,0.0,0.0,0.0,False,0,4.874717712402344,0.029931640625
STABILIZE,1.444335699081421,29.580681561724216,0.032402785619099934,0.0329134464263916,-10.0,40.0,10.0,2.62855774783121,-0.9422088011908033,-106.03651486429189,3.999669193287127,1.9269142439669604,0.0018484804734369752,0.519906618790799,0.016911800911985974,0.006025105770509697,0.5885679135329872,0.009838116518461788,-0.020971306366845965,0.11728095123544335,1.2179058976471424,0.8380890239571588,16.055774688720703,-11.376569420099258,15.450873970985413,0.0,0.0,0.0,0.0,0.0,0.0,0.0,0.0,0.0,0.0,0.0,0.0,0.0,0.0,0.0,0.0,False,1,4.903436899185181,0.029931640625
STABILIZE,1.4778077602386475,29.875449630679594,0.032433541615804036,0.032555580139160156,-10.0,40.0,10.0,2.627291174626996,-0.9453003155638804,-106.03969090225596,3.9996896905053685,1.9173158516419635,0.0017419896510590068,0.5199075142731123,-0.0012919229866129103,0.011984419477794203,0.6006932654074779,0.00927464655687071,-0.308113032951951,-0.307392212562263,0.715250987559557,0.400378592152713,-4.94135282933712,-21.2784081697464,12.453491985797882,0.0,0.0,0.0,0.0,0.0,0.0,0.0,0.0,0.0,0.0,0.0,0.0,0.0,0.0,0.0,0.0,False,0,4.9610373973846436,0.029932861328125
STABILIZE,1.5113120079040527,29.846749402254353,0.032403024037679036,0.03253602981567383,-10.0,40.0,10.0,2.625076699232031,-0.9486738954053378,-106.04524384605116,3.999921857040343,1.9226902290702192,0.00035436710695506245,0.51994851823462,0.0064919997239313455,0.007146816516514581,0.5927803453494747,0.002328742829575672,0.4437400959432125,-0.24831639602780342,0.8853103965520859,-0.3887037177878985,8.07662159204483,21.657919883728027,5.645125359296799,0.0,0.0,0.0,0.0,0.0,0.0,0.0,0.0,0.0,0.0,0.0,0.0,0.0,0.0,0.0,0.0,False,0,4.989773750305176,0.034922119140625
STABILIZE,1.5447661876678467,29.8905659839512,0.032347710927327473,0.03261423110961914,-10.0,40.0,10.0,2.615469184390762,-0.9472190651121251,-106.05821437528502,3.9994657445042727,1.9217416613208833,0.0030859505279432244,0.5199829894769704,-0.0038957241947628956,0.014317347703939933,0.5881823039427639,0.01593317484413308,-0.5746576935052872,0.4220117814838886,0.8955135010182858,0.7572065107752496,-45.466434955596924,-7.7644117176532745,7.346957176923752,0.0,0.0,0.0,0.0,0.0,0.0,0.0,0.0,0.0,0.0,0.0,0.0,0.0,0.0,0.0,0.0,False,0,5.018426418304443,0.034921142578125
STABILIZE,1.5783164501190186,29.807508901096558,0.032488139470418294,0.0326230525970459,-10.0,40.0,10.0,2.6215092060511687,-0.9643770339157259,-106.01840120261302,3.9995289807996834,1.9151200247144926,0.002727827910614704,0.5200173840690637,-0.021780722540583684,0.003680308978054908,0.5835925603260591,0.0140953812750232,-0.9878681972622871,-0.5770958494395018,0.8912652730941772,-0.11075925471542591,13.047313690185547,-21.57203108072281,5.378160625696182,0.0,0.0,0.0,0.0,0.0,0.0,0.0,0.0,0.0,0.0,0.0,0.0,0.0,0.0,0.0,0.0,False,0,5.047051429748535,0.0299326171875
STABILIZE,1.6273541450500488,20.391880788584487,0.03239587148030599,0.04808521270751953,-10.0,40.0,10.0,2.6117712772854347,-0.9505167658207718,-106.04522335548366,3.9998932773730127,1.9370295144158882,0.0005432347123304085,0.5200573008001099,0.008576489450392077,0.015636645523258184,0.5820896260129576,0.003156949310123308,2.7167288586497307,1.301498245447874,1.5875548124313354,-0.49646809463483244,54.130470752716064,64.22889828681946,-9.3449205160141,0.0,0.0,0.0,0.0,0.0,0.0,0.0,0.0,0.0,0.0,0.0,0.0,0.0,0.0,0.0,0.0,False,0,5.104492902755737,0.03492138671875
STABILIZE,1.6611669063568115,29.579221292110663,0.032370837529500325,0.03281664848327637,-10.0,40.0,10.0,2.6064633665266883,-0.9471166122745749,-106.03791505307174,4.001018125842169,1.9361962423519956,-0.006130898672642648,0.5200485348521431,-0.010513761832171457,0.019095964427489717,0.5991803139318596,-0.030111956772209736,-1.1005807667970657,0.2106676809489727,2.078162506222725,-1.8999966235481711,-97.55956530570984,-80.25373220443726,15.349791944026947,0.0,0.0,0.0,0.0,0.0,0.0,0.0,0.0,0.0,0.0,0.0,0.0,0.0,0.0,0.0,0.0,False,0,5.1330366134643555,0.034921875
STABILIZE,1.696044921875,28.666652997341316,0.03229645093282064,0.034003257751464844,-10.0,40.0,10.0,2.623111739185183,-0.943963519477262,-106.08481796210222,4.002940691930394,1.9387282847717868,-0.017523531431953655,0.5200773304534176,-0.0025988738515077166,0.0019945707459507224,0.5979436311904149,-0.08677146108605506,0.45481291599571705,-0.9641528129577637,1.0217534378170967,-3.2214781453869663,42.129889130592346,-17.680618166923523,5.888721346855164,0.0,0.0,0.0,0.0,0.0,0.0,0.0,0.0,0.0,0.0,0.0,0.0,0.0,0.0,0.0,0.0,False,0,5.161721229553223,0.039909912109375
STABILIZE,1.7295317649841309,29.862474546826718,0.03248146375020345,0.03260302543640137,-10.0,40.0,10.0,2.633293630246968,-0.9349967617575046,-106.12534147444791,4.004974282022262,1.9498335572937022,-0.029424468090397646,0.52009931634535,0.00551054093651876,-0.015595515883101157,0.5995342935503353,-0.14578825835247938,0.45481291599571705,-0.9641528129577637,1.0217534378170967,-3.2214781453869663,42.129889130592346,-17.680618166923523,5.888721346855164,0.0,0.0,0.0,0.0,0.0,0.0,0.0,0.0,0.0,0.0,0.0,0.0,0.0,0.0,0.0,0.0,False,0,5.190395832061768,0.039909912109375
STABILIZE,1.7629849910736084,29.893335423957122,0.03243401845296224,0.032555341720581055,-10.0,40.0,10.0,2.6286939247277874,-0.9426871278761157,-106.06287256429897,4.0048857174150125,1.9412478023510449,-0.029128840869030538,0.520081867815568,-0.028828072556025187,-0.02860240614059742,0.6208007293715567,-0.14382928921341215,-2.2766930982470512,-1.1368971318006516,1.8074411898851395,5.925158369134796,-102.34086513519287,-45.12206315994263,40.14865756034851,0.0,0.0,0.0,0.0,0.0,0.0,0.0,0.0,0.0,0.0,0.0,0.0,0.0,0.0,0.0,0.0,False,0,5.247752904891968,0.034921142578125
STABILIZE,1.7980473041534424,28.52045721901498,0.0323980172475179,0.0341954231262207,-10.0,40.0,10.0,2.630547894200623,-0.9476604660872371,-106.08472916964301,4.001319136741735,1.918858777626703,-0.008262683772030903,0.5200833305428012,-0.06878839622682528,-0.0488247032192224,0.6332239754746909,-0.03936031062883148,-2.2766930982470512,-1.1368971318006516,1.8074411898851395,5.925158369134796,-102.34086513519287,-45.12206315994263,40.14865756034851,0.0,0.0,0.0,0.0,0.0,0.0,0.0,0.0,0.0,0.0,0.0,0.0,0.0,0.0,0.0,0.0,False,0,5.276500463485718,0.034921142578125
STABILIZE,1.832597017288208,28.944399588707395,0.032482417424519856,0.033687591552734375,-10.0,40.0,10.0,2.635570644561521,-0.9397794950021002,-106.0851663017499,4.002594279928074,1.9648558857606766,-0.015552494720876884,0.5200908860066807,-0.014614337495187278,-0.0481990682302271,0.6423693683194357,-0.07554852929452086,3.11117023229599,0.05327194230630994,1.6245817765593529,-2.1790702556286643,101.40691995620728,5.63143789768219,24.01832342147827,0.0,0.0,0.0,0.0,0.0,0.0,0.0,0.0,0.0,0.0,0.0,0.0,0.0,0.0,0.0,0.0,False,0,5.305134296417236,0.06485400390625
STABILIZE,1.8660988807678223,29.848448619413606,0.032460959752400716,0.0325777530670166,-10.0,40.0,10.0,2.6335886090417477,-0.944131926328985,-106.0547787901325,4.003052425627887,1.950466294456376,-0.01840725202814678,0.5200617418287455,-0.037436885750961615,-0.058101436468309176,0.6694282121552666,-0.08952280329154337,-1.1954360641539097,-0.3050608793273568,1.4437525533139706,-0.6524170014769735,-139.4840121269226,-4.490277171134949,31.586751341819763,0.0,0.0,0.0,0.0,0.0,0.0,0.0,0.0,0.0,0.0,0.0,0.0,0.0,0.0,0.0,0.0,False,0,5.336179971694946,0.039910888671875
STABILIZE,1.899510145187378,29.930452777678667,0.032399924596150716,0.0325319766998291,-10.0,40.0,10.0,2.632999078339011,-0.9467658180276712,-106.08500920739898,4.004098423475017,1.9182519336685027,-0.02501300845680365,0.5200818288749213,-0.08529359002218748,-0.05437749663545858,0.6718631146741404,-0.12214310257335738,-2.5068145245313644,0.19568344578146935,1.1967622675001621,-1.7955551337324482,-60.60580015182495,10.876233130693436,6.110309064388275,0.0,0.0,0.0,0.0,0.0,0.0,0.0,0.0,0.0,0.0,0.0,0.0,0.0,0.0,0.0,0.0,False,0,5.364677429199219,0.024944091796875
STABILIZE,1.933945894241333,29.03798064274934,0.03244188626607259,0.03355741500854492,-10.0,40.0,10.0,2.62883223605848,-0.9409682680827998,-106.13266343723816,4.004097102770138,1.9684580262553861,-0.024466912771565822,0.5201156387137456,-0.04052944982901581,-0.05675740190859775,0.6678134296445063,-0.11900280354398109,2.2694164887070656,-0.24306988343596458,1.4381048269569874,-0.09336289630153566,95.5044686794281,-9.903515130281448,28.982090950012207,0.0,0.0,0.0,0.0,0.0,0.0,0.0,0.0,0.0,0.0,0.0,0.0,0.0,0.0,0.0,0.0,False,1,5.393280267715454,0.0349208984375
STABILIZE,1.9674150943756104,29.879919072179636,0.03244903882344564,0.03256654739379883,-10.0,40.0,10.0,2.626317872670269,-0.9415313318025027,-106.09597166101686,4.002875419781267,1.972959807201395,-0.017398290075803517,0.5201611814076585,-0.07321393333500209,-0.0701270787345625,0.6575493675898438,-0.08338062377467498,-1.7434287816286087,-0.9348140098154545,1.2877141125500202,0.710238127978275,48.09021055698395,-8.112931996583939,32.73175656795502,0.0,0.0,0.0,0.0,0.0,0.0,0.0,0.0,0.0,0.0,0.0,0.0,0.0,0.0,0.0,0.0,False,0,5.451362371444702,0.0349208984375
STABILIZE,2.000809669494629,29.9432732464751,0.03241470654805501,0.03256106376647949,-10.0,40.0,10.0,2.6064998653500657,-0.9511209173972006,-106.10824551095537,4.002287717178385,1.9337218050050793,-0.014307780361059935,0.5201842720384336,-0.1043323690448254,-0.08614723145484708,0.6584916345101819,-0.0677018183706308,-1.7434287816286087,-0.9348140098154545,1.2877141125500202,0.710238127978275,48.09021055698395,-8.112931996583939,32.73175656795502,0.0,0.0,0.0,0.0,0.0,0.0,0.0,0.0,0.0,0.0,0.0,0.0,0.0,0.0,0.0,0.0,False,0,5.480071783065796,0.0349208984375
STABILIZE,2.034296751022339,29.863537654237483,0.032474549611409505,0.03260493278503418,-10.0,40.0,10.0,2.5996820558979237,-0.9592076479310842,-106.10465966164111,4.003584337986319,1.9847881467931703,-0.02149313593705341,0.520218778051108,-0.04625710494060209,-0.0772041252409158,0.6537484167787452,-0.10328299021734441,3.1399190425872803,0.42605195194482803,0.9763875976204872,-2.1038749955087015,132.51649141311646,36.94300055503845,20.999358594417572,0.0,0.0,0.0,0.0,0.0,0.0,0.0,0.0,0.0,0.0,0.0,0.0,0.0,0.0,0.0,0.0,False,0,5.510659694671631,0.02993310546875
STABILIZE,2.0677382946014404,29.902925911138993,0.03244450887044271,0.032563209533691406,-10.0,40.0,10.0,2.5935613526279457,-0.9601847918692191,-106.0387210153938,4.003406735363364,2.025598496088128,-0.02014144159127858,0.5202736497223899,-0.027108682599857974,-0.06344637639356845,0.6388334057117991,-0.09620283347482214,0.9811853989958763,0.6501520052552223,0.5873678252100945,0.2073536575875974,-99.07324314117432,-24.444811046123505,12.699848413467407,0.0,0.0,0.0,0.0,0.0,0.0,0.0,0.0,0.0,0.0,0.0,0.0,0.0,0.0,0.0,0.0,False,0,5.538822889328003,0.0349208984375
STABILIZE,2.101214647293091,29.872257990997664,0.03245046933492025,0.03255605697631836,-10.0,40.0,10.0,2.595202945906276,-0.9752213466052964,-106.06274962089391,4.00317791987728,2.0224732393614078,-0.018938872467671758,0.5203213317023848,-0.008268250228483886,-0.05037882597327613,0.6275229160302158,-0.08988954408124848,0.9811853989958763,0.6501520052552223,0.5873678252100945,0.2073536575875974,-99.07324314117432,-24.444811046123505,12.699848413467407,0.0,0.0,0.0,0.0,0.0,0.0,0.0,0.0,0.0,0.0,0.0,0.0,0.0,0.0,0.0,0.0,False,0,5.567477464675903,0.0349208984375
STABILIZE,2.1348061561584473,29.77175224656095,0.03239444096883138,0.03253936767578125,-10.0,40.0,10.0,2.606135304003116,-0.9640331765796981,-106.09640879312374,4.006569501325497,2.058052531002087,-0.03754886366773234,0.5203375943728219,0.024730171188661297,-0.029986620129670974,0.6319352117207064,-0.18232916332035087,1.7767952755093575,1.055905781686306,1.4685255475342274,-5.335349763076216,95.91308832168579,16.54081642627716,94.93482112884521,0.0,0.0,0.0,0.0,0.0,0.0,0.0,0.0,0.0,0.0,0.0,0.0,0.0,0.0,0.0,0.0,False,0,5.596714496612549,0.06485400390625
STABILIZE,2.1700422763824463,28.377472869475792,0.03224352200826009,0.03435111045837402,-10.0,40.0,10.0,2.604163513767098,-0.9718520356320702,-106.06477818707741,4.004909746318186,2.1409655522612026,-0.027398380129909007,0.5204521502324803,0.11970997965772028,-0.04218020058139638,0.5879898618654782,-0.1311124274624614,2.3236652836203575,-0.41213645599782467,-0.3434416837990284,1.4487137520892637,-1.0929545387625694,-39.823728799819946,39.965420961380005,0.0,0.0,0.0,0.0,0.0,0.0,0.0,0.0,0.0,0.0,0.0,0.0,0.0,0.0,0.0,0.0,False,0,5.654168128967285,0.034922119140625
STABILIZE,2.203631639480591,29.773654284355413,0.032465251286824544,0.032607316970825195,-10.0,40.0,10.0,2.6108191062264523,-0.9688501674918496,-106.10754200147086,4.004160280872467,2.08572049683961,-0.02406569680649856,0.5204857949371845,0.06765462604677265,-0.05749074446900866,0.5837789432005228,-0.11406707700780704,-2.7506759390234947,-0.8913259021937847,1.0790674947202206,0.6520912334700756,-66.9162929058075,-12.854766845703125,33.4866464138031,0.0,0.0,0.0,0.0,0.0,0.0,0.0,0.0,0.0,0.0,0.0,0.0,0.0,0.0,0.0,0.0,False,0,5.6829400062561035,0.0349208984375
STABILIZE,2.2370338439941406,29.93793004996431,0.03231957753499349,0.032453060150146484,-10.0,40.0,10.0,2.6177609263007127,-0.9574387356577566,-106.13669324884847,4.004506487967377,2.0879618328674803,-0.026016319047995232,0.5205646796878715,0.07845104888588472,-0.05514876713904304,0.5569594265535917,-0.12340777895376306,0.590900145471096,0.04034765588585287,-0.1438268693163991,-0.7419473879217651,72.3015308380127,25.942710041999817,-5.484624207019806,0.0,0.0,0.0,0.0,0.0,0.0,0.0,0.0,0.0,0.0,0.0,0.0,0.0,0.0,0.0,0.0,False,0,5.711697340011597,0.02993310546875
STABILIZE,2.2704575061798096,29.91657631954351,0.03237870534261068,0.0325162410736084,-10.0,40.0,10.0,2.5924476049064107,-0.9752763082837739,-106.13968487170494,4.003147544054959,2.0842704115027577,-0.018672498359785353,0.5205871418531086,0.07488248691476158,-0.055475287132947936,0.5583611244960276,-0.08639967163671214,-0.10491878492757678,-0.12541614705696702,1.4339806511998177,1.728423658979626,-42.96770691871643,-3.5959403961896896,15.698431432247162,0.0,0.0,0.0,0.0,0.0,0.0,0.0,0.0,0.0,0.0,0.0,0.0,0.0,0.0,0.0,0.0,False,0,5.740492820739746,0.034921875
STABILIZE,2.306197166442871,27.981240451776888,0.032415183385213216,0.0348052978515625,-10.0,40.0,10.0,2.5765266473945223,-0.9680551975054836,-106.13331913539848,4.003614037059943,2.0550651856641053,-0.021582111068074176,0.5205981091956586,0.04603298210439457,-0.03466978373315898,0.5663583511172019,-0.1005883772299093,-1.5346886590123177,1.0463086888194084,1.6631441190838814,-1.0113089712501762,-13.047006726264954,18.373003602027893,13.765637576580048,0.0,0.0,0.0,0.0,0.0,0.0,0.0,0.0,0.0,0.0,0.0,0.0,0.0,0.0,0.0,0.0,False,0,5.76902961730957,0.0349208984375
STABILIZE,2.3395309448242188,29.99831209143315,0.032381327946980794,0.032485008239746094,-10.0,40.0,10.0,2.596074221912276,-0.9556190238524771,-106.15842691078745,4.003316436049355,2.0299812910302673,-0.020217936741075106,0.520643162430779,0.06496319576673065,-0.03266321578850781,0.5564461821906189,-0.0934554174273092,-2.603532373905182,4.752535745501518,1.1305451393127441,-1.639872497546232,-115.88990688323975,244.7166919708252,-3.345555067062378,0.0,0.0,0.0,0.0,0.0,0.0,0.0,0.0,0.0,0.0,0.0,0.0,0.0,0.0,0.0,0.0,False,0,5.826515197753906,0.044899169921875
STABILIZE,2.3730404376983643,29.84398858696039,0.03248122533162435,0.03260064125061035,-10.0,40.0,10.0,2.591172920852557,-0.9605058107602097,-106.19118449804684,4.0042607810068365,2.0270506653755573,-0.02564415689262531,0.5206609371499985,0.01721102059125522,0.056575811187055514,0.5601871793544922,-0.12018456805297159,-2.603532373905182,4.752535745501518,1.1305451393127441,-1.639872497546232,-115.88990688323975,244.7166919708252,-3.345555067062378,0.0,0.0,0.0,0.0,0.0,0.0,0.0,0.0,0.0,0.0,0.0,0.0,0.0,0.0,0.0,0.0,False,0,5.855040073394775,0.044899169921875
STABILIZE,2.406791925430298,29.62790500543916,0.032402785619099934,0.032834529876708984,-10.0,40.0,10.0,2.5894250327552686,-0.9710635756697569,-106.137075739442,4.003028383212043,1.9885675705644377,-0.019090521533888728,0.5205611793547875,-0.04594207319860977,0.0801879413456677,0.6227296165855886,-0.08712225552203173,-3.2634474337100983,1.0170345194637775,4.264593124389648,1.618183018393445,-28.013330698013306,-189.4495725631714,16.60109907388687,0.0,0.0,0.0,0.0,0.0,0.0,0.0,0.0,0.0,0.0,0.0,0.0,0.0,0.0,0.0,0.0,False,0,5.883782148361206,0.02494384765625
STABILIZE,2.440251588821411,29.88588040814,0.03240779240926107,0.0325465202331543,-10.0,40.0,10.0,2.5866351139227297,-0.9566465404357409,-106.18350053523056,4.003074230551851,1.9895345860149691,-0.019404486028489033,0.5206258053571972,-0.05464632395255085,0.030726964801560668,0.6029928159533533,-0.0883963216310822,-0.5334382876753807,-2.60445773601532,0.46641165390610695,-0.30872236268960784,53.48576903343201,18.31064224243164,10.724222660064697,0.0,0.0,0.0,0.0,0.0,0.0,0.0,0.0,0.0,0.0,0.0,0.0,0.0,0.0,0.0,0.0,False,0,5.912500858306885,0.02993310546875
STABILIZE,2.4737415313720703,29.86098632360584,0.032413514455159505,0.03254079818725586,-10.0,40.0,10.0,2.5885388157104594,-0.9562237090374348,-106.1568218163325,4.004035777320142,2.0190683457129293,-0.024661398573337615,0.5206685513735586,-0.033943350499212696,0.04714882080218714,0.5942034656745712,-0.1142985949838986,1.1631974950432777,0.9110401384532452,0.8330520242452621,-1.6784743788576169,28.92410159111023,-0.8953842334449291,22.44887948036194,0.0,0.0,0.0,0.0,0.0,0.0,0.0,0.0,0.0,0.0,0.0,0.0,0.0,0.0,0.0,0.0,False,0,5.941136121749878,0.0349208984375
STABILIZE,2.5071213245391846,29.956104703067528,0.03235772450764974,0.03246617317199707,-10.0,40.0,10.0,2.5854509298753787,-0.9760485465468084,-106.1086280015489,4.002197769242802,2.011012878424402,-0.014353222098419405,0.5207314256727388,-0.04564104984084362,0.04766831132296293,0.5753623279390113,-0.06254872196405423,-0.6022697780281305,-0.016180427337531,0.07803691551089287,2.7024616753112176,-41.454651951789856,45.65563499927521,11.845268309116364,0.0,0.0,0.0,0.0,0.0,0.0,0.0,0.0,0.0,0.0,0.0,0.0,0.0,0.0,0.0,0.0,False,0,5.969762086868286,0.0349208984375
STABILIZE,2.5475618839263916,24.728087396900076,0.03240707715352376,0.039514780044555664,-10.0,40.0,10.0,2.581673835264362,-0.9690569941576541,-106.14583887214712,4.003763105485156,2.0412262834973776,-0.02301627176732166,0.5208066110175757,-0.038001492882350746,0.05342959254057744,0.5530545792575492,-0.10543748222088399,1.8179189413785934,-1.2161304242908955,0.4416788462549448,-0.754137194516975,43.60567331314087,-1.1023201048374176,0.1265629194676876,0.0,0.0,0.0,0.0,0.0,0.0,0.0,0.0,0.0,0.0,0.0,0.0,0.0,0.0,0.0,0.0,False,0,6.027217864990234,0.034921875
STABILIZE,2.581325054168701,29.619535895371666,0.032410415013631184,0.03259158134460449,-10.0,40.0,10.0,2.587179181178804,-0.9562859277919054,-106.09733769885086,4.002745544836738,2.0573993065369387,-0.01725223711480328,0.5208380234725875,-0.0701800900107782,0.05544463539606408,0.5500497504902183,-0.07636072348130804,-1.826312579214573,0.10831927647814155,0.9418022818863392,1.4732444832150704,-104.42646741867065,3.9550557732582092,-1.202355045825243,0.0,0.0,0.0,0.0,0.0,0.0,0.0,0.0,0.0,0.0,0.0,0.0,0.0,0.0,0.0,0.0,False,0,6.056068658828735,0.034921142578125
STABILIZE,2.6145358085632324,30.110079756495022,0.0321383794148763,0.032279014587402344,-10.0,40.0,10.0,2.5871179229196852,-0.9542565078347653,-106.144588947529,4.001687064395136,2.0476825937852463,-0.011445041011884259,0.5208689869202979,-0.10229494470607173,0.05725001710364286,0.5471763770523768,-0.047167460894451146,-1.826312579214573,0.10831927647814155,0.9418022818863392,1.4732444832150704,-104.42646741867065,3.9550557732582092,-1.202355045825243,0.0,0.0,0.0,0.0,0.0,0.0,0.0,0.0,0.0,0.0,0.0,0.0,0.0,0.0,0.0,0.0,False,0,6.085179567337036,0.034921142578125
STABILIZE,2.64805006980896,29.837619423636454,0.03239491780598958,0.03264188766479492,-10.0,40.0,10.0,2.6069160800026134,-0.85702038734573,-106.2422333319035,4.001891096271228,2.0114004116291166,-0.012811374540246806,0.5209021066066135,-0.1500149850585158,0.0798173366771163,0.5433070641610215,-0.053818572229632496,-2.7307983487844467,1.3095089234411716,0.8773528970777988,-0.5812009668787776,-24.551942944526672,72.84992933273315,-7.070726156234741,0.0,0.0,0.0,0.0,0.0,0.0,0.0,0.0,0.0,0.0,0.0,0.0,0.0,0.0,0.0,0.0,False,0,6.1132073402404785,0.029932861328125
STABILIZE,2.6824302673339844,29.087318044064716,0.032451661427815755,0.03344988822937012,-10.0,40.0,10.0,2.658799264155088,-0.8768762275106331,-106.16510683579573,3.999872156243033,2.045288875652756,-0.0013288859276000976,0.5209201394125607,-0.11984332276394818,0.035930505928691715,0.5472714674648516,0.0035815749840808903,1.6292549669742584,-2.4725759401917458,1.4590445905923843,3.1599449711543213,10.064495354890823,-122.29961156845093,29.094964265823364,0.0,0.0,0.0,0.0,0.0,0.0,0.0,0.0,0.0,0.0,0.0,0.0,0.0,0.0,0.0,0.0,False,1,6.141982078552246,0.044899169921875
STABILIZE,2.7160000801086426,29.78909090909091,0.03239134152730306,0.03261113166809082,-10.0,40.0,10.0,2.6464054590192765,-0.9302468987982896,-106.16273676015373,4.005363965907885,1.9344940297358681,-0.03383477189168724,0.5210375947058508,-0.27647673408469453,0.05586188217680726,0.5012873882179099,-0.15841652187944572,-4.400773718953133,4.631118103861809,-1.1889218352735043,-15.100795226542198,88.6742889881134,206.3103199005127,-108.40318202972412,0.0,0.0,0.0,0.0,0.0,0.0,0.0,0.0,0.0,0.0,0.0,0.0,0.0,0.0,0.0,0.0,False,0,6.199486017227173,0.02993212890625
STABILIZE,2.7494421005249023,29.903139102970847,0.032363208134969075,0.03249526023864746,-10.0,40.0,10.0,2.6266371840139673,-0.8757537286092238,-106.15779853338381,4.013675081358447,1.8912723037373866,-0.08465801443687954,0.5211434440305179,-0.3469818573334262,0.1331748913512076,0.4611287858941529,-0.4111570854566239,-4.400773718953133,4.631118103861809,-1.1889218352735043,-15.100795226542198,88.6742889881134,206.3103199005127,-108.40318202972412,0.0,0.0,0.0,0.0,0.0,0.0,0.0,0.0,0.0,0.0,0.0,0.0,0.0,0.0,0.0,0.0,False,0,6.228015422821045,0.02993212890625
STABILIZE,2.7830727100372314,29.733762459060554,0.032360108693440755,0.03252005577087402,-10.0,40.0,10.0,2.6351373544360484,-0.908810670253322,-106.11840200225117,4.010478017379551,1.927444816561156,-0.0645804476823832,0.5211667239907277,-0.3333886190655838,0.16922821817685404,0.46226344370688377,-0.30973213040436587,0.5195984151214361,2.2595563903450966,1.2105009518563747,5.745746375111486,245.73633670806885,-56.918686628341675,-215.14437198638916,0.0,0.0,0.0,0.0,0.0,0.0,0.0,0.0,0.0,0.0,0.0,0.0,0.0,0.0,0.0,0.0,False,0,6.256698369979858,0.03484228515625
STABILIZE,2.8163836002349854,30.02064216900239,0.03221896489461263,0.03234577178955078,-10.0,40.0,10.0,2.6447598103161267,-0.9132362059486671,-106.24183035074248,4.005246670489051,1.9093354291741795,-0.03413744230002851,0.521075427956478,-0.42027013546914616,0.20109497109233931,0.5205863760229149,-0.156992317785236,-5.247274786233902,1.8999908119440079,4.506867751479149,9.008448340677477,122.77591228485107,131.27543926239014,95.5670952796936,0.0,0.0,0.0,0.0,0.0,0.0,0.0,0.0,0.0,0.0,0.0,0.0,0.0,0.0,0.0,0.0,False,0,6.287646532058716,0.069843017578125
STABILIZE,2.8499693870544434,29.773654284355413,0.03235605557759603,0.03251504898071289,-10.0,40.0,10.0,2.6341269133257095,-0.9032278443804828,-106.19018046023884,3.999849423986144,1.8274327847699359,-0.0017915246655783872,0.5209381294072041,-0.5497694506047285,0.2529514982656705,0.601825155201275,0.004721458587036154,-5.247274786233902,1.8999908119440079,4.506867751479149,9.008448340677477,122.77591228485107,131.27543926239014,95.5670952796936,0.0,0.0,0.0,0.0,0.0,0.0,0.0,0.0,0.0,0.0,0.0,0.0,0.0,0.0,0.0,0.0,False,0,6.3165154457092285,0.069843017578125
STABILIZE,2.8833091259002686,29.99359267734554,0.032250197728474934,0.0323636531829834,-10.0,40.0,10.0,2.6341181621458354,-0.9233412573822893,-106.13262245610315,3.997124911616953,1.8909421358689793,0.014773716637602753,0.5208655343476837,-0.5832096055964374,0.28345628065404643,0.6506228368949726,0.08725601107707842,0.04259023116901517,0.7201655767858028,2.2822538390755653,3.1453226033583817,31.5579891204834,-133.31243991851807,124.26953315734863,0.0,0.0,0.0,0.0,0.0,0.0,0.0,0.0,0.0,0.0,0.0,0.0,0.0,0.0,0.0,0.0,False,0,6.3450844287872314,0.029932861328125
STABILIZE,2.9168169498443604,29.84738658601672,0.03232529958089193,0.03248763084411621,-10.0,40.0,10.0,2.6446411357792976,-0.9167187486517273,-106.27436254175925,4.0002700996579525,1.939889222132273,-0.0042781089405492505,0.5209042333987178,-0.556761712639962,0.2733648416714668,0.643804529411558,-0.007976408810880443,-0.9338328614830971,2.3225579410791397,1.5840714797377586,-2.3528048683478127,18.731948733329773,63.632845878601074,91.98840856552124,0.0,0.0,0.0,0.0,0.0,0.0,0.0,0.0,0.0,0.0,0.0,0.0,0.0,0.0,0.0,0.0,False,0,6.4026665687561035,0.034921875
STABILIZE,2.950192451477051,29.958244348416127,0.03228596051534017,0.03242754936218262,-10.0,40.0,10.0,2.637051728394356,-0.9132287354292624,-106.20722178221803,4.0002282478852065,1.9337540965695037,-0.004039751917345311,0.5209139307955812,-0.5636427578782912,0.23546418660608115,0.6514670683471536,-0.006761999561691302,-1.166094746440649,-1.5748577192425728,1.5921832993626595,-0.07843661176795705,-18.11874359846115,-119.82054710388184,117.87042617797852,0.0,0.0,0.0,0.0,0.0,0.0,0.0,0.0,0.0,0.0,0.0,0.0,0.0,0.0,0.0,0.0,False,0,6.431325197219849,0.02993310546875
STABILIZE,2.983704090118408,29.84207755247243,0.03240493138631185,0.03256678581237793,-10.0,40.0,10.0,2.6423382948119456,-0.9279663626674458,-106.22230967009457,4.00101098472578,1.988168226233868,-0.00853085369889251,0.5209429095607597,-0.5487601946113415,0.22282152944173494,0.6494956634510164,-0.029120047388582544,-0.29285100754350424,-0.1926870085299015,1.2973745353519917,-1.267680975520251,7.315031439065933,52.28624939918518,102.89533138275146,0.0,0.0,0.0,0.0,0.0,0.0,0.0,0.0,0.0,0.0,0.0,0.0,0.0,0.0,0.0,0.0,False,0,6.460130929946899,0.0349208984375
STABILIZE,3.017252206802368,29.810262970859984,0.03236082394917806,0.03251361846923828,-10.0,40.0,10.0,2.645864379970965,-0.919765013021553,-106.2784060137479,4.00182864211272,2.05987772128869,-0.012904904798070473,0.5209634688585622,-0.5385685150189812,0.21202623597115688,0.6517357184275424,-0.0508201501129871,-0.29285100754350424,-0.1926870085299015,1.2973745353519917,-1.267680975520251,7.315031439065933,52.28624939918518,102.89533138275146,0.0,0.0,0.0,0.0,0.0,0.0,0.0,0.0,0.0,0.0,0.0,0.0,0.0,0.0,0.0,0.0,False,0,6.488754510879517,0.0349208984375
STABILIZE,3.050689935684204,29.92789000121301,0.03228429158528646,0.03241276741027832,-10.0,40.0,10.0,2.639390214411439,-0.9152600763771065,-106.21907899061716,4.003433050021612,2.0705050993615655,-0.021774087333859448,0.5209657472808885,-0.5494325992285253,0.22412950626873301,0.663086317584049,-0.09484886901054101,-1.4300359413027763,1.0248839855194092,1.787032000720501,-2.4554004995403393,-21.761156618595123,-5.5401574820280075,61.91078424453735,0.0,0.0,0.0,0.0,0.0,0.0,0.0,0.0,0.0,0.0,0.0,0.0,0.0,0.0,0.0,0.0,False,0,6.517434597015381,0.034922119140625
STABILIZE,3.0841000080108643,29.905910873440284,0.032301934560139973,0.032413482666015625,-10.0,40.0,10.0,2.643017898634362,-0.9280167353125747,-106.24805948326554,4.001903232523722,2.061295307908326,-0.013410639547651667,0.5209878557825508,-0.5559711375817342,0.18250813375552694,0.6645150692022158,-0.05285494178407843,-1.22030358761549,-1.8412696197628975,1.2655510567128658,2.129816907750056,-3.1082376837730408,-71.5151846408844,83.62928628921509,0.0,0.0,0.0,0.0,0.0,0.0,0.0,0.0,0.0,0.0,0.0,0.0,0.0,0.0,0.0,0.0,False,0,6.546144008636475,0.029931884765625
STABILIZE,3.1187658309936523,28.848046329603214,0.032332452138264973,0.03368949890136719,-10.0,40.0,10.0,2.645539945985389,-0.9198606356699331,-106.27360439076138,4.000810296249754,2.07136512526213,-0.007336199030987256,0.5210089296383256,-0.5563820321600654,0.1282387357330556,0.6669237863600842,-0.02240504569377806,-0.9909705258905888,-0.31817781273275614,1.6678053885698318,-0.7029971136018566,-23.196855187416077,-48.644623160362244,55.5580735206604,0.0,0.0,0.0,0.0,0.0,0.0,0.0,0.0,0.0,0.0,0.0,0.0,0.0,0.0,0.0,0.0,False,0,6.6034417152404785,0.069843017578125
STABILIZE,3.1526949405670166,29.472181233048047,0.032338651021321614,0.03297686576843262,-10.0,40.0,10.0,2.6377910963720095,-0.9259512434188805,-106.21750804710807,4.001158587441213,2.0503716843860462,-0.00934874225198161,0.5209606051840935,-0.5844324988190874,0.11486681501156622,0.7037171370982795,-0.03235784798050188,-0.9909705258905888,-0.31817781273275614,1.6678053885698318,-0.7029971136018566,-23.196855187416077,-48.644623160362244,55.5580735206604,0.0,0.0,0.0,0.0,0.0,0.0,0.0,0.0,0.0,0.0,0.0,0.0,0.0,0.0,0.0,0.0,False,0,6.632692337036133,0.069843017578125
STABILIZE,3.1862146854400635,29.93664796653962,0.03237298329671224,0.0325007438659668,-10.0,40.0,10.0,2.6408569975356992,-0.9279253815324258,-106.2597732576921,3.9990767118190607,2.0378093719287924,0.0023344012805401235,0.5209148175416738,-0.6098280309941846,0.08348561849160527,0.7389940174835612,0.025971053763779006,-1.078244112432003,-1.0884104296565056,1.7097726464271545,2.6487706254628054,-8.262939751148224,-15.117642283439636,60.74385046958923,0.0,0.0,0.0,0.0,0.0,0.0,0.0,0.0,0.0,0.0,0.0,0.0,0.0,0.0,0.0,0.0,False,0,6.666693687438965,0.02993310546875
STABILIZE,3.219721555709839,29.74177444973905,0.032297404607137044,0.03244471549987793,-10.0,40.0,10.0,2.642441601423142,-0.9220582490353848,-106.26814023942536,4.0006873009568755,2.075286933905981,-0.0066663824412410535,0.5209666787199623,-0.5624841632521141,0.10734930631488337,0.7254813607866349,-0.018969368198556366,0.8995402604341507,1.4325164258480072,1.0517965070903301,-2.1851062218642516,35.93648672103882,39.607664942741394,50.921446084976196,0.0,0.0,0.0,0.0,0.0,0.0,0.0,0.0,0.0,0.0,0.0,0.0,0.0,0.0,0.0,0.0,False,0,6.695444583892822,0.0349208984375
STABILIZE,3.2530949115753174,29.962738598696994,0.032262595494588216,0.032378196716308594,-10.0,40.0,10.0,2.6399108028922407,-0.9251674792116216,-106.25545657813666,3.999601609294147,2.0864807130810816,-0.0006767922744330894,0.5210792166953726,-0.5605679868863316,0.09449082524697527,0.6816719009662063,0.010942006269321385,-1.078011654317379,-0.3268419997766614,-0.6797281559556723,1.3940364869577249,-32.54772424697876,-20.632348954677582,-24.583342671394348,0.0,0.0,0.0,0.0,0.0,0.0,0.0,0.0,0.0,0.0,0.0,0.0,0.0,0.0,0.0,0.0,False,0,6.724210739135742,0.034921875
STABILIZE,3.2873408794403076,29.20316100957354,0.032308371861775716,0.0332338809967041,-10.0,40.0,10.0,2.6413090706813893,-0.9293366693696796,-106.26779872996687,3.998489713164493,2.1016302204647688,0.00540351443496875,0.521094398648126,-0.5480251331324061,0.09546244406490666,0.6868377442648211,0.04120244591121004,-0.5361512769013643,0.33658912871032953,1.6949916258454323,1.4449645118434558,-4.424995556473732,27.7324378490448,49.25207495689392,0.0,0.0,0.0,0.0,0.0,0.0,0.0,0.0,0.0,0.0,0.0,0.0,0.0,0.0,0.0,0.0,False,0,6.752819538116455,0.02990478515625
STABILIZE,3.3210501670837402,29.6641559341693,0.03231409390767415,0.03273415565490723,-10.0,40.0,10.0,2.6424418148665536,-0.9229848068849793,-106.27512752294629,3.999065802118017,2.133583674139117,0.0021994528260020647,0.5211441725164124,-0.524635990810186,0.08803190975901448,0.6745329193888562,0.025097482784759814,-0.08674667915329337,-0.10307758348062634,0.9704164229333401,-0.8084550209434419,1.372070237994194,-43.74365508556366,-8.235210925340652,0.0,0.0,0.0,0.0,0.0,0.0,0.0,0.0,0.0,0.0,0.0,0.0,0.0,0.0,0.0,0.0,False,0,6.781426906585693,0.0349208984375
STABILIZE,3.354451894760132,29.93857113285795,0.032352717717488606,0.03249359130859375,-10.0,40.0,10.0,2.642893888012244,-0.9270453543465519,-106.28317348578857,3.998756208705528,2.161491369490028,0.0037995190416840663,0.5212071001479001,-0.5085308579163672,0.08899005219626266,0.6555806282892302,0.032987394322747124,-0.6786109413951635,1.4604052528738976,0.8861124515533447,-0.5106245154633301,-11.259909719228745,36.61200702190399,-5.619489029049873,0.0,0.0,0.0,0.0,0.0,0.0,0.0,0.0,0.0,0.0,0.0,0.0,0.0,0.0,0.0,0.0,False,0,6.839297533035278,0.034921142578125
STABILIZE,3.3884599208831787,29.405441785791904,0.032419474919637044,0.033094167709350586,-10.0,40.0,10.0,2.64098954589428,-0.9312072874286169,-106.27140506984863,3.9983625899568467,2.157238804696266,0.005935605962331916,0.5212598067795419,-0.48856331037955913,0.06891603623057171,0.6419524422544991,0.043519882426266004,-0.03417533007450402,-0.8090226911008358,0.6448979955166578,0.534980329713361,2.026313543319702,-51.480287313461304,-2.4382801726460457,0.0,0.0,0.0,0.0,0.0,0.0,0.0,0.0,0.0,0.0,0.0,0.0,0.0,0.0,0.0,0.0,False,0,6.867963790893555,0.029932861328125
STABILIZE,3.421957492828369,29.852485035693697,0.03240087827046712,0.03252768516540527,-10.0,40.0,10.0,2.643452042533481,-0.9248787969974827,-106.30169695881764,3.998693490821642,2.1707572411499196,0.004155434293894795,0.521299953206166,-0.4727009734938221,0.06041470862968929,0.6344079376842481,0.034503632031612615,-0.3193853422999382,-0.23378722835332155,1.095177885144949,-0.45147139535217023,-8.370913565158844,32.701680064201355,-0.5983594805002213,0.0,0.0,0.0,0.0,0.0,0.0,0.0,0.0,0.0,0.0,0.0,0.0,0.0,0.0,0.0,0.0,False,0,6.896570444107056,0.034921875
STABILIZE,3.4554333686828613,29.87289626437805,0.03234723409016927,0.032476186752319336,-10.0,40.0,10.0,2.6433536451207504,-0.9276967836386418,-106.30217507205954,3.998671853099286,2.170594310582109,0.004293773619016962,0.5213424453264703,-0.47134756699865016,0.06692647662503064,0.6257016072613232,0.03507802150242405,-0.9663599543273449,0.5763319786638021,0.8440100587904453,0.025570013777132774,-26.904085278511047,5.303434282541275,1.800072193145752,0.0,0.0,0.0,0.0,0.0,0.0,0.0,0.0,0.0,0.0,0.0,0.0,0.0,0.0,0.0,0.0,False,0,6.929123401641846,0.034921142578125
STABILIZE,3.4894421100616455,29.40296812455748,0.032320292790730794,0.033100128173828125,-10.0,40.0,10.0,2.6424266603843325,-0.9299686753113173,-106.28912941074482,3.9979242026320194,2.1743692184866426,0.008264789724841928,0.5213979388956568,-0.4578686260590331,0.04460172967619226,0.6107589030725357,0.05474645807284515,-0.2904825611039996,-1.0018305853009224,0.48856367357075214,1.072429025759741,1.3797133229672909,-33.74607264995575,-2.417885884642601,0.0,0.0,0.0,0.0,0.0,0.0,0.0,0.0,0.0,0.0,0.0,0.0,0.0,0.0,0.0,0.0,False,0,6.957712173461914,0.029932861328125
STABILIZE,3.5230865478515625,29.724912121555732,0.03242209752400716,0.03257560729980469,-10.0,40.0,10.0,2.644883607494833,-0.9270179268681661,-106.32200311122008,3.999186882847137,2.1852868282795814,0.0015950446823503393,0.5214518697002298,-0.4329449258767381,0.05652901891660915,0.5963947637003723,0.021326287349032726,0.27882016729563475,0.8439724333584309,0.6353059783577919,-1.8019812745243724,4.3067581951618195,40.59337675571442,-1.7940273508429527,0.0,0.0,0.0,0.0,0.0,0.0,0.0,0.0,0.0,0.0,0.0,0.0,0.0,0.0,0.0,0.0,False,0,6.986383438110352,0.034922119140625
STABILIZE,3.5565850734710693,29.84972315925815,0.0322451909383138,0.03262829780578613,-10.0,40.0,10.0,2.6429897241040354,-0.9286081870060154,-106.3144147710522,3.9998743222846804,2.193441067344529,-0.002011392143694946,0.5215115669275875,-0.4112959807655544,0.06386386636796634,0.5792319546483525,0.003283051003263272,-1.0262220166623592,-0.05824653781019151,0.9121866896748543,0.8325907216752985,-21.76428884267807,-19.976496696472168,8.048506081104279,0.0,0.0,0.0,0.0,0.0,0.0,0.0,0.0,0.0,0.0,0.0,0.0,0.0,0.0,0.0,0.0,False,0,7.044077157974243,0.034921142578125
