Mode,Time,Freq,North-Vision,East-Vision,Down-Vision,Yaw-Vision,North-Desired,East-Desired,Down-Desired,Roll-UAV,Pitch-UAV,Yaw-UAV,Roll-Control,Pitch-Control,Yaw-Control,Thrust-Control,northVraw,eastVraw,downVraw,N-Velocity,E-Velocity,D-Velocity,yawVraw,yawRate,Q-Size
GUIDED_NOGPS,0.009103775024414062,110.07805159698711,-31.66850064618495,40.10856573731465,99.43902663527106,-3.789497490788131,-35.096205801792706,35.189180010448624,101.38343796491161,1.7247166805293073,-1.1126319461012593,31.232160130907186,-3.726890403349719,4.2556183947130135,-10.0,0.5038888226592811,-34.684721848748204,32.350111709745434,104.24221233143739,-8.04578810930252,-7.164866477251053,-4.10134419798851,-5.496795258444255,-7.128812724488525,1
GUIDED_NOGPS,0.023685693740844727,68.61173545337063,-34.04408470560533,39.29620203016296,105.9874365623647,-5.456364529541679,-35.095716314238175,35.18931684217088,101.38313455775722,1.7247166805293073,-1.1126319461012593,31.232160130907186,1.863361661630454,-4.1961960448955615,-10.0,0.49079139599078503,-35.3423846961576,31.975946238601033,103.98284507371,-8.04578810930252,-7.164866477251053,-4.10134419798851,-5.724838354382289,-7.128812724488525,0
GUIDED_NOGPS,0.0402224063873291,60.49855039016862,-34.29847915252598,38.30897834270205,105.3455154031102,-5.645141654794284,-35.092356120856394,35.19025615317746,101.38103519218281,1.7132867858401142,-0.9865745083880327,31.65757846336143,2.7592433090142774,-1.0119625441139832,-5.728235039610075,0.49207103957814524,-36.6089488068482,32.4066995515946,103.44298573221123,1.2315978296101093,-6.560234725475311,-19.05045658349991,-5.776556427091447,-10.144084257181632,0
GUIDED_NOGPS,0.07262396812438965,30.86407252604933,-34.62600735461581,37.51346365883441,104.78599938917188,-5.828880385889728,-35.08343458308217,35.192750086613664,101.37541079487958,1.6855515220548078,-0.8960051327766059,31.992524110069684,0.9967917012903946,-0.5789998829076136,-4.6143830145292615,0.4931788228114154,-36.705738541383255,31.970261920929648,103.15932872638587,-5.025720223784447,-5.1074448972940445,-23.296625912189484,-6.059612366156354,-9.977431056527907,0
GUIDED_NOGPS,0.1065378189086914,29.49269767605386,-34.97772889304555,36.82279161837433,104.19251610214442,-6.100863384658362,-35.06645338549936,35.197497023465836,101.3646043545162,1.7057846768105014,-0.9659427480612456,32.24158012796503,0.8518234054943561,-0.6320135787131613,-5.268653839060374,0.49434417650474355,-37.05212497150424,32.135284170799096,102.78703902724655,-3.0854521319270134,-4.627455025911331,-21.287336945533752,-6.280293954276683,-8.00664315077055,0
GUIDED_NOGPS,0.1462407112121582,25.190863718536225,-35.11496020619689,36.210141899901075,103.625751118277,-6.4023965247814285,-35.03910201059023,35.20514284755336,101.34702992778038,1.8642719594246542,-0.765046660807925,32.60894868266334,0.6834460612261364,-0.2915995936379284,-5.362093510671088,0.4954425576190068,-35.68526881421701,31.872641127443764,102.83077795012011,-0.7741948124021292,-4.702501744031906,-20.550096035003662,-6.527884831090991,-9.624899380254162,0
GUIDED_NOGPS,0.1750936508178711,34.67025963612918,-35.25451496274632,35.67182129473038,102.82287230704517,-6.759727932914774,-34.99925321348497,35.216282210520625,101.32117164542068,1.9916707822578474,-0.9637261382321649,32.834348340368344,0.8991110699290231,-0.4485470023336378,-6.5987527729818485,0.496996598676751,-35.83219968968136,31.662033182797444,102.22611248135817,-1.9392767921090126,-4.295432195067406,-33.403217792510986,-6.76966925050656,-10.498876726070652,0
GUIDED_NOGPS,0.21075439453125,28.044102406375995,-35.38085620176245,35.195457604439255,101.80764365464623,-6.9699129557439825,-34.94495849671108,35.23145979682897,101.28558271828813,2.0245525935827584,-0.9941230413596605,33.01922107063308,0.6681190850749166,-0.37840354405266435,-5.390493718011362,0.4989558781272838,-36.255982780873055,31.229842679405415,100.16920290477151,-1.0757479816675186,-4.078934341669083,-42.39768981933594,-7.390492394358844,-5.284101573073141,0
GUIDED_NOGPS,0.24121975898742676,32.82929845571027,-35.42042511240763,34.745694958835216,100.65580296746828,-7.196494268015544,-34.87444358494281,35.251171588748726,101.23888444337793,2.275584884025764,-0.6790108232580941,33.44639134660943,0.7317213095010997,-0.308773369844058,-5.725729971005478,0.5011661629518193,-35.878746863488914,30.5933102394292,99.66613189836113,2.746604010462761,-1.3310926035046577,-46.793147921562195,-7.624864219190143,-4.234908103817843,0
GUIDED_NOGPS,0.2735743522644043,30.910701520366125,-35.43127751143085,34.31366136195489,99.58469485856305,-7.379031949541125,-34.78610389975061,35.2758661313511,101.1797652098712,2.008406453271671,-0.8327792989294143,33.699490836493425,0.7400806606732904,-0.30237410696572553,-5.555161350435196,0.5031901407026163,-35.15352173367975,30.38866824284333,99.3693518092187,-0.04577166400849819,-3.0884448438882828,-44.83955502510071,-7.776387560283288,-2.8443443411662463,0
GUIDED_NOGPS,0.31014227867126465,27.35047015402272,-35.69290420731262,33.94905622285135,98.37822517508404,-7.718151395856479,-34.678500034350556,35.30594579750026,101.1069795051766,1.806265510681263,-0.7009163605042357,33.99390614066682,0.5509082860123884,-0.6668106881222341,-6.488474061134153,0.5054575086601851,-38.04654164136542,30.253092580454254,96.70429478316575,-3.2485932111740112,-0.8527704514563084,-43.27460825443268,-8.08809339258072,-11.723333276315302,0
GUIDED_NOGPS,0.3539581298828125,22.827262287676675,-36.087080338382926,33.2695946991213,97.01067548867111,-8.11212804328005,-34.550353228353785,35.34176805284519,101.01934692097203,1.7469340052388893,-0.5054000610785051,34.38645418774038,0.8509098150119757,-0.8481118138138128,-6.667330015433527,0.5080173428646019,-40.170584368779984,25.234355772544426,93.41479749655124,-3.586259111762047,-0.7428014185279608,-38.943105936050415,-9.764083267883095,-7.469763815024514,0
GUIDED_NOGPS,0.3773186206817627,42.81256315773357,-36.35316937080422,32.75646225569576,95.52921787974849,-8.433489049714668,-34.40054084251594,35.38364672081178,100.91575115924634,1.738910240511417,-0.6863154437711583,34.50946247959772,1.202838380679994,-1.2355716457702548,-7.809590104313722,0.5107730665589957,-39.4015723662485,26.48702252740133,90.33799934768992,-1.056254468858242,-0.3076003398746252,-41.51949882507324,-10.016032417625157,-5.30644824449013,0
GUIDED_NOGPS,0.4133145809173584,27.786048360384232,-36.593243507111445,32.36159789970212,94.45085476096001,-8.682288661284128,-34.22809183348657,35.43185324759472,100.79513903834105,1.6401796426154711,-0.6040722288405356,34.83622214458572,0.7053816688618074,-0.8783277127644354,-6.590677946767806,0.5126885685547621,-39.4015723662485,26.48702252740133,90.33799934768992,-2.783241868019104,1.214484591037035,-39.59721624851227,-10.016032417625157,-6.757591089324685,0
GUIDED_NOGPS,0.44407176971435547,32.51877408300447,-36.55427856640246,32.2013521744532,93.27184448050822,-8.937054378205666,-34.03218222855863,35.4866179671495,100.65651949899197,1.5760537712625717,-0.43829958898121224,35.09891805025358,0.5015963129943245,-0.5414941862611619,-7.019474754992251,0.5147693500369674,-33.7502459434275,30.439750834042535,92.47540857306606,-6.321285665035248,1.0429001413285732,-40.717580914497375,-9.204089444845227,-5.9617429967635,0
GUIDED_NOGPS,0.47889137268066406,28.745238601084207,-36.59212196561079,32.05061311382358,91.85684230209293,-9.138291339260684,-33.812130600417845,35.548131366184414,100.49896261037095,1.3453028737862724,-0.7314585118732998,35.24237592848594,0.45916643803902174,-0.6907310388329683,-6.6897676099745,0.5172842406165561,-36.04661619167507,30.164365670186655,88.23654042336761,-2.2485755383968353,1.058442611247301,-48.01388084888458,-9.88011944080436,-3.4502523434287813,0
GUIDED_NOGPS,0.5160021781921387,26.948926682900815,-36.654765016682084,31.807101057521265,90.39595112756797,-9.55173624753879,-33.56739354189218,35.61654534915248,100.32159857612754,1.395500922204458,-0.763201335793258,35.57278632958531,0.5548751315287298,-0.7482196527506245,-7.876584696868432,0.5198512948971191,-36.84299397836564,28.073891844614014,86.69178738161482,-0.5887798964977264,2.4160142987966537,-44.90761756896973,-10.6465331591186,-13.495586365920603,0
GUIDED_NOGPS,0.5460033416748047,33.33786920166598,-36.66905294714271,31.575156213327897,88.81415308507297,-9.872284626890844,-33.297561140701276,35.691974503243465,100.1236167404307,1.2632247039736408,-0.7286610157996506,35.76948211730333,0.6638714163675832,-0.8730103918571375,-8.073932378421608,0.5226189273107155,-36.887560821102014,27.93576055927666,85.98184390563601,2.494267001748085,2.5366954505443573,-51.350533962249756,-10.711348229909596,-7.958653387888394,0
GUIDED_NOGPS,0.5777952671051025,31.458066451661292,-36.5921878510469,31.52261091322967,87.67998268631064,-10.095504472174321,-33.0023524542059,35.77449736337583,99.90426459401046,1.352680545306944,-0.8210401780977193,35.978841075742565,0.3906117848611388,-0.7076708660701589,-7.451997847058039,0.5244485638153996,-35.808191009659865,30.429119372236496,88.6134189703861,3.619348257780075,2.8214097023010254,-47.74799942970276,-10.6647297708739,-5.657588696607308,0
GUIDED_NOGPS,0.6129894256591797,28.420352213360797,-36.5382696787838,31.396332733565607,86.141107600897,-10.333838754387154,-32.68161098415732,35.86415767718872,99.66284678019966,1.21561529725089,-0.8048702922070959,36.25392694456483,0.48643339659819146,-0.7881314469347179,-7.5564272098754195,0.5270434783586053,-35.715172388570466,28.63014794625806,83.24189868120573,2.285473980009556,4.366898909211159,-52.91775465011597,-11.136013757074878,-4.863542493326538,0
GUIDED_NOGPS,0.6461830139160156,30.129113360294806,-36.454172367383705,31.37885050041609,84.73364672115268,-10.581722379165576,-32.33530015144681,35.96096567003395,99.39872410097557,1.1531954790866128,-0.8452514377972691,36.53600692709719,0.3514131698752927,-0.8023920043035007,-7.841567563219468,0.5293301547596457,-34.26563262686071,30.861969921001787,85.09815552624684,-0.5804686807096004,3.1595200300216675,-50.22537112236023,-11.385978109559865,-4.382120451659597,0
GUIDED_NOGPS,0.6802165508270264,29.3873112629182,-36.32237982597874,31.362933449606572,83.45678923842677,-10.810101916757528,-31.963498770855047,36.06489930996793,99.11131252300167,1.0251061668170134,-1.1684865650909788,36.787969190484375,0.3646007469543601,-0.7832232279360095,-7.826718828610803,0.5313090465691498,-33.30158533898734,30.695730877518805,85.2863917370979,-0.5804686807096004,3.1595200300216675,-50.22537112236023,-11.545969007278266,-4.382120451659597,0
GUIDED_NOGPS,0.7214765548706055,24.23934765396996,-36.04443186086841,31.39353752960547,82.15723810670157,-11.109712882822924,-31.566396525801547,36.17590557274371,98.80008218366928,0.9372513645138435,-1.077799902324898,37.08956985366463,0.32734369261304563,-0.5767250744107509,-8.120193715171563,0.5332856881539354,-33.30158533898734,30.695730877518805,85.2863917370979,9.797964990139008,5.949625372886658,-52.83384323120117,-11.545969007278266,-9.324181519024132,0
GUIDED_NOGPS,0.7509791851043701,33.90350246134198,-35.99104292002359,31.48738249292503,81.17100305099626,-11.375585263270102,-31.144289443094124,36.2939017068029,98.46455639713925,0.5066216510837325,-1.2791164197381448,37.2852069620613,0.1700173977629396,-1.0688532540683842,-8.632593075162783,0.5345871066922859,-31.515292966144358,32.97730322406713,84.76200454279675,-10.957260429859161,2.1710067987442017,-35.982149839401245,-11.036125701452699,-6.77418759523417,0
GUIDED_NOGPS,0.7847168445587158,29.643819351190896,-35.882702150441894,31.38792848982672,80.11926092275885,-11.63621886383986,-30.697575367678283,36.418776498267675,98.10431066038366,0.20138211124166253,-1.3292688979879617,37.60875643813939,0.48473104480761664,-1.0330399143587918,-8.519867636524493,0.5359700994752497,-33.99386737015497,28.680844756325683,80.779001576927,1.4768004417419434,3.4391194581985474,-39.28157091140747,-11.862273438681221,-9.606693511021492,0
GUIDED_NOGPS,0.8307421207427979,21.73045618216201,-35.78108761924088,31.292621747766102,78.95963217974695,-11.916959678514798,-30.2267494373867,36.55039153593274,97.71897165922756,0.13169377118130177,-1.4826560570045249,37.83970562454503,0.4268042543543452,-0.9543094941687277,-8.370623478129747,0.5375186789589612,-33.99386737015497,28.680844756325683,80.779001576927,1.4768004417419434,3.4391194581985474,-39.28157091140747,-11.862273438681221,-9.606693511021492,0
GUIDED_NOGPS,0.8526139259338379,45.730434592991564,-35.70986737392474,31.157231639158535,77.54542436637698,-12.2502578142894,-29.732399557688623,36.6885824762573,97.30821627439056,-0.06361880984830529,-1.418284725728328,38.122376418440595,0.6834121834041189,-1.6289314523751677,-10.0,0.5395255838160271,-34.00766590632348,27.662059792687124,78.35387902948997,-0.3541070967912674,3.5336248576641083,-25.787845253944397,-13.017354599280196,-4.995196950899472,0
GUIDED_NOGPS,0.8853702545166016,30.534674800891075,-35.559817964830245,31.03667825238466,76.89516762179827,-12.520238080048129,-29.215201876439323,36.833160308357066,96.87177058752862,-0.04697225145880906,-1.492967294773717,38.38123034270032,0.5601135383850276,-1.219344818459985,-9.163298865866034,0.5399532059314607,-34.00766590632348,27.662059792687124,78.35387902948997,5.117529630661011,3.2275117933750153,-35.86055934429169,-13.017354599280196,-12.461438522746375,0
GUIDED_NOGPS,0.9193520545959473,29.432059954528867,-35.38770373196492,30.90885011434717,75.86947686555395,-12.795232789510015,-28.67591625862953,36.98391261899617,96.40940888727567,-0.10188707910741736,-1.672721972194291,38.51016723875724,0.5757398256440189,-1.2351571965896138,-9.294986320466318,0.5410798640434434,-33.69259432525721,28.12086002625466,77.85348772757669,6.177611276507378,1.2611567974090576,-35.3708416223526,-13.00933064591872,-8.732050221760923,0
GUIDED_NOGPS,0.9529087543487549,29.807085243222115,-35.15294364791958,30.78535293149857,74.92339693439415,-13.026954119285497,-28.115381761134866,37.140604857579206,95.92095267528535,-0.21989351137777058,-1.7607890439702603,38.684323402214225,0.6037180477894919,-1.2155852179442561,-9.196686804065576,0.5419951114817824,-33.746515644073746,28.064845169864313,77.34619068116568,10.807113349437714,1.3536271639168262,-28.428062796592712,-13.184355312147703,-5.671296032497878,0
GUIDED_NOGPS,0.9920651912689209,25.540917920581663,-34.925665413354736,30.84021764648797,74.03057112854171,-13.354762785984436,-27.534512107465265,37.30298160114316,95.40626967227267,0.05846145673599031,-1.8336138015614056,38.882436454185026,0.33284184919708165,-1.150412999624594,-9.685805864677107,0.5427513970874619,-31.791462651234166,32.31406527292132,74.34557167505241,4.320482909679413,-0.42062895372509956,-21.831293404102325,-13.470523469006576,-11.856270955678552,0
GUIDED_NOGPS,1.0196352005004883,36.27568909300053,-34.6766244933542,30.877361408101283,72.95462980653069,-13.597259433048903,-26.93429116251444,37.470767819349405,94.86527282405571,0.03771783872133102,-1.8648922259786558,39.066055844737065,0.3835104266346235,-1.384972956540573,-9.91671375534328,0.5438212860350501,-31.41574439480724,32.506114166705316,73.63330365573202,4.4779859483242035,-1.88277717679739,-22.5491926074028,-13.688999149292417,-4.138105113371721,0
GUIDED_NOGPS,1.0739736557006836,18.406484370542984,-34.4254748375958,30.900281676365346,72.3314811435799,-13.744925692888772,-26.31576840730927,37.64367013947569,94.29791930759733,0.17489091572086396,-1.9755491879390903,39.19554940121134,0.35851524809648944,-1.1062497898983206,-8.794591447185523,0.5439328763280349,-31.164019732427214,32.26877063584432,73.56353398242314,5.568843707442284,-2.3710008710622787,-21.57316356897354,-13.760809245975363,-4.2593900631241075,0
GUIDED_NOGPS,1.0899581909179688,62.57260073697245,-34.14934731094295,30.909225519999538,71.17696592853967,-13.969854653367955,-25.680054413759294,37.82137811140805,93.70420953704678,0.14162589343091847,-1.8825604312575979,39.3080528621252,0.5419258823554194,-1.9690076900842828,-10.0,0.5450544872170142,-31.164019732427214,32.26877063584432,73.56353398242314,4.328529536724091,-2.232642099261284,-8.842727541923523,-13.760809245975363,1.3624408856308923,0
GUIDED_NOGPS,1.1209135055541992,32.310354124779494,-33.953973525883704,30.901692262832793,71.19464286449666,-14.082585559091715,-25.028316319406095,38.00356547263289,93.08418616978155,0.29889123919430005,-1.7944403187938553,39.415976681200576,0.42628663102801473,-1.6028734821847976,-9.177689884346314,0.5437790866105697,-30.59204886456038,31.944731465689667,71.84123040178655,3.0707282945513725,-3.7620309740304947,-4.334251582622528,-14.32341725240072,-6.5162958738737675,0
GUIDED_NOGPS,1.1543328762054443,29.92596820685522,-33.76391480854747,30.884193836823695,70.82438566274548,-14.242610151947398,-24.361773302172757,38.189891413228864,92.43793311244889,-0.034332559512877336,-1.9540174434674482,39.414518435812774,0.4305484510004689,-1.619201922583414,-9.501155675104545,0.5432270948994068,-30.59204886456038,31.944731465689667,71.84123040178655,1.0113442316651344,-3.6739975214004517,-1.9667230546474457,-14.32341725240072,-3.933996862856938,0
GUIDED_NOGPS,1.1910834312438965,27.21541705868994,-33.50456280395688,30.874737784212485,70.30126701613774,-14.32472091068117,-23.681692055113317,38.380001840858874,91.76557452700759,-0.009815648847969457,-1.9002397355939413,39.52603151929699,0.43619259555745993,-1.5138780078152918,-9.042192058778202,0.5429286150217397,-30.082010119382858,32.10173213139998,70.45336905656768,4.345477744936943,-3.374490886926651,-4.692753404378891,-14.617284557636527,2.2777201719150395,0
GUIDED_NOGPS,1.2261803150177002,28.497397779619792,-33.247385342363,30.861953341878774,69.75836732258637,-14.411127308003415,-22.98938226116215,38.57353064576209,91.06727383676967,-0.1557905851916142,-1.9292255643275944,39.50589270652921,0.44891011873438574,-1.602364527454163,-9.138810165230584,0.5426178130283666,-30.082010119382858,32.10173213139998,70.45336905656768,4.345477744936943,-3.374490886926651,-4.692753404378891,-14.617284557636527,2.2777201719150395,0
GUIDED_NOGPS,1.25547194480896,34.144448062520354,-32.9250873971501,30.825142354178855,69.42471547019491,-14.524985676094547,-22.28619206788345,38.770100965745875,90.34323273244206,-0.30829371495833663,-1.9205157924753589,39.525389481515006,0.5493690523468053,-1.6988568632265677,-9.498969947248803,0.5418370345244943,-29.634781852050665,32.11523878528618,70.33495769615877,8.139324188232422,-4.983986914157867,3.2493937760591507,-14.578914860013693,-0.8597195393675016,0
GUIDED_NOGPS,1.2894501686096191,29.43453851336178,-32.60188668498474,30.803065580959842,69.28016054551117,-14.509592771429162,-21.573503562220665,38.96932645117778,89.59369017816823,-0.39853380074657485,-2.168427113354492,39.46452225072644,0.5027131574885351,-1.628920129394323,-8.615846360184914,0.5406270592653142,-29.790137106568366,32.25414497458198,69.95697326918287,10.419204831123352,-4.794356971979141,5.5731311440467834,-14.594873493702448,4.6830696855477605,0
GUIDED_NOGPS,1.3236141204833984,29.276543468397726,-32.280672652470045,30.722767865149855,68.99881319336275,-14.612695100283638,-20.85272824524588,39.1708125299775,88.81892141757004,-0.4221078251409036,-2.020580838580396,39.465215514927195,0.5934408125811987,-1.7046075306938637,-9.371962652505704,0.5396402164484145,-29.323146919513558,31.97828305894805,69.74496082253206,8.315475285053253,-7.348012179136276,2.5401711463928223,-14.670777164026742,-1.2994247065747084,0
GUIDED_NOGPS,1.3564646244049072,30.445573589617027,-31.970796525373743,30.642453171760806,68.76583265741995,-14.705893299753889,-20.12530250690933,39.3741576726089,88.01923697978924,-0.5195014135068196,-2.3631319009294605,39.31359897573125,0.6070540545631883,-1.7965131983955387,-9.391290144064461,0.5385068086447385,-29.323146919513558,31.97828305894805,69.74496082253206,8.315475285053253,-7.348012179136276,2.5401711463928223,-14.670777164026742,-1.2994247065747084,0
GUIDED_NOGPS,1.390627145767212,29.275930424100288,-31.535829688613656,30.55922843490431,68.50213965651157,-14.692548246771217,-19.392683100788762,39.578954657071925,87.19498168552927,-0.46137981204289025,-2.404393287148919,39.20293625079871,0.661219402266579,-1.6274393541852643,-8.737505545024728,0.5373856840580354,-29.323146919513558,31.97828305894805,69.74496082253206,17.534758150577545,-7.5984373688697815,-2.3055028170347214,-14.670777164026742,4.468648276273081,0
GUIDED_NOGPS,1.4241995811462402,29.793746181931837,-31.05870580865722,30.458345560099893,68.31870864405904,-14.619915566593619,-18.656342618838902,39.78479183389463,86.34653365309694,-0.28080828668626484,-2.412135093129717,39.08447686492859,0.7271999612961701,-1.6156193227844309,-8.337560312201708,0.5360556500180758,-29.323146919513558,31.97828305894805,69.74496082253206,20.60358077287674,-8.585192263126373,2.5306040421128273,-14.670777164026742,8.002776409926676,0
GUIDED_NOGPS,1.4578537940979004,29.715435461816945,-30.54674516363134,30.33053909654877,68.10707286217982,-14.594635679190777,-17.917764966140908,39.99125439112511,85.47430330444413,-0.019265642451505225,-2.4553578108580267,38.981880593405826,0.7944791906435912,-1.5977876987417083,-8.606978096075169,0.5347344608845286,-28.547716139219226,31.65428886996503,69.86880050267021,21.425674855709076,-9.521869570016861,-2.1903781220316887,-14.549156256628331,4.170214259546775,0
GUIDED_NOGPS,1.491894245147705,29.382164623467602,-30.096011094350505,30.166525424989498,67.89013471432193,-14.51317912019414,-17.178440835651784,40.19792561932351,84.57873237120943,0.13786904926357343,-2.634131182193941,38.7399723684769,0.8418706892646185,-1.7234499389815592,-8.229116074960151,0.533377195313775,-28.070608020782963,31.3134765077519,70.04746972157504,16.271793842315674,-10.832595825195312,-4.007077217102051,-14.440989517922787,7.029433045178016,0
GUIDED_NOGPS,1.5251798629760742,30.047955755192103,-29.604647056428263,29.999180600100384,67.87455868144683,-14.36404979819934,-16.4398631829538,40.404388176553994,83.66029290075986,0.41232040418411336,-2.4189672032904337,38.44444715856338,0.8956764407022162,-1.6994698601261022,-7.723320172484076,0.531571468438626,-28.070608020782963,31.3134765077519,70.04746972157504,19.902001321315765,-11.212170124053955,7.023195922374725,-14.440989517922787,10.855404063008855,0
GUIDED_NOGPS,1.558582067489624,29.943487014006884,-29.15847775400755,29.85097372134242,67.93720737230673,-14.304178941488743,-15.70352270100394,40.6102253533767,82.71948626223258,0.36778508951597083,-2.6749206450304337,38.12302187131716,0.8707305925679315,-1.7818262588526097,-8.223446247337904,0.5295645577798517,-28.070608020782963,31.3134765077519,70.04746972157504,17.941629886627197,-10.202190279960632,10.107779502868652,-14.440989517922787,5.09662099120593,0
GUIDED_NOGPS,1.5951240062713623,27.36974537671456,-28.69601881146213,29.69982354218018,68.0221350294838,-14.232079503608754,-14.970903294883364,40.81502233783972,81.75684215257658,0.6433924005926825,-2.6100822995697373,37.68818470799747,0.8658814842784508,-1.7341905773233424,-8.144187202475136,0.5274694142461855,-27.402552332620445,31.20990314110714,70.17309074990102,17.941629886627197,-10.202190279960632,10.107779502868652,-14.23076820966168,5.09662099120593,0
GUIDED_NOGPS,1.6253182888031006,33.124083901945916,-28.37597636150541,29.50224279065013,68.28896708658867,-14.134794312203267,-14.243477556546821,41.01836748047112,80.77291760259429,0.7062976424357066,-2.448843517937127,37.42266110401322,0.9849705005552788,-2.1100088750109562,-7.836110144056446,0.5249679010320112,-27.402552332620445,31.20990314110714,70.17309074990102,8.951075375080109,-13.305768370628357,20.797356963157654,-14.23076820966168,6.547822319535253,0
GUIDED_NOGPS,1.659627914428711,29.151403947734224,-27.89861209707631,29.35693834244898,68.55752806979821,-13.93813555969617,-13.522702239572034,41.21985355927085,79.7682959829834,0.9858507217794229,-2.297121537695872,37.02420152821302,0.938213568380809,-1.7871088602188219,-7.204551617694501,0.5224215358263704,-27.188232779829626,31.058937886585703,70.22687200374787,21.69708162546158,-10.570231080055237,18.29867660999298,-14.103434874233741,12.217378788228894,0
GUIDED_NOGPS,1.692762851715088,30.18462092044187,-27.39968582953788,29.198847814426433,68.80642375585893,-13.740492753544503,-12.810013733909244,41.41907904470275,78.74358601037848,1.2871094486143522,-2.2040202963364863,36.565257212217766,0.9953913716592111,-1.7729773176536274,-7.065871843504806,0.5198743245090391,-27.188232779829626,31.058937886585703,70.22687200374787,21.69708162546158,-10.570231080055237,18.29867660999298,-14.103434874233741,12.217378788228894,0
GUIDED_NOGPS,1.725970983505249,30.11570081781824,-26.82424710333765,29.008456760555042,68.94458654950694,-13.52363429403543,-12.106823540630572,41.61564936468653,77.69942075339264,1.3253111235290567,-2.3092449100292334,36.10594406600733,1.1033079917104012,-1.6738280429642147,-6.810361442576555,0.5175096684077715,-25.434610984465902,30.62228220930573,70.99627130748901,23.12413901090622,-11.814901977777481,8.257734030485153,-13.532437895814766,11.715248893658945,0
GUIDED_NOGPS,1.7608108520507812,28.708053277846982,-26.26585406000456,28.83914540790897,69.17235895810148,-13.24017733724017,-11.414513746679368,41.80917816958976,76.63645663865927,1.6002134310173761,-2.1326166449795267,35.539369629071025,1.0761812557327652,-1.6719098725897226,-6.311062918264887,0.5149281953611156,-25.434610984465902,30.62228220930573,70.99627130748901,22.969815135002136,-10.690774768590927,13.40266615152359,-13.532437895814766,15.894519557158333,0
GUIDED_NOGPS,1.7944788932800293,29.70912104491461,-25.50679973468105,28.664552424293444,69.26678672243666,-12.968386211587324,-10.734432499619942,41.99928859721976,75.55537245687374,1.7138033188960964,-2.1148784302615917,34.90154607380772,1.1985869147397963,-1.3683773638999615,-6.1663482537613685,0.5125771714688742,-24.673324236229405,30.500578639758633,71.26526483462652,34.01078283786774,-10.569538921117783,4.094365239143372,-13.248896462921344,14.268835496952333,0
GUIDED_NOGPS,1.8287088871002197,29.216790426169215,-24.620573849963726,28.361515159888338,69.3879476088449,-12.573956736225009,-10.067889482386605,42.18561453781573,74.45686836883505,1.6939838174720119,-2.10032948699923,34.0896653928304,1.4579446000533633,-1.1895024597301034,-5.2416345594889115,0.5101378415199803,-19.428745022093622,26.878800136793707,70.68525733567601,29.813072085380554,-9.292827546596527,6.896458566188812,-12.24218772801326,19.1925651903582,0
GUIDED_NOGPS,1.8607354164123535,31.22783349340719,-23.70297484499893,28.048829399196418,69.49757888397194,-12.1334970502471,-9.416151388033398,42.36780189904057,73.34166491148753,1.7840104064878342,-2.0215949082287312,33.60372133904609,1.581210923882158,-1.085003419099722,-4.5330025829573435,0.5076881720550311,-17.971664196424562,26.393642919151983,71.26727525132597,29.381707310676575,-9.181372076272964,4.274237900972366,-11.277652395673112,19.596027879725437,0
GUIDED_NOGPS,1.8990554809570312,26.100211574362167,-22.773738832544847,27.737155468145254,69.82137444715312,-11.699031591270787,-8.780437394483442,42.54550987097294,72.21050200396257,1.9302264004844127,-1.8166057767544277,32.586163171592176,1.4952501627287156,-1.059358416418175,-4.738132501484493,0.504778255113619,-16.660182665861004,26.259393175426865,71.77655042066849,28.886505961418152,-9.747646749019623,16.05091691017151,-10.406751878581579,17.530643561510697,0
GUIDED_NOGPS,1.93326735496521,29.23674891955946,-21.850288380857567,27.41939014384896,70.17458190579173,-11.153225885893105,-8.161914639278251,42.71841219109922,71.06413795362025,1.998026913610779,-1.6578159381043844,31.707636919788452,1.6237147986529392,-0.984886589598172,-3.5211066259035326,0.5017791120956571,-16.660182665861004,26.259393175426865,71.77655042066849,23.49265366792679,-8.266447484493256,18.08546930551529,-10.406751878581579,22.639698485213813,0
GUIDED_NOGPS,1.9680955410003662,28.72043769130164,-21.013381124071024,27.124674864802824,70.57006226955897,-10.511964231504173,-7.561693694327431,42.886198409305464,69.90334846209109,2.218741915318802,-1.2324617453953148,30.940838902427803,1.6038606402162294,-1.046237836220347,-2.621772307074881,0.49866657238506423,-15.899791879109156,26.16224016627553,72.04686273143216,21.726450324058533,-8.836354315280914,19.417817890644073,-9.970044003162215,29.017010254761576,0
GUIDED_NOGPS,2.001833438873291,29.642143351849494,-19.83413060249406,26.82245854831233,70.89264235146793,-9.735254214372215,-6.980824040657808,43.04857515286942,68.7289256313177,2.256633456956506,-1.1176091262937886,29.811391991085323,1.772749467759853,-0.4492099819664865,-1.244668674377631,0.49567256655969955,-11.707521353012229,25.2890072527412,73.64472098446609,34.55730080604553,-7.636532932519913,10.333941876888275,-7.521636919574068,30.63672814472757,0
GUIDED_NOGPS,2.034266948699951,30.835935891780622,-18.748804849797544,26.55714944083209,71.26054522314573,-9.026650602970099,-6.420289543163136,43.20526739145246,67.54167696959645,2.362256142611818,-0.8872448815575356,28.713842063166805,1.7650276488995778,-0.46051603937202645,-1.0498474653887913,0.49256226349290144,-11.707521353012229,25.2890072527412,73.64472098446609,32.41429924964905,-6.7393869161605835,13.651438057422638,-7.521636919574068,28.35101899936114,0
GUIDED_NOGPS,2.0679025650024414,29.734816421730223,-17.647811438261026,26.313886134724402,71.51189719650887,-8.254489021598141,-5.881003925353397,43.35601970209156,66.34242439761925,2.462174126206288,-0.5972879300040089,27.937094167732738,1.7451089925192727,-0.36046325247946365,-0.3604163895206103,0.4896610544022208,-10.538210757312488,25.66872664506101,73.8410029756548,32.70195722579956,-7.204748690128326,6.318642199039459,-6.558419560568549,30.882758388820598,0
GUIDED_NOGPS,2.102984666824341,28.514252693837317,-16.53060509569861,26.102487600389797,71.62811298828291,-7.478296681709946,-5.363806244104069,43.50059753419132,65.13200325451518,2.3822312442829316,-0.3448127354184114,26.458759486038716,1.7127418162772508,-0.25328010813576396,-0.01031415764034982,0.4870077805324646,-10.538210757312488,25.66872664506101,73.8410029756548,34.422698616981506,-5.336746945977211,-1.8100660294294357,-6.558419560568549,31.510223962207576,0
GUIDED_NOGPS,2.1352086067199707,31.035354357509657,-15.248861230071956,25.869858091787968,71.86245649684307,-6.612534327239495,-4.869456364405977,43.63878847451589,63.91126130389215,2.4485875992866633,-0.2157567912986965,25.658643805906742,1.8446768326433503,0.16722846575450648,1.3493219036084656,0.48409760961409815,-6.705310627778395,24.879567985433127,74.93357357248078,36.3971084356308,-4.972841218113899,2.8007708489894867,-3.8151571937092434,29.798482933554,0
GUIDED_NOGPS,2.173302173614502,26.253123356951505,-14.047165584913573,25.650038194819007,72.05324010711001,-5.594308634649137,-4.398630434114409,43.770403512180955,62.68105773987862,2.6994937446734353,0.29814442737766794,24.371173637926848,1.7388251929294725,0.016413781301558378,1.980515663167668,0.4812556352655372,-7.286689255724245,24.808474054969523,74.84997848657855,37.34080493450165,-5.278930813074112,1.1213546618819237,-3.3943057222001163,40.78932281761504,0
GUIDED_NOGPS,2.2025794982910156,34.16308145927851,-12.913534987090612,25.47166507508112,72.30550445008159,-4.57475254248979,-3.9519163586985826,43.895278303645725,61.442262193165334,2.5860361917098844,0.44761780795853434,23.04502240112988,1.8390040766042577,0.3121140025849969,4.229507433273664,0.4782735154861675,-7.183423527118322,24.787873364622634,74.86273385095895,33.536070585250854,-2.828810177743435,4.9117207527160645,-2.2985495855124296,36.39463225656168,0
GUIDED_NOGPS,2.239164352416992,27.341020944285464,-11.991341588168563,25.36663945633955,72.50532485681862,-3.699025834408703,-3.529809275991113,44.01327443770492,60.19575373704694,2.277902025701691,0.7035915535030592,21.725482787449483,1.6381930798729478,-0.03827389459604351,2.994931204935065,0.47538085776045663,-7.183423527118322,24.787873364622634,74.86273385095895,29.428094625473022,-0.5581723991781473,3.282652050256729,-2.2985495855124296,35.729481114429156,0
GUIDED_NOGPS,2.269366502761841,33.116237939583435,-10.907668260484858,25.369128986673225,72.57344481306527,-2.6302825689392915,-3.132707030937638,44.12428070048069,58.942419893463814,2.2149983313234007,0.8377698193351664,20.5988618668761,1.493945397456486,0.3452947420382997,4.869344523118862,0.4727379501607971,-4.896663515107552,27.560386728073716,74.16104954917863,29.281800985336304,-0.4136055242270231,-3.1900975853204727,0.7553781391738401,36.63812508537805,0
GUIDED_NOGPS,2.303873062133789,28.985404688191068,-9.747875840608701,25.29995655590462,72.70035120884015,-1.5327150014938615,-2.7609056503459044,44.228214340414674,57.68315563904346,1.931917299190814,1.1305796555276428,19.220357230090983,1.591210193875764,0.5419985823688342,5.450366485974454,0.4699656088604066,-2.516608477312027,25.51081908531252,75.69346913299371,30.15580177307129,0.4404926672577858,-3.4741871058940887,2.784695964375243,34.24925276278775,0
GUIDED_NOGPS,2.3386037349700928,28.79556220736245,-8.602093923136986,25.23106673395723,72.82687568444464,-0.4188515194173574,-2.4145948176353613,44.3250223332599,56.418862411142584,1.746947879060641,1.4804832030748145,17.961773639658364,1.5923765632659375,0.7025927846466794,6.487644694542613,0.4671839734533959,-2.2059973351404154,25.451941901138504,75.82924364277756,30.15580177307129,0.4404926672577858,-3.4741871058940887,3.501334515190461,34.24925276278775,0
GUIDED_NOGPS,2.374142646789551,28.142702818763127,-7.686614743957345,25.2378737158885,73.13768642179532,0.6157741873611724,-2.093853347586787,44.414682647072794,55.15044711388848,1.4459809293693182,1.4275233036327108,16.808226405829497,1.4497117738031287,0.3663114758345525,5.923287001978513,0.4640255213841863,-2.2059973351404154,25.451941901138504,75.82924364277756,18.987230956554413,4.452749341726303,8.797456324100494,3.501334515190461,33.03042599596648,0
GUIDED_NOGPS,2.4110867977142334,27.076621154901392,-6.665329477648404,25.245520435605005,73.34493868093747,1.8292951238260011,-1.79864466109143,44.497205507205166,53.87882112422086,1.2394872352869077,1.6354613692811675,15.312288619097059,1.4298663549463444,0.647601524020666,7.722517810083099,0.46106776488656676,-2.1652675642714785,25.895008972874777,75.82101321686625,23.15007895231247,3.693632036447525,2.068508230149746,4.131721735000793,38.82265180837991,0
GUIDED_NOGPS,2.4416613578796387,32.71126639734211,-5.699328123364404,25.332631163149156,73.57245052750159,3.014079348850774,-1.5288122599005192,44.57263466129615,52.60489929793356,1.1458942203072808,1.7889480996492246,14.34693187992226,1.2842187953254525,0.8637785665216086,9.492011914155158,0.45806489754086394,-0.30415433465651975,26.554168584177255,75.90189100306472,18.863117694854736,6.017985939979553,3.812967613339424,6.063599704931216,35.871422690665774,0
GUIDED_NOGPS,2.474571704864502,30.389543392890783,-4.720370840412852,25.68020453027457,73.59036308844108,4.104312316829505,-1.2840752013748329,44.64104864426421,51.329598975716095,0.8783123815053341,1.930031526649656,13.207387387665563,0.8417571493007224,0.9007031890855375,9.073595932255408,0.45547847177455003,1.1051962524553198,32.60359943020227,73.51558052261512,27.4656742811203,4.215467348694801,-0.9921792894601822,8.243346299298006,33.53945950424002,0
GUIDED_NOGPS,2.5080926418304443,29.836770407255912,-3.8476994776024065,26.09697913332345,73.54232872141363,5.231463137340352,-1.0640235732340955,44.70256204329911,50.05383898919558,0.758577457807718,2.0393512656366486,12.344296509612425,0.7010685908883997,0.8176776112291329,9.861112547220399,0.4530230205355639,1.7147908635349962,33.091780211031036,73.49982112294737,16.4365753531456,8.263906091451645,-5.22623211145401,9.473178224659577,32.067615209804806,0
GUIDED_NOGPS,2.5416221618652344,29.82828290011734,-2.9858639878431674,26.503379166976643,73.4597768086613,6.213053604306914,-0.868113968306119,44.7573267628539,48.77853866697812,0.507504719838221,1.8771829379466822,11.307237298304477,0.6602311376080361,0.8997562116121636,9.579335970825706,0.4506375237166336,1.7147908635349962,33.091780211031036,73.49982112294737,17.314910888671875,8.041416108608246,-7.209548354148865,9.473178224659577,24.807556131546253,0
GUIDED_NOGPS,2.575308084487915,29.69019388542426,-2.0836373952535516,26.99341296821581,73.39806990209782,7.342370686338748,-0.695664959276769,44.80553328963684,47.50461684069076,0.1919481392342072,2.0526598892344188,10.430517631536226,0.4596100303339934,1.0426796566144265,10.0,0.4482130938771859,3.9297162104951933,35.13461897148798,73.52015157506159,16.409096121788025,8.005884289741516,-5.718737468123436,12.221252732641759,28.45767923344006,0
GUIDED_NOGPS,2.6090540885925293,29.637116490722292,-1.2620288243373963,27.550626232549547,73.34795325698938,8.391789301880653,-0.545852573438907,44.847411957603434,46.232990851023175,-0.09087331902949246,2.0220339613263163,9.713338377174779,0.30821065906124345,0.990706400549147,10.0,0.44577007518806755,4.440551673307626,35.81891815428317,73.42596893863372,12.445951253175735,10.992161929607391,-4.531701281666756,13.156145752029733,23.787588614862617,0
GUIDED_NOGPS,2.6483635902404785,25.44145674234658,-0.47970080712739577,28.07431364229608,73.3387474962182,9.388384139094068,-0.41770576744212917,44.88323421294836,44.96457555376908,-0.4055086511887744,2.0551904743219085,8.839618017225808,0.41301563542306463,0.9074269747981489,10.0,0.44325165611510176,4.241845252002053,35.00968098043404,73.24165626283046,12.411095947027206,11.769747734069824,-1.3415266759693623,13.676316264114199,21.382805366600774,0
GUIDED_NOGPS,2.676462173461914,35.59985740718736,0.4432589523358859,28.61573347939837,73.29452516938348,10.434519189292024,-0.31010190204204946,44.91331387909754,43.70028232586819,-0.613598581824558,2.130406225009381,8.456304385910109,-0.04881368383043122,1.5304217473286832,10.0,0.44081151431296944,4.907613204820143,35.45478403188068,73.09438296498976,14.012601971626282,11.339136958122253,-3.2403655350208282,14.546636738818293,17.094276435816923,0
GUIDED_NOGPS,2.710803747177124,29.122864026773872,1.0125138978109502,29.169015938167682,73.22170581721006,11.166969918152539,-0.22176221684989628,44.938008421699905,42.441018071447886,-0.8496627795057453,2.171821717371988,8.114110200945177,0.17275457299047678,0.8487892419399002,10.0,0.43843862450847565,4.244899424482645,36.65735717813715,72.68309689969288,14.012601971626282,11.339136958122253,-3.2403655350208282,14.872462511307951,17.094276435816923,0
GUIDED_NOGPS,2.745349168777466,28.950193263390393,1.691408744956878,29.53450799316206,73.2182632019738,11.963137419071227,-0.151247305081597,44.95772021361965,41.18768422786472,-1.2191430899572016,2.1685865555829293,7.550141481177223,0.35443614486665564,1.124625185498856,10.0,0.43593884205178185,5.087547465770896,32.73118583540614,75.35171037042392,12.213324755430222,10.472927987575531,-6.71345442533493,15.79537434639801,12.71343493707941,0
GUIDED_NOGPS,2.7766242027282715,31.979992985345472,2.2812472799812546,29.92457567575455,73.25723092052077,12.664389952106948,-0.09695258830774378,44.97289779992799,39.9411757717463,-1.4312898327948556,2.2337717465874154,7.302777642648749,0.21425918533934835,1.1198973943781927,10.0,0.43336788970245105,5.087547465770896,32.73118583540614,75.35171037042392,6.919218599796295,12.281668931245804,-3.816622495651245,15.79537434639801,8.40028402811131,0
GUIDED_NOGPS,2.810119867324829,29.857160144932696,2.7692703750541106,30.518679983620405,73.12355220425134,13.254490158790782,-0.057103791202479215,44.98403716289525,38.70238022503308,-1.5252239303461599,2.4768167711263263,7.132065175193921,-0.06628544841916414,0.90374267701712,10.0,0.4311576560415635,5.30204691480958,38.001867001794466,71.98669040182722,6.167410314083099,11.836187541484833,-4.829195514321327,16.85659722827467,5.300669477565476,0
GUIDED_NOGPS,2.8442792892456055,29.284924314360723,3.3578352466986456,31.125049584622545,72.83110034079978,13.874002112369142,-0.029752416293291617,44.99168298698278,37.47217666101953,-1.6910927264623923,2.372321707014301,7.0446323505154105,-0.17315647912237792,1.0847454305904578,10.0,0.4292821526404395,5.963667403393984,39.446069770579165,71.50783913679578,9.94264930486679,8.965054154396057,-13.502727448940277,17.61587360404578,4.299197686267411,0
GUIDED_NOGPS,2.88767409324646,23.046259512623973,3.9321745348838726,31.6969541496731,72.54233642668673,14.397253507742265,-0.012771218710469157,44.99642992383497,36.25143471039648,-1.6741408372726554,2.4123510978622185,7.0731868101142945,-0.08216784565071247,1.0620910065779061,10.0,0.42741819656741953,6.123973321773805,39.62030084244227,71.15057543028021,10.385982692241669,7.383497804403305,-12.334799766540527,17.888557027768496,-0.003748066307044497,0
GUIDED_NOGPS,2.9154720306396484,35.98222466242301,4.364018766624495,32.35407659310347,72.22018296611428,14.88163954407889,-0.003849680936269806,44.99892385727118,35.04101356729238,-1.6440854436036605,2.3868811090038293,7.238709614460384,-0.3513210004589057,0.9276083968850952,10.0,0.4256416612023562,5.4074145809906415,40.663060373700674,70.67662844799383,2.83217653632164,10.229580849409103,-12.963858246803284,17.9091584219851,-2.3826478858223026,0
GUIDED_NOGPS,2.951305627822876,27.912528449549466,4.661573539649234,32.92379082126822,71.91900699381708,15.15248175964836,-0.0004894875545176092,44.99986316827774,33.8417609953152,-1.637186312211713,2.36537156264699,7.469659654639671,-0.154819326497853,0.7697230423688329,10.0,0.42384550800299625,6.425357588549244,40.10977333798294,70.82398438256621,1.4512650668621063,10.467098653316498,-13.260991871356964,18.013148239843684,-6.3809898264158145,0
GUIDED_NOGPS,2.978891372680664,36.29201097161052,4.9209369449334055,33.39868460275699,71.80126829193836,15.39956136027663,2.842170943040401e-14,45.0,32.654512333593985,-1.6116102419777771,2.311511679060031,7.7828357809158035,-0.27463464449722325,0.8187758121030344,10.0,0.42170648808331124,6.8230829014697765,38.56187393306446,72.18270676507649,-1.4362326823174953,9.150387346744537,-5.749328434467316,18.114280933730683,-8.405731103974395,0
GUIDED_NOGPS,3.0126194953918457,29.650525244242107,5.071366897011241,33.96090921384459,71.51643120766752,15.522843963328977,0.0,45.0,31.480089502820576,-1.607157385525752,2.1169281273428306,8.246060064199714,-0.22455163410250514,0.5895485911302285,10.0,0.41992731659030613,6.405147427380827,40.692059142684386,70.30727935238485,-5.062970519065857,11.635739356279373,-12.050342559814453,18.10639197605512,-10.463953968844377,0
GUIDED_NOGPS,3.048750638961792,27.680607160534564,5.293956154963382,34.504217492738505,71.21543455986948,15.619921415715416,0.0,45.0,30.31930001129139,-1.6132855593151343,2.068306358519037,8.804617566597724,-0.2151602336955377,0.7001063659014708,9.910426647109961,0.4182077309028438,6.782781293817343,39.958988676300244,70.82509842668145,-6.746396422386169,10.700900852680206,-13.669046759605408,17.79947293453995,-15.800636899469215,0
GUIDED_NOGPS,3.0859506130218506,26.88570238133393,5.473660335953929,35.10537298226492,70.83281943793746,15.697871192238187,0.0,45.0,29.17293596094912,-1.6992840442679418,1.6832579658758589,9.412035680997068,-0.32983610117849926,0.6234474492866993,9.855167375631211,0.4166802330460233,6.451792698561338,41.673668073813644,69.14034981099982,-6.746396422386169,10.700900852680206,-13.669046759605408,17.504744253340938,-15.800636899469215,0
GUIDED_NOGPS,3.1148040294647217,34.669113331845494,5.57693050608714,35.649854515556044,70.47144120255946,15.719414162066856,0.0,45.0,28.041773053424137,-1.620239759107265,1.6646270240890624,9.925437949018477,-0.4154658163014342,0.5262259713533675,9.575964615053701,0.41514066370172936,6.104899689458152,41.77488831449713,68.93519845554405,-7.234049588441849,9.324902296066284,-13.477231562137604,17.338213204897194,-16.403670886195055,0
GUIDED_NOGPS,3.1566407680511475,23.90339034245365,5.623210011313719,36.203733585624796,70.03818467492711,15.510230271253242,0.0,45.0,26.926569596076618,-1.6348343792597013,1.36143610077096,10.694102315569834,-0.17316276778202588,0.47563518035143115,8.316028383906376,0.413776769842299,5.694664264317056,43.284008547148204,69.4526737878571,-6.918556243181229,8.176358789205551,-20.91469168663025,16.188951033908268,-22.105680144956366,0
GUIDED_NOGPS,3.18524169921875,34.97030990753633,5.698557543481114,36.87568616679113,69.62095648958207,15.319265122382044,0.0,45.0,25.82806550803788,-1.521813958403031,1.1810161202365441,11.612065225867562,-0.7375570609058331,0.4069627690393598,7.8586486155923225,0.4124142180369116,5.694664264317056,43.284008547148204,69.4526737878571,-14.404922723770142,9.391195327043533,-15.417774021625519,16.188951033908268,-26.086365619658572,0
GUIDED_NOGPS,3.2197062969207764,29.0233124589143,5.597557366467391,37.38560424849363,69.23378164255838,14.998742014406107,0.0,45.0,24.746981326252424,-1.4442238632053324,0.9513687251980252,12.381659351919687,-0.28931122461164516,0.23178375872206794,7.107283327511748,0.41102639936738805,5.8704157330189854,43.14556544665361,67.93838312031615,-14.404922723770142,9.391195327043533,-15.417774021625519,16.029421585658596,-26.086365619658572,0
GUIDED_NOGPS,3.2543118000030518,28.900323847584925,5.4756506689494175,37.88970935474361,68.7499103923628,14.666160131496303,0.0,45.0,23.684017211518963,-1.2829020520856245,0.7691520313859258,13.466657953464662,-0.2818367358192305,0.1990717260268113,6.899698773292084,0.40986821363831233,4.959181889944208,42.4748560607694,67.4544101955442,-15.962670743465424,8.939831703901291,-18.61949861049652,15.242415944418758,-25.792238890977604,0
GUIDED_NOGPS,3.2876598834991455,29.98908916710162,5.269921063517053,38.39683212181815,68.35664307848653,14.224101335520041,0.0,45.0,22.63985195453317,-1.1367012125712668,0.6990536398515262,14.334673397909379,-0.3124036664731366,0.03963240083697708,5.900848392379926,0.4085664177520933,2.9982575497935597,42.97296531574028,68.10890619832696,-15.329064428806305,8.520928025245667,-15.055496990680695,13.501029892024196,-26.904876706772683,0
GUIDED_NOGPS,3.3207969665527344,30.183534830166955,5.076036841849577,38.83675383052927,67.912786582213,13.754486088776957,0.0,45.0,21.61514198192829,-1.0445453120816928,0.3820517805469672,15.393152936228132,-0.2531165822721617,0.054706685820182885,5.416231117030434,0.4074047107994306,2.9982575497935597,42.97296531574028,68.10890619832696,-13.129524886608124,6.149451807141304,-19.500471651554108,13.501029892024196,-28.007887370932625,0
GUIDED_NOGPS,3.355281114578247,29.004446472902792,4.886958332266281,39.283355667534934,67.50501559936569,13.219648286106269,0.0,45.0,20.61052036231736,-0.908789112468754,0.2675722338484264,16.293086708437965,-0.2690523918976792,0.05602873610697694,4.821575823710346,0.40621100952590333,3.6898858471569898,44.159926173640905,66.52038485855897,-14.305543899536133,4.756220802664757,-13.725891709327698,12.20507830694762,-28.11955071857858,0
GUIDED_NOGPS,3.391528367996216,27.592471498398123,4.661361539206976,39.72347437181834,66.91355336670793,12.61182228286018,0.0,45.0,19.626595812335054,-0.5813333551547996,-0.021044860039547267,17.592803405599692,-0.2540582224270726,0.0011894998348692398,4.158521777450573,0.40542608489125426,3.179367125658678,43.91419255690687,65.01878990888856,-15.067717432975769,5.7117074728012085,-21.225400269031525,11.444363135192546,-30.270892967497932,0
GUIDED_NOGPS,3.421865701675415,32.96709031887885,4.405845386873815,40.14829820692264,66.33764339208602,11.987183808399633,0.0,45.0,18.663951702679086,-0.4830910624236567,-0.0593148768665915,18.25924033084347,-0.32639523168787565,-0.13081962480720993,3.1572820590658113,0.4046526166211861,2.7137955032654784,44.24239075088846,64.78765082977411,-15.067717432975769,5.7117074728012085,-21.225400269031525,10.946830257073604,-30.270892967497932,0
GUIDED_NOGPS,3.456606388092041,28.790225486494833,4.13027294472244,40.48673789620361,65.85965365473197,11.362451759710002,0.0,45.0,17.723145064151836,-0.16947852441215777,-0.15362987085593652,19.238819231417526,-0.15513793458620226,-0.09906270460530384,3.217616501601673,0.40372698281883973,2.360785888260646,43.831589922704424,64.25125517829358,-14.933283627033234,3.6933422088623047,-15.851761400699615,9.979347458758308,-28.697702326158065,0
GUIDED_NOGPS,3.490072727203369,29.88609335698966,3.887375095947904,40.81174664500166,65.26737012377416,10.699683663170012,0.0,45.0,16.804705593702252,0.13167129292202157,-0.3811145772072209,20.58936961147707,-0.18385929454122063,-0.09157210666208793,2.416049805008247,0.40307467093985616,2.360785888260646,43.831589922704424,64.25125517829358,-13.01221251487732,2.1743519231677055,-21.911677718162537,9.979347458758308,-30.31326746110869,0
GUIDED_NOGPS,3.524474620819092,29.071592444983537,3.4836650724444005,41.13957047288812,64.70572815572446,9.864705342972416,0.0,45.0,15.909134660467558,0.3121533854892021,-0.675295787318989,21.511619319252627,-0.14601433289285914,-0.3309880971152315,1.1223390472981274,0.4024068130094862,0.40646371939822745,44.21351284510159,63.79570175424645,-18.0691197514534,3.423655778169632,-21.108154952526093,6.873883937194828,-33.43927428949428,0
GUIDED_NOGPS,3.559720039367676,28.37843287167031,3.1150940503702387,41.45812437907614,64.05238135678714,9.0680141885889,0.0,45.0,15.036904311814752,0.48800655747024446,-0.6933807942198604,22.62158653108223,-0.15793856137923323,-0.3018044889105659,0.9244478930590088,0.4019690459100552,0.40646371939822745,44.21351284510159,63.79570175424645,-15.767525136470795,2.6344221085309982,-26.299086213111877,6.873883937194828,-30.838396310161365,0
GUIDED_NOGPS,3.5929648876190186,30.08481092557526,2.7469523651826115,41.758616637257006,63.414448573149464,8.283131800607059,0.0,45.0,14.188456279382436,0.7503683708381561,-1.056477759283411,23.784955576937577,-0.17609490774231196,-0.3653793935542392,0.22866925032039287,0.40154801541246593,0.40646371939822745,44.21351284510159,63.79570175424645,-15.767525136470795,2.6344221085309982,-26.299086213111877,6.873883937194828,-30.838396310161365,0
GUIDED_NOGPS,3.626389741897583,29.9212715262024,2.258913334466089,41.981799389696825,62.86820005811215,7.483712805566576,0.0,45.0,13.364200985122423,0.9436881774763458,-1.2829347089275935,24.728201286221754,-0.04922746746376268,-0.5581452169130965,-0.27767864884055893,0.4009920018540205,-1.5422613608432956,42.71517011634265,63.05736055128192,-18.72974783182144,4.175269603729248,-21.53266817331314,5.232268424203853,-29.802389801759247,0
GUIDED_NOGPS,3.659780979156494,29.952895808041134,1.8419860811133009,42.19700613148246,62.32374614045648,6.700823817534181,0.0,45.0,12.564516547341569,0.9891383906477262,-1.521965396503535,25.621603690037762,-0.0701393628903429,-0.49002525340584757,-0.6803072642480057,0.4004815408137702,-1.5422613608432956,42.71517011634265,63.05736055128192,-14.38792496919632,4.180282726883888,-21.82282954454422,5.232268424203853,-29.51760164922098,0
GUIDED_NOGPS,3.693631887435913,29.54484235439971,1.436150908461603,42.38705656581416,61.67977619643268,5.901096582967974,0.0,45.0,11.789747786743376,1.2056769451216984,-1.5688168656718258,26.545977586645193,-0.0472498251722093,-0.491394764776917,-1.1794522872590405,0.4002199431806214,-1.926808304708016,42.45665280210514,62.50520577408936,-12.956155836582184,3.8597282022237778,-27.651864290237427,4.181158773746025,-29.000604140375206,0
GUIDED_NOGPS,3.729612350463867,27.79728144530085,1.036688707810237,42.57078472588221,61.23629949540559,5.074972835404389,0.0,45.0,11.04020523246966,1.4899549679063298,-1.8713309599318622,27.57562348138274,-0.04337181059166578,-0.4784355841956927,-1.5516230999843645,0.39960781147412816,-1.926808304708016,42.45665280210514,62.50520577408936,-13.159075379371643,4.235481470823288,-16.138198971748352,4.181158773746025,-31.647664443781157,0
GUIDED_NOGPS,3.7629525661468506,29.999170326290642,0.5598443132576695,42.755905697365144,60.75762805595261,4.273449221580537,0.0,45.0,10.316164128141978,1.4690509605080941,-1.9514091649781495,28.855121111053933,-0.07007585845130482,-0.6768729899143023,-2.240300201105993,0.39911707214437875,-1.926808304708016,42.45665280210514,62.50520577408936,-18.12949627637863,4.110344499349594,-17.909924685955048,4.181158773746025,-29.706490530717684,0
GUIDED_NOGPS,3.795952081680298,30.306540651463916,0.19755691582861445,42.925774223191404,60.24195038321496,3.618098045945996,0.0,45.0,9.617863437904035,1.5757284835033498,-2.0268217104910833,29.667384282624774,-0.07789627875192978,-0.5380708984725018,-1.793491921848163,0.39875182610937815,-1.926808304708016,42.45665280210514,62.50520577408936,-11.892396211624146,4.747707024216652,-23.274943232536316,4.181158773746025,-24.504225722958697,0
GUIDED_NOGPS,3.8291914463043213,30.088911526073016,-0.08740866052292125,43.093177322735855,59.772192143214276,3.049715795711346,0.0,45.0,8.945504852462776,1.5600164870913817,-1.981988775665943,30.39093012706632,-0.09503929971456071,-0.4414201372452409,-1.590816559417652,0.39834662541849697,-1.926808304708016,42.45665280210514,62.50520577408936,-7.468742877244949,5.461416393518448,-22.09201455116272,4.181158773746025,-21.28469140672083,0
GUIDED_NOGPS,3.8630270957946777,29.559417593414803,-0.3640217700166897,43.31316246291717,59.241935833690654,2.407709120629236,0.0,45.0,8.29925179513016,1.3470138361733606,-1.7206764101918333,31.197462769923522,-0.18909555295406594,-0.4471150843391161,-2.3585356218107325,0.398114631922879,-1.895827362029225,43.790130135559565,60.90365971432617,-7.468742877244949,5.461416393518448,-22.09201455116272,2.230486942852543,-21.28469140672083,0
GUIDED_NOGPS,3.89707612991333,29.372288127284698,-0.5673226133007617,43.52020837333583,58.57909147200603,1.7622558379910727,0.0,45.0,7.679228427864885,1.4058563427598436,-1.3793556356670171,31.940812747863518,-0.18936569197844225,-0.34949205943809136,-2.7285812385714783,0.3982002739117177,-2.507416626001053,43.314844417477914,60.073516093092266,-1.38039356097579,6.445204466581345,-28.704237937927246,1.290592556130636,-19.906717817143686,0
GUIDED_NOGPS,3.9302754402160645,30.127165637121102,-0.88018075779007,43.7125125616651,58.09070646307313,1.1470768468847226,0.0,45.0,7.085518657314438,1.449407549898549,-1.1812459987907975,32.45644421887529,-0.18912639739930415,-0.5463527954150698,-3.0245007775093073,0.3979896243884826,-2.507416626001053,43.314844417477914,60.073516093092266,-9.389028698205948,6.0798559337854385,-19.04251128435135,1.290592556130636,-19.459895379377915,0
GUIDED_NOGPS,3.9649457931518555,28.846260711682095,-1.2167687353632,43.84402306564155,57.34695189322312,0.31469225060491435,0.0,45.0,6.51816514085597,1.408556615359526,-0.8377456468688069,33.00651350368227,-0.10520654276052552,-0.5824802424782723,-4.604388803670365,0.3983424264952657,-4.792194791577131,42.16994509108859,54.98031393984584,-5.355915427207947,6.363251805305481,-22.55314439535141,-4.636235775645019,-18.35028162983786,0
GUIDED_NOGPS,3.9993107318878174,29.105080182361963,-1.485354932038766,43.98055487614086,56.43066263806371,-0.48580978357594584,0.0,45.0,5.977168292638979,1.5896289856813834,-0.7987637295631344,33.42290574114834,-0.13370886875048235,-0.5125691511992184,-4.998847029861124,0.39909301130915054,-5.411883456143849,42.35891710438207,53.79575100215246,0.2708202227950096,6.391385197639465,-30.15802800655365,-5.723710680176424,-13.837290484812588,0
GUIDED_NOGPS,4.031450510025024,31.119170215607426,-1.7407771368989275,44.10973324680383,55.50375178143127,-1.2913962388651876,0.0,45.0,5.4624852896264,1.473153769765156,-0.6917975243537398,33.71520368667904,-0.150130589656797,-0.5322906080448637,-5.774171177903665,0.39991746701639025,-5.5797746352857125,42.48594866369049,52.43238415217328,0.2708202227950096,6.391385197639465,-30.15802800655365,-7.070456746134255,-13.837290484812588,0
GUIDED_NOGPS,4.065335273742676,29.5138657265697,-2.0577384659497735,44.2204032195112,54.68128202101435,-2.0515658637766587,0.0,45.0,4.97402907763599,1.558392609616211,-0.8382912082287617,33.966390723595424,-0.12982924820972974,-0.6242574138414904,-5.681097583830514,0.4005854941132433,-6.054906524950651,42.578012021278965,51.65040822269832,-3.5606466233730316,5.684169754385948,-24.548934400081635,-7.560366056707708,-13.354425138796659,0
GUIDED_NOGPS,4.099425315856934,29.33900391717963,-2.3871125513436042,44.342679941446825,53.89024221181167,-2.7242431081804783,0.0,45.0,4.511667377382949,1.5226192803948577,-1.1010854045876468,34.114131130437386,-0.16559780394001508,-0.6678545217848598,-5.588430302409224,0.40124285033114254,-6.054906524950651,42.578012021278965,51.65040822269832,-4.685618728399277,6.307448446750641,-22.875313460826874,-7.560366056707708,-8.56883346003336,0
GUIDED_NOGPS,4.13220477104187,30.51024208566108,-2.7741728384921345,44.45792698348669,53.10910112376347,-3.360809751677048,0.0,45.0,4.075221690521076,1.4260892840721253,-1.0326285529707246,34.24414378128858,-0.18478150035673943,-0.8016165763962878,-5.892106787099819,0.4019322411335152,-6.648160090061408,42.72099889420936,50.41130772207525,-7.806099951267242,5.9258051216602325,-20.577211678028107,-8.149302182001794,-6.761047165044712,0
GUIDED_NOGPS,4.166368722915649,29.27388712851938,-3.1884944435940192,44.57038712199446,52.445567572591216,-3.9377525587516367,0.0,45.0,3.66446630568403,1.5441894446805813,-1.2562965442777205,34.29572536990052,-0.19360976401539426,-0.8509108194986932,-5.744299578801305,0.40243779746618563,-6.4446696599503195,42.709404088471764,49.77470392070601,-11.23606264591217,6.505434215068817,-14.839600026607513,-8.47297816059029,-5.651411217389855,0
GUIDED_NOGPS,4.201119422912598,28.781532845212688,-3.487285226827965,44.68933515596694,51.602479637375495,-4.388331019461298,0.0,45.0,3.279127304528018,1.2398599074834966,-1.5851691923184825,34.251059347823215,-0.20351348615131276,-0.6960161439101105,-5.230177294122395,0.40335329533430503,-6.4446696599503195,42.709404088471764,49.77470392070601,-4.0954940021038055,6.90285786986351,-26.68432891368866,-8.47297816059029,1.268406576397859,0
GUIDED_NOGPS,4.2594521045684814,17.14599199584667,-3.746819532879137,44.79728379607599,50.869496680047995,-4.863515613180517,0.0,45.0,2.9188815677725444,1.3649368928857089,-1.8767058919218391,34.160450058293826,-0.12236602912170441,-0.5137531608174474,-4.547858120637324,0.4040987697754491,-6.4446696599503195,42.709404088471764,49.77470392070601,-2.680562809109688,6.956452876329422,-23.036953806877136,-8.47297816059029,-1.7165759488122982,0
GUIDED_NOGPS,4.2673258781433105,127.09241864129447,-3.970635021066532,44.97373348887172,49.59131653292638,-5.557237551040991,0.0,45.0,2.5833557812423606,1.406157938300382,-2.0226988375533344,34.13331371672137,-1.2811464946542899,-1.6217475730467912,-10.0,0.405984078496632,-6.4446696599503195,42.709404088471764,49.77470392070601,-0.6136229261755943,7.114913314580917,-27.41960883140564,-8.47297816059029,3.380090505840295,0
GUIDED_NOGPS,4.300897121429443,29.7918415762819,-4.016450311731099,44.92161929680656,49.37357556618705,-5.503262564877375,0.0,45.0,2.2721254419100916,1.4576821106346078,-2.343255196671077,33.915707304859346,0.04530623107957966,-0.39566690209265354,-2.980655939616185,0.40579709975144607,-6.4446696599503195,42.709404088471764,49.77470392070601,-0.6136229261755943,7.114913314580917,-27.41960883140564,-8.47297816059029,3.380090505840295,0
GUIDED_NOGPS,4.334035158157349,30.18005986645176,-4.195435851479699,45.02439074078275,48.646669030691434,-5.753505840794087,0.0,45.0,1.9847138639359656,1.3933163288871118,-2.6932998303132916,33.71380691299377,-0.21644561015747546,-0.5865677252082793,-4.960263449803408,0.40667608966648905,-6.4446696599503195,42.709404088471764,49.77470392070601,0.7698086090385914,7.366111874580383,-27.823278307914734,-8.47297816059029,5.451638856337561,0
