Mode,Time,Freq,time2delay,actualDelay,North-Desired,East-Desired,Down-Desired,Roll-UAV,Pitch-UAV,Yaw-UAV,Roll-Control,Pitch-Control,Yaw-Control,Thrust-Control,North-Pos,East-Pos,Down-Pos,Yaw-Ang,North-Vel,East-Vel,Down-Vel,Yaw-Vel,North-Acc,East-Acc,Down-Acc,North-Avg,East-Avg,Down-Avg,Yaw-Avg,North-Dif,East-Dif,Down-Dif,Yaw-Dif,North-One,East-One,Down-One,Yaw-One,North-Two,East-Two,Down-Two,Yaw-Two,Landing-State,Q-Size,Kalman-Time,Kalman-Dt
STABILIZE,0.0350949764251709,28.509407286568788,0.03238061269124349,0.03256344795227051,-10.0,40.0,10.0,-0.07631935984695888,-1.145036177792798,80.06067024314059,3.999340446185041,4.000659445080078,0.001895532117688157,0.5186753437886207,0.020461107034172133,0.027709509046393452,0.6745795838001237,0.009446633776307226,0.11000110534951091,-0.011074503709096462,1.1621903628110886,-0.06874582731575189,3.5023700445890427,0.5895886104553938,17.676660418510437,0.0,0.0,0.0,0.0,0.0,0.0,0.0,0.0,0.0,0.0,0.0,0.0,0.0,0.0,0.0,0.0,False,0,3.530486583709717,0.039908935546875
STABILIZE,0.0682218074798584,30.192443078340617,0.031507047017415364,0.03167414665222168,-10.0,40.0,10.0,-0.07604166996851555,-1.1447044867312293,80.06204994135294,3.999535779634387,4.0004641664967275,0.0013404553206980852,0.5186880871411598,0.017381785084459762,0.02803193961261148,0.6806365576475292,0.006649081135861198,-0.14737871242687106,0.06281821406446397,1.5433631837368011,-0.14477885282609915,-2.898471988737583,0.7568561471998692,22.198018431663513,0.0,0.0,0.0,0.0,0.0,0.0,0.0,0.0,0.0,0.0,0.0,0.0,0.0,0.0,0.0,0.0,False,0,3.560483932495117,0.059865234375
STABILIZE,0.10163569450378418,29.923406198276354,0.031887086232503255,0.03203463554382324,-10.0,40.0,10.0,-0.07692500552726861,-1.144578128231584,80.06623001712498,3.999738389116081,4.000261593774975,0.0007625816847544235,0.5186763976583828,0.014425469320307797,0.028917001938560085,0.6989274230895582,0.0037471773496955464,-0.14737871242687106,0.06281821406446397,1.5433631837368011,-0.14477885282609915,-2.898471988737583,0.7568561471998692,22.198018431663513,0.0,0.0,0.0,0.0,0.0,0.0,0.0,0.0,0.0,0.0,0.0,0.0,0.0,0.0,0.0,0.0,False,0,3.5892107486724854,0.059865234375
STABILIZE,0.13509058952331543,29.891205039944698,0.03196147282918294,0.03211045265197754,-10.0,40.0,10.0,-0.07718412582890596,-1.1439688540132777,80.06758239458064,3.999464266315505,4.000535661941457,0.0015529414914440618,0.5186961278259831,0.015161130963894189,0.027219038483166532,0.7015052798454762,0.007673305967422064,0.04586027062032372,0.004301026638131589,1.25317657366395,0.10874446897219116,-0.49499571323394775,0.6998572498559952,19.174303114414215,0.0,0.0,0.0,0.0,0.0,0.0,0.0,0.0,0.0,0.0,0.0,0.0,0.0,0.0,0.0,0.0,False,0,3.6471245288848877,0.029931640625
STABILIZE,0.16864967346191406,29.79967317939609,0.03196719487508138,0.03212475776672363,-10.0,40.0,10.0,-0.07964833001539963,-1.1441407826812915,80.07027348911363,3.999773060429505,3.7283434108692446,0.0007181423530249855,0.5187347726061842,0.019843015414965474,0.02840459569208765,0.6946422910375194,0.00348763585719404,0.2714515430852771,0.12462143786251545,1.3034263625741005,-0.1950481113024674,3.713858127593994,0.6951604969799519,17.507660388946533,0.0,0.0,0.0,0.0,0.0,0.0,0.0,0.0,0.0,0.0,0.0,0.0,0.0,0.0,0.0,0.0,False,0,3.675367593765259,0.06984228515625
STABILIZE,0.2020573616027832,29.933015993091782,0.031861337025960286,0.032003164291381836,-10.0,40.0,10.0,-0.08205767924512163,-1.1442717302142853,80.0717624703527,4.000030464524175,1.7370219951895067,-0.00018102763311662456,0.5187224349428061,0.025954737432962224,0.030775717969500984,0.7132327018383143,-0.001004853950330386,0.2714515430852771,0.12462143786251545,1.3034263625741005,-0.1950481113024674,3.713858127593994,0.6951604969799519,17.507660388946533,0.0,0.0,0.0,0.0,0.0,0.0,0.0,0.0,0.0,0.0,0.0,0.0,0.0,0.0,0.0,0.0,False,0,3.70404314994812,0.06984228515625
STABILIZE,0.2356114387512207,29.800943557096573,0.031864436467488606,0.032029151916503906,-10.0,40.0,10.0,-0.08245372349527659,-1.1440461205282635,80.07329926291594,4.000021849259259,1.747828571417568,-0.0001237830444547275,0.5187090606161407,0.03254570178324647,0.033684142749405024,0.7323316306203456,-0.0007162329616945788,0.2603651024401188,0.1408984186127782,1.4349053613841534,0.04311358144393531,6.167861446738243,0.7918838411569595,18.27801913022995,0.0,0.0,0.0,0.0,0.0,0.0,0.0,0.0,0.0,0.0,0.0,0.0,0.0,0.0,0.0,0.0,False,0,3.7326550483703613,0.02993212890625
STABILIZE,0.26916027069091797,29.80814441048966,0.03183773358662923,0.032021284103393555,-10.0,40.0,10.0,-0.08092408128631107,-1.1450008529081843,80.07696024431107,3.9999925518342923,1.7536984442996548,6.829529570318542e-05,0.5187520978692869,0.031535145389092196,0.03433646049628702,0.7232495838754869,0.0002433431634509943,0.025359808932989836,0.10947667760774493,1.3954771682620049,0.044429633498992475,-3.3542342483997345,0.7828871719539165,17.130112648010254,0.0,0.0,0.0,0.0,0.0,0.0,0.0,0.0,0.0,0.0,0.0,0.0,0.0,0.0,0.0,0.0,False,0,3.761701822280884,0.0349208984375
STABILIZE,0.3026094436645508,29.895466111661523,0.03178146680196126,0.03195357322692871,-10.0,40.0,10.0,-0.08046101580492536,-1.1449842043220824,80.0794122822231,3.999956970892382,1.7550305015221535,0.0003015266404679709,0.5188014304806705,0.026229246622974826,0.03433010566380505,0.7110318080585347,0.0014047933333775518,-0.18869832856580615,0.06997318123467267,1.0509809479117393,0.057880236986091314,-4.695657640695572,-1.240264717489481,16.13796502351761,0.0,0.0,0.0,0.0,0.0,0.0,0.0,0.0,0.0,0.0,0.0,0.0,0.0,0.0,0.0,0.0,False,0,3.7905919551849365,0.02993212890625
STABILIZE,0.3360309600830078,29.920631183969295,0.03182199796040853,0.03195977210998535,-10.0,40.0,10.0,-0.07890181168345839,-1.1445669224524768,80.08404315048037,3.9998471742263986,1.757192862364973,0.0010206168937917355,0.5188777382132137,0.024883674874026835,0.0313189267792976,0.6853251230921452,0.004983595677792168,0.24133273400366306,-0.060061836848035455,1.1346163228154182,0.12726083166761804,4.00424562394619,-1.3475256972014904,14.634096622467041,0.0,0.0,0.0,0.0,0.0,0.0,0.0,0.0,0.0,0.0,0.0,0.0,0.0,0.0,0.0,0.0,False,0,3.8478915691375732,0.0349208984375
STABILIZE,0.36961865425109863,29.77175224656095,0.03183940251668294,0.032175540924072266,-10.0,40.0,10.0,-0.07802573320069847,-1.1437751541172843,80.0860443959072,3.9998585219795655,1.761097633634093,0.0009476506062564917,0.5189185239602777,0.027667116616321995,0.030571032795642918,0.6774721633217572,0.004603284321625824,0.18641597125679255,0.027608615346252918,1.103039737790823,-0.01212098443519421,6.450216472148895,0.6948476657271385,18.23587268590927,0.0,0.0,0.0,0.0,0.0,0.0,0.0,0.0,0.0,0.0,0.0,0.0,0.0,0.0,0.0,0.0,False,0,3.876354694366455,0.0349208984375
STABILIZE,0.4030923843383789,29.879280498664293,0.03190282185872396,0.03205990791320801,-10.0,40.0,10.0,-0.0768479524556944,-1.1442975568670846,80.08738311298451,3.9998342847515214,1.7605659452845033,0.001109326447684349,0.5189557862876009,0.023853385742488915,0.030728062150582557,0.6713334785357806,0.005393606415763728,-0.14441907405853271,0.0719456176739186,1.1611785739660263,0.04690003754958138,-1.4838328585028648,0.6055305246263742,15.768572688102722,0.0,0.0,0.0,0.0,0.0,0.0,0.0,0.0,0.0,0.0,0.0,0.0,0.0,0.0,0.0,0.0,False,0,3.9051403999328613,0.02993310546875
STABILIZE,0.4369649887084961,29.519474121306814,0.03187731107076009,0.03241229057312012,-10.0,40.0,10.0,-0.07634038402299782,-1.1442993711360827,80.09108507551466,3.9998121604433217,1.7637359057849211,0.001255298403701494,0.5189983237742157,0.020033434866968024,0.030733903634657042,0.6627171943919862,0.006102792266521173,-0.14441907405853271,0.0719456176739186,1.1611785739660263,0.04690003754958138,-1.4838328585028648,0.6055305246263742,15.768572688102722,0.0,0.0,0.0,0.0,0.0,0.0,0.0,0.0,0.0,0.0,0.0,0.0,0.0,0.0,0.0,0.0,False,0,3.9343135356903076,0.02993310546875
STABILIZE,0.4705052375793457,29.813017549595912,0.03185633023579915,0.032087087631225586,-10.0,40.0,10.0,-0.07657783981836155,-1.144410148266684,80.09260820769957,3.9997838918265147,1.7708326702372996,0.0014380659654924038,0.5190461367021325,0.01920920793828399,0.029747908506741798,0.6513375650685534,0.00699320354121501,0.005312863504514098,0.018041505245491862,0.9692310355603695,0.058166691384621945,6.401972472667694,0.6486712489277124,16.729789972305298,0.0,0.0,0.0,0.0,0.0,0.0,0.0,0.0,0.0,0.0,0.0,0.0,0.0,0.0,0.0,0.0,False,0,3.9627959728240967,0.069841796875
STABILIZE,0.503908634185791,29.93793004996431,0.031873496373494466,0.031998395919799805,-10.0,40.0,10.0,-0.08011651813866284,-1.144409614658155,80.09471873615311,3.9997462371143433,1.7814446454590298,0.0016774762258849054,0.5190363759668621,0.026698844330102632,0.029369566607355735,0.6686967674128764,0.008162963833050043,0.39010890759527683,-0.00890768424142152,1.2315222062170506,0.04107531692542864,3.396020829677582,0.4381992854177952,11.416350305080414,0.0,0.0,0.0,0.0,0.0,0.0,0.0,0.0,0.0,0.0,0.0,0.0,0.0,0.0,0.0,0.0,False,0,3.9913721084594727,0.034919921875
STABILIZE,0.5380058288574219,29.32649051537886,0.031905206044514973,0.0327153205871582,-10.0,40.0,10.0,-0.08131233485194399,-1.1442457968397806,80.09614624568964,3.9997091972253154,1.7896356854892819,0.0019136059502637048,0.519089011450309,0.03342872844352783,0.029728232396113243,0.655133732218887,0.009311838387110024,0.045839406084269285,0.15733065083622932,1.0159454308450222,0.040909284631659146,-0.3774741431698203,0.6452997215092182,19.46472078561783,0.0,0.0,0.0,0.0,0.0,0.0,0.0,0.0,0.0,0.0,0.0,0.0,0.0,0.0,0.0,0.0,False,0,4.0491297245025635,0.02993310546875
STABILIZE,0.5738749504089355,27.88265404481908,0.03194883664449056,0.03445076942443848,-10.0,40.0,10.0,-0.08402925603772812,-1.1444367219714235,80.09906273646523,3.9997948849448277,1.7939825894557824,0.001366280558829826,0.5191276612683378,0.029099806991267883,0.030384170943544023,0.6492027245296119,0.006551749929952097,-0.15868244227021933,0.10481673525646329,1.2725413776934147,-0.12609286931954586,-1.1857152916491032,0.6740069482475519,19.786472618579865,0.0,0.0,0.0,0.0,0.0,0.0,0.0,0.0,0.0,0.0,0.0,0.0,0.0,0.0,0.0,0.0,False,0,4.077806234359741,0.034921142578125
STABILIZE,0.6074111461639404,29.817044388204852,0.03186515172322591,0.03203105926513672,-10.0,40.0,10.0,-0.0832124081016769,-1.1449137679962667,80.0995954912205,3.999876988468377,1.7980678920000817,0.0008425747209409779,0.5191572186216651,0.025123795244586782,0.031202191285479065,0.646960939288798,0.003920084455907438,-0.15868244227021933,0.10481673525646329,1.2725413776934147,-0.12609286931954586,-1.1857152916491032,0.6740069482475519,19.786472618579865,0.0,0.0,0.0,0.0,0.0,0.0,0.0,0.0,0.0,0.0,0.0,0.0,0.0,0.0,0.0,0.0,False,0,4.108089208602905,0.034921142578125
STABILIZE,0.640831708908081,29.920844628334997,0.03182080586751302,0.03198075294494629,-10.0,40.0,10.0,-0.08188532369028459,-1.145742141876542,80.10144647248556,3.999887374580739,1.8003805964474837,0.0007778490688872748,0.5191783657361912,0.020368317086257286,0.031214806798131566,0.6488954617483544,0.003584469688471925,-0.202307291328907,0.06217084010131657,1.4736533164978027,-0.006278304548990431,-6.113176792860031,-1.173460204154253,22.026005387306213,0.0,0.0,0.0,0.0,0.0,0.0,0.0,0.0,0.0,0.0,0.0,0.0,0.0,0.0,0.0,0.0,False,0,4.135221719741821,0.064852783203125
STABILIZE,0.6743769645690918,29.810898597695758,0.03187158902486165,0.032119035720825195,-10.0,40.0,10.0,-0.08015365729227479,-1.1448345804905768,80.1064256803905,3.9998989758613455,1.798777516210364,0.0007067311923718234,0.5191621697601794,0.015679976567863938,0.032245301598741796,0.6695138144129281,0.003218084621681546,-0.202307291328907,0.06217084010131657,1.4736533164978027,-0.006278304548990431,-6.113176792860031,-1.173460204154253,22.026005387306213,0.0,0.0,0.0,0.0,0.0,0.0,0.0,0.0,0.0,0.0,0.0,0.0,0.0,0.0,0.0,0.0,False,0,4.16399621963501,0.064852783203125
STABILIZE,0.7081735134124756,29.587567632390183,0.031891616185506184,0.03242015838623047,-10.0,40.0,10.0,-0.07977575573210267,-1.1453503664946185,80.10720432195589,3.9998442214111196,1.7970543333875049,0.0010599144612741412,0.5191725494797127,0.009815405618910474,0.03416820700106767,0.6769423786868001,0.0049671936700874525,-0.062043359503149986,0.09996611624956131,1.2113656848669052,0.048531315508037194,-3.618703782558441,0.5173051729798317,15.573526918888092,0.0,0.0,0.0,0.0,0.0,0.0,0.0,0.0,0.0,0.0,0.0,0.0,0.0,0.0,0.0,0.0,False,0,4.221143007278442,0.03485400390625
STABILIZE,0.7423007488250732,29.302723963755003,0.03194692929585775,0.03274345397949219,-10.0,40.0,10.0,-0.08190720163996978,-1.1446803676257227,80.11104288826944,3.999818658992293,1.8028280446669553,0.0012231788940866373,0.5192099489367263,0.007722381797928916,0.03475747372630428,0.6709733352568268,0.005763851996956717,-0.062043359503149986,0.09996611624956131,1.2113656848669052,0.048531315508037194,-3.618703782558441,0.5173051729798317,15.573526918888092,0.0,0.0,0.0,0.0,0.0,0.0,0.0,0.0,0.0,0.0,0.0,0.0,0.0,0.0,0.0,0.0,False,0,4.250180006027222,0.03485400390625
STABILIZE,0.7758119106292725,29.840803665442955,0.03193238576253255,0.03212738037109375,-10.0,40.0,10.0,-0.08399809329963993,-1.1442489984909539,80.11220402042834,3.9997158009709883,1.8100530106484785,0.0018759690470397223,0.5192543834469333,0.007831672718359791,0.035350380222445875,0.6612727192146854,0.008997654010115638,0.04092892340850085,0.10018943576142192,0.9985264390707016,0.168652658491968,3.831266611814499,0.3103145631030202,7.860632985830307,0.0,0.0,0.0,0.0,0.0,0.0,0.0,0.0,0.0,0.0,0.0,0.0,0.0,0.0,0.0,0.0,False,0,4.27873158454895,0.06485302734375
STABILIZE,0.809340238571167,29.82573758950984,0.03193381627400716,0.032097816467285156,-10.0,40.0,10.0,-0.08546295543319611,-1.1445206052321677,80.11393205828836,3.9995931531426145,1.8190408462438301,0.002648610158998197,0.5192548222321758,0.01001967090091342,0.03762705907156736,0.6735470215714329,0.012817932387978848,0.15540377935394645,0.1187161891721189,1.1714507825672626,0.16300409204836747,0.7896492257714272,0.5273029208183289,15.427923202514648,0.0,0.0,0.0,0.0,0.0,0.0,0.0,0.0,0.0,0.0,0.0,0.0,0.0,0.0,0.0,0.0,False,0,4.307348966598511,0.0349208984375
STABILIZE,0.8429110050201416,29.78909090909091,0.031833680470784505,0.03209090232849121,-10.0,40.0,10.0,-0.08565953681524553,-1.1463962392112768,80.11612454901193,3.999743759904161,1.8241525257645939,0.001700349935886857,0.5192971909225624,0.007193295262841206,0.03705177491893725,0.6648918249473837,0.008049621701581026,-0.10207608575001359,0.05128892371430993,1.114130299538374,-0.20505772685069465,-4.842538014054298,-1.5421646647155285,11.983471363782883,0.0,0.0,0.0,0.0,0.0,0.0,0.0,0.0,0.0,0.0,0.0,0.0,0.0,0.0,0.0,0.0,False,0,4.33599591255188,0.02993212890625
STABILIZE,0.8763391971588135,29.91465597786162,0.031874688466389973,0.03201484680175781,-10.0,40.0,10.0,-0.08669025504968278,-1.1465911130460336,80.11934839830018,3.9998897656165844,1.8299260029123476,0.0007830774094865749,0.5193438026998058,0.0045741114784084375,0.03630747488276292,0.6540900090732334,0.0034517137839146003,-0.10207608575001359,0.05128892371430993,1.114130299538374,-0.20505772685069465,-4.842538014054298,-1.5421646647155285,11.983471363782883,0.0,0.0,0.0,0.0,0.0,0.0,0.0,0.0,0.0,0.0,0.0,0.0,0.0,0.0,0.0,0.0,False,0,4.364817142486572,0.02993212890625
STABILIZE,0.9117982387542725,28.199845362557568,0.031890185674031575,0.03405261039733887,-10.0,40.0,10.0,-0.08595046018520577,-1.147382988102932,80.1230093796953,3.9998486862433786,1.8365751063073736,0.0010402772564106297,0.5194030800502742,0.00498741691295075,0.03463369394659612,0.6377320229638909,0.00472097088222559,0.1112645142711699,0.056119082728400826,1.071419008076191,0.22830160764818852,-0.4733922891318798,0.3631201572716236,10.177955776453018,0.0,0.0,0.0,0.0,0.0,0.0,0.0,0.0,0.0,0.0,0.0,0.0,0.0,0.0,0.0,0.0,False,0,4.4224817752838135,0.06485302734375
STABILIZE,0.9453809261322021,29.77999616594364,0.03191855748494466,0.032091379165649414,-10.0,40.0,10.0,-0.08567266358505665,-1.1478148908462296,80.12447104017768,3.9996997557769363,1.8428625264265797,0.001969624010121606,0.5194064290991891,0.006516712777562271,0.03539729105276989,0.6485847221054555,0.009336436755126767,0.1112645142711699,0.056119082728400826,1.071419008076191,0.22830160764818852,-0.4733922891318798,0.3631201572716236,10.177955776453018,0.0,0.0,0.0,0.0,0.0,0.0,0.0,0.0,0.0,0.0,0.0,0.0,0.0,0.0,0.0,0.0,False,0,4.451207876205444,0.06485302734375
STABILIZE,0.9788861274719238,29.84398858696039,0.03174331982930501,0.031967878341674805,-10.0,40.0,10.0,-0.08378571710513485,-1.1472874721762576,80.12587122895754,3.9996195704680004,1.842642567017575,0.002476644336680157,0.5194067128738643,-0.00024955755788793905,0.03744347576577822,0.6609695880828858,0.011831862208325985,-0.2798263216391206,0.12105338973924518,1.2393365614116192,0.10298117669487555,-6.124786660075188,0.6236808840185404,18.493539094924927,0.0,0.0,0.0,0.0,0.0,0.0,0.0,0.0,0.0,0.0,0.0,0.0,0.0,0.0,0.0,0.0,False,0,4.4798102378845215,0.034921142578125
STABILIZE,1.012373924255371,29.862261934427398,0.03185251553853353,0.032033681869506836,-10.0,40.0,10.0,-0.08120710725004347,-1.1478807381386966,80.12979175754113,3.999558002489983,1.8499037159459164,0.0028580885529917765,0.5194455709806934,0.000922094368848611,0.03564100909365136,0.6540619361584981,0.013693218901956043,0.06687234272249043,-0.0003162669827361242,1.2048947624862194,0.10521290765564416,1.2941805645823479,-1.2739486992359161,20.18212229013443,0.0,0.0,0.0,0.0,0.0,0.0,0.0,0.0,0.0,0.0,0.0,0.0,0.0,0.0,0.0,0.0,False,0,4.508546352386475,0.0349208984375
STABILIZE,1.0458931922912598,29.8321016806902,0.031856807072957356,0.0320281982421875,-10.0,40.0,10.0,-0.08144616387099392,-1.1472710370335673,80.131232927456,3.9995469099264187,1.8578842839092848,0.0029241301623000155,0.5194917717985672,0.0035214647597891884,0.034360598105603914,0.6434917365045116,0.013976633279552852,0.13518171617761254,0.019709038315340877,0.9949729777872562,0.034553606845977164,4.069875553250313,0.4899528808891773,15.476061403751373,0.0,0.0,0.0,0.0,0.0,0.0,0.0,0.0,0.0,0.0,0.0,0.0,0.0,0.0,0.0,0.0,False,0,4.5373475551605225,0.029931884765625
STABILIZE,1.0796732902526855,29.603856550984254,0.03182843526204427,0.0324251651763916,-10.0,40.0,10.0,-0.08273589568536274,-1.1479382611381128,80.13441579560921,3.9996477298367537,1.8637261978904174,0.0023025245290375917,0.5195422459578464,0.005330727162181455,0.03227093449431189,0.6309551586967458,0.010831896323436698,0.10077583137899637,-0.016268198669422418,0.9917140007019043,-0.12460730317506809,-0.6711860653012991,-1.6656847670674324,8.966349810361862,0.0,0.0,0.0,0.0,0.0,0.0,0.0,0.0,0.0,0.0,0.0,0.0,0.0,0.0,0.0,0.0,False,0,4.566023349761963,0.034921142578125
STABILIZE,1.1132235527038574,29.807297070653952,0.03196433385213216,0.03210186958312988,-10.0,40.0,10.0,-0.08462092117458048,-1.1479843649150105,80.13580232401073,3.999646408129646,1.8662058598956168,0.002315028292324242,0.5195881604609754,0.0025379775348478607,0.030099497149980416,0.6205481978555465,0.010858093127579987,0.03818807890638709,-0.002797048364300281,0.9723671711981297,-0.07547230966817152,-0.6130122113972902,0.4759303294122219,14.906090497970581,0.0,0.0,0.0,0.0,0.0,0.0,0.0,0.0,0.0,0.0,0.0,0.0,0.0,0.0,0.0,0.0,False,0,4.625037670135498,0.02993212890625
STABILIZE,1.1466968059539795,29.87289626437805,0.03182104428609212,0.031998634338378906,-10.0,40.0,10.0,-0.08586156100428982,-1.147800590137655,80.13705224862885,3.9997074260794756,1.8746692751911498,0.001938092914252935,0.5196343101412787,0.0030689994636657362,0.028565956091457675,0.6100511265920365,0.008943466963260677,0.03818807890638709,-0.002797048364300281,0.9723671711981297,-0.07547230966817152,-0.6130122113972902,0.4759303294122219,14.906090497970581,0.0,0.0,0.0,0.0,0.0,0.0,0.0,0.0,0.0,0.0,0.0,0.0,0.0,0.0,0.0,0.0,False,0,4.653501033782959,0.02993212890625
STABILIZE,1.1802372932434082,29.82022423979581,0.031835110982259114,0.03198695182800293,-10.0,40.0,10.0,-0.08660839950134841,-1.1486969457445133,80.13931304124412,3.999765484717567,1.8794346704439928,0.001584241596579371,0.5196640093200532,0.003735659579195069,0.025443637235133446,0.6077648126124149,0.007150299352059988,0.04653660289477557,-0.09228952694684267,1.3570448383688927,-0.07425290078780607,-1.3764457777142525,0.5383348558098078,16.33376181125641,0.0,0.0,0.0,0.0,0.0,0.0,0.0,0.0,0.0,0.0,0.0,0.0,0.0,0.0,0.0,0.0,False,0,4.682111740112305,0.0349208984375
STABILIZE,1.2136754989624023,29.90228635388224,0.03173354466756185,0.03190112113952637,-10.0,40.0,10.0,-0.08588738765708893,-1.14827859665785,80.14024877716041,3.999679584326667,1.8824880286387935,0.002111512679882811,0.5196836512959504,0.002332343422156341,0.025758629453425913,0.6105179237478008,0.009753999146377826,-0.06340261898003519,0.08261403418146074,1.4432970434427261,0.15708717387557947,-2.3105563595891,0.532026682049036,18.2701513171196,0.0,0.0,0.0,0.0,0.0,0.0,0.0,0.0,0.0,0.0,0.0,0.0,0.0,0.0,0.0,0.0,False,0,4.710946798324585,0.034921142578125
STABILIZE,1.2470850944519043,29.931093540376217,0.03179791768391927,0.031970977783203125,-10.0,40.0,10.0,-0.08461120949935436,-1.1483075182401168,80.14349311701616,3.99969779905235,1.8858145848086154,0.0020034959054476974,0.5197112598681275,0.0010985283397823352,0.026086125071706944,0.6092839263061551,0.009183184051652011,-0.05567844491451979,0.08169879438355565,1.2131291441619396,-0.013212564057406624,6.519445776939392,0.5953980144113302,19.33050900697708,0.0,0.0,0.0,0.0,0.0,0.0,0.0,0.0,0.0,0.0,0.0,0.0,0.0,0.0,0.0,0.0,False,0,4.739206552505493,0.0349208984375
STABILIZE,1.2822940349578857,28.402069395162382,0.031881125768025716,0.03368973731994629,-10.0,40.0,10.0,-0.0833976769829135,-1.1491553154708445,80.1461500606033,3.9996727660232403,1.8928028276914388,0.0021552773432555678,0.5197444118405503,0.0016299898566032615,0.025395248551903504,0.6059062898516641,0.009907292802548488,0.03914158442057669,0.024779312661848962,1.0810786858201027,0.057079210542922205,6.944574415683746,0.44347262009978294,14.033333957195282,0.0,0.0,0.0,0.0,0.0,0.0,0.0,0.0,0.0,0.0,0.0,0.0,0.0,0.0,0.0,0.0,False,1,4.768130302429199,0.029932861328125
STABILIZE,1.316107988357544,29.5750498875327,0.03179601033528646,0.03210735321044922,-10.0,40.0,10.0,-0.08156868038923103,-1.148965670999671,80.14793273997667,3.999565416861645,1.8994960618908143,0.0028050205546628947,0.5197915145461429,0.0042087737389011224,0.025089326538215873,0.5950440252722609,0.01311178308842336,0.1229708082973957,0.08742794743739069,1.1113296262919903,0.16660414868970633,0.3085011150687933,0.5788041278719902,17.460539937019348,0.0,0.0,0.0,0.0,0.0,0.0,0.0,0.0,0.0,0.0,0.0,0.0,0.0,0.0,0.0,0.0,False,0,4.825549125671387,0.0399091796875
STABILIZE,1.3496217727661133,29.836345917184175,0.03160575230916341,0.03194117546081543,-10.0,40.0,10.0,-0.07909487124921703,-1.1485862753356177,80.15290511769244,3.99957961897764,1.902655202744776,0.0027235825673455763,0.5198117699594847,0.001855588942117558,0.02692977683186868,0.5975310335735479,0.012662123169935846,-0.12491020606830716,0.15588656533509493,1.1705715209245682,-0.01447927066375309,-1.0465177707374096,0.4330600146204233,13.175004720687866,0.0,0.0,0.0,0.0,0.0,0.0,0.0,0.0,0.0,0.0,0.0,0.0,0.0,0.0,0.0,0.0,False,0,4.8543806076049805,0.029931884765625
STABILIZE,1.3829445838928223,30.008184758034513,0.03174713452657064,0.03191685676574707,-10.0,40.0,10.0,-0.0790231542629319,-1.1481836143397044,80.15504979709183,3.9995656786955243,1.9097750013649362,0.002806547825610558,0.519844748934285,0.004015926832071915,0.027326205835886994,0.593637085366388,0.01303331897372856,0.13133015017956495,0.08608775096945465,1.1456668376922607,0.0452470183786259,-0.09130092803388834,0.4942130297422409,14.437121152877808,0.0,0.0,0.0,0.0,0.0,0.0,0.0,0.0,0.0,0.0,0.0,0.0,0.0,0.0,0.0,0.0,False,0,4.8829686641693115,0.02993310546875
STABILIZE,1.4164092540740967,29.882899442853276,0.03191092809041341,0.032064199447631836,-10.0,40.0,10.0,-0.08061757654730675,-1.1488067623797622,80.15781602370568,3.9996942123683645,1.915412047098464,0.0020357178014296672,0.5198716407344387,0.0044747965166625795,0.0282907425786547,0.5927808732785083,0.009148560041940453,0.03573878784663975,0.11869322042912245,1.2944133020937443,-0.20164127156393957,4.049647226929665,-1.3681027106940746,15.75898677110672,0.0,0.0,0.0,0.0,0.0,0.0,0.0,0.0,0.0,0.0,0.0,0.0,0.0,0.0,0.0,0.0,False,0,4.911582946777344,0.0349208984375
STABILIZE,1.4499590396881104,29.807085243222115,0.03191688855489095,0.03207039833068848,-10.0,40.0,10.0,-0.08114638259945384,-1.150104391600359,80.16015194840183,3.999751893423769,1.917787098426567,0.0016936543297371097,0.5199013976305888,0.000951832721038571,0.028062287519544517,0.5905004594946209,0.007413428762883896,-0.19729076884686947,0.040349518531002104,1.0164227336645126,-0.08171097377357076,-5.132812634110451,0.3962001297622919,11.31303384900093,0.0,0.0,0.0,0.0,0.0,0.0,0.0,0.0,0.0,0.0,0.0,0.0,0.0,0.0,0.0,0.0,False,0,4.940481662750244,0.034921142578125
STABILIZE,1.483353853225708,29.94434211465696,0.031827481587727864,0.03197979927062988,-10.0,40.0,10.0,-0.0826762382518309,-1.1495550949807019,80.16203025042358,3.9998455605432506,1.9210828834090505,0.001135351565417462,0.5199307696276924,0.0004820228213173671,0.028143667254241177,0.5884116119235805,0.004606500756365938,-0.01872858265414834,0.05832570604979992,1.0229434818029404,-0.14394671700569475,-0.19294340163469315,0.5399228073656559,15.495644509792328,0.0,0.0,0.0,0.0,0.0,0.0,0.0,0.0,0.0,0.0,0.0,0.0,0.0,0.0,0.0,0.0,False,0,4.97313666343689,0.029931884765625
STABILIZE,1.5171728134155273,29.57108814281081,0.031902345021565755,0.03240823745727539,-10.0,40.0,10.0,-0.08489722367084865,-1.1495268137286698,80.16428421284968,3.9999830162962473,1.9291540347019704,0.0003152763034876981,0.5199489900303609,0.0038448721263963934,0.029407673883157428,0.5920190740141559,0.0005044197661747407,0.10688351467251778,0.06811003549955785,1.3974186033010483,-0.19843425762478056,-0.058656930923461914,0.7026761304587126,18.940497934818268,0.0,0.0,0.0,0.0,0.0,0.0,0.0,0.0,0.0,0.0,0.0,0.0,0.0,0.0,0.0,0.0,False,0,5.030498743057251,0.0349208984375
STABILIZE,1.550624132156372,29.892483233912753,0.03189733823140462,0.0320284366607666,-10.0,40.0,10.0,-0.08543467418116403,-1.1504099358440112,80.16635376016819,3.9999652903041087,1.9329064575983659,0.00042086029138546535,0.5199809103237062,0.003417800949757129,0.028853929882930673,0.5886657905006644,0.0010288940924433933,-0.019268880714662373,0.01958400825969875,0.9148484095931053,0.04961354364078051,4.518074169754982,-1.529721450060606,12.955892086029053,0.0,0.0,0.0,0.0,0.0,0.0,0.0,0.0,0.0,0.0,0.0,0.0,0.0,0.0,0.0,0.0,False,0,5.059262275695801,0.029931884765625
STABILIZE,1.5841329097747803,29.841865230414584,0.03189996083577474,0.03205537796020508,-10.0,40.0,10.0,-0.08313204665722347,-1.1502471852426945,80.17152421336989,4.000025057582573,1.9375894593153538,6.639392613564779e-05,0.5200160465877447,0.0034278995307234134,0.027470299005733553,0.5836972580575449,-0.0007409591102029195,0.007876193558331579,-0.020783362560905516,0.990245770663023,-0.09269982767340891,0.8258379064500332,0.4233991727232933,13.42661827802658,0.0,0.0,0.0,0.0,0.0,0.0,0.0,0.0,0.0,0.0,0.0,0.0,0.0,0.0,0.0,0.0,False,0,5.091108560562134,0.034921142578125
STABILIZE,1.6176023483276367,29.87970621130844,0.03185752232869466,0.032037973403930664,-10.0,40.0,10.0,-0.08214102889733695,-1.1502096192022595,80.17149006242404,4.00008715732634,1.9441899995643408,-0.0003008204408700754,0.5200447463373549,0.0034580022249474673,0.026239910603106917,0.5819621484026867,-0.0025684303888654316,0.007876193558331579,-0.020783362560905516,0.990245770663023,-0.09269982767340891,0.8258379064500332,0.4233991727232933,13.42661827802658,0.0,0.0,0.0,0.0,0.0,0.0,0.0,0.0,0.0,0.0,0.0,0.0,0.0,0.0,0.0,0.0,False,0,5.119652986526489,0.034921142578125
STABILIZE,1.650991678237915,29.94968760041415,0.03188350995381673,0.032006263732910156,-10.0,40.0,10.0,-0.08304346764142487,-1.1502257341798325,80.17323859085157,4.00014238020523,1.9485092208839918,-0.00062720529092015,0.5200625449422784,0.002216193039021247,0.024933688345108052,0.5856458321681355,-0.0041863661628935385,-0.06758507806807756,-0.024713060702197254,1.3121454045176506,-0.08131024043846803,-1.0700061917304993,-1.4080798253417015,18.12247633934021,0.0,0.0,0.0,0.0,0.0,0.0,0.0,0.0,0.0,0.0,0.0,0.0,0.0,0.0,0.0,0.0,False,0,5.148578882217407,0.0349208984375
STABILIZE,1.684572458267212,29.77936185621175,0.03192594846089681,0.03209400177001953,-10.0,40.0,10.0,-0.08302745938555765,-1.149629159844514,80.17695421376006,4.000194986876141,1.9517857111381611,-0.0009384387355461331,0.5201001521952467,0.0021406476815340166,0.0241090975554589,0.5794626545937441,-0.005723364778615027,0.0022207550500752404,0.004088975765625946,0.7248746696859598,-0.07794654569500864,-0.4379755351692438,0.24482819717377424,8.096015453338623,0.0,0.0,0.0,0.0,0.0,0.0,0.0,0.0,0.0,0.0,0.0,0.0,0.0,0.0,0.0,0.0,False,0,5.177178621292114,0.02993212890625
STABILIZE,1.7182226181030273,29.722595046593206,0.03182342847188314,0.03196549415588379,-10.0,40.0,10.0,-0.08198062617354743,-1.1490635348038725,80.17954968564466,4.000238463359762,1.9571344354357045,-0.0011944811320547316,0.5201338370979818,0.0024700633129426186,0.022735195081367284,0.5752308617231128,-0.006980227313127697,0.02612522803246975,-0.024691532598808408,1.0075216181576252,-0.0715963640771744,0.1914401538670063,0.16513197915628552,6.425197422504425,0.0,0.0,0.0,0.0,0.0,0.0,0.0,0.0,0.0,0.0,0.0,0.0,0.0,0.0,0.0,0.0,False,0,5.206197738647461,0.034921875
STABILIZE,1.7518951892852783,29.691875322983698,0.03161052068074544,0.0322415828704834,-10.0,40.0,10.0,-0.08203281308767454,-1.148009017629046,80.18252081793362,4.000327709707406,1.966213495651634,-0.0017144933270210338,0.520150182161272,0.008968749845787268,0.02113326773156327,0.5798421344385641,-0.009547895405414331,0.3938367124646902,-0.043843130697496235,1.350905653089285,-0.14301284871925418,1.6601478680968285,0.6072011776268482,20.76016664505005,0.0,0.0,0.0,0.0,0.0,0.0,0.0,0.0,0.0,0.0,0.0,0.0,0.0,0.0,0.0,0.0,False,1,5.235991954803467,0.03992138671875
STABILIZE,1.785391092300415,29.85354743195536,0.03190043767293294,0.032056570053100586,-10.0,40.0,10.0,-0.08320173593109877,-1.14767497868995,80.18417372371276,4.0004220157308445,1.9708203906503303,-0.002266364457298248,0.520182345773302,0.008638731415606908,0.01885412089047619,0.5763769127314371,-0.012266195327476938,-0.0032991665648296475,-0.01594580535311252,1.063348911702633,-0.07945527044964099,-0.8419627323746681,0.19667341839522123,8.651632070541382,0.0,0.0,0.0,0.0,0.0,0.0,0.0,0.0,0.0,0.0,0.0,0.0,0.0,0.0,0.0,0.0,False,0,5.29365348815918,0.02494384765625
STABILIZE,1.8230984210968018,26.52071424958268,0.03178575833638509,0.03624558448791504,-10.0,40.0,10.0,-0.08227368397762327,-1.1486603401994302,80.18642085594969,4.000392788683075,1.976791510682445,-0.00209819890644127,0.5202212446550948,0.008043329257508506,0.018687956298875652,0.5711681572878565,-0.011382389547929559,-0.020660189329646528,0.04265201569069177,1.0827195830643177,0.03759457515115344,-0.13401401229202747,-1.6132781282067299,15.038156509399414,0.0,0.0,0.0,0.0,0.0,0.0,0.0,0.0,0.0,0.0,0.0,0.0,0.0,0.0,0.0,0.0,False,0,5.322704076766968,0.0349208984375
STABILIZE,1.8566617965698242,29.793534547056023,0.031955989201863606,0.03214120864868164,-10.0,40.0,10.0,-0.08295862388532863,-1.1496098432157678,80.18926221464442,4.000502987878594,1.9822200371319767,-0.002738478018725724,0.520243756021592,0.008940385989080826,0.01912025328894017,0.5725510830103924,-0.014535070162770435,0.060549419140443206,0.07423436036333442,1.1078337207436562,-0.18919151757387237,-0.9229544550180435,2.103685587644577,6.870096176862717,0.0,0.0,0.0,0.0,0.0,0.0,0.0,0.0,0.0,0.0,0.0,0.0,0.0,0.0,0.0,0.0,False,0,5.351157903671265,0.03492138671875
STABILIZE,1.890146255493164,29.863750284802915,0.03188613255818685,0.032041072845458984,-10.0,40.0,10.0,-0.08327142520497405,-1.1490361073254867,80.19048481850585,4.00055327889952,1.9849906264944894,-0.003035276238869457,0.5202643936689136,0.005864342774772219,0.01891820775878933,0.574846757545671,-0.01596564076690071,-0.18138752784579992,0.033455120865255594,1.1669715866446495,-0.08419885016842807,-0.9427977725863457,-1.6109200194478035,14.990104734897614,0.0,0.0,0.0,0.0,0.0,0.0,0.0,0.0,0.0,0.0,0.0,0.0,0.0,0.0,0.0,0.0,False,0,5.3838183879852295,0.0349208984375
STABILIZE,1.9239652156829834,29.57046270119359,0.03187397321065267,0.03241753578186035,-10.0,40.0,10.0,-0.08322233322031458,-1.1479759339002538,80.19491078108803,4.0007042436702545,1.9857736249638553,-0.003918370666355147,0.5202942018999456,0.0044227496192899805,0.020814742386513284,0.572702869751856,-0.020312378839836952,-0.07791812531650066,0.15955931739881635,0.9004268795251846,-0.2633937055411124,-1.3494998216629028,0.4326839931309223,14.983248710632324,0.0,0.0,0.0,0.0,0.0,0.0,0.0,0.0,0.0,0.0,0.0,0.0,0.0,0.0,0.0,0.0,False,0,5.412323713302612,0.02993212890625
STABILIZE,1.9574503898620605,29.89461380013257,0.031916173299153645,0.03207254409790039,-10.0,40.0,10.0,-0.08859374339400071,-1.1483989787419715,80.19241776204096,4.000891797178992,1.9894654741311413,-0.005007447301990605,0.5203271974327194,0.0027028589650657953,0.022322411985572426,0.5688337653663118,-0.02567182334090239,-0.08806115947663784,0.1454115379601717,0.8904764428734779,-0.25591099318152544,-0.26981416158378124,0.3442311426624656,9.719368070363998,0.0,0.0,0.0,0.0,0.0,0.0,0.0,0.0,0.0,0.0,0.0,0.0,0.0,0.0,0.0,0.0,False,0,5.4704649448394775,0.0349208984375
STABILIZE,1.9925150871276855,28.491977447184293,0.031889947255452473,0.03363680839538574,-10.0,40.0,10.0,-0.09257915877470314,-1.1503501716887736,80.20389931003577,4.001017095812438,1.9959028884551913,-0.005730057092021947,0.5203573564493903,0.004569428119750811,0.019772676613794744,0.5669822846027581,-0.029182564688665102,0.1238285331055522,-0.1141637098044157,0.9171438403427601,-0.21698054241846593,4.758937284350395,-3.631316125392914,9.18334573507309,0.0,0.0,0.0,0.0,0.0,0.0,0.0,0.0,0.0,0.0,0.0,0.0,0.0,0.0,0.0,0.0,False,0,5.49919581413269,0.02993310546875
STABILIZE,2.025998592376709,29.865238783546115,0.03188613255818685,0.03202056884765625,-10.0,40.0,10.0,-0.08644692956050107,-1.1444135633612689,80.22403470770895,4.000978667688786,1.9994917486999537,-0.005518328695574073,0.5203652373053086,0.002901010443347464,0.01963396511482571,0.5756502463153814,-0.028030172118355547,-0.09146588272415102,0.03748856543097645,1.7262039706110954,0.04190777291095039,-8.039487153291702,2.6186179369688034,19.14801299571991,0.0,0.0,0.0,0.0,0.0,0.0,0.0,0.0,0.0,0.0,0.0,0.0,0.0,0.0,0.0,0.0,False,0,5.527771234512329,0.0349208984375
STABILIZE,2.060114860534668,29.310505314502546,0.031864198048909505,0.032732486724853516,-10.0,40.0,10.0,-0.07507007555908124,-1.1303165865228915,80.23589874629727,4.001249334715065,2.0048973676113464,-0.007072926397864015,0.5203901922645843,0.0018685805064953152,0.03417556164690495,0.5760567944077902,-0.03568120593507558,-0.052541581680998206,0.9219159372150898,1.0375697165727615,-0.47557070398235535,9.21962633728981,22.197715938091278,24.804550409317017,0.0,0.0,0.0,0.0,0.0,0.0,0.0,0.0,0.0,0.0,0.0,0.0,0.0,0.0,0.0,0.0,False,0,5.5568084716796875,0.0349208984375
STABILIZE,2.0936880111694336,29.787186898564723,0.03190210660298665,0.03206038475036621,-10.0,40.0,10.0,-0.06887765530281843,-1.1168502282439767,80.24108969006647,4.001522149690822,2.0093930205400476,-0.00863970625186709,0.5204148764495196,0.0008292860929343531,0.04895996690379435,0.5763392453289943,-0.043369852579833,-0.052541581680998206,0.9219159372150898,1.0375697165727615,-0.47557070398235535,9.21962633728981,22.197715938091278,24.804550409317017,0.0,0.0,0.0,0.0,0.0,0.0,0.0,0.0,0.0,0.0,0.0,0.0,0.0,0.0,0.0,0.0,False,0,5.585596084594727,0.0349208984375
STABILIZE,2.1269640922546387,30.04903211015747,0.03182724316914876,0.03195548057556152,-10.0,40.0,10.0,-0.04046172047803819,-1.0757448691583706,80.26552810691679,4.002133756290395,2.012486616848482,-0.012143178305107213,0.520391234744656,-0.001529189992534693,0.05555392615661253,0.6007224847253787,-0.060684446861369964,-0.1314984867349267,0.42149685323238373,2.489090710878372,-1.0524160378830747,7.553949952125549,-21.609506011009216,57.08310008049011,0.0,0.0,0.0,0.0,0.0,0.0,0.0,0.0,0.0,0.0,0.0,0.0,0.0,0.0,0.0,0.0,False,1,5.614013195037842,0.02993212890625
STABILIZE,2.1606009006500244,29.73355167549251,0.03200367291768392,0.032242774963378906,-10.0,40.0,10.0,-0.10309327450658574,-1.167790739569284,80.30573060037148,4.002730039792942,2.0141043906352234,-0.015569902122709846,0.5202902756679993,-0.00366479498557502,0.08165240121359972,0.6637297040887504,-0.07755789231849931,-0.30079211574047804,1.8545223399996758,4.110775515437126,-2.446883467088745,29.179230332374573,27.854466438293457,41.87245070934296,0.0,0.0,0.0,0.0,0.0,0.0,0.0,0.0,0.0,0.0,0.0,0.0,0.0,0.0,0.0,0.0,False,0,5.671334981918335,0.03991015625
STABILIZE,2.1941657066345215,29.79120676184388,0.03190472920735677,0.03205752372741699,-10.0,40.0,10.0,-0.12753638711194576,-1.2000982813953847,80.22968327415256,4.003841637568841,2.0435861388830103,-0.021632297116311733,0.5203844421451951,0.036054926305339574,0.08762594983498029,0.6291940348757827,-0.10750997591553467,2.360803633928299,0.32631822396069765,-1.2881908565759659,-1.7297898035353343,69.0559983253479,-81.29184246063232,-59.48711037635803,0.0,0.0,0.0,0.0,0.0,0.0,0.0,0.0,0.0,0.0,0.0,0.0,0.0,0.0,0.0,0.0,False,0,5.700212717056274,0.02494287109375
STABILIZE,2.228407859802246,29.202551034617205,0.0318029244740804,0.03289914131164551,-10.0,40.0,10.0,-0.15818360600035164,-1.2283049349551274,80.1822749311235,4.004824702651777,2.071724485120631,-0.02684857742681398,0.5205016679144956,0.0742294233522951,0.0903928366849413,0.5835357751614467,-0.13313348416738066,2.360803633928299,0.32631822396069765,-1.2881908565759659,-1.7297898035353343,69.0559983253479,-81.29184246063232,-59.48711037635803,0.0,0.0,0.0,0.0,0.0,0.0,0.0,0.0,0.0,0.0,0.0,0.0,0.0,0.0,0.0,0.0,False,0,5.728823184967041,0.02494287109375
STABILIZE,2.2620203495025635,29.751478954163062,0.03199127515157064,0.03215384483337402,-10.0,40.0,10.0,-0.12291085493996617,-1.2002320036927288,80.20843455564464,4.002727284051971,2.0721489793561974,-0.015335322482255291,0.5205931176328282,0.06007604514851204,0.03950271450156282,0.5504715552925958,-0.07531493884716182,-0.7796750403940678,-2.990892343223095,-0.6469634361565113,3.3719098602053235,-96.30189538002014,-28.59644889831543,44.9126273393631,0.0,0.0,0.0,0.0,0.0,0.0,0.0,0.0,0.0,0.0,0.0,0.0,0.0,0.0,0.0,0.0,False,0,5.757604122161865,0.0349208984375
STABILIZE,2.295541763305664,29.83337482484654,0.031842978795369466,0.031982421875,-10.0,40.0,10.0,-0.26155889261446486,-1.3157196169436547,80.1924792337435,4.002006620987696,2.070411122015572,-0.011405152337006211,0.5205791521137536,0.04574697843865218,0.0628717832830194,0.5700679245536981,-0.055478565846729895,-0.9045006707310677,1.5192465856671333,2.2594012320041656,1.1668953444577774,21.49946540594101,119.07726526260376,43.67537796497345,0.0,0.0,0.0,0.0,0.0,0.0,0.0,0.0,0.0,0.0,0.0,0.0,0.0,0.0,0.0,0.0,False,0,5.786581516265869,0.034922119140625
STABILIZE,2.328883647918701,29.98994687430733,0.0317719300587972,0.03192472457885742,-10.0,40.0,10.0,-0.38717012687581903,-1.408784999809898,80.38328056820781,4.002501915112288,2.0859894445779594,-0.014083593790479496,0.520582760994535,0.06183650541898325,0.07608119989396618,0.5808692033759758,-0.06864111534492688,0.9865725412964821,0.8710782043635845,1.696399413049221,-0.8818331305790641,15.189379453659058,-60.833901166915894,74.60190653800964,0.0,0.0,0.0,0.0,0.0,0.0,0.0,0.0,0.0,0.0,0.0,0.0,0.0,0.0,0.0,0.0,False,0,5.820836305618286,0.029931884765625
STABILIZE,2.362288475036621,29.935365992919948,0.03190663655598958,0.03204631805419922,-10.0,40.0,10.0,-0.3970510093664474,-1.4445295141706904,80.34738109393021,4.000594267584021,2.0772153667505258,-0.0036437629319130017,0.520765151927208,0.06416884552344836,0.02265138124569916,0.5023795181020319,-0.01638715479786059,0.1926659606397152,-3.182995319366455,-3.624829277396202,3.1087742611096436,75.12033581733704,-70.20066976547241,-99.39735531806946,0.0,0.0,0.0,0.0,0.0,0.0,0.0,0.0,0.0,0.0,0.0,0.0,0.0,0.0,0.0,0.0,False,1,5.849560499191284,0.034921142578125
STABILIZE,2.3957791328430176,29.860773732397373,0.031964810689290364,0.03210115432739258,-10.0,40.0,10.0,-0.45991948558182977,-1.486006264792416,80.39253547453318,4.0066613033091985,2.151116642462986,-0.035868253002250064,0.5209123058123238,0.21495146109931856,0.004725648243938965,0.44159250244655046,-0.17691777919312904,0.18589780665934086,-2.7786744758486748,1.716785505414009,-1.980575566837985,-269.21796798706055,-130.6284785270691,-136.735999584198,0.0,0.0,0.0,0.0,0.0,0.0,0.0,0.0,0.0,0.0,0.0,0.0,0.0,0.0,0.0,0.0,False,0,5.906621932983398,0.029931640625
STABILIZE,2.42918062210083,29.93600696600504,0.03190639813741048,0.03205561637878418,-10.0,40.0,10.0,-0.45760623924816396,-1.4935587464671576,80.44445857260361,4.007827848219011,2.161323792815728,-0.04198731543941497,0.5209183225593802,0.21558653885079482,-0.04210708054649207,0.4513615304440151,-0.20682120280220784,0.18589780665934086,-2.7786744758486748,1.716785505414009,-1.980575566837985,-269.21796798706055,-130.6284785270691,-136.735999584198,0.0,0.0,0.0,0.0,0.0,0.0,0.0,0.0,0.0,0.0,0.0,0.0,0.0,0.0,0.0,0.0,False,0,5.935314655303955,0.029931640625
STABILIZE,2.462937593460083,29.624138320714206,0.030898841222127278,0.03127741813659668,-10.0,40.0,10.0,-0.37713166978660434,-1.4598162245851194,80.34643169763558,4.003326151754524,2.165457405507343,-0.018258678999200688,0.5209382316076253,0.19049124361928144,-0.020320747888333705,0.4542687307069137,-0.08788199456586934,-1.3775408267974854,1.4108125120401382,1.2758473865687847,7.154735426822839,-77.36926674842834,3.502844274044037,10.664698481559753,0.0,0.0,0.0,0.0,0.0,0.0,0.0,0.0,0.0,0.0,0.0,0.0,0.0,0.0,0.0,0.0,False,0,5.96401834487915,0.0349208984375
STABILIZE,2.496631383895874,29.683890190305664,0.031910212834676106,0.03207802772521973,-10.0,40.0,10.0,-0.23335901588303917,-1.2359627509534754,80.4767380466211,4.001618222635732,2.0979860648450246,-0.009544067189941961,0.5208999444385072,0.08566741709399837,-0.0652032139910785,0.48615758109423307,-0.04416103415261424,-6.357546895742416,-2.6445839554071426,2.9424121603369713,2.5375126068554095,-204.7936201095581,11.417840421199799,65.45838117599487,0.0,0.0,0.0,0.0,0.0,0.0,0.0,0.0,0.0,0.0,0.0,0.0,0.0,0.0,0.0,0.0,False,0,5.99273157119751,0.029932861328125
STABILIZE,2.530012369155884,29.956104703067528,0.03168609937032064,0.03184103965759277,-10.0,40.0,10.0,-0.2442945756310527,-1.2747430709569267,80.5319464656823,4.000013648023346,2.0360789522579608,-0.000788928616487468,0.5208645339309902,-0.020557365665184416,-0.10870809661626293,0.5165546269220905,-0.00038405631907874327,-6.357546895742416,-2.6445839554071426,2.9424121603369713,2.5375126068554095,-204.7936201095581,11.417840421199799,65.45838117599487,0.0,0.0,0.0,0.0,0.0,0.0,0.0,0.0,0.0,0.0,0.0,0.0,0.0,0.0,0.0,0.0,False,0,6.0214550495147705,0.029932861328125
STABILIZE,2.5664939880371094,27.407840139054976,0.03177383740743001,0.03501176834106445,-10.0,40.0,10.0,-0.1590277746930829,-1.2079259983493367,80.37042615218984,4.003767035241059,1.988292455943165,-0.02246068432212795,0.5209781859343466,0.02284465167466221,-0.0007871631617655944,0.4736558849417245,-0.1083468344293053,8.246909081935883,3.503594547510147,-0.6562431342899799,-8.829531535368993,46.988362073898315,-55.84704279899597,-160.1277232170105,0.0,0.0,0.0,0.0,0.0,0.0,0.0,0.0,0.0,0.0,0.0,0.0,0.0,0.0,0.0,0.0,False,0,6.079392910003662,0.0349208984375
STABILIZE,2.6013565063476562,28.685081966091957,0.0318632443745931,0.03338885307312012,-10.0,40.0,10.0,-0.25121163626957155,-1.2926574832111066,80.44490936508883,4.001402627032893,1.9514117672333011,-0.009050499032267546,0.5209748249157664,-0.051019230140836425,-0.08227735471479666,0.48859416063197897,-0.041152503763295586,-4.389834403991699,-4.983566701412201,1.8482040613889694,4.043737512251533,-183.92192125320435,-230.56395053863525,-4.8111192882061005,0.0,0.0,0.0,0.0,0.0,0.0,0.0,0.0,0.0,0.0,0.0,0.0,0.0,0.0,0.0,0.0,False,0,6.107649326324463,0.034921142578125
STABILIZE,2.636281728744507,28.63494794333504,0.0317416508992513,0.03190922737121582,-10.0,40.0,10.0,-0.331032428561514,-1.3328831352759563,80.5846755260748,3.999074369284693,1.924455523118673,0.004712877224614089,0.5209696185334759,-0.12606437855867822,-0.16526627133598698,0.5039108648962752,0.02757209264557546,-4.389834403991699,-4.983566701412201,1.8482040613889694,4.043737512251533,-183.92192125320435,-230.56395053863525,-4.8111192882061005,0.0,0.0,0.0,0.0,0.0,0.0,0.0,0.0,0.0,0.0,0.0,0.0,0.0,0.0,0.0,0.0,False,0,6.136388778686523,0.034921142578125
STABILIZE,2.6684305667877197,31.104400575471278,0.030386002858479817,0.03056645393371582,-10.0,40.0,10.0,-0.052104845135382744,-1.0477245516969222,80.46793393278094,3.9980832420360235,1.9388752660574258,0.010576444674251,0.5209180272895173,-0.19185519549184263,-0.16651592473756935,0.5423752678687583,0.056700051210834934,-3.7859056144952774,0.010409668175270781,3.2287057489156723,1.5880744773149709,-8.494267612695694,175.38796663284302,-41.931575536727905,0.0,0.0,0.0,0.0,0.0,0.0,0.0,0.0,0.0,0.0,0.0,0.0,0.0,0.0,0.0,0.0,False,0,6.1653242111206055,0.0349208984375
STABILIZE,2.7117767333984375,23.069963917979408,0.0317261536916097,0.04189133644104004,-10.0,40.0,10.0,-0.052104845135382744,-1.0477245516969222,80.46793393278094,4.0037125431557845,2.0122386107661026,-0.021958594866041275,0.5208665651149936,-0.14081071786067567,-0.11009022504081664,0.5844804494890193,-0.10551639977013874,-0.22303089499473572,-2.9097426682710648,3.149431198835373,-6.282020812229153,-104.79137897491455,-237.92967796325684,141.45408868789673,0.0,0.0,0.0,0.0,0.0,0.0,0.0,0.0,0.0,0.0,0.0,0.0,0.0,0.0,0.0,0.0,False,0,6.223121643066406,0.034921142578125
STABILIZE,2.7452147006988525,29.90441831780232,0.031856568654378255,0.03200721740722656,-10.0,40.0,10.0,-0.09255802787695842,-1.1543299308190698,80.56994963822426,3.998161110162766,1.972519273969064,0.009873409099749394,0.5209191396105113,-0.19746956619069034,-0.17422958714232592,0.5708070816800379,0.05346481399579123,-3.3592380583286285,-3.9031416177749634,0.04939717473462224,9.54994744562338,-66.50292873382568,16.21154099702835,-5.142094194889069,0.0,0.0,0.0,0.0,0.0,0.0,0.0,0.0,0.0,0.0,0.0,0.0,0.0,0.0,0.0,0.0,False,0,6.252282381057739,0.029931884765625
STABILIZE,2.779069185256958,29.53964039467846,0.031894954045613606,0.032454490661621094,-10.0,40.0,10.0,-0.0575450908092979,-1.1667512701549725,80.59137594165058,4.001995035492522,2.0170151960152194,-0.012181086157086216,0.5210810174870785,-0.17680426720149073,-0.1100895742935167,0.502733402941261,-0.05661592853858218,1.1384635232388973,3.742627054452896,-3.0298303812742233,-6.741389026839769,115.47752618789673,133.4500551223755,99.48394298553467,0.0,0.0,0.0,0.0,0.0,0.0,0.0,0.0,0.0,0.0,0.0,0.0,0.0,0.0,0.0,0.0,False,0,6.2812340259552,0.034921142578125
STABILIZE,2.8125970363616943,29.8244650970967,0.03190639813741048,0.03209233283996582,-10.0,40.0,10.0,-0.12972492913240594,-1.1625294661959642,80.41482238179492,4.003603464519287,2.054586339755926,-0.0209887117405718,0.5210550365493668,-0.17709318838247712,-0.09791151577100776,0.5284188450775753,-0.10031791057564393,-0.015488674398511648,0.6473307497799397,2.5004470720887184,-2.6835262564978266,-15.69284200668335,-65.83051681518555,-59.83167290687561,0.0,0.0,0.0,0.0,0.0,0.0,0.0,0.0,0.0,0.0,0.0,0.0,0.0,0.0,0.0,0.0,False,0,6.3098671436309814,0.034921875
STABILIZE,2.846062660217285,29.88332525862806,0.03188803990681966,0.03203105926513672,-10.0,40.0,10.0,-0.14192108566910994,-1.18254170702069,80.45473800730447,3.99875161941771,2.089932127452938,0.005946598633118268,0.5210438286673686,-0.19314021607353635,-0.15802783739730886,0.5466697670464619,0.03424410901044908,-1.0030603967607021,-3.716898337006569,2.028973773121834,8.045986747937116,-116.69280529022217,-118.89467239379883,41.78319871425629,0.0,0.0,0.0,0.0,0.0,0.0,0.0,0.0,0.0,0.0,0.0,0.0,0.0,0.0,0.0,0.0,False,0,6.338469982147217,0.02993212890625
STABILIZE,2.8812005519866943,28.45969181079816,0.031863005956014,0.03373908996582031,-10.0,40.0,10.0,-0.05078042876663496,-1.1389934880897465,80.55799680717674,3.9968708732375005,2.0977992975728617,0.016275101269663972,0.521014087350543,-0.16452430778786403,-0.1509693041051434,0.5748026988757281,0.08558555184081627,1.5361979603767395,0.24632785934954882,2.8015868738293648,3.0387635414565435,51.03018283843994,100.93939304351807,98.54117631912231,0.0,0.0,0.0,0.0,0.0,0.0,0.0,0.0,0.0,0.0,0.0,0.0,0.0,0.0,0.0,0.0,False,1,6.367248773574829,0.0349208984375
STABILIZE,2.9147679805755615,29.787821541695667,0.03191855748494466,0.03218984603881836,-10.0,40.0,10.0,-0.06755857501935972,-1.1529632526548323,80.52234321970927,3.9945765397662,2.1387447746032575,0.02838328206184052,0.5211287221280668,-0.1572647511352413,-0.14442780630043628,0.5302069668712941,0.14563733524132075,-1.639346033334732,-1.7372386530041695,-2.695469930768013,4.164819263876111,-65.16561508178711,-81.06945157051086,-37.35194206237793,0.0,0.0,0.0,0.0,0.0,0.0,0.0,0.0,0.0,0.0,0.0,0.0,0.0,0.0,0.0,0.0,False,0,6.424936056137085,0.02993212890625
STABILIZE,2.9483864307403564,29.75021279010384,0.031952651341756184,0.03208613395690918,-10.0,40.0,10.0,-0.09763413909074727,-1.1801062109730516,80.48503672646265,3.9920923540374074,2.1235373134732516,0.04222126331781842,0.5212805778366723,-0.18062097945043556,-0.16968268367770836,0.46703345188212547,0.21411108317955585,-1.639346033334732,-1.7372386530041695,-2.695469930768013,4.164819263876111,-65.16561508178711,-81.06945157051086,-37.35194206237793,0.0,0.0,0.0,0.0,0.0,0.0,0.0,0.0,0.0,0.0,0.0,0.0,0.0,0.0,0.0,0.0,False,0,6.454219102859497,0.02993212890625
STABILIZE,2.9825901985168457,29.233284777351074,0.03174618085225423,0.032717227935791016,-10.0,40.0,10.0,-0.0535599955937128,-1.1017618067588897,80.50860087909919,3.9911592304995533,2.1363300261528018,0.04716865978438523,0.5212784032321738,-0.17130190502600728,-0.17185190494193647,0.48118396238180494,0.2380314056960658,0.3270929679274559,-0.3559617791324854,1.9542666152119637,1.5255231780091711,-5.387375503778458,51.360249519348145,55.38445711135864,0.0,0.0,0.0,0.0,0.0,0.0,0.0,0.0,0.0,0.0,0.0,0.0,0.0,0.0,0.0,0.0,False,0,6.482939720153809,0.03991015625
STABILIZE,3.0160067081451416,29.925327663582074,0.03185919125874837,0.032009124755859375,-10.0,40.0,10.0,-0.05459167432350207,-1.1258056734629212,80.52925537114932,3.988791112830381,2.147863917763301,0.059857195142773406,0.5212723394055142,-0.17965307677611253,-0.14937634232602615,0.496925509190906,0.3004694453765773,-0.5741228815168142,1.2930922210216522,1.8044950440526009,3.429382060089573,49.44361746311188,18.73285174369812,-62.537312507629395,0.0,0.0,0.0,0.0,0.0,0.0,0.0,0.0,0.0,0.0,0.0,0.0,0.0,0.0,0.0,0.0,False,0,6.511726140975952,0.029931884765625
STABILIZE,3.049654483795166,29.721120732415923,0.03189209302266439,0.03221940994262695,-10.0,40.0,10.0,-0.045262276247499345,-1.142450524305125,80.52519140859316,3.989512173517283,2.1438663775664883,0.056268823058438354,0.5212850081752565,-0.17132987941522346,-0.1481367584530921,0.5033674033915768,0.2815805252116976,0.22842679172754288,-0.1771527691744268,1.4739954844117165,-0.9414241832098982,-81.52926564216614,-49.37051236629486,-36.68249249458313,0.0,0.0,0.0,0.0,0.0,0.0,0.0,0.0,0.0,0.0,0.0,0.0,0.0,0.0,0.0,0.0,False,0,6.540548801422119,0.029932861328125
STABILIZE,3.0830209255218506,29.967020090880514,0.03188756306966146,0.03202319145202637,-10.0,40.0,10.0,-0.06398745330050086,-1.1452353204957861,80.52526654067402,3.9905673552852554,2.163022234389993,0.05029512009429423,0.5212711698282494,-0.14078575903392898,-0.17504892629088675,0.5229621114558464,0.2508731535231353,1.5813138335943222,-1.8904080614447594,2.266470715403557,-1.6456354696584303,23.351871967315674,-44.0653532743454,99.59177374839783,0.0,0.0,0.0,0.0,0.0,0.0,0.0,0.0,0.0,0.0,0.0,0.0,0.0,0.0,0.0,0.0,False,1,6.569050073623657,0.034921142578125
STABILIZE,3.117027997970581,29.407091124525866,0.03199127515157064,0.032624244689941406,-10.0,40.0,10.0,-0.046471539895708944,-1.149292346141068,80.50651767140235,3.9882351629764967,2.1980337958067797,0.061965223571606526,0.5212372168915893,-0.11768015497998033,-0.1718764107923814,0.5527687648299432,0.3081773399267825,-0.07589365122839808,0.12399208499118686,0.9109806269407272,-0.49073244327931426,-37.51901388168335,-34.153854846954346,76.51383876800537,0.0,0.0,0.0,0.0,0.0,0.0,0.0,0.0,0.0,0.0,0.0,0.0,0.0,0.0,0.0,0.0,False,0,6.626467227935791,0.029931884765625
STABILIZE,3.150677442550659,29.718172542795603,0.031920464833577473,0.032103776931762695,-10.0,40.0,10.0,-0.054318893643524685,-1.141744346777969,80.51323174735647,3.9878475151277493,2.18646766600014,0.06456182761315005,0.5212617408348407,-0.13782893826318446,-0.19277244292191775,0.553203502619435,0.3200848568101081,-1.489315927028656,-1.5564696863293648,1.1234310455620289,1.0648034397165391,-55.48330545425415,-26.063749194145203,12.669354677200317,0.0,0.0,0.0,0.0,0.0,0.0,0.0,0.0,0.0,0.0,0.0,0.0,0.0,0.0,0.0,0.0,False,0,6.658978462219238,0.0349208984375
STABILIZE,3.1841444969177246,29.879280498664293,0.03176883061726888,0.03205084800720215,-10.0,40.0,10.0,-0.04211612036106222,-1.1334185596231352,80.54811352344773,3.9873076394883444,2.1828478445310213,0.06775749062034837,0.5212801294207514,-0.15881310371721505,-0.2151540586553004,0.5566584076559673,0.3349415503457551,-1.489315927028656,-1.5564696863293648,1.1234310455620289,1.0648034397165391,-55.48330545425415,-26.063749194145203,12.669354677200317,0.0,0.0,0.0,0.0,0.0,0.0,0.0,0.0,0.0,0.0,0.0,0.0,0.0,0.0,0.0,0.0,False,0,6.687114953994751,0.0349208984375
STABILIZE,3.2178080081939697,29.708489750818092,0.03190615971883138,0.0320737361907959,-10.0,40.0,10.0,-0.04354565761000473,-1.1322984085992531,80.5399855983354,3.988466028288784,2.1821045782665434,0.06183849723798414,0.5213215867213485,-0.15818977221266442,-0.21097249893869077,0.5485886829821899,0.3043275663003661,-0.17816286999732256,0.03796926175709814,0.4447933752089739,-1.6214456076608896,21.62744849920273,31.07014298439026,29.79702651500702,0.0,0.0,0.0,0.0,0.0,0.0,0.0,0.0,0.0,0.0,0.0,0.0,0.0,0.0,0.0,0.0,False,0,6.716064453125,0.039909912109375
STABILIZE,3.2685458660125732,19.70822291138051,0.0317106564839681,0.04931831359863281,-10.0,40.0,10.0,-0.04354565761000473,-1.1322984085992531,80.5399855983354,3.989724406918658,2.177977946844563,0.055548916384249095,0.5213714600202235,-0.1473443218259692,-0.22009639234093425,0.542902618629303,0.2714980288271589,0.01643899013288319,-1.6539879143238068,1.3697131536900997,0.9497228630514636,-22.24515825510025,-55.773913860321045,4.757404327392578,0.0,0.0,0.0,0.0,0.0,0.0,0.0,0.0,0.0,0.0,0.0,0.0,0.0,0.0,0.0,0.0,False,0,6.773203372955322,0.0347451171875
STABILIZE,3.3108577728271484,23.634142493294565,0.03190782864888509,0.03204941749572754,-10.0,40.0,10.0,-0.05423927925101173,-1.1424111439956917,80.54292940986768,3.9893608245477017,2.1755358611845956,0.05773106879014835,0.5213829763764655,-0.1430193104275179,-0.2433133972564089,0.5497999413288339,0.2814664565806365,0.01643899013288319,-1.6539879143238068,1.3697131536900997,0.9497228630514636,-22.24515825510025,-55.773913860321045,4.757404327392578,0.0,0.0,0.0,0.0,0.0,0.0,0.0,0.0,0.0,0.0,0.0,0.0,0.0,0.0,0.0,0.0,False,0,6.806915283203125,0.0347451171875
STABILIZE,3.3355698585510254,40.46602990834539,0.023044617970784505,0.023229360580444336,-10.0,40.0,10.0,-0.04722243381758722,-1.1308801838511233,80.5475466177466,3.9905695394938943,2.200696185603644,0.05090080269009734,0.5214066774563361,-0.12286509193800091,-0.26217221390378526,0.5506480134715793,0.24648701559255773,0.9544841013848782,-1.3930171728134155,1.0104198940098286,-1.7248949057779623,1.6051353886723518,24.267002940177917,24.038635194301605,0.0,0.0,0.0,0.0,0.0,0.0,0.0,0.0,0.0,0.0,0.0,0.0,0.0,0.0,0.0,0.0,False,0,6.835678339004517,0.039908935546875
STABILIZE,3.370342493057251,28.758838210690875,0.03183797200520833,0.03327751159667969,-10.0,40.0,10.0,-0.04689938721418677,-1.1347552489880477,80.52877725790742,3.991806333736345,2.226288990321137,0.0440645843141347,0.5214258207891694,-0.10252027418214588,-0.2833112467839512,0.5541630852387714,0.211573113595082,0.9544841013848782,-1.3930171728134155,1.0104198940098286,-1.7248949057779623,1.6051353886723518,24.267002940177917,24.038635194301605,0.0,0.0,0.0,0.0,0.0,0.0,0.0,0.0,0.0,0.0,0.0,0.0,0.0,0.0,0.0,0.0,False,0,6.864444732666016,0.039908935546875
STABILIZE,3.407276153564453,27.075048091198987,0.03180077870686849,0.035535335540771484,-10.0,40.0,10.0,-0.042605012495247035,-1.126287308521113,80.56387760005211,3.9914623279617762,2.2304189330947555,0.04592810545342434,0.5214278160699356,-0.10528056689015972,-0.2927684409194743,0.5671402684328102,0.22007561180131252,-0.424418319016695,-0.7229102775454521,1.582210697233677,0.883506633647423,-24.828892946243286,-30.463725328445435,41.46532714366913,0.0,0.0,0.0,0.0,0.0,0.0,0.0,0.0,0.0,0.0,0.0,0.0,0.0,0.0,0.0,0.0,False,0,6.8930344581604,0.059864990234375
STABILIZE,3.4407739639282227,29.851847634231053,0.031923564275105794,0.03207898139953613,-10.0,40.0,10.0,-0.04241675540624856,-1.1259481469401396,80.56172609046355,3.9928094312051976,2.2565891891331797,0.038653484928991205,0.5214148723908347,-0.06335145447473334,-0.31055757258543093,0.5862178511919343,0.1830895833022758,0.8261570706963539,-0.19773568492382765,0.7042414508759975,-0.7223304976561066,27.632007002830505,12.084325402975082,12.58007138967514,0.0,0.0,0.0,0.0,0.0,0.0,0.0,0.0,0.0,0.0,0.0,0.0,0.0,0.0,0.0,0.0,False,0,6.953739404678345,0.069842041015625
STABILIZE,3.47432541847229,29.806026151222284,0.03189972241719564,0.03206348419189453,-10.0,40.0,10.0,-0.04059352178467828,-1.1337524918405253,80.54223273057234,3.992977079671607,2.267706179748978,0.03774020144330302,0.5213973019228658,-0.05016008138664874,-0.31526341445914985,0.6075788808065489,0.17792758436467274,0.23931043688207865,-0.17398328054696321,1.363668031990528,0.16102074918769857,-8.98556336760521,-33.400940895080566,3.7964291870594025,0.0,0.0,0.0,0.0,0.0,0.0,0.0,0.0,0.0,0.0,0.0,0.0,0.0,0.0,0.0,0.0,False,0,6.982653856277466,0.02993310546875
STABILIZE,3.5077133178710938,29.9507569265924,0.03181627591451009,0.03195333480834961,-10.0,40.0,10.0,-0.04041241504996716,-1.1304574591745231,80.55471148618595,3.9933747155128545,2.2615549005575373,0.03592446209961536,0.5214424632474748,-0.05150388461185769,-0.3369249056594668,0.5975752134265262,0.16828612490501912,-0.23237471468746662,-1.7296785488724709,0.963189173489809,0.011833836345575999,-15.880408883094788,-23.884232342243195,13.153326511383057,0.0,0.0,0.0,0.0,0.0,0.0,0.0,0.0,0.0,0.0,0.0,0.0,0.0,0.0,0.0,0.0,False,0,7.011359214782715,0.0349208984375
STABILIZE,3.5412914752960205,29.786340749788728,0.03188899358113607,0.03204059600830078,-10.0,40.0,10.0,-0.04231014042217289,-1.1272700019879485,80.57207382705613,3.993120211405141,2.270689721679954,0.03719600192168992,0.5214890543807329,-0.03125020698144478,-0.3350767703776386,0.5868805526981976,0.17406130455096563,0.7728721015155315,-0.5479828454554081,0.7621896453201771,0.709566261479528,16.879473626613617,17.24526137113571,11.89294159412384,0.0,0.0,0.0,0.0,0.0,0.0,0.0,0.0,0.0,0.0,0.0,0.0,0.0,0.0,0.0,0.0,False,0,7.039717197418213,0.0349208984375
STABILIZE,3.5753304958343506,29.374345183068606,0.031696589787801106,0.0325169563293457,-10.0,40.0,10.0,-0.039474224534442444,-1.1301125346214373,80.54391295710816,3.9928291695308933,2.289909497866099,0.03848933348989311,0.5215350731901325,-0.01167396305040969,-0.33328439999905807,0.5767332220022966,0.17991403843884227,0.7728721015155315,-0.5479828454554081,0.7621896453201771,0.709566261479528,16.879473626613617,17.24526137113571,11.89294159412384,0.0,0.0,0.0,0.0,0.0,0.0,0.0,0.0,0.0,0.0,0.0,0.0,0.0,0.0,0.0,0.0,False,0,7.068473815917969,0.0349208984375
