E-kp,E-ki,E-kd,E-I-Tot,E-P,E-I,E-D,E-PID,N-kp,N-ki,N-kd,N-I-Tot,N-P,N-I,N-D,N-PID,D-kp,D-ki,D-kd,D-I-Tot,D-P,D-I,D-D,D-PID,Y-kp,Y-ki,Y-kd,Y-I-Tot,Y-P,Y-I,Y-D,Y-PID,errorN,desiredN,actualN,errorE,desiredE,actualE,errorD,desiredD,actualD,errorY,desiredY,actualY,roll,pitch,yaw-rate,thrust,dt,Time,Mode
0.035,0.005,0.05,-0.0009691322195587001,-0.0010249796838362395,-4.845661097793501e-06,-0.04424675218587911,-0.04527657753081314,0.035,0.005,0.05,-0.0009667235017483411,-0.0010224321606295125,-4.833617508741705e-06,-0.04413677963735606,-0.04516404541549431,0.002,8e-05,0,-0.0011071077357229688,-6.690892644736807e-05,-8.856861885783751e-08,-0.0,-6.699749506622591e-05,0.1,0.02,0,-0.0009702179089690706,-0.002931794107045006,-1.940435817938141e-05,-0.0,-0.002951198465224387,-0.0292123474465575,0.0,0.0292123474465575,-0.029285133823892553,0.0,0.029285133823892553,-0.03345446322368403,0.0,0.03345446322368403,-0.029317941070450056,0,0.029317941070450056,-0.045299681800615575,0.04514087172352285,0.002951198465224387,0.4,0.03309297561645508,0.03336477279663086,STABILIZE
0.035,0.005,0.05,-0.0026536163620506474,-0.0017631737138066518,-1.3268081810253237e-05,-0.03789232057576765,-0.03966876237138455,0.035,0.005,0.05,-0.002635594722999575,-0.0017468314451957786,-1.3177973614997874e-05,-0.03754265761001155,-0.039302667028822326,0.002,8e-05,0,-0.0031531477208907813,-0.00012237825145205026,-2.522518176712625e-07,-0.0,-0.00012263050326972153,0.1,0.02,0,-0.002632553694283012,-0.004971402030449704,-5.265107388566024e-05,-0.0,-0.005024053104335365,-0.049909469862736526,0.0,0.049909469862736526,-0.05037639182304719,0.0,0.05037639182304719,-0.061189125726025126,0.0,0.061189125726025126,-0.049714020304497036,0,0.049714020304497036,-0.039702849310974724,0.03926823271100811,0.005024053104335365,0.4,0.03343796730041504,0.06677794456481934,STABILIZE
0.035,0.005,0.05,-0.005727878747757416,-0.003217209296893886,-2.8639393738787083e-05,-0.04596420368772372,-0.04921005237835639,0.035,0.005,0.05,-0.005617065546630568,-0.0031201031170273097,-2.808532773315284e-05,-0.044581173031761276,-0.04772936147652174,0.002,8e-05,0,-0.00734880240626206,-0.00025089965966825157,-5.879041925009649e-07,-0.0,-0.0002514875638607525,0.1,0.02,0,-0.005576447463932102,-0.008802225162615846,-0.00011152894927864204,-0.0,-0.008913754111894488,-0.0891458033436374,0.0,0.0891458033436374,-0.0919202656255396,0.0,0.0919202656255396,-0.12544982983412578,0.0,0.12544982983412578,-0.08802225162615847,0,0.08802225162615847,-0.04928331985100648,0.04765370485597577,0.008913754111894488,0.4,0.033444881439208984,0.10021686553955078,STABILIZE
0.035,0.005,0.05,-0.009321126450744035,-0.0037591204754528172,-4.6605632253720175e-05,-0.040258122910882634,-0.044063849018589174,0.035,0.005,0.05,-0.009127456152282429,-0.003672438499459682,-4.563728076141214e-05,-0.039332129609347434,-0.04305020538956853,0.002,8e-05,0,-0.012613034125908397,-0.0003146994884465057,-1.0090427300726718e-06,-0.0,-0.0003157085311765784,0.1,0.02,0,-0.009030704384776336,-0.010324895861779362,-0.00018061408769552673,-0.0,-0.010505509949474889,-0.10492681427027661,0.0,0.10492681427027661,-0.10740344215579477,0.0,0.10740344215579477,-0.15734974422325285,0.0,0.15734974422325285,-0.10324895861779361,0,0.10324895861779361,-0.04414135537749632,0.042970730967190146,0.010505509949474889,0.4,0.033455610275268555,0.13367605209350586,STABILIZE
0.035,0.005,0.05,-0.014014312074127531,-0.004912214560275901,-7.007156037063766e-05,-0.04205881249596228,-0.047041098616608816,0.035,0.005,0.05,-0.013752644658851513,-0.004841044047520485,-6.876322329425756e-05,-0.04145055154042664,-0.046360358811241384,0.002,8e-05,0,-0.020047329895979654,-0.0004446429216155281,-1.6037863916783725e-06,-0.0,-0.0004462467080072065,0.1,0.02,0,-0.013563668710616306,-0.013555759440824136,-0.00027127337421232615,-0.0,-0.013827032815036463,-0.138315544214871,0.0,0.138315544214871,-0.1403489874364543,0.0,0.1403489874364543,-0.22232146080776405,0.0,0.22232146080776405,-0.13555759440824136,0,0.13555759440824136,-0.047150652049976004,0.04624893338690803,0.013827032815036463,0.4,0.03343939781188965,0.1671133041381836,STABILIZE
0.035,0.005,0.05,-0.019625637429195944,-0.005868391774398165,-9.812818714597972e-05,-0.041372577730433575,-0.04733909769197772,0.035,0.005,0.05,-0.019265233489380716,-0.005765131925472245,-9.632616744690358e-05,-0.04051235687623834,-0.04637381496915749,0.002,8e-05,0,-0.02970671285818005,-0.0005772513869899406,-2.376537028654404e-06,-0.0,-0.000579627924018595,0.1,0.02,0,-0.019011611472739876,-0.016278640819937264,-0.00038023222945479754,-0.0,-0.01665887304939206,-0.16471805501349268,0.0,0.16471805501349268,-0.16766833641137613,0.0,0.16766833641137613,-0.2886256934949703,0.0,0.2886256934949703,-0.16278640819937262,0,0.16278640819937262,-0.04747066182242561,0.04623913008724504,0.01665887304939206,0.4,0.03346681594848633,0.20059943199157715,STABILIZE
0.035,0.005,0.05,-0.025443126996631062,-0.006085865098611093,-0.00012721563498315532,-0.036922191117575304,-0.043135271851169554,0.035,0.005,0.05,-0.025047478469861426,-0.006048994589575459,-0.00012523739234930712,-0.0367467964364951,-0.04292102841841987,0.002,8e-05,0,-0.04042572523870588,-0.0006407718614905043,-3.2340580190964702e-06,-0.0,-0.0006440059195096007,0.1,0.02,0,-0.024617572627489447,-0.016755938126811473,-0.0004923514525497889,-0.0,-0.01724828957936126,-0.1728284168450131,0.0,0.1728284168450131,-0.1738818599603169,0.0,0.1738818599603169,-0.3203859307452521,0.0,0.3203859307452521,-0.16755938126811473,0,0.16755938126811473,-0.04326060817059363,0.04279469755564905,0.01724828957936126,0.4,0.03345656394958496,0.23411130905151367,STABILIZE
0.035,0.005,0.05,-0.03114111337264116,-0.005955628670057409,-0.0001557055668632058,-0.023389370622043784,-0.0295007048589644,0.035,0.005,0.05,-0.03078190332082503,-0.005993714760792892,-0.00015390951660412515,-0.024543487234484636,-0.030691111511881652,0.002,8e-05,0,-0.05159764260662866,-0.0006672611990594235,-4.127811408530293e-06,-0.0,-0.0006713890104679538,0.1,0.02,0,-0.030061847261496293,-0.0162584142929964,-0.0006012369452299259,-0.0,-0.016859651238226327,-0.17124899316551118,0.0,0.17124899316551118,-0.17016081914449738,0.0,0.17016081914449738,-0.33363059952971175,0.0,0.33363059952971175,-0.16258414292996398,0,0.16258414292996398,-0.029587675946287726,0.03060727601580949,0.016859651238226327,0.4,0.03348588943481445,0.2675604820251465,STABILIZE
0.035,0.005,0.05,-0.03684021927579394,-0.005971680185657428,-0.00018420109637896969,-0.018898694263465982,-0.025054575545502382,0.035,0.005,0.05,-0.036395113435745974,-0.005881676212168939,-0.00018197556717872986,-0.01886814387131962,-0.02493179565066729,0.002,8e-05,0,-0.06408829509620874,-0.0007478885610229219,-5.127063607696699e-06,-0.0,-0.0007530156246306186,0.1,0.02,0,-0.03551939671587243,-0.016338773380933383,-0.0007103879343174486,-0.0,-0.017049161315250833,-0.1680478917762554,0.0,0.1680478917762554,-0.17061943387592649,0.0,0.17061943387592649,-0.3739442805114609,0.0,0.3739442805114609,-0.16338773380933383,0,0.16338773380933383,-0.025125570430793654,0.024860247397384162,0.017049161315250833,0.4,0.033402442932128906,0.3009483814239502,STABILIZE
0.035,0.005,0.05,-0.04311255292635828,-0.0065616922915503195,-0.0002155627646317914,-0.01408499935346502,-0.020862254409647132,0.035,0.005,0.05,-0.04231821740183814,-0.006196351757030851,-0.0002115910870091907,-0.011570580303375634,-0.017978523147415677,0.002,8e-05,0,-0.07885874716323696,-0.0008829628822186,-6.308699773058957e-06,-0.0,-0.0008892715819916589,0.1,0.02,0,-0.0415410056353442,-0.01799828855272051,-0.000830820112706884,-0.0,-0.018829108665427394,-0.17703862162945289,0.0,0.17703862162945289,-0.1874769226157234,0.0,0.1874769226157234,-0.4414814411093,0.0,0.4414814411093,-0.1799828855272051,0,0.1799828855272051,-0.020918627211315172,0.0179129000781288,0.018829108665427394,0.4,0.03345656394958496,0.33443522453308105,STABILIZE
0.035,0.005,0.05,-0.04924153212926191,-0.006411907310511766,-0.00024620766064630955,-0.00464270483808914,-0.011300819809247215,0.035,0.005,0.05,-0.04804221160368286,-0.0059882272484702796,-0.0002402110580184143,-0.0019040147478452665,-0.00813245305433396,0.002,8e-05,0,-0.09426292887762233,-0.0009208728573558641,-7.541034310209787e-06,-0.0,-0.0009284138916660739,0.1,0.02,0,-0.04744617755517262,-0.017650767304022888,-0.0009489235511034524,-0.0,-0.01859969085512634,-0.17109220709915082,0.0,0.17109220709915082,-0.18319735172890758,0.0,0.18319735172890758,-0.46043642867793205,0.0,0.46043642867793205,-0.17650767304022888,0,0.17650767304022888,-0.011325819305914281,0.00809760076144776,0.01859969085512634,0.4,0.033455610275268555,0.36786890029907227,STABILIZE
0.035,0.005,0.05,-0.05547594144500612,-0.00650500573992645,-0.0002773797072250306,-0.003578487091321771,-0.010360872538473252,0.035,0.005,0.05,-0.05360039301850373,-0.005799427046866309,-0.0002680019650925187,0.0021282529794686123,-0.0039391760324902145,0.002,8e-05,0,-0.11085869783402555,-0.0009894906693521804,-8.868695826722044e-06,-0.0,-0.0009983593651789024,0.1,0.02,0,-0.05330524834287467,-0.017466788947035305,-0.0010661049668574934,-0.0,-0.018532893913892796,-0.16569791562475167,0.0,0.16569791562475167,-0.18585730685504143,0.0,0.18585730685504143,-0.49474533467609016,0.0,0.49474533467609016,-0.17466788947035305,0,0.17466788947035305,-0.010372833070750159,0.003907572348631099,0.018532893913892796,0.4,0.033544063568115234,0.40140700340270996,STABILIZE
0.035,0.005,0.05,-0.0616722436302054,-0.006458680079955214,-0.000308361218151027,-0.004295531676035336,-0.011062572974141576,0.035,0.005,0.05,-0.05886584714967692,-0.005488415944296373,-0.0002943292357483846,0.00430295713023894,-0.0014797880498058176,0.002,8e-05,0,-0.1281799505049475,-0.0010316976272237916,-1.02543960403958e-05,-0.0,-0.0010419520232641873,0.1,0.02,0,-0.05897786590537482,-0.016893772611504532,-0.0011795573181074964,-0.0,-0.01807332992961203,-0.1568118841227535,0.0,0.1568118841227535,-0.18453371657014894,0.0,0.18453371657014894,-0.5158488136118958,0.0,0.5158488136118958,-0.16893772611504532,0,0.16893772611504532,-0.011066888064132373,0.001447163451901729,0.01807332992961203,0.4,0.03357815742492676,0.4349935054779053,STABILIZE
0.035,0.005,0.05,-0.06776164562716651,-0.006355240369480799,-0.00033880822813583256,-0.0032769628169555124,-0.009971011414572144,0.035,0.005,0.05,-0.06388845023681713,-0.005241869384744484,-0.0003194422511840857,0.005445101581940891,-0.00011621005398767831,0.002,8e-05,0,-0.14595564388556365,-0.0010600975664594317,-1.1676451510845093e-05,-0.0,-0.001071774017970277,0.1,0.02,0,-0.06441853254390909,-0.01622338251434014,-0.0012883706508781817,0.0,-0.017511753165218323,-0.14976769670698525,0.0,0.14976769670698525,-0.18157829627087996,0.0,0.18157829627087996,-0.5300487832297158,0.0,0.5300487832297158,-0.1622338251434014,0,0.1622338251434014,-0.009971300493439677,8.79765633874496e-05,0.017511753165218323,0.4,0.03353595733642578,0.4685218334197998,STABILIZE
0.035,0.005,0.05,-0.07353691106844323,-0.006048330726668516,-0.0003676845553422162,0.00438550053190921,-0.0020305147501015223,0.035,0.005,0.05,-0.06838120655294949,-0.004705182186100554,-0.00034190603276474746,0.012720653352778994,0.007673565133913692,0.002,8e-05,0,-0.16496474974027436,-0.001137593812258233,-1.319717997922195e-05,-0.0,-0.001150790992237455,0.1,0.02,0,-0.06949459529935328,-0.015188766966113765,-0.0013898919059870656,0.0,-0.016578658872100832,-0.1344337767457301,0.0,0.1344337767457301,-0.17280944933338616,0.0,0.17280944933338616,-0.5687969061291165,0.0,0.5687969061291165,-0.15188766966113765,0,0.15188766966113765,-0.002010165479018449,-0.0076789209373295565,0.016578658872100832,0.4,0.03341984748840332,0.5019488334655762,STABILIZE
0.035,0.005,0.05,-0.07978450332076449,-0.0059916675340188665,-0.00039892251660382245,0.0035499303134648775,-0.0028406597371578115,0.035,0.005,0.05,-0.07302627798905048,-0.004454791957100587,-0.0003651313899452524,0.012903520977401998,0.008083597630356158,0.002,8e-05,0,-0.18636559150123783,-0.0011728104762022337,-1.4909247320099028e-05,-0.0,-0.0011877197235223328,0.1,0.02,0,-0.07486334551762713,-0.01471093186528269,-0.0014972669103525426,0.0,-0.016208198775635233,-0.1272797702028739,0.0,0.1272797702028739,-0.17119050097196759,0.0,0.17119050097196759,-0.5864052381011169,0.0,0.5864052381011169,-0.1471093186528269,0,0.1471093186528269,-0.002819895420574726,-0.008090864490821166,0.016208198775635233,0.4,0.03649497032165527,0.5384905338287354,STABILIZE
0.035,0.005,0.05,-0.08544899305344529,-0.005864705428707238,-0.00042724496526722646,0.005415962338372358,-0.0008759880556021065,0.035,0.005,0.05,-0.07708553923575522,-0.004202738921520385,-0.00038542769617877607,0.013425702308477873,0.008837535690778713,0.002,8e-05,0,-0.20678306353644416,-0.0012079510346663573,-1.6542645082915533e-05,-0.0,-0.0012244936797492728,0.1,0.02,0,-0.079707002590791,-0.014328170899434715,-0.00159414005181582,0.0,-0.015922310951250535,-0.12007825490058242,0.0,0.12007825490058242,-0.1675630122487782,0.0,0.1675630122487782,-0.6039755173331787,0.0,0.6039755173331787,-0.14328170899434714,0,0.14328170899434714,-0.000853884981945059,-0.0088396986711626,0.015922310951250535,0.4,0.033805131912231445,0.5723176002502441,STABILIZE
0.035,0.005,0.05,-0.09093134961232469,-0.0057375203287305665,-0.00045465674806162345,0.006108348900431671,-8.382817636051927e-05,0.035,0.005,0.05,-0.08089127734185038,-0.003982867497769748,-0.0004044563867092519,0.012657736565069062,0.008270412680590061,0.002,8e-05,0,-0.22766709875433525,-0.0012489162833714711,-1.821336790034682e-05,-0.0,-0.001267129651271818,0.1,0.02,0,-0.08437313542977483,-0.013952306683501501,-0.0016874627085954965,0.0,-0.015639769392097,-0.11379621422199279,0.0,0.11379621422199279,-0.16392915224944474,0.0,0.16392915224944474,-0.6244581416857355,0.0,0.6244581416857355,-0.139523066835015,0,0.139523066835015,-6.368836063248971e-05,-0.008270592292160022,0.015639769392097,0.4,0.033443450927734375,0.6057112216949463,STABILIZE
0.035,0.005,0.05,-0.09628616526875988,-0.005604442867253481,-0.0004814308263437994,0.006364069002689313,0.00027819530909203253,0.035,0.005,0.05,-0.08448583746696899,-0.0037621289222019645,-0.00042242918733484495,0.012443198158888247,0.008258640049351437,0.002,8e-05,0,-0.24920474816999413,-0.0012880958362877439,-1.9936379853599533e-05,-0.0,-0.0013080322161413433,0.1,0.02,0,-0.0889104417812037,-0.013568067031001638,-0.0017782088356240741,0.0,-0.015346275866625712,-0.10748939777719897,0.0,0.10748939777719897,-0.16012693906438516,0.0,0.16012693906438516,-0.644047918143872,0.0,0.644047918143872,-0.13568067031001638,0,0.13568067031001638,0.0002977515850979922,-0.008257958106476683,0.015346275866625712,0.4,0.03344106674194336,0.6391758918762207,STABILIZE
0.035,0.005,0.05,-0.10134752776929189,-0.00527609428905244,-0.0005067376388464594,0.006534339137030241,0.0007515072091313409,0.035,0.005,0.05,-0.08773349070644706,-0.003385437163971529,-0.0004386674535322353,0.011060425900829252,0.007236321283325488,0.002,8e-05,0,-0.2719172188371677,-0.001352917878363495,-2.1753377506973418e-05,-0.0,-0.0013746712558704683,0.1,0.02,0,-0.0930385272991226,-0.012294921108424057,-0.001860770545982452,0.0,-0.014155691654406508,-0.09672677611347225,0.0,0.09672677611347225,-0.150745551115784,0.0,0.150745551115784,-0.6764589391817475,0.0,0.6764589391817475,-0.12294921108424056,0,0.12294921108424056,0.0007670336611943877,-0.007234691988155442,0.014155691654406508,0.4,0.03357553482055664,0.6727027893066406,STABILIZE
0.035,0.005,0.05,-0.10632927551868558,-0.00520804259966069,-0.000531646377593428,0.006671489068143306,0.0009318000908891877,0.035,0.005,0.05,-0.09075894572691841,-0.0031628856824173334,-0.00045379472863459205,0.01099942611528678,0.007382745704234854,0.002,8e-05,0,-0.29505704011893935,-0.001382339590112945,-2.360456320951515e-05,-0.0,-0.0014059441533224603,0.1,0.02,0,-0.09694506821431674,-0.011668556342141867,-0.0019389013642863349,0.0,-0.013607457706428202,-0.09036816235478094,0.0,0.09036816235478094,-0.14880121713316258,0.0,0.14880121713316258,-0.6911697950564725,0.0,0.6911697950564725,-0.11668556342141866,0,0.11668556342141866,0.0009468334587829303,-0.007380832740559052,0.013607457706428202,0.4,0.03347921371459961,0.7062058448791504,STABILIZE
0.035,0.005,0.05,-0.1110183500571366,-0.004904484715341421,-0.000555091750285683,0.00819029130201128,0.002730714836384175,0.035,0.005,0.05,-0.09363445439548669,-0.0030076059141690772,-0.00046817227197743346,0.010194945163699346,0.006719166977552836,0.002,8e-05,0,-0.3187263732709088,-0.0014146669998737205,-2.5498109861672706e-05,-0.0,-0.0014401651097353933,0.1,0.02,0,-0.1007097947120854,-0.011250495114815543,-0.002014195894241708,0.0,-0.013264691009057252,-0.08593159754768791,0.0,0.08593159754768791,-0.1401281347240406,0.0,0.1401281347240406,-0.7073334999368602,0.0,0.7073334999368602,-0.11250495114815542,0,0.11250495114815542,0.002743903197700641,-0.00671379204559788,0.013264691009057252,0.4,0.0334627628326416,0.7396926879882812,STABILIZE
0.035,0.005,0.05,-0.11573972412373756,-0.004894398984940607,-0.0005786986206186878,0.007189072556008988,0.0017159749504496932,0.035,0.005,0.05,-0.0964258448895334,-0.002893687008890368,-0.000482129224447667,0.009280568605651652,0.005904752372313617,0.002,8e-05,0,-0.3430301483368969,-0.0014396822418367783,-2.7442411866951754e-05,-0.0,-0.00146712465370373,0.1,0.02,0,-0.10436874084915422,-0.010837245989712876,-0.0020873748169830844,0.0,-0.012924620806695961,-0.08267677168258193,0.0,0.08267677168258193,-0.13983997099830303,0.0,0.13983997099830303,-0.7198411209183891,0.0,0.7198411209183891,-0.10837245989712876,0,0.10837245989712876,0.0017271404549914443,-0.005901496120277133,0.012924620806695961,0.4,0.03376269340515137,0.7734191417694092,STABILIZE
0.035,0.005,0.05,-0.12043209308721471,-0.004909609543170814,-0.0006021604654360736,0.005922166985826564,0.0004103969772196762,0.035,0.005,0.05,-0.09908972858371329,-0.002787212367279646,-0.0004954486429185665,0.008304039898991873,0.00502137888879366,0.002,8e-05,0,-0.3677191787379944,-0.0014761170160357084,-2.9417534299039555e-05,-0.0,-0.001505534550334748,0.1,0.02,0,-0.10787010028002242,-0.010467029590056099,-0.0021574020056004486,0.0,-0.012624431595656547,-0.07963463906513274,0.0,0.07963463906513274,-0.14027455837630898,0.0,0.14027455837630898,-0.7380585080178542,0.0,0.7380585080178542,-0.10467029590056098,0,0.10467029590056098,0.00041956954959782174,-0.005020620780021528,0.012624431595656547,0.4,0.03345131874084473,0.8068761825561523,STABILIZE
0.035,0.005,0.05,-0.12503090081579915,-0.004812196917786192,-0.0006251545040789957,0.00396015616188893,-0.0014771952599762581,0.035,0.005,0.05,-0.10163114861895703,-0.002659344417550692,-0.0005081557430947852,0.0061907989407001,0.003023298780054623,0.002,8e-05,0,-0.3929804682267729,-0.0015104821770169363,-3.1438437458141834e-05,-0.0,-0.0015419206144750783,0.1,0.02,0,-0.11124851696443372,-0.010100510091946787,-0.0022249703392886746,0.0,-0.012325480431235462,-0.0759812690728769,0.0,0.0759812690728769,-0.1374913405081769,0.0,0.1374913405081769,-0.7552410885084682,0.0,0.7552410885084682,-0.10100510091946786,0,0.10100510091946786,-0.0014718632799114821,-0.0030258981864603957,0.012325480431235462,0.4,0.033447980880737305,0.840407133102417,STABILIZE
0.035,0.005,0.05,-0.1294762081542709,-0.004649055421034504,-0.0006473810407713545,0.004772205708314932,-0.0005242307534909273,0.035,0.005,0.05,-0.10400810981399686,-0.0024859078322327275,-0.0005200405490699843,0.005772228446703386,0.0027662800654006743,0.002,8e-05,0,-0.4187409768462859,-0.0015394986620054288,-3.3499278147702874e-05,-0.0,-0.0015729979401531316,0.1,0.02,0,-0.11440532692340737,-0.009432858605058894,-0.0022881065384681475,0.0,-0.01172096514352704,-0.0710259380637922,0.0,0.0710259380637922,-0.1328301548867001,0.0,0.1328301548867001,-0.7697493310027144,0.0,0.7697493310027144,-0.09432858605058893,0,0.09432858605058893,-0.0005196757953885767,-0.002767139380447988,0.01172096514352704,0.4,0.03346610069274902,0.8737843036651611,STABILIZE
0.035,0.005,0.05,-0.13360972175896865,-0.004323956551240497,-0.0006680486087948433,0.004956484609867089,-3.5520550168251924e-05,0.035,0.005,0.05,-0.10613760799830102,-0.002227610334803783,-0.0005306880399915051,0.006652105069119275,0.003893806694323987,0.002,8e-05,0,-0.4448483167393575,-0.0015605817528466831,-3.55878653391486e-05,-0.0,-0.0015961696181858317,0.1,0.02,0,-0.11730976840709813,-0.008680735762860365,-0.002346195368141963,0.0,-0.011026931131002327,-0.06364600956582236,0.0,0.06364600956582236,-0.12354161574972847,0.0,0.12354161574972847,-0.7802908764233415,0.0,0.7802908764233415,-0.08680735762860364,0,0.08680735762860364,-2.9621105573336955e-05,-0.0038938560415545877,0.011026931131002327,0.4,0.03345847129821777,0.9072608947753906,STABILIZE
0.035,0.005,0.05,-0.13757985998317815,-0.004153113182233816,-0.0006878992999158908,0.006330050497622847,0.0014890380154731408,0.035,0.005,0.05,-0.10809950789663066,-0.002052319559125267,-0.0005404975394831533,0.0071849690201320334,0.0045921519215236135,0.002,8e-05,0,-0.471322709945658,-0.0015825451365360848,-3.7705816795652645e-05,-0.0,-0.0016202509533317375,0.1,0.02,0,-0.12009952125192729,-0.008338075517574843,-0.0024019904250385457,0.0,-0.010740065942613388,-0.05863770168929333,0.0,0.05863770168929333,-0.11866037663525188,0.0,0.11866037663525188,-0.7912725682680424,0.0,0.7912725682680424,-0.08338075517574843,0,0.08338075517574843,0.0014957192513728084,-0.004589980109210711,0.010740065942613388,0.4,0.03345799446105957,0.9407219886779785,STABILIZE
0.035,0.005,0.05,-0.1414157306571307,-0.0040150608552892795,-0.0007070786532856535,0.0076395697276701625,0.0029174302190952293,0.035,0.005,0.05,-0.10996750429548387,-0.0019552586247983776,-0.0005498375214774194,0.007104895714527569,0.004599799568251772,0.002,8e-05,0,-0.4978333650126017,-0.001585661881224141,-3.982666920100814e-05,-0.0,-0.001625488550425149,0.1,0.02,0,-0.12277345966788779,-0.007996713412442739,-0.0024554691933577556,0.0,-0.010452182605800494,-0.055864532137096495,0.0,0.055864532137096495,-0.11471602443683654,0.0,0.11471602443683654,-0.7928309406120704,0.0,0.7928309406120704,-0.07996713412442738,0,0.07996713412442738,0.0029238472687725513,-0.004595723261932829,0.010452182605800494,0.4,0.03343796730041504,0.974146842956543,STABILIZE
0.035,0.005,0.05,-0.14509310134736902,-0.003849980179891653,-0.0007254655067368451,0.008218317590246457,0.003642871903617959,0.035,0.005,0.05,-0.11177853282659718,-0.001896035112400558,-0.0005588926641329859,0.006518791345138424,0.00406386356860488,0.002,8e-05,0,-0.5245635852249357,-0.0015991366299499142,-4.196508681799486e-05,-0.0,-0.001641101716767909,0.1,0.02,0,-0.12534834037201298,-0.007702117713601618,-0.0025069668074402594,0.0,-0.010209084521041878,-0.05417243178287308,0.0,0.05417243178287308,-0.10999943371119007,0.0,0.10999943371119007,-0.7995683149749571,0.0,0.7995683149749571,-0.07702117713601618,0,0.07702117713601618,0.003648331553129102,-0.004058962883403311,0.010209084521041878,0.4,0.03343081474304199,1.007582426071167,STABILIZE
0.035,0.005,0.05,-0.14871472881799358,-0.0037878115597696402,-0.000743573644089968,0.007356295816560766,0.002824910612701157,0.035,0.005,0.05,-0.11343860712226793,-0.0017362494232830974,-0.0005671930356113396,0.006402315891514592,0.004098873432620154,0.002,8e-05,0,-0.551660579417852,-0.0016194504293434797,-4.413284635342816e-05,-0.0,-0.001663583275696908,0.1,0.02,0,-0.12789010237769885,-0.007595413613206215,-0.002557802047553977,0.0,-0.010153215660760192,-0.049607126379517065,0.0,0.049607126379517065,-0.1082231874219897,0.0,0.1082231874219897,-0.8097252146717399,0.0,0.8097252146717399,-0.07595413613206214,0,0.07595413613206214,0.0028303417995014404,-0.004095124990080998,0.010153215660760192,0.4,0.03346443176269531,1.041064977645874,STABILIZE
0.035,0.005,0.05,-0.15229534810481501,-0.0037287432194435094,-0.0007614767405240751,0.005082293998687837,0.0005920740387202524,0.035,0.005,0.05,-0.11495533716484459,-0.0015794745011845238,-0.000574776685824223,0.00552935600514279,0.003375104818134043,0.002,8e-05,0,-0.5791956398368766,-0.0016385221439572807,-4.633565118695013e-05,-0.0,-0.0016848577951442307,0.1,0.02,0,-0.13041111589555524,-0.0075008669154205225,-0.002608222317911105,0.0,-0.010109089233331627,-0.04512784289098639,0.0,0.04512784289098639,-0.10653552055552883,0.0,0.10653552055552883,-0.8192610719786403,0.0,0.8192610719786403,-0.07500866915420522,0,0.07500866915420522,0.0005964920426364132,-0.0033743268134236166,0.010109089233331627,0.4,0.033609628677368164,1.074674367904663,STABILIZE
0.035,0.005,0.05,-0.15565437193522175,-0.003515236625241189,-0.0007782718596761087,0.0054473441363336655,0.0011538356514163677,0.035,0.005,0.05,-0.11617436492846975,-0.0012757191548004498,-0.0005808718246423487,0.006627413733855371,0.004770822754412572,0.002,8e-05,0,-0.6068638035670699,-0.0016545647512593614,-4.85491042853656e-05,-0.0,-0.001703113855544727,0.1,0.02,0,-0.1328930347259699,-0.007420975696716831,-0.002657860694519398,0.0,-0.010078836391236228,-0.03644911870858428,0.0,0.03644911870858428,-0.10043533214974824,0.0,0.10043533214974824,-0.8272823756296807,0.0,0.8272823756296807,-0.0742097569671683,0,0.0742097569671683,0.00116001387343658,-0.004769324299933363,0.010078836391236228,0.4,0.03344464302062988,1.1081056594848633,STABILIZE
0.035,0.005,0.05,-0.15891946281792585,-0.003412167685171718,-0.0007945973140896293,0.005147020498850134,0.0009402554995887871,0.035,0.005,0.05,-0.1172870386145013,-0.0011627943392722453,-0.0005864351930725065,0.006761425723787852,0.005012196191443101,0.002,8e-05,0,-0.6347382323636693,-0.001664573664679934,-5.077905858909355e-05,-0.0,-0.0017153527232690276,0.1,0.02,0,-0.13542176287392999,-0.007550386612303889,-0.0027084352574785996,0.0,-0.010258821869782489,-0.03322269540777843,0.0,0.03322269540777843,-0.0974905052906205,0.0,0.0974905052906205,-0.832286832339967,0.0,0.832286832339967,-0.07550386612303889,0,0.07550386612303889,0.0009468597086071622,-0.005010952779486158,0.010258821869782489,0.4,0.03349137306213379,1.141638994216919,STABILIZE
0.035,0.005,0.05,-0.16206963787935275,-0.0033022073030198667,-0.0008103481893967637,0.004677126275110087,0.0005645707826934564,0.035,0.005,0.05,-0.1182718925214307,-0.0010323844549759052,-0.0005913594626071535,0.00737122409909681,0.005747480181513751,0.002,8e-05,0,-0.6626086743012016,-0.0016694578212301937,-5.3008693944096134e-05,-0.0,-0.00172246651517429,0.1,0.02,0,-0.1378967187717304,-0.007412574386232634,-0.002757934375434608,0.0,-0.010170508761667241,-0.029496698713597287,0.0,0.029496698713597287,-0.09434878008628189,0.0,0.09434878008628189,-0.8347289106150968,0.0,0.8347289106150968,-0.07412574386232634,0,0.07412574386232634,0.0005720060433285451,-0.005746744964931023,0.010170508761667241,0.4,0.033388614654541016,1.1750218868255615,STABILIZE
0.035,0.005,0.05,-0.16505376899851257,-0.0031216854184118892,-0.0008252688449925629,0.005687916172754437,0.0017409619093499851,0.035,0.005,0.05,-0.119176497027294,-0.0009463024855885941,-0.00059588248513647,0.00674209946748231,0.005199914496757246,0.002,8e-05,0,-0.690860571307413,-0.0016888100307946912,-5.526884570459304e-05,-0.0,-0.0017440788764992842,0.1,0.02,0,-0.14039232999078377,-0.00745899161881855,-0.0028078465998156756,0.0,-0.010266838218634226,-0.02703721387395983,0.0,0.02703721387395983,-0.0891910119546254,0.0,0.0891910119546254,-0.8444050153973456,0.0,0.8444050153973456,-0.0745899161881855,0,0.0745899161881855,0.001747729886903866,-0.0051976436378244235,0.010266838218634226,0.4,0.03345775604248047,1.2084972858428955,STABILIZE
0.035,0.005,0.05,-0.16786431745021374,-0.0029398709694159514,-0.0008393215872510687,0.006738270719903132,0.002959078163236112,0.035,0.005,0.05,-0.12001073962198786,-0.0008726288223589178,-0.0006000536981099392,0.006038452152064224,0.004565769631595367,0.002,8e-05,0,-0.7192543689759388,-0.001697159375762071,-5.754034951807511e-05,-0.0,-0.001754699725280146,0.1,0.02,0,-0.142898446812552,-0.007489804129888768,-0.0028579689362510405,0.0,-0.010347773066139808,-0.02493225206739765,0.0,0.02493225206739765,-0.08399631341188432,0.0,0.08399631341188432,-0.8485796878810354,0.0,0.8485796878810354,-0.07489804129888768,0,0.07489804129888768,0.0029650440868907325,-0.004561897573130462,0.010347773066139808,0.4,0.033460378646850586,1.241950511932373,STABILIZE
0.035,0.005,0.05,-0.17066696251085217,-0.0029362485893945876,-0.0008533348125542608,0.004945285037598654,0.0011557016356498057,0.035,0.005,0.05,-0.12075625268246165,-0.0007810520507697709,-0.0006037812634123083,0.004226702508728031,0.0028418691945459517,0.002,8e-05,0,-0.7474791933533451,-0.0016897323568266457,-5.979833546826761e-05,-0.0,-0.0017495306922949132,0.1,0.02,0,-0.145349647056678,-0.007337286337336029,-0.00290699294113356,0.0,-0.01024427927846959,-0.02231577287913631,0.0,0.02231577287913631,-0.08389281683984535,0.0,0.08389281683984535,-0.8448661784133228,0.0,0.8448661784133228,-0.07337286337336028,0,0.07337286337336028,0.0011593399791612923,-0.002840386875457494,0.01024427927846959,0.4,0.03340744972229004,1.2753376960754395,STABILIZE
0.035,0.005,0.05,-0.17339101245267252,-0.0028239184998918878,-0.0008669550622633626,0.0050166042776165305,0.0013257307154612803,0.035,0.005,0.05,-0.12142841216653759,-0.0006968020566801413,-0.0006071420608326879,0.003976312378757674,0.0026723682612448444,0.002,8e-05,0,-0.7774002674933549,-0.0017724591085275573,-6.21920213994684e-05,-0.0,-0.0018346511299270256,0.1,0.02,0,-0.14761980166051455,-0.006723950127103567,-0.002952396033210291,0.0,-0.009676346160313858,-0.019908630190861178,0.0,0.019908630190861178,-0.08068338571119679,0.0,0.08068338571119679,-0.8862295542637786,0.0,0.8862295542637786,-0.06723950127103566,0,0.06723950127103566,0.001328865961431721,-0.002670810609192351,0.009676346160313858,0.4,0.033762216567993164,1.3091115951538086,STABILIZE
0.035,0.005,0.05,-0.17589733405324368,-0.002622262240821526,-0.0008794866702662184,0.005797971588038351,0.002296222676950607,0.035,0.005,0.05,-0.12172995148954109,-0.0003154883158868336,-0.0006086497574477054,0.0061171236221031836,0.005192985548768644,0.002,8e-05,0,-0.8070350471582325,-0.001771752189972418,-6.45628037726586e-05,-0.0,-0.0018363149937450766,0.1,0.02,0,-0.14968225647697075,-0.006165321421482045,-0.0029936451295394153,0.0,-0.00915896655102146,-0.009013951882480959,0.0,0.009013951882480959,-0.07492177830918645,0.0,0.07492177830918645,-0.8858760949862089,0.0,0.8858760949862089,-0.06165321421482045,0,0.06165321421482045,0.0023018092668067483,-0.0051905116887552396,0.00915896655102146,0.4,0.033452510833740234,1.3425743579864502,STABILIZE
0.035,0.005,0.05,-0.1782950682014404,-0.0025090807885685975,-0.0008914753410072019,0.005223231310491058,0.0018226751809152586,0.035,0.005,0.05,-0.12193662516863688,-0.00021627124846681806,-0.0006096831258431844,0.006229569310745063,0.005403614936435061,0.002,8e-05,0,-0.8367814817259468,-0.0017787318690831936,-6.694251853807574e-05,-0.0,-0.0018456743876212693,0.1,0.02,0,-0.15165686643823978,-0.0059037355537904755,-0.0030331373287647958,0.0,-0.00893687288255527,-0.0061791785276233725,0.0,0.0061791785276233725,-0.07168802253053135,0.0,0.07168802253053135,-0.8893659345415968,0.0,0.8893659345415968,-0.059037355537904755,0,0.059037355537904755,0.00182824207683828,-0.0054017339905688255,0.00893687288255527,0.4,0.0334467887878418,1.376025676727295,STABILIZE
0.035,0.005,0.05,-0.18057924245293358,-0.002389225499769999,-0.0009028962122646679,0.00469414736362682,0.001402025651592153,0.035,0.005,0.05,-0.12202101419413727,-8.827015342393185e-05,-0.0006101050709706864,0.00669344157563722,0.005995066351242601,0.002,8e-05,0,-0.8675902908271391,-0.0018414705263900247,-6.940722326617113e-05,-0.0,-0.0019108777496561957,0.1,0.02,0,-0.15352392171591372,-0.005579779558640061,-0.0030704784343182747,0.0,-0.008650257992958335,-0.00252200438354091,0.0,0.00252200438354091,-0.06826358570771425,0.0,0.06826358570771425,-0.9207352631950123,0.0,0.9207352631950123,-0.055797795586400606,0,0.055797795586400606,0.001407863312663266,-0.005993698138576925,0.008650257992958335,0.4,0.03346109390258789,1.4094676971435547,STABILIZE
0.035,0.005,0.05,-0.18282426989380052,-0.0023363423799070532,-0.0009141213494690026,0.005112425269469377,0.0018619615400933208,0.035,0.005,0.05,-0.12198684355290926,3.556050843583014e-05,-0.0006099342177645463,0.006962217943952406,0.00638784423462369,0.002,8e-05,0,-0.898502141000772,-0.001838238189045592,-7.188017128006176e-05,-0.0,-0.0019101183603256538,0.1,0.02,0,-0.1553109888820435,-0.005313585393169614,-0.00310621977764087,0.0,-0.008419805170810485,0.0010160145267380039,0.0,-0.0010160145267380039,-0.0667526394259158,0.0,0.0667526394259158,-0.9191190945227959,0.0,0.9191190945227959,-0.053135853931696134,0,0.053135853931696134,0.0018678847971916968,-0.006386114712955127,0.008419805170810485,0.4,0.03363204002380371,1.4431102275848389,STABILIZE
0.035,0.005,0.05,-0.185014348827999,-0.0022880148963531437,-0.000925071744139995,0.004573978576586348,0.0013608919360932094,0.035,0.005,0.05,-0.12183856940946738,0.00015490466742614333,-0.0006091928470473369,0.007267052570409176,0.0068127643907879825,0.002,8e-05,0,-0.929243969600924,-0.0018352309637258422,-7.433951756807392e-05,-0.0,-0.0019095704812939162,0.1,0.02,0,-0.1570058101498651,-0.005058886556722036,-0.0031401162029973018,0.0,-0.008199002759719338,0.004425847640746952,0.0,-0.004425847640746952,-0.06537185418151839,0.0,0.06537185418151839,-0.9176154818629211,0.0,0.9176154818629211,-0.05058886556722036,0,0.05058886556722036,0.0013669066824941493,-0.006811560146358917,0.008199002759719338,0.4,0.03350186347961426,1.476628065109253,STABILIZE
0.035,0.005,0.05,-0.18711944474623907,-0.0022061711801465524,-0.0009355972237311954,0.0035518452989957445,0.00041007689511799676,0.035,0.005,0.05,-0.12161221022959094,0.00023722771712109857,-0.0006080610511479547,0.004714584929232431,0.004343751595205576,0.002,8e-05,0,-0.9597714724425338,-0.0018281867182377326,-7.678171779540271e-05,-0.0,-0.0019049684360331353,0.1,0.02,0,-0.15869827217504803,-0.0050677852879335815,-0.0031739654435009607,0.0,-0.008241750731434542,0.00677793477488853,0.0,-0.00677793477488853,-0.06303346228990149,0.0,0.06303346228990149,-0.9140933591188662,0.0,0.9140933591188662,-0.050677852879335815,0,0.050677852879335815,0.0004139187624727004,-0.004343387185001317,0.008241750731434542,0.4,0.03339648246765137,1.5099976062774658,STABILIZE
0.035,0.005,0.05,-0.18915126131096205,-0.0021266405622896545,-0.0009457563065548103,0.003264538143946283,0.0001921412751018179,0.035,0.005,0.05,-0.12123123263937778,0.00039875764906027495,-0.0006061561631968889,0.005247188413253463,0.00503978989911685,0.002,8e-05,0,-0.9901043704235817,-0.001814201209703766,-7.920834963388654e-05,-0.0,-0.0018934095593376526,0.1,0.02,0,-0.16024559192248175,-0.004627235682107766,-0.003204911838449635,0.0,-0.0078321475205574,0.011393075687436426,0.0,-0.011393075687436426,-0.06076115892256155,0.0,0.06076115892256155,-0.9071006048518829,0.0,0.9071006048518829,-0.04627235682107765,0,0.04627235682107765,0.0001962113714162042,-0.005039633081342823,0.0078321475205574,0.4,0.03343939781188965,1.5434691905975342,STABILIZE
0.035,0.005,0.05,-0.19097323970456456,-0.0019073901192139993,-0.0009548661985228228,0.004114832397058272,0.00125257607932145,0.035,0.005,0.05,-0.12068289503862197,0.0005740428785256576,-0.0006034144751931098,0.005652203655442268,0.005622832058774816,0.002,8e-05,0,-1.0203950548268599,-0.001812038177460938,-8.16316043861488e-05,0.0,-0.0018936697818470868,0.1,0.02,0,-0.16166362215975114,-0.0042414441557617,-0.003233272443195023,0.0,-0.007474716598956723,0.016401225100733073,0.0,-0.016401225100733073,-0.054496860548971404,0.0,0.054496860548971404,-0.906019088730469,0.0,0.906019088730469,-0.042414441557617,0,0.042414441557617,0.0012567381589312903,-0.005621903271629647,0.007474716598956723,0.4,0.033432722091674805,1.57686448097229,STABILIZE
0.035,0.005,0.05,-0.1927669780105478,-0.0018189361616311262,-0.000963834890052739,0.004397790976419732,0.0016150199247358665,0.035,0.005,0.05,-0.12008464397634239,0.000606655099734894,-0.0006004232198817119,0.004870186991987117,0.004876418871840299,0.002,8e-05,0,-1.0513066819229262,-0.0017911922078310564,-8.41045345538341e-05,0.0,-0.0018752967423848906,0.1,0.02,0,-0.16318427955054052,-0.004405768840148255,-0.0032636855910108103,0.0,-0.007669454431159065,0.0173330028495684,0.0,-0.0173330028495684,-0.05196960461803217,0.0,0.05196960461803217,-0.8955961039155282,0.0,0.8955961039155282,-0.044057688401482546,0,0.044057688401482546,0.0016187691775920556,-0.004875175557927325,0.007669454431159065,0.4,0.0345151424407959,1.6114146709442139,STABILIZE
0.035,0.005,0.05,-0.19448185548980557,-0.0017949612585766044,-0.0009724092774490279,0.004190492403559225,0.0014231218675335926,0.035,0.005,0.05,-0.11945470202220289,0.0006593598764395943,-0.0005972735101110145,0.0043027181536887385,0.004364804520017318,0.002,8e-05,0,-1.0813680727616417,-0.0017980137302463122,-8.650944582093134e-05,0.0,-0.0018845231760672436,0.1,0.02,0,-0.16463908746633646,-0.004350704565710427,-0.0032927817493267294,0.0,-0.007643486315037156,0.018838853612559835,0.0,-0.018838853612559835,-0.051284607387902977,0.0,0.051284607387902977,-0.8990068651231561,0.0,0.8990068651231561,-0.04350704565710427,0,0.04350704565710427,0.0014264358328078715,-0.004363722626691301,0.007643486315037156,0.4,0.03343844413757324,1.6448523998260498,STABILIZE
0.035,0.005,0.05,-0.19612743620126677,-0.0017217163661216296,-0.000980637181006334,0.004115882512235594,0.00141352896510763,0.035,0.005,0.05,-0.11882435837672749,0.000659507590929468,-0.0005941217918836374,0.003599687898629761,0.003665073697675592,0.002,8e-05,0,-1.111388108613076,-0.0017947980022922753,-8.891104868904608e-05,0.0,-0.0018837090509813215,0.1,0.02,0,-0.16596711646055273,-0.003969921617684779,-0.0033193423292110545,0.0,-0.007289263946895833,0.018843074026556227,0.0,-0.018843074026556227,-0.0491918961749037,0.0,0.0491918961749037,-0.8973990011461377,0.0,0.8973990011461377,-0.03969921617684778,0,0.03969921617684778,0.0014160680893108752,-0.003664093409156913,0.007289263946895833,0.4,0.03345227241516113,1.6783056259155273,STABILIZE
0.035,0.005,0.05,-0.1977053364009536,-0.0016515754439876444,-0.0009885266820047682,0.004035667504805997,0.0013955653788135843,0.035,0.005,0.05,-0.11820784294270013,0.0006453017446103639,-0.0005910392147135007,0.0020981563979652245,0.0021524189278620876,0.002,8e-05,0,-1.1411921686623594,-0.0017826097065417898,-9.129537349298876e-05,0.0,-0.0018739050800347786,0.1,0.02,0,-0.1671706188592865,-0.003599132222726668,-0.00334341237718573,0.0,-0.006942544599912398,0.018437192703153252,0.0,-0.018437192703153252,-0.047187869828218404,0.0,0.047187869828218404,-0.8913048532708949,0.0,0.8913048532708949,-0.03599132222726668,0,0.03599132222726668,0.0013969171820860141,-0.0021515418550320958,0.006942544599912398,0.4,0.033438682556152344,1.7117481231689453,STABILIZE
0.035,0.005,0.05,-0.19918125124200797,-0.001545026478972842,-0.00099590625621004,0.003072481144958018,0.0005315484097751363,0.035,0.005,0.05,-0.11746440120868462,0.0007782543631087152,-0.0005873220060434231,0.0017363274142070013,0.0019272597712722936,0.002,8e-05,0,-1.1707095927174516,-0.0017656923397174579,-9.365676741739614e-05,0.0,-0.001859349107134854,0.1,0.02,0,-0.1682892001650008,-0.0033456009561751558,-0.0033657840033000158,0.0,-0.006711384959475172,0.02223583894596329,0.0,-0.02223583894596329,-0.04414361368493834,0.0,0.04414361368493834,-0.8828461698587289,0.0,0.8828461698587289,-0.03345600956175156,0,0.03345600956175156,0.0005326736798416983,-0.0019269490623010548,0.006711384959475172,0.4,0.033434391021728516,1.7451822757720947,STABILIZE
0.035,0.005,0.05,-0.20052622825634722,-0.0014083088074115485,-0.0010026311412817362,0.00350887995188094,0.0010979400031876554,0.035,0.005,0.05,-0.11656189320259748,0.0009450049779150788,-0.0005828094660129874,0.0028916919899766185,0.00325388750187871,0.002,8e-05,0,-1.2001987256505888,-0.001764440377149472,-9.601589805204711e-05,0.0,-0.001860456275201519,0.1,0.02,0,-0.16942074524976328,-0.0033852196343765796,-0.0033884149049952655,0.0,-0.006773634539371845,0.027000142226145107,0.0,-0.027000142226145107,-0.04023739449747281,0.0,0.04023739449747281,-0.8822201885747359,0.0,0.8822201885747359,-0.033852196343765795,0,0.033852196343765795,0.001099862313228447,-0.0032532382355772763,0.006773634539371845,0.4,0.03342604637145996,1.7786200046539307,STABILIZE
0.035,0.005,0.05,-0.20190200021050714,-0.0014399375681042046,-0.0010095100010525358,0.003033790693215477,0.0005843431240587366,0.035,0.005,0.05,-0.1156385639493343,0.0009663930678940854,-0.0005781928197466715,0.0026240966051421224,0.0030122968532895365,0.002,8e-05,0,-1.2293639156447014,-0.0017443112107325247,-9.834911325157612e-05,0.0,-0.0018426603239841007,0.1,0.02,0,-0.17069284461411,-0.0038040849088307616,-0.0034138568922822,0.0,-0.007217941801112961,0.02761123051125958,0.0,-0.02761123051125958,-0.04114107337440584,0.0,0.04114107337440584,-0.8721556053662624,0.0,0.8721556053662624,-0.03804084908830761,0,0.03804084908830761,0.0005863429736680982,-0.0030119082217429567,0.007217941801112961,0.4,0.033440351486206055,1.812028169631958,STABILIZE
0.035,0.005,0.05,-0.20326432814140097,-0.0014256225782531735,-0.001016321640707005,0.0025304958263621747,8.855160740199597e-05,0.035,0.005,0.05,-0.11475311967607668,0.0009265825937466004,-0.0005737655983803834,0.0022827525758242853,0.0026355695711905024,0.002,8e-05,0,-1.2585561016472246,-0.0017456270897988728,-0.00010068448813177799,0.0,-0.0018463115779306508,0.1,0.02,0,-0.17196045824346523,-0.0037900222522038495,-0.0034392091648693048,0.0,-0.007229231417073155,0.02647378839276001,0.0,-0.02647378839276001,-0.04073207366437638,0.0,0.04073207366437638,-0.8728135448994364,0.0,0.8728135448994364,-0.03790022252203849,0,0.03790022252203849,9.029497413465314e-05,-0.0026355104191417627,0.007229231417073155,0.4,0.03344607353210449,1.8455328941345215,STABILIZE
0.035,0.005,0.05,-0.20457745967227162,-0.0013750226411874493,-0.001022887298361358,0.0023637113149309274,-3.419862461788003e-05,0.035,0.005,0.05,-0.11393145631365152,0.0008603903723336049,-0.0005696572815682576,0.0018383209175653452,0.0021290540083306925,0.002,8e-05,0,-1.2877569139064617,-0.0017472638956605095,-0.00010302055311251694,0.0,-0.0018502844487730263,0.1,0.02,0,-0.17319546271369105,-0.003694895030055759,-0.003463909254273821,-0.0,-0.00715880428432958,0.02458258206667442,0.0,-0.02458258206667442,-0.03928636117678426,0.0,0.03928636117678426,-0.8736319478302548,0.0,0.8736319478302548,-0.03694895030055759,0,0.03694895030055759,-3.28256314691037e-05,-0.002129075619660654,0.00715880428432958,0.4,0.03342461585998535,1.8789072036743164,STABILIZE
0.035,0.005,0.05,-0.20574375986748947,-0.0012201393576969223,-0.0010287187993374474,0.002775913773260492,0.0005270556162261224,0.035,0.005,0.05,-0.11297755422801747,0.0009979364513900948,-0.0005648877711400874,0.0018768289301258657,0.0023098776103758732,0.002,8e-05,0,-1.3168728394625542,-0.001740570583918832,-0.00010534982715700435,0.0,-0.0018459204110758364,0.1,0.02,0,-0.1743281428126365,-0.0033856207961113862,-0.00348656285625273,-0.0,-0.006872183652364116,0.028512470039716995,0.0,-0.028512470039716995,-0.03486112450562635,0.0,0.03486112450562635,-0.870285291959416,0.0,0.870285291959416,-0.03385620796111386,0,0.03385620796111386,0.0005284204361272406,-0.002309565768752721,0.006872183652364116,0.4,0.033455610275268555,1.9124009609222412,STABILIZE
0.035,0.005,0.05,-0.20679254028368743,-0.0010691334827529955,-0.0010339627014184373,0.0028639217193040536,0.0007608255351326206,0.035,0.005,0.05,-0.1118767105936558,0.0011222070612628605,-0.000559383552968279,0.0014856432080918335,0.002048466716386415,0.002,8e-05,0,-1.346494613227602,-0.001725521494796543,-0.00010771956905820818,0.0,-0.0018332410638547511,0.1,0.02,0,-0.17538438333685732,-0.003076395327765136,-0.0035076876667371466,0.0,-0.006584082994502282,0.03206305889322458,0.0,-0.03206305889322458,-0.030546670935799866,0.0,0.030546670935799866,-0.8627607473982715,0.0,0.8627607473982715,-0.03076395327765136,0,0.03076395327765136,0.0007619253133037638,-0.0020480579093374637,0.006584082994502282,0.4,0.03433370590209961,1.9466991424560547,STABILIZE
0.035,0.005,0.05,-0.20777637939021532,-0.0010298425625187959,-0.0010388818969510765,0.00346989760844133,0.0014011731489714575,0.035,0.005,0.05,-0.11044408898535478,0.0014996097414945423,-0.0005522204449267739,0.0045277989222725626,0.005475188218840331,0.002,8e-05,0,-1.3752152880559219,-0.001717921626250453,-0.00011001722304447376,0.0,-0.0018279388492949268,0.1,0.02,0,-0.17661565677506785,-0.003682419163152645,-0.003532313135501357,0.0,-0.007214732298654002,0.042845992614129774,0.0,-0.042845992614129774,-0.029424073214822738,0.0,0.029424073214822738,-0.8589608131252265,0.0,0.8589608131252265,-0.03682419163152645,0,0.03682419163152645,0.0014046917813596946,-0.005474286549360298,0.007214732298654002,0.4,0.03343653678894043,1.9801506996154785,STABILIZE
0.035,0.005,0.05,-0.2086668694624126,-0.0009310133288147567,-0.0010433343473120632,0.004191093946905454,0.0022167462707786342,0.035,0.005,0.05,-0.10897250402104276,0.0015385519266680042,-0.0005448625201052138,0.005200243085517271,0.006193932492080061,0.002,8e-05,0,-1.4038557963120282,-0.0017110767438536835,-0.00011230846370496227,0.0,-0.0018233852075586457,0.1,0.02,0,-0.17778303220951777,-0.0034871395077415777,-0.0035556606441903556,0.0,-0.007042800151931933,0.04395862647622869,0.0,-0.04395862647622869,-0.02660038082327876,0.0,0.02660038082327876,-0.8555383719268417,0.0,0.8555383719268417,-0.034871395077415775,0,0.034871395077415775,0.002220515615257622,-0.006192582187412063,0.007042800151931933,0.4,0.03347659111022949,2.0136191844940186,STABILIZE
0.035,0.005,0.05,-0.2094643824775262,-0.0008338764594263562,-0.0010473219123876309,0.004587674280263998,0.0027064759084500104,0.035,0.005,0.05,-0.10746727052578714,0.0015738661988544287,-0.0005373363526289357,0.00606747971193821,0.007104009558163703,0.002,8e-05,0,-1.432376491858653,-0.0017040643795752162,-0.00011459011934869225,0.0,-0.0018186544989239085,0.1,0.02,0,-0.1788848284957625,-0.003291525274810703,-0.0035776965699152504,0.0,-0.006869221844725953,0.044967605681555105,0.0,-0.044967605681555105,-0.02382504169789589,0.0,0.02382504169789589,-0.8520321897876081,0.0,0.8520321897876081,-0.03291525274810703,0,0.03291525274810703,0.002710556569725469,-0.007102453570972476,0.006869221844725953,0.4,0.03347373008728027,2.047159194946289,STABILIZE
0.035,0.005,0.05,-0.21023443464377783,-0.0008041840423926013,-0.0010511721732188893,0.003518086088517558,0.0016627298729060675,0.035,0.005,0.05,-0.10590149567027925,0.0016351764308491633,-0.0005295074783513963,0.005415497863372356,0.006521166815870123,0.002,8e-05,0,-1.4609232930313525,-0.0017035492970883957,-0.00011687386344250821,0.0,-0.001820423160530904,0.1,0.02,0,-0.179924020470996,-0.003100723524571251,-0.00359848040941992,0.0,-0.006699203933991172,0.04671932659569038,0.0,-0.04671932659569038,-0.02297668692550289,0.0,0.02297668692550289,-0.8517746485441978,0.0,0.8517746485441978,-0.03100723524571251,0,0.03100723524571251,0.001666258743526413,-0.006520266027569863,0.006699203933991172,0.4,0.03351449966430664,2.080673933029175,STABILIZE
0.035,0.005,0.05,-0.21101064745882991,-0.0007770949304107432,-0.0010550532372941496,0.00248284967694724,0.0006507015092423471,0.035,0.005,0.05,-0.10418958813510373,0.0017138530067009505,-0.0005209479406755187,0.005024344638327792,0.0062172497043532235,0.002,8e-05,0,-1.4906503833658056,-0.0017006213279070097,-0.00011925203066926445,0.0,-0.0018198733585762742,0.1,0.02,0,-0.18094298649613244,-0.002914640039209074,-0.0036188597299226487,0.0,-0.006533499769131723,0.0489672287628843,0.0,-0.0489672287628843,-0.022202712297449804,0.0,0.022202712297449804,-0.8503106639535049,0.0,0.8503106639535049,-0.029146400392090738,0,0.029146400392090738,0.0006538641438907799,-0.00621691788764694,0.006533499769131723,0.4,0.034960269927978516,2.1155622005462646,STABILIZE
0.035,0.005,0.05,-0.2116891542448813,-0.0007100509016794154,-0.0010584457712244065,0.0027198522030625165,0.0009513555301586946,0.035,0.005,0.05,-0.10247700257480286,0.0017922045089209943,-0.0005123850128740143,0.0024687887431421468,0.0037486082391891265,0.002,8e-05,0,-1.5191674758999916,-0.0017053066429687537,-0.00012153339807199933,0.0,-0.001826840041040753,0.1,0.02,0,-0.18192941324460846,-0.002949389186435546,-0.0036385882648921693,0.0,-0.006587977451327715,0.0512058431120284,0.0,-0.0512058431120284,-0.020287168619411867,0.0,0.020287168619411867,-0.8526533214843769,0.0,0.8526533214843769,-0.029493891864355457,0,0.029493891864355457,0.0009532850583046917,-0.003748118017524682,0.006587977451327715,0.4,0.033445119857788086,2.1490135192871094,STABILIZE
0.035,0.005,0.05,-0.21227501863711457,-0.0006129223755206377,-0.0010613750931855728,0.0027058746919967247,0.0010315772232905142,0.035,0.005,0.05,-0.10045766994776972,0.0021125949402889498,-0.0005022883497388486,0.004872652080057718,0.00648295867060782,0.002,8e-05,0,-1.5492988098449902,-0.001801310924898002,-0.00012394390478759923,-0.0,-0.0019252548296856012,0.1,0.02,0,-0.18284978374082084,-0.0027510787156111802,-0.003656995674816417,0.0,-0.006408074390427597,0.060359855436827134,0.0,-0.060359855436827134,-0.017512067872018217,0.0,0.017512067872018217,-0.900655462449001,0.0,0.900655462449001,-0.0275107871561118,0,0.0275107871561118,0.0010346899215996862,-0.006482462607571363,0.006408074390427597,0.4,0.03345489501953125,2.182487726211548,STABILIZE
0.035,0.005,0.05,-0.21287633180351365,-0.0006294435087550881,-0.0010643816590175683,0.0017355894350172569,4.176426724460049e-05,0.035,0.005,0.05,-0.09849617950834541,0.002053251938543714,-0.000492480897541727,0.004064132725242155,0.005624903766244142,0.002,8e-05,0,-1.5790508402919212,-0.001779650032967552,-0.0001263240672233537,-0.0,-0.0019059741001909059,0.1,0.02,0,-0.18374064716549865,-0.0026643981927979305,-0.003674812943309973,0.0,-0.006339211136107904,0.05866434110124896,0.0,-0.05866434110124896,-0.017984100250145373,0.0,0.017984100250145373,-0.889825016483776,0.0,0.889825016483776,-0.0266439819279793,0,0.0266439819279793,4.437998469245346e-05,-0.0056248837366193365,0.006339211136107904,0.4,0.033435821533203125,2.2159271240234375,STABILIZE
0.035,0.005,0.05,-0.21338326466487276,-0.0005305042022594359,-0.0010669163233243638,0.0023276814747045594,0.0007302609491207598,0.035,0.005,0.05,-0.09646662242543086,0.0021239273349234265,-0.0004823331121271543,0.004145225821686078,0.005786820044482351,0.002,8e-05,0,-1.608533914963948,-0.0017630844185001218,-0.00012868271319711584,-0.0,-0.0018917671316972377,0.1,0.02,0,-0.18464200531851346,-0.002695055608593402,-0.0036928401063702695,0.0,-0.006387895714963671,0.06068363814066933,0.0,-0.06068363814066933,-0.015157262921698167,0.0,0.015157262921698167,-0.8815422092500609,0.0,0.8815422092500609,-0.026950556085934017,0,0.026950556085934017,0.0007329828491458996,-0.00578647590713825,0.006387895714963671,0.4,0.033444881439208984,2.2493996620178223,STABILIZE
0.035,0.005,0.05,-0.21380876203052343,-0.0004326071806232826,-0.001069043810152617,0.0029188074116196366,0.001417156420843737,0.035,0.005,0.05,-0.09429364094164551,0.002209290748038883,-0.00047146820470822753,0.004210726227673974,0.00594854877100463,0.002,8e-05,0,-1.638761525550701,-0.0017561540847502732,-0.00013110092204405608,-0.0,-0.0018872550067943292,0.1,0.02,0,-0.18558289708601913,-0.00273318149985877,-0.003711657941720383,0.0,-0.0064448394415791525,0.06312259280111093,0.0,-0.06312259280111093,-0.012360205160665216,0.0,0.012360205160665216,-0.8780770423751366,0.0,0.8780770423751366,-0.0273318149985877,0,0.0273318149985877,0.0014199938966791487,-0.00594787206785362,0.0064448394415791525,0.4,0.034424781799316406,2.2837889194488525,STABILIZE
0.035,0.005,0.05,-0.21420076450377898,-0.0004080597200157259,-0.0010710038225188949,0.002554660779305972,0.0010755972367713512,0.035,0.005,0.05,-0.09210826120917041,0.002274897488160683,-0.0004605413060458521,0.004098889722273637,0.005913245904388468,0.002,8e-05,0,-1.6682749498402316,-0.0017555632169173319,-0.00013346199598721854,-0.0,-0.0018890252129045504,0.1,0.02,0,-0.18635355330011258,-0.0022920683297857317,-0.0037270710660022516,0.0,-0.006019139395787984,0.06499707109030523,0.0,-0.06499707109030523,-0.011658849143306454,0.0,0.011658849143306454,-0.8777816084586659,0.0,0.8777816084586659,-0.022920683297857316,0,0.022920683297857316,0.00107796269375577,-0.005912815147828314,0.006019139395787984,0.4,0.03362274169921875,2.3174350261688232,STABILIZE
0.035,0.005,0.05,-0.21397087145603017,0.00023663359398870578,-0.0010698543572801509,0.007142265449867437,0.006309044686575992,0.035,0.005,0.05,-0.08960819183981063,0.002573372295882121,-0.00044804095919905317,0.00387063357299927,0.005995964909682338,0.002,8e-05,0,-1.6976990946929167,-0.0017306783591554628,-0.00013581592757543333,0.0,-0.0018664942867308962,0.1,0.02,0,-0.18675098571028173,-0.001168815058093287,-0.0037350197142056347,0.0,-0.004903834772298922,0.07352492273948916,0.0,-0.07352492273948916,0.006760959828248736,0.0,-0.006760959828248736,-0.8653391795777313,0.0,0.8653391795777313,-0.011688150580932869,0,0.011688150580932869,0.0063102677124146234,-0.005994677760564967,0.004903834772298922,0.4,0.03400301933288574,2.35141658782959,STABILIZE
0.035,0.005,0.05,-0.21422500917231918,-0.00026578407756301176,-0.001071125045861596,0.002994119051909763,0.001657209928485155,0.035,0.005,0.05,-0.0870856872965066,0.002638103281089263,-0.000435428436482533,0.004930360654473141,0.007133035499079871,0.002,8e-05,0,-1.7262925292243159,-0.0017087877127092471,-0.00013810340233794528,0.0,-0.0018468911150471925,0.1,0.02,0,-0.1864260348393677,0.000970978241250239,-0.0037285206967873543,0.0,-0.0027575424555371154,0.07537437945969322,0.0,-0.07537437945969322,-0.007593830787514621,0.0,0.007593830787514621,-0.8543938563546235,0.0,0.8543938563546235,0.00970978241250239,0,-0.00970978241250239,0.001656001085768318,-0.0071333162401605015,0.0027575424555371154,0.4,0.033466339111328125,2.3848798274993896,STABILIZE
0.035,0.005,0.05,-0.21357208467834846,0.0006107957482289629,-0.0010678604233917424,0.008842938247585521,0.008385873572422741,0.035,0.005,0.05,-0.08437628196970144,0.00253458595767691,-0.0004218814098485072,0.0035360772484930164,0.005648781796321419,0.002,8e-05,0,-1.7579066052868064,-0.0016899563575852152,-0.00014063252842294453,0.0,-0.0018305888860081598,0.1,0.02,0,-0.18687400322478767,-0.001197325867504783,-0.0037374800644957534,0.0,-0.004934805932000536,0.0724167416479117,0.0,-0.0724167416479117,0.01745130709225608,0.0,-0.01745130709225608,-0.8449781787926076,0.0,0.8449781787926076,-0.011973258675047829,0,0.011973258675047829,0.008387053830980064,-0.005647029253629999,0.004934805932000536,0.4,0.0374140739440918,2.422321081161499,STABILIZE
0.035,0.005,0.05,-0.21348153722182464,9.483547418410704e-05,-0.0010674076861091233,0.003619042646611741,0.0026464704346867247,0.035,0.005,0.05,-0.08182286927561236,0.002674333580733866,-0.0004091143463780618,0.0040224103573252516,0.006287629591681056,0.002,8e-05,0,-1.7862621863747283,-0.001697051678108987,-0.00014290097490997827,0.0,-0.0018399526530189652,0.1,0.02,0,-0.18671846383429655,0.00046544343920610357,-0.003734369276685931,0.0,-0.0032689258374798275,0.07640953087811045,0.0,-0.07640953087811045,0.0027095849766887725,0.0,-0.0027095849766887725,-0.8485258390544934,0.0,0.8485258390544934,0.004654434392061035,0,-0.004654434392061035,0.0026459596490764578,-0.006287844557502469,0.0032689258374798275,0.4,0.033417463302612305,2.4557254314422607,STABILIZE
0.035,0.005,0.05,-0.21473617909979015,-0.0010248059839316791,-0.0010736808954989509,-0.004055153739398284,-0.006153640618828914,0.035,0.005,0.05,-0.0779859225622674,0.0031340624132833498,-0.000389929612811337,0.006530309887718847,0.00927444268819086,0.002,8e-05,0,-1.823497093590851,-0.0017379372846833187,-0.0001458797674872681,0.0,-0.0018838170521705867,0.1,0.02,0,-0.18545539366053113,0.002947686609526257,-0.0037091078732106224,0.0,-0.0007614212636843655,0.08954464037952427,0.0,-0.08954464037952427,-0.029280170969476545,0.0,0.029280170969476545,-0.8689686423416594,0.0,0.8689686423416594,0.029476866095262566,0,-0.029476866095262566,-0.006158411211633013,-0.009271275607524068,0.0007614212636843655,0.4,0.04284954071044922,2.498593807220459,STABILIZE
0.035,0.005,0.05,-0.21570777159444382,-0.0010164507349835169,-0.001078538857972219,-0.009400908375719304,-0.011495897968675041,0.035,0.005,0.05,-0.074700337144346,0.0034372802705600583,-0.00037350168572173,0.006611870478050482,0.00967564906288881,0.002,8e-05,0,-1.8522177195919114,-0.0017169515331701582,-0.00014817741756735292,0.0,-0.001865128950737511,0.1,0.02,0,-0.18444069884201592,0.0030329802426402016,-0.0036888139768403183,0.0,-0.0006558337342001167,0.09820800773028737,0.0,-0.09820800773028737,-0.029041449570957625,0.0,0.029041449570957625,-0.8584757665850791,0.0,0.8584757665850791,0.030329802426402014,0,-0.030329802426402014,-0.01150101821014085,-0.009669562297455695,0.0006558337342001167,0.4,0.03345537185668945,2.532027006149292,STABILIZE
0.035,0.005,0.05,-0.21705657677229562,-0.0014113206413773481,-0.001085282883861478,-0.008484416056937746,-0.010981019582176572,0.035,0.005,0.05,-0.07126960020505073,0.003589747383142933,-0.00035634800102525365,0.007361555097964984,0.010594954480082663,0.002,8e-05,0,-1.8809333010197922,-0.0017169436206544081,-0.0001504746640815834,-0.0,-0.0018674182847359915,0.1,0.02,0,-0.18306564665167546,0.004110811916173947,-0.0036613129330335093,0.0,0.000449498983140438,0.10256421094694093,0.0,-0.10256421094694093,-0.040323446896495654,0.0,0.040323446896495654,-0.8584718103272041,0.0,0.8584718103272041,0.041108119161739475,0,-0.041108119161739475,-0.010988618338680683,-0.010587073179400417,-0.000449498983140438,0.4,0.033449649810791016,2.565483570098877,STABILIZE
0.035,0.005,0.05,-0.2183663880609643,-0.0013703826861265536,-0.0010918319403048216,-0.014828816286379188,-0.017291030912810562,0.035,0.005,0.05,-0.06841560631905776,0.002985975034350985,-0.0003420780315952888,0.002995388885885821,0.005639285888641517,0.002,8e-05,0,-1.909758280400745,-0.0017233127076436495,-0.0001527806624320596,-0.0,-0.0018760933700757091,0.1,0.02,0,-0.18189382406160218,0.0035028936775434423,-0.0036378764812320438,0.0,-0.00013498280368860142,0.08531357241002813,0.0,-0.08531357241002813,-0.039153791032187246,0.0,0.039153791032187246,-0.8616563538218247,0.0,0.8616563538218247,0.03502893677543442,0,-0.03502893677543442,-0.01729447537292417,-0.005628713612977756,0.00013498280368860142,0.4,0.03345298767089844,2.598935842514038,STABILIZE
0.035,0.005,0.05,-0.2196342580666329,-0.0013259820917235056,-0.0010981712903331644,-0.010038366843626804,-0.012462520225683473,0.035,0.005,0.05,-0.06614095392586876,0.002378909765811599,-0.0003307047696293438,-0.0033822057680938586,-0.0013340007719116033,0.002,8e-05,0,-1.9387048010471957,-0.0017299010071240573,-0.00015509638408377566,-0.0,-0.0018849973912078329,0.1,0.02,0,-0.18093069601418427,0.0028779213218185816,-0.0036186139202836853,0.0,-0.0007406925984651037,0.06796885045175996,0.0,-0.06796885045175996,-0.03788520262067158,0.0,0.03788520262067158,-0.8649505035620286,0.0,0.8649505035620286,0.028779213218185815,0,-0.028779213218185815,-0.012461848595630239,0.0013402604279090808,0.0007406925984651037,0.4,0.03346610069274902,2.6325111389160156,STABILIZE
