Mode,Time,Freq,time2delay,actualDelay,North-Desired,East-Desired,Down-Desired,Roll-UAV,Pitch-UAV,Yaw-UAV,Roll-Control,Pitch-Control,Yaw-Control,Thrust-Control,North-Pos,East-Pos,Down-Pos,Yaw-Ang,North-Vel,East-Vel,Down-Vel,Yaw-Vel,North-Acc,East-Acc,Down-Acc,North-Avg,East-Avg,Down-Avg,Yaw-Avg,North-Dif,East-Dif,Down-Dif,Yaw-Dif,North-One,East-One,Down-One,Yaw-One,North-Two,East-Two,Down-Two,Yaw-Two,Landing-State,Q-Size,Kalman-Time,Kalman-Dt
STABILIZE,0.03432607650756836,29.14249187070954,0.03330972989400228,0.03342604637145996,0.0,0.0,0.0,0.2940476478969825,-1.1933975456544847,16.113141959659394,-0.026390819443288926,0.026823091929027997,0.34472517915171297,0.4,0.10008378230982953,0.09813097840590626,0.13879787110620168,0.099036987161742,0.5179944913834333,0.06690878071822226,1.7250336706638336,0.11324253540682801,9.437035024166107,0.21736198104918003,21.244387328624725,0.0,0.0,0.0,0.0,0.0,0.0,0.0,0.0,0.0,0.0,0.0,0.0,0.0,0.0,0.0,0.0,False,0,0.14475178718566895,0.02993701171875
STABILIZE,0.06922650337219238,28.653336157014913,0.03232625325520833,0.03403329849243164,0.0,0.0,0.0,0.2939007988298273,-1.1925544441788114,16.114424327676062,-0.008579463204471427,0.008765221088025315,0.12223152015413022,0.4,0.12245949035208471,0.11987298751536415,0.19140449733784173,0.12071405974708693,0.18847865285351872,0.10543711250647902,1.8600290641188622,0.054355149008010625,-0.8477232418954372,0.3598468378186226,24.965839087963104,0.0,0.0,0.0,0.0,0.0,0.0,0.0,0.0,0.0,0.0,0.0,0.0,0.0,0.0,0.0,0.0,False,0,0.20212531089782715,0.034925048828125
STABILIZE,0.1031656265258789,29.462451092644756,0.03249481519063314,0.03320431709289551,0.0,0.0,0.0,0.2953628861990331,-1.1926504937140145,16.117736969423518,-0.006793164828560186,0.007086959547030696,0.10067786936801129,0.4,0.13538074482847584,0.13185862704795462,0.22426052177533073,0.13242818333131184,0.18847865285351872,0.10543711250647902,1.8600290641188622,0.054355149008010625,-0.8477232418954372,0.3598468378186226,24.965839087963104,0.0,0.0,0.0,0.0,0.0,0.0,0.0,0.0,0.0,0.0,0.0,0.0,0.0,0.0,0.0,0.0,False,0,0.23080730438232422,0.034925048828125
STABILIZE,0.13677453994750977,29.7540116056354,0.032587560017903645,0.032723426818847656,0.0,0.0,0.0,0.2947365365078018,-1.192890083943494,16.117895771321724,-0.006718643782786526,0.006927161427449123,0.09855199776834238,0.4,0.14609559797801194,0.1420656749094712,0.25683648071101367,0.14170058166456204,0.1263462589122355,0.1084816176444292,1.8392473459243774,-0.012673869572208231,0.8077424950897694,2.451198361814022,30.829432606697083,0.0,0.0,0.0,0.0,0.0,0.0,0.0,0.0,0.0,0.0,0.0,0.0,0.0,0.0,0.0,0.0,False,0,0.2595558166503906,0.029936767578125
STABILIZE,0.1701185703277588,29.989732442906377,0.03243997891743978,0.03256940841674805,0.0,0.0,0.0,0.29466876822463056,-1.192609832744112,16.118860535541987,-0.005693471258829638,0.005820139608223332,0.08897751231625732,0.4,0.15148962742011396,0.14732859615583363,0.2803583440671089,0.14689539794770687,0.04962757811881602,0.0596240337472409,1.5193203464150429,0.05918396935423734,4.048040881752968,0.20833020098507404,22.75507301092148,0.0,0.0,0.0,0.0,0.0,0.0,0.0,0.0,0.0,0.0,0.0,0.0,0.0,0.0,0.0,0.0,False,0,0.2881131172180176,0.034925048828125
STABILIZE,0.203566312789917,29.896957773786102,0.03254679044087728,0.032683610916137695,0.0,0.0,0.0,0.29499672402649696,-1.1929469666126755,16.121739460277148,-0.006606804191289156,0.0068970028187239334,0.10154220703225444,0.4,0.1602944745018938,0.15538346398232525,0.31165873124115095,0.15494575788996018,0.22492208518087864,0.17249648226425052,1.7556855455040932,0.1798523411215774,5.68644218146801,-1.513783074915409,23.39262366294861,0.0,0.0,0.0,0.0,0.0,0.0,0.0,0.0,0.0,0.0,0.0,0.0,0.0,0.0,0.0,0.0,False,0,0.31686830520629883,0.03492626953125
STABILIZE,0.23758697509765625,29.396167701602163,0.0325498898824056,0.033149003982543945,0.0,0.0,0.0,0.2947485960605551,-1.1930998988170602,16.123018413199233,-0.006142991706941373,0.006751811602464386,0.09674714360752619,0.4,0.1676679768280069,0.16088509181228636,0.3412246512806467,0.16053576686401677,0.1993461512029171,0.038168157334439456,1.630592904984951,0.0524638969742712,0.964460801333189,0.18185299122706056,22.144466638565063,0.0,0.0,0.0,0.0,0.0,0.0,0.0,0.0,0.0,0.0,0.0,0.0,0.0,0.0,0.0,0.0,False,1,0.34549403190612793,0.034926025390625
STABILIZE,0.27121829986572266,29.734394827696214,0.0324433167775472,0.032842159271240234,0.0,0.0,0.0,0.29427741972953,-1.192600547955709,16.12460813972855,-0.006803526740472051,0.008178656860863921,0.10872108256532222,0.4,0.17952207953977967,0.1681909138579473,0.39644958874620906,0.1687443626937196,0.2262835158035159,0.038633562508039176,1.482624839991331,0.10906515435785119,6.271906197071075,0.18442516447976232,23.616234958171844,0.0,0.0,0.0,0.0,0.0,0.0,0.0,0.0,0.0,0.0,0.0,0.0,0.0,0.0,0.0,0.0,False,0,0.4029965400695801,0.029935791015625
STABILIZE,0.304826021194458,29.758022519102926,0.03250578244527181,0.03264307975769043,0.0,0.0,0.0,0.29492820869138525,-1.192243990736693,16.125955394542338,-0.0051806138466057,0.005755886868885538,0.07954809707227999,0.4,0.18095435099725368,0.1686297079201903,0.4174878246019217,0.16736129091980007,0.14876308850944042,0.08068679017014802,1.6355251893401146,-0.07576580102917711,0.12604666408151388,0.23875304032117128,24.39597398042679,0.0,0.0,0.0,0.0,0.0,0.0,0.0,0.0,0.0,0.0,0.0,0.0,0.0,0.0,0.0,0.0,False,0,0.4315328598022461,0.034925048828125
STABILIZE,0.33818817138671875,29.97066032140739,0.03236511548360189,0.03248310089111328,0.0,0.0,0.0,0.2963221008905968,-1.1923745113828639,16.126068092663644,-0.0055278364814734275,0.0065724452634713946,0.09208697376739317,0.4,0.18526338032053988,0.17029902087599652,0.44752942641171556,0.16976963194465056,0.23969837930053473,0.055009807692840695,1.898716576397419,0.12077594057666118,0.25535421445965767,0.26291990652680397,28.728777170181274,0.0,0.0,0.0,0.0,0.0,0.0,0.0,0.0,0.0,0.0,0.0,0.0,0.0,0.0,0.0,0.0,False,0,0.46036505699157715,0.034926025390625
STABILIZE,0.3716151714324951,29.916789706060673,0.03246358235677083,0.0325779914855957,0.0,0.0,0.0,0.2952365276993879,-1.1907528750635146,16.129221932512895,-0.005296780969627814,0.004949266814329946,0.09034917029280017,0.4,0.18306215196162445,0.17094134849726922,0.476438159385963,0.17133472097170233,-0.21234021987766027,0.03747942391782999,1.854899525642395,0.1106447289849092,-1.3001847080886364,0.14278426533564925,24.56005960702896,0.0,0.0,0.0,0.0,0.0,0.0,0.0,0.0,0.0,0.0,0.0,0.0,0.0,0.0,0.0,0.0,False,0,0.48900866508483887,0.02993603515625
STABILIZE,0.4050791263580322,29.88140918320094,0.03244641621907552,0.032579898834228516,0.0,0.0,0.0,0.2955072806669554,-1.1904049623026671,16.13110194208194,-0.004920259622227999,0.005280416618457823,0.06594566357387101,0.4,0.18232932825544673,0.1701118187928706,0.4945396215093749,0.16568286367596063,0.12248917482793331,0.11204195907339454,1.5699304640293121,-0.2572698539808142,2.667246386408806,2.057974226772785,18.360303342342377,0.0,0.0,0.0,0.0,0.0,0.0,0.0,0.0,0.0,0.0,0.0,0.0,0.0,0.0,0.0,0.0,False,0,0.5176258087158203,0.034926025390625
STABILIZE,0.4386556148529053,29.782322199500115,0.032457860310872395,0.03283977508544922,0.0,0.0,0.0,0.2939828678215732,-1.1902140371710241,16.13460070648428,-0.005238381969534192,0.006145854875216664,0.08696790221569053,0.4,0.18491348845984595,0.17054963284971508,0.5178627030439935,0.1668725717448586,0.2560870489105582,0.103319576010108,1.5342801809310913,0.17136117534342185,5.41435182094574,0.24080581497401,24.72856193780899,0.0,0.0,0.0,0.0,0.0,0.0,0.0,0.0,0.0,0.0,0.0,0.0,0.0,0.0,0.0,0.0,False,1,0.5465919971466064,0.03492578125
STABILIZE,0.4723348617553711,29.69418761061947,0.032593520482381184,0.03274035453796387,0.0,0.0,0.0,0.29366334303446356,-1.189729627348482,16.1367829519241,-0.004317999615952237,0.0038642201356903403,0.08195417177744276,0.4,0.17869858906158342,0.16753739766815307,0.5608787578423822,0.16644731047591776,0.037641997914761305,0.07365000783465803,1.8262509256601334,0.16671595301672562,-1.0183985345065594,-1.6184620559215546,27.01537013053894,0.0,0.0,0.0,0.0,0.0,0.0,0.0,0.0,0.0,0.0,0.0,0.0,0.0,0.0,0.0,0.0,False,0,0.6040389537811279,0.03492626953125
STABILIZE,0.5057594776153564,29.915722803914296,0.03236821492513021,0.03251338005065918,0.0,0.0,0.0,0.29427304413959293,-1.1896433962102106,16.1386732067769,-0.004304013345394544,0.005030288072203314,0.08704090625079071,0.4,0.17751678977065244,0.1647999649703783,0.5854361631770022,0.1675411940659353,0.08533077780157328,-0.029943278059363365,1.7987312749028206,0.23253298988029075,-2.2413579747080803,-1.7196839675307274,23.521026968955994,0.0,0.0,0.0,0.0,0.0,0.0,0.0,0.0,0.0,0.0,0.0,0.0,0.0,0.0,0.0,0.0,False,0,0.6325943470001221,0.0349248046875
STABILIZE,0.5391454696655273,29.952895808041134,0.032419474919637044,0.03255295753479004,0.0,0.0,0.0,0.29398148043939804,-1.1890930323734958,16.140730801264368,-0.0040961708788864685,0.004883837341039974,0.08664820305337387,0.4,0.17592039521483765,0.16159641673220762,0.6090713889948773,0.1683659056723763,0.08533077780157328,-0.029943278059363365,1.7987312749028206,0.23253298988029075,-2.2413579747080803,-1.7196839675307274,23.521026968955994,0.0,0.0,0.0,0.0,0.0,0.0,0.0,0.0,0.0,0.0,0.0,0.0,0.0,0.0,0.0,0.0,False,0,0.6615321636199951,0.0349248046875
STABILIZE,0.5727953910827637,29.719014823002578,0.032485040028889973,0.03261852264404297,0.0,0.0,0.0,0.293378929688556,-1.1880307245141473,16.141482122073068,-0.004378082418080479,0.004253543963934429,0.06972298588593182,0.4,0.17216177498917584,0.1598053514989965,0.6307199453620532,0.1642215283765458,-0.033652663114480674,0.08963336586020887,1.7297664657235146,-0.07949182930397775,-0.13821269385516644,0.3733895253390074,26.40935778617859,0.0,0.0,0.0,0.0,0.0,0.0,0.0,0.0,0.0,0.0,0.0,0.0,0.0,0.0,0.0,0.0,False,0,0.6902692317962646,0.029894287109375
STABILIZE,0.6062095165252686,29.925541174959687,0.03228786786397298,0.03255748748779297,0.0,0.0,0.0,0.29405799990244336,-1.1886779916597117,16.143906839228425,-0.0038130195631858486,0.004259250712740408,0.05574272750370525,0.4,0.16882473939214215,0.15610446963708632,0.6436582271364085,0.15664070147909837,0.09071636595763266,0.0476477958727628,1.6335655003786087,-0.2092116024439731,1.9294271245598793,0.32362027559429407,25.151363015174866,0.0,0.0,0.0,0.0,0.0,0.0,0.0,0.0,0.0,0.0,0.0,0.0,0.0,0.0,0.0,0.0,False,0,0.7189974784851074,0.034925048828125
STABILIZE,0.6396350860595703,29.917429883876856,0.03247073491414388,0.03260350227355957,0.0,0.0,0.0,0.2927175752778283,-1.1891514091465583,16.146280329965002,-0.0037623441414202635,0.0035982783932575505,0.05086837320963149,0.4,0.16341064137030534,0.1526474254378541,0.663512807061848,0.14877080516331623,-0.10992434108629823,0.004198602982796729,1.7138054594397545,-0.280553568654991,-0.33335257321596146,0.284748082049191,24.846461415290833,0.0,0.0,0.0,0.0,0.0,0.0,0.0,0.0,0.0,0.0,0.0,0.0,0.0,0.0,0.0,0.0,False,1,0.7474768161773682,0.03492578125
STABILIZE,0.6731362342834473,29.849510728391987,0.032479317982991536,0.03262758255004883,0.0,0.0,0.0,0.2921716937527562,-1.1891289975883441,16.147339009286355,-0.002869239191115016,0.0033357361924201646,0.0654680417979178,0.4,0.157615233102967,0.14625944391471662,0.6953971405009121,0.14621434125625643,0.3731441218405962,0.049991998821496964,1.483942475169897,0.2864004240279335,4.772911220788956,0.2819729736074805,22.432982921600342,0.0,0.0,0.0,0.0,0.0,0.0,0.0,0.0,0.0,0.0,0.0,0.0,0.0,0.0,0.0,0.0,False,0,0.8048372268676758,0.03492578125
STABILIZE,0.7065348625183105,29.942631962192493,0.032468589146931966,0.032596588134765625,0.0,0.0,0.0,0.29377433360847627,-1.1886787387116522,16.150912905769562,-0.00357654148987946,0.0029542157566378566,0.06375228203642741,0.4,0.15105855031283885,0.14321878157266482,0.7131311893725439,0.14353419672368603,-0.14852607855573297,0.05774961318820715,1.7358873039484024,0.07973199983273228,-5.528544634580612,0.41343914344906807,24.66503530740738,0.0,0.0,0.0,0.0,0.0,0.0,0.0,0.0,0.0,0.0,0.0,0.0,0.0,0.0,0.0,0.0,False,0,0.8336787223815918,0.034926025390625
STABILIZE,0.7400009632110596,29.880557672990474,0.03251698811848958,0.03265070915222168,0.0,0.0,0.0,0.29338373216531616,-1.1882770382110908,16.151741066206426,-0.004177776911703281,0.0035625494196700647,0.049723374680173744,0.4,0.14749381429689298,0.14274558181597688,0.7280788975015501,0.1372153099597715,0.052543217316269875,0.22520616184920073,1.6228323802351952,-0.13965348954509216,2.419648692011833,0.41679968126118183,17.807234823703766,0.0,0.0,0.0,0.0,0.0,0.0,0.0,0.0,0.0,0.0,0.0,0.0,0.0,0.0,0.0,0.0,False,0,0.8626244068145752,0.034925048828125
STABILIZE,0.7750899791717529,28.49855954775235,0.032503398259480794,0.034249305725097656,0.0,0.0,0.0,0.29290295088077073,-1.1882453418644738,16.152987575729956,-0.0041617914195458214,0.0034707890415806215,0.04681006527519757,0.4,0.14383444596902345,0.14224772374394223,0.7420272599359614,0.13071137152360504,0.052543217316269875,0.22520616184920073,1.6228323802351952,-0.13965348954509216,2.419648692011833,0.41679968126118183,17.807234823703766,0.0,0.0,0.0,0.0,0.0,0.0,0.0,0.0,0.0,0.0,0.0,0.0,0.0,0.0,0.0,0.0,False,0,0.8913331031799316,0.034925048828125
STABILIZE,0.8085253238677979,29.909322988718856,0.03248432477315267,0.03261137008666992,0.0,0.0,0.0,0.29304200926340396,-1.1882269857310794,16.156240453322173,-0.003041257523838017,0.003980104328404009,0.05561847076660784,0.4,0.1426156047508073,0.1376603192830809,0.7525440931031134,0.12792164062374875,0.20555397495627403,-0.022774239187128842,1.4721199870109558,0.09501932389696953,3.2581906765699387,0.31328811310231686,20.267046988010406,0.0,0.0,0.0,0.0,0.0,0.0,0.0,0.0,0.0,0.0,0.0,0.0,0.0,0.0,0.0,0.0,False,0,0.9198970794677734,0.02993701171875
STABILIZE,0.8419897556304932,29.882260741943988,0.03246000607808431,0.03263282775878906,0.0,0.0,0.0,0.2924570675940158,-1.1887407440227111,16.15739817038649,-0.002417266644316467,0.0014936840720081478,0.050824949718270375,0.4,0.13228166781304176,0.13128129405817723,0.7691636776990813,0.12415471763889709,0.06782390992157161,0.034393154783174396,1.4516054652631283,0.10030422278790657,-0.2610498573631048,0.37049027159810066,21.872544288635254,0.0,0.0,0.0,0.0,0.0,0.0,0.0,0.0,0.0,0.0,0.0,0.0,0.0,0.0,0.0,0.0,False,0,0.9771678447723389,0.02993603515625
STABILIZE,0.8754537105560303,29.882260741943988,0.032528193791707356,0.032647132873535156,0.0,0.0,0.0,0.2922026430474328,-1.1886360500293396,16.160671538546218,-0.002902122963021531,0.002769509869085059,0.04429773929168694,0.4,0.12784979104799654,0.12740980691420845,0.7752876608749278,0.119059671098112,0.03388140175957233,0.05463679553940892,1.6740111634135246,-0.027911174506967038,1.955648884177208,0.30375104397535324,20.2578142285347,0.0,0.0,0.0,0.0,0.0,0.0,0.0,0.0,0.0,0.0,0.0,0.0,0.0,0.0,0.0,0.0,False,0,1.0059406757354736,0.03492578125
STABILIZE,0.908881425857544,29.91465597786162,0.032501967748006184,0.03262472152709961,0.0,0.0,0.0,0.2933171378209085,-1.188854189195957,16.161737048056743,-0.003233437375581913,0.003004728367178353,0.06149008510005868,0.4,0.12478938682177515,0.12519947530959946,0.7864376900298917,0.11962124178272808,0.08773419540375471,0.12308517470955849,1.6598254442214966,0.28859371516430093,2.9406223446130753,2.1397827193140984,14.52631950378418,0.0,0.0,0.0,0.0,0.0,0.0,0.0,0.0,0.0,0.0,0.0,0.0,0.0,0.0,0.0,0.0,False,0,1.0349860191345215,0.034926025390625
STABILIZE,0.9426038265228271,29.654088984099378,0.032525094350179036,0.03297305107116699,0.0,0.0,0.0,0.2937878872651105,-1.1903066716116424,16.164163472759387,-0.0031853668506028523,0.0024146304873737218,0.05862072083867066,0.4,0.11983620068245032,0.12304335560954538,0.7924610178290957,0.11927756940182535,-0.027636546292342246,0.12614859733730555,1.3981515541672707,0.22888180020166937,-4.038050025701523,0.24616499431431293,20.728857815265656,0.0,0.0,0.0,0.0,0.0,0.0,0.0,0.0,0.0,0.0,0.0,0.0,0.0,0.0,0.0,0.0,False,0,1.0632843971252441,0.034925048828125
STABILIZE,0.976123571395874,29.83252605000178,0.032573970158894856,0.03270840644836426,0.0,0.0,0.0,0.2942589568744298,-1.1896287753365187,16.165022369047517,-0.0024905870315987113,0.002606191400487961,0.03714346481070721,0.4,0.1161779738962291,0.11856033087105772,0.800384720928431,0.11282686999180923,0.05016023060306907,-0.013948277046438307,1.5617389231920242,-0.1400819238329518,-2.23764106631279,0.09698618086986244,22.84347265958786,0.0,0.0,0.0,0.0,0.0,0.0,0.0,0.0,0.0,0.0,0.0,0.0,0.0,0.0,0.0,0.0,False,0,1.0922350883483887,0.02993701171875
STABILIZE,1.0096018314361572,29.870556061987237,0.032511027654012044,0.03262901306152344,0.0,0.0,0.0,0.2949589445426503,-1.1894305931288824,16.16591200118691,-0.0022632051454476105,0.0024391939220883446,0.03283585376030037,0.4,0.1123086888525128,0.11373978540464066,0.8023766575427417,0.10607329164604504,0.05016023060306907,-0.013948277046438307,1.5617389231920242,-0.1400819238329518,-2.23764106631279,0.09698618086986244,22.84347265958786,0.0,0.0,0.0,0.0,0.0,0.0,0.0,0.0,0.0,0.0,0.0,0.0,0.0,0.0,0.0,0.0,False,0,1.1210622787475586,0.02993701171875
STABILIZE,1.0430457592010498,29.901220485913083,0.032454760869344075,0.032582759857177734,0.0,0.0,0.0,0.29473546929074396,-1.1883782103881717,16.167735661695307,-0.0013895684206896213,0.00198733335682773,0.03766644578709345,0.4,0.10718420597477343,0.10621295976623321,0.8133158936088383,0.10166908100478839,0.044195333612151444,0.012358964886516333,1.5322362072765827,0.028046144114247513,-1.0745998471975327,0.11486531002447009,22.174714505672455,0.0,0.0,0.0,0.0,0.0,0.0,0.0,0.0,0.0,0.0,0.0,0.0,0.0,0.0,0.0,0.0,False,0,1.17836332321167,0.034926025390625
STABILIZE,1.0765058994293213,29.88609335698966,0.032474549611409505,0.032628774642944336,0.0,0.0,0.0,0.29473546929074396,-1.1883782103881717,16.167735661695307,-0.002368205766836383,0.0021007320627425695,0.04656182105066813,0.4,0.10305426483570068,0.1031568346716929,0.8208840233119068,0.10044360041737081,0.0019880011677742004,0.060449924785643816,1.6410872340202332,0.1619190658059007,-0.26689167134463787,0.16589348670095205,23.684008419513702,0.0,0.0,0.0,0.0,0.0,0.0,0.0,0.0,0.0,0.0,0.0,0.0,0.0,0.0,0.0,0.0,False,0,1.2070138454437256,0.02993603515625
STABILIZE,1.1102488040924072,29.636278846289727,0.032457860310872395,0.03294253349304199,0.0,0.0,0.0,0.29482991800036057,-1.1893442552689053,16.171345416671656,-0.00224115482606759,0.0019536664801910477,0.04542673233200904,0.4,0.09880329982566412,0.09994475659814979,0.822828480328521,0.09905766282529745,0.0019880011677742004,0.060449924785643816,1.6410872340202332,0.1619190658059007,-0.26689167134463787,0.16589348670095205,23.684008419513702,0.0,0.0,0.0,0.0,0.0,0.0,0.0,0.0,0.0,0.0,0.0,0.0,0.0,0.0,0.0,0.0,False,0,1.235644817352295,0.02993603515625
STABILIZE,1.1437461376190186,29.853334946653664,0.03256038029988607,0.03267812728881836,0.0,0.0,0.0,0.2934948294610346,-1.1895149032764498,16.172836105458014,-0.002065452002082002,0.0023561680150388942,0.054853231115752486,0.4,0.09655773913698494,0.09646283054832412,0.822687982112505,0.10058375651201037,0.11578690027818084,0.03643088566605002,1.5163213014602661,0.33395374849429604,0.19551580771803856,0.008588400669395924,19.352734088897705,0.0,0.0,0.0,0.0,0.0,0.0,0.0,0.0,0.0,0.0,0.0,0.0,0.0,0.0,0.0,0.0,False,0,1.2644016742706299,0.034926025390625
STABILIZE,1.1771786212921143,29.91081603400201,0.03250101407368978,0.03261423110961914,0.0,0.0,0.0,0.29362769798473254,-1.1898818125009265,16.174979077310105,-0.0026149435082287926,0.0016242312244267964,0.03282484475627135,0.4,0.09184617844378898,0.09541639152777849,0.8264124596395831,0.09557807275347115,-0.050494534661993384,0.1671447535045445,1.4554651454091072,-0.08624762677495422,-0.7701348513364792,2.041317895054817,24.503876268863678,0.0,0.0,0.0,0.0,0.0,0.0,0.0,0.0,0.0,0.0,0.0,0.0,0.0,0.0,0.0,0.0,False,0,1.2933006286621094,0.034926025390625
STABILIZE,1.210512638092041,29.9989557629725,0.032506736119588216,0.0326085090637207,0.0,0.0,0.0,0.29365192381194494,-1.1902525637068113,16.1777589643023,-0.0016883087366116776,0.0026359822719239185,0.0306630453534823,0.4,0.09141322452589165,0.09104600697736859,0.8357718976003154,0.09067833823152824,0.2054800046607852,-0.0386554398573935,1.831626519560814,-0.07840001956308724,3.7018246948719025,-1.8847182393074036,24.888142943382263,0.0,0.0,0.0,0.0,0.0,0.0,0.0,0.0,0.0,0.0,0.0,0.0,0.0,0.0,0.0,0.0,False,0,1.3218705654144287,0.029935791015625
STABILIZE,1.2440166473388672,29.848023796985526,0.03260186513264974,0.0327153205871582,0.0,0.0,0.0,0.29295054876154925,-1.190351281284659,16.178998643636657,-0.0010478211961914155,0.0010389870893567107,0.027136711718156202,0.4,0.08509226291585248,0.0847872128739773,0.837612210993079,0.08546345831170364,0.09728585137054324,0.09635285823605955,1.4832916669547558,0.028644365965898817,3.6885876208543777,2.052210457623005,25.42887032032013,0.0,0.0,0.0,0.0,0.0,0.0,0.0,0.0,0.0,0.0,0.0,0.0,0.0,0.0,0.0,0.0,False,0,1.379232406616211,0.0349248046875
STABILIZE,1.277479648590088,29.88332525862806,0.032532723744710286,0.03271961212158203,0.0,0.0,0.0,0.292561975030799,-1.1902732677177328,16.18068740790894,-0.0016450362280724619,0.0017330901034617082,0.03152464310908971,0.4,0.08204952430890093,0.08143268174011281,0.843776487779859,0.08224548970180151,0.031211978057399392,0.010375322017353028,1.6998853534460068,0.013251767609014779,1.9271360710263252,0.17457572976127267,28.02470326423645,0.0,0.0,0.0,0.0,0.0,0.0,0.0,0.0,0.0,0.0,0.0,0.0,0.0,0.0,0.0,0.0,False,0,1.4079134464263916,0.02993701171875
STABILIZE,1.310953140258789,29.873747337981925,0.03257635434468587,0.032689571380615234,0.0,0.0,0.0,0.29270818376771957,-1.190845936390956,16.182260058965337,-0.0015655963659591235,0.0021514126040567223,0.03415191865269764,0.4,0.08090663249376724,0.0781645487948663,0.8459780873951394,0.08024946916852649,0.1468169502913952,0.016254368529189378,1.7704853788018227,0.09060732851804543,5.442807450890541,-0.00408001069445163,18.879857659339905,0.0,0.0,0.0,0.0,0.0,0.0,0.0,0.0,0.0,0.0,0.0,0.0,0.0,0.0,0.0,0.0,False,0,1.436661720275879,0.034925048828125
STABILIZE,1.3444087505340576,29.8905659839512,0.032532723744710286,0.032651424407958984,0.0,0.0,0.0,0.2919165221542328,-1.1898592942210067,16.183759285488154,-0.0017868875379821328,0.002373122376436285,0.016017242444427694,0.4,0.0807142390935937,0.07608022579072433,0.8492967112917383,0.07334174016570326,0.19115573959425092,0.07685519522055984,1.5500245615839958,-0.21875687185034526,7.7301353216171265,-1.7534388229250908,23.132403194904327,0.0,0.0,0.0,0.0,0.0,0.0,0.0,0.0,0.0,0.0,0.0,0.0,0.0,0.0,0.0,0.0,False,0,1.4654285907745361,0.03492578125
STABILIZE,1.3778717517852783,29.883751086538325,0.03252771695454915,0.03265547752380371,0.0,0.0,0.0,0.29040950494689294,-1.1885999780927856,16.18707021968832,-0.0014684430229709488,0.0017904862705844298,0.033377691774043795,0.4,0.07837679724726933,0.07304744262319623,0.8513064618669263,0.07239791550078334,0.05631881067529321,0.014918735541868955,1.4987917616963387,0.13934566412497879,0.6627325899899006,0.187996297609061,23.400337994098663,0.0,0.0,0.0,0.0,0.0,0.0,0.0,0.0,0.0,0.0,0.0,0.0,0.0,0.0,0.0,0.0,False,0,1.4939196109771729,0.029936279296875
STABILIZE,1.4113450050354004,29.873960113960113,0.03251198132832845,0.032648324966430664,0.0,0.0,0.0,0.29126936173037404,-1.1886269786843482,16.188338927326647,-0.0021552050776697334,0.0017978025126313172,0.03303217260481358,0.4,0.07633034355833036,0.07290453967365118,0.8498191282119385,0.07149038160441536,0.07709237397648394,0.187859614379704,1.5886040404438972,0.13922194698755164,1.4662684872746468,2.253873087465763,21.8493714928627,0.0,0.0,0.0,0.0,0.0,0.0,0.0,0.0,0.0,0.0,0.0,0.0,0.0,0.0,0.0,0.0,False,0,1.5229072570800781,0.034926025390625
STABILIZE,1.4461674690246582,28.71827456350565,0.03249839146931966,0.034075260162353516,0.0,0.0,0.0,0.2916408599881993,-1.1887883419034897,16.191229804892856,-0.0016474814963108645,0.0016957284401049094,0.025487062106556824,0.4,0.07404705447878522,0.07081608288029757,0.8591446487112043,0.068443819297636,0.15610872069373727,0.051335617899894714,1.78868118673563,0.03885138331928868,0.027787964791059494,0.3340171417221427,27.1904855966568,0.0,0.0,0.0,0.0,0.0,0.0,0.0,0.0,0.0,0.0,0.0,0.0,0.0,0.0,0.0,0.0,False,0,1.5802390575408936,0.03492578125
STABILIZE,1.479712963104248,29.810898597695758,0.032576831181844075,0.03271317481994629,0.0,0.0,0.0,0.2920504578949885,-1.1892567434701646,16.19284172953698,-0.0015917521621636593,-0.0008006251679989602,0.021967140477281634,0.4,0.06281730097622905,0.06883866786296743,0.8593820067029017,0.06492926622045875,-0.4908112343400717,0.057256792206317186,1.454651728272438,-0.03607002223353239,-8.689308911561966,0.15541384927928448,22.189640998840332,0.0,0.0,0.0,0.0,0.0,0.0,0.0,0.0,0.0,0.0,0.0,0.0,0.0,0.0,0.0,0.0,False,0,1.6086699962615967,0.034926025390625
STABILIZE,1.5131585597991943,29.89802333787165,0.03248480161031087,0.03259754180908203,0.0,0.0,0.0,0.29288214014814334,-1.1893999639993234,16.194673927781835,-0.0014507229506337514,0.0024979954020129752,0.016998800663411435,0.4,0.06510115346875837,0.06654713302785288,0.8603905834991178,0.06049914149152224,0.3146379254758358,0.03502941981423646,1.5223583206534386,-0.09302700307280178,2.183321490883827,0.17470616148784757,21.582022309303284,0.0,0.0,0.0,0.0,0.0,0.0,0.0,0.0,0.0,0.0,0.0,0.0,0.0,0.0,0.0,0.0,False,0,1.6373753547668457,0.02993603515625
STABILIZE,1.5466034412384033,29.901220485913083,0.032473357518514,0.03259754180908203,0.0,0.0,0.0,0.29173637591487367,-1.1894389174219335,16.197551144969704,-0.001761867959593314,0.0007071751254836752,0.011259271960446689,0.4,0.06048009986404084,0.06567346086996938,0.8609438633190181,0.055058550386498144,-0.10190806351602077,0.12096284190192819,1.7763527110219002,-0.15770824084237461,-1.3747533783316612,0.10889185359701514,21.164657175540924,0.0,0.0,0.0,0.0,0.0,0.0,0.0,0.0,0.0,0.0,0.0,0.0,0.0,0.0,0.0,0.0,True,0,1.6661708354949951,0.03485693359375
STABILIZE,1.5800611972808838,29.888223012406204,0.03247073491414388,0.03259873390197754,0.0,0.0,0.0,0.2902228486834812,-1.1886395718456304,16.203686362391668,-0.0017845569880192255,0.0005972215582657673,0.008747936745640523,0.4,0.05596359005658475,0.06498179122174211,0.8660603319313074,0.049676181658154656,-0.10190806351602077,0.12096284190192819,1.7763527110219002,-0.15770824084237461,-1.3747533783316612,0.10889185359701514,21.164657175540924,0.0,0.0,0.0,0.0,0.0,0.0,0.0,0.0,0.0,0.0,0.0,0.0,0.0,0.0,0.0,0.0,True,0,1.6949589252471924,0.03485693359375
STABILIZE,1.6145963668823242,28.95518967243105,0.03246143658955892,0.03375554084777832,0.0,0.0,0.0,0.2916026536175295,-1.188897198043387,16.199770956449957,-0.0018204159365183374,0.0008181751784745257,0.01468843515855096,0.4,0.05267440073631239,0.06448528311937606,0.868584173586744,0.04668256328177584,-0.03215223259758204,0.12831575004383922,1.6372794285416603,-0.01908983178144351,-1.0842284187674522,0.2114542294293642,27.749493718147278,0.0,0.0,0.0,0.0,0.0,0.0,0.0,0.0,0.0,0.0,0.0,0.0,0.0,0.0,0.0,0.0,True,0,1.7235121726989746,0.02993603515625
STABILIZE,1.6481916904449463,29.766892587204143,0.032551081975301106,0.03269004821777344,0.0,0.0,0.0,0.29141258225953276,-1.1875628565560015,16.1966410222628,-0.0008210520436349677,0.0006784258271467223,0.006103714915266066,0.4,0.04932429264274608,0.060344149825467146,0.867793001365808,0.04174004601733235,0.22389765363186598,0.039040917181409895,1.5412201173603535,0.27252817642150534,4.101451486349106,-1.9900163635611534,21.217311918735504,0.0,0.0,0.0,0.0,0.0,0.0,0.0,0.0,0.0,0.0,0.0,0.0,0.0,0.0,0.0,0.0,True,0,1.7823359966278076,0.034925048828125
STABILIZE,1.681694507598877,29.848236206687968,0.032308133443196614,0.032440185546875,0.0,0.0,0.0,0.2894903108949973,-1.188006498686935,16.203495117094906,-0.0011045216110873628,0.0002733184477212529,0.02137534382257516,0.4,0.04484454265190902,0.05772080122718953,0.867440464441745,0.04188487711557999,-0.12074684491381049,-0.008602558955317363,1.4844349585473537,0.1476713979189599,-0.6844443269073963,-0.05550299538299441,19.17416900396347,0.0,0.0,0.0,0.0,0.0,0.0,0.0,0.0,0.0,0.0,0.0,0.0,0.0,0.0,0.0,0.0,True,0,1.811535358428955,0.029936279296875
STABILIZE,1.715259313583374,29.794381104599537,0.032361539204915364,0.032500267028808594,0.0,0.0,0.0,0.29024931566651496,-1.1896175695574116,16.208645079729095,-0.0015155460866821695,0.001002692311562895,0.014672060152459426,0.4,0.04357494815063666,0.0569150766215827,0.8660650688680277,0.04008723853942454,0.06177350878715515,0.10178852826356888,1.6965707764029503,0.020671037249567988,0.812857411801815,-0.003928403020836413,20.66137343645096,0.0,0.0,0.0,0.0,0.0,0.0,0.0,0.0,0.0,0.0,0.0,0.0,0.0,0.0,0.0,0.0,True,0,1.8397619724273682,0.03492578125
STABILIZE,1.748589277267456,30.052692293913232,0.032251866658528645,0.03243064880371094,0.0,0.0,0.0,0.29030192946746525,-1.1894748826367818,16.20570809838599,-0.0017364646451263391,0.0012310481646806448,0.014600568477484525,0.4,0.043295937795356246,0.05701987965467692,0.8655314200022839,0.0385260892157758,0.1193392788991332,0.1465788925997913,1.4747378416359425,0.0337427886863026,2.459142357110977,-0.08890884928405285,17.961567640304565,0.0,0.0,0.0,0.0,0.0,0.0,0.0,0.0,0.0,0.0,0.0,0.0,0.0,0.0,0.0,0.0,True,0,1.8684380054473877,0.034926025390625
STABILIZE,1.7820322513580322,29.851635173125512,0.03239563306172689,0.03250575065612793,0.0,0.0,0.0,0.2895989535914828,-1.189769754709856,16.21026383456239,-0.0010022976872199822,0.00047624514549001417,0.017844818269950748,0.4,0.040239201157679906,0.054384671973563746,0.8648372735035399,0.03811928819037115,-0.052321841940283775,-0.020555943774525076,1.4812649227678776,0.09724070952238395,-2.822459116578102,-0.19071085844188929,16.887129843235016,0.0,0.0,0.0,0.0,0.0,0.0,0.0,0.0,0.0,0.0,0.0,0.0,0.0,0.0,0.0,0.0,True,0,1.897174596786499,0.034926025390625
STABILIZE,1.81544828414917,29.928530654184268,0.03240469296773275,0.032550811767578125,0.0,0.0,0.0,0.2895829453356156,-1.1909253373400575,16.215893617985774,-0.0009958669227814866,0.0004998798615017539,0.0142171178781267,0.4,0.03761624622298376,0.05202400554478188,0.8646363704962908,0.036732801959228234,-0.030223967041820288,-0.005831500675412826,1.524561084806919,0.03346798029391537,10.490893572568893,-0.08307418320327997,22.362539172172546,0.0,0.0,0.0,0.0,0.0,0.0,0.0,0.0,0.0,0.0,0.0,0.0,0.0,0.0,0.0,0.0,True,0,1.9259240627288818,0.02993603515625
STABILIZE,1.8488738536834717,29.913375887030632,0.03245142300923665,0.032568931579589844,0.0,0.0,0.0,0.2888047306570573,-1.190076899779095,16.213677221600104,-0.0011325394228060386,0.0008495528841991442,0.007903808882903561,0.4,0.03658315607810168,0.05043249441712805,0.8564038042480866,0.03373658584340312,0.08546261815354228,0.08431512396782637,1.4191587455570698,0.018909145263448904,4.256585240364075,-0.11932265479117632,20.289750397205353,0.0,0.0,0.0,0.0,0.0,0.0,0.0,0.0,0.0,0.0,0.0,0.0,0.0,0.0,0.0,0.0,True,0,1.983823299407959,0.034926025390625
STABILIZE,1.8829360008239746,29.36139053979321,0.03248480161031087,0.032697200775146484,0.0,0.0,0.0,0.28911038162241537,-1.1894771237926032,16.217626778487663,-0.0011379350070706196,0.001958294306521166,0.022973982872257735,0.4,0.03979347068262691,0.04903042244614263,0.8562910590802919,0.03549137778299852,0.30058452393859625,0.04088606801815331,1.538059487938881,0.20706905747870474,-0.013232417404651642,1.8610848113894463,23.087966442108154,0.0,0.0,0.0,0.0,0.0,0.0,0.0,0.0,0.0,0.0,0.0,0.0,0.0,0.0,0.0,0.0,True,0,2.0119271278381348,0.034925048828125
STABILIZE,1.9159400463104248,30.298221535171994,0.0319400151570638,0.03206038475036621,0.0,0.0,0.0,0.2891492283233198,-1.1900889593318482,16.220322995662524,-0.0010163463857353252,0.0008348739631089149,0.009128043582694374,0.4,0.038462693329010283,0.047340520507007516,0.8584681546564713,0.0330227978819819,0.02473006898071617,0.021324152476154268,1.6822036355733871,-0.048710147736393844,0.14952314086258411,-2.0220406353473663,24.066342413425446,0.0,0.0,0.0,0.0,0.0,0.0,0.0,0.0,0.0,0.0,0.0,0.0,0.0,0.0,0.0,0.0,True,0,2.0415165424346924,0.0399150390625
STABILIZE,1.9502654075622559,29.13095477875553,0.032378228505452473,0.033542633056640625,0.0,0.0,0.0,0.28896673420643354,-1.1899559840864447,16.21977487298163,-0.00093521130884564,0.0020085538421686176,0.008395632809663291,0.4,0.04172327071063169,0.04548721502139744,0.8648985624004142,0.030638231925788476,0.28747429605573416,0.0063005856645759195,1.6992880031466484,-0.043903909036099836,8.336083590984344,-0.16553305322304368,18.580281734466553,0.0,0.0,0.0,0.0,0.0,0.0,0.0,0.0,0.0,0.0,0.0,0.0,0.0,0.0,0.0,0.0,True,0,2.070242166519165,0.024947998046875
STABILIZE,1.9837465286254883,29.86779084092317,0.032543452580769856,0.032669782638549805,0.0,0.0,0.0,0.2896308633815115,-1.1902299387051856,16.221275807051743,-0.0008357970223000899,0.0020574546080992123,0.007526486565915983,0.4,0.044720090366192185,0.04351761520290588,0.8585482484918336,0.02840385592927813,0.28747429605573416,0.0063005856645759195,1.6992880031466484,-0.043903909036099836,8.336083590984344,-0.16553305322304368,18.580281734466553,0.0,0.0,0.0,0.0,0.0,0.0,0.0,0.0,0.0,0.0,0.0,0.0,0.0,0.0,0.0,0.0,True,0,2.0989835262298584,0.024947998046875
STABILIZE,2.0173237323760986,29.783168119976143,0.0324893315633138,0.03270602226257324,0.0,0.0,0.0,0.2904498457516783,-1.1906283308328678,16.225686401708277,-0.0013462653288906915,0.0008500508848094087,0.0068691318526312665,0.4,0.04289225223883297,0.043667832938741685,0.8473530307218281,0.026298146806203036,-0.0002399822733423207,0.12902130838483572,1.36155616492033,-0.043116729734255864,-1.3127737678587437,1.9087759777903557,18.83258819580078,0.0,0.0,0.0,0.0,0.0,0.0,0.0,0.0,0.0,0.0,0.0,0.0,0.0,0.0,0.0,0.0,True,0,2.127589702606201,0.0349248046875
STABILIZE,2.0507571697235107,29.90889643172937,0.03246763547261556,0.032588958740234375,0.0,0.0,0.0,0.2909113104074773,-1.1830810785217094,16.21587141987097,-0.000982392639271743,0.00041549917459360574,0.013397753731538366,0.4,0.039658174518009494,0.04245030911778665,0.8495770255176421,0.026369385931573477,-0.0054578413255512714,0.07297861739061773,1.6991518437862396,0.08666532219116958,-3.4373879432678223,-0.03210847498849034,20.68820893764496,0.0,0.0,0.0,0.0,0.0,0.0,0.0,0.0,0.0,0.0,0.0,0.0,0.0,0.0,0.0,0.0,True,0,2.185384750366211,0.02993701171875
STABILIZE,2.084960460662842,29.23776794116622,0.032483609517415364,0.033223628997802734,0.0,0.0,0.0,0.2909113104074773,-1.1830810785217094,16.21587141987097,-0.001239844654122568,0.001211198497862605,0.01025159174778341,0.4,0.03974123355787918,0.042321205506256086,0.8471490218660883,0.02551592003628793,0.10015761945396662,0.10035814484581351,1.5962975099682808,0.02589648881533145,0.7860819809138775,-0.07869753753766418,20.427244901657104,0.0,0.0,0.0,0.0,0.0,0.0,0.0,0.0,0.0,0.0,0.0,0.0,0.0,0.0,0.0,0.0,True,0,2.2140254974365234,0.06981689453125
STABILIZE,2.1189346313476562,29.433505729784354,0.032341750462849934,0.03307318687438965,0.0,0.0,0.0,0.2906149442305222,-1.1908656799065256,16.242346940641234,0.0028481641689927606,-0.0016152123242268472,0.0020486808610223426,0.4,0.029134184307196463,0.026771966544675455,0.8741272184107713,0.022398029105573564,-0.5593322683125734,-0.8121209219098091,1.4190449379384518,-0.0947028139980482,-17.851151525974274,-25.53791105747223,24.229076504707336,0.0,0.0,0.0,0.0,0.0,0.0,0.0,0.0,0.0,0.0,0.0,0.0,0.0,0.0,0.0,0.0,True,0,2.242818832397461,0.02993603515625
STABILIZE,2.152350902557373,29.925754689384046,0.03240230878194173,0.032529354095458984,0.0,0.0,0.0,0.2928316607813087,-1.187954738659631,16.220367391892133,-0.003433286119337368,0.00461921269178472,0.05624330362849725,0.4,0.04305664191448394,0.03653317482029173,0.8680675869629816,0.03530677324032694,0.8839672431349754,0.6552120205014944,1.5605861321091652,0.8044417511975305,25.433844327926636,21.74820899963379,34.1303676366806,0.0,0.0,0.0,0.0,0.0,0.0,0.0,0.0,0.0,0.0,0.0,0.0,0.0,0.0,0.0,0.0,True,0,2.271376848220825,0.03492626953125
STABILIZE,2.1857683658599854,29.923406198276354,0.032451899846394856,0.03256583213806152,0.0,0.0,0.0,0.3029182493598308,-1.1985513502700824,16.200872324453623,-0.00375358841973605,0.005098838056821282,0.06345106618269389,0.4,0.05720135655638621,0.046382750403756445,0.8665969697806546,0.04842084324827563,0.8839672431349754,0.6552120205014944,1.5605861321091652,0.8044417511975305,25.433844327926636,21.74820899963379,34.1303676366806,0.0,0.0,0.0,0.0,0.0,0.0,0.0,0.0,0.0,0.0,0.0,0.0,0.0,0.0,0.0,0.0,True,0,2.301931619644165,0.03492626953125
STABILIZE,2.2192282676696777,29.88694518273609,0.032471450169881184,0.03262066841125488,0.0,0.0,0.0,0.2921960263016744,-1.198556046025137,16.24930519585818,0.0003264546482349131,-0.0010699392589546487,-0.06286666348186527,0.4,0.04684144314387404,0.0399963830643087,0.8741553837695999,0.023446427046630438,-0.5091402214020491,-0.27178721502423286,2.066130191087723,-1.353918517094009,-19.381168484687805,-42.44488477706909,54.77027893066406,0.0,0.0,0.0,0.0,0.0,0.0,0.0,0.0,0.0,0.0,0.0,0.0,0.0,0.0,0.0,0.0,True,0,2.3306398391723633,0.03492578125
STABILIZE,2.2526957988739014,29.879919072179636,0.03247717221577962,0.03260183334350586,0.0,0.0,0.0,0.28866791343024545,-1.1921795308264012,16.258003441766192,-0.015292287300058945,0.00319384711754415,-0.02788621522897903,0.4,0.05349485688734129,0.09232158036216756,0.8407611855332146,0.012101507320159497,1.324549876153469,3.5096146166324615,0.14727689558640122,1.393327427944513,66.1172091960907,104.56172227859497,25.85875689983368,0.0,0.0,0.0,0.0,0.0,0.0,0.0,0.0,0.0,0.0,0.0,0.0,0.0,0.0,0.0,0.0,True,0,2.388068914413452,0.03492626953125
STABILIZE,2.287243127822876,28.94539833268923,0.03245690663655599,0.033761024475097656,0.0,0.0,0.0,0.2934237528049842,-1.181237887941158,16.18391296474448,-0.018770798835946297,0.007382899340925111,0.08650275039890196,0.4,0.07566563428877027,0.15357687598004227,0.8141347145024909,0.035838451392389774,1.324549876153469,3.5096146166324615,0.14727689558640122,1.393327427944513,66.1172091960907,104.56172227859497,25.85875689983368,0.0,0.0,0.0,0.0,0.0,0.0,0.0,0.0,0.0,0.0,0.0,0.0,0.0,0.0,0.0,0.0,True,0,2.416642904281616,0.03492626953125
STABILIZE,2.320812940597534,29.790360384675484,0.032532723744710286,0.032669782638549805,0.0,0.0,0.0,0.2872365619123047,-1.1874335098485942,16.26528613096872,0.006669221364850689,-0.0008457754429596607,0.3673475992474725,0.4,0.06402424295828335,0.11166479401248611,0.7791992581275944,0.1360316753512542,-0.5786724854260683,-2.290727198123932,-0.318175065331161,5.675146551642473,-5.656748265028,-111.77538633346558,14.212444424629211,0.0,0.0,0.0,0.0,0.0,0.0,0.0,0.0,0.0,0.0,0.0,0.0,0.0,0.0,0.0,0.0,True,0,2.4453909397125244,0.02993603515625
STABILIZE,2.354212760925293,29.939212243208132,0.03242019017537435,0.03253936767578125,0.0,0.0,0.0,0.28508793380980674,-1.1891008230580178,16.279395594246672,-0.003171289117377638,-0.009012261667323673,-0.01323488179754656,0.4,0.0234548483988503,0.11106730560499911,0.7641929805832185,0.11276186155761367,-2.197840064764023,0.1280012889765203,0.946353655308485,-1.200130831515648,24.113188683986664,55.953508615493774,43.59923303127289,0.0,0.0,0.0,0.0,0.0,0.0,0.0,0.0,0.0,0.0,0.0,0.0,0.0,0.0,0.0,0.0,True,0,2.4740192890167236,0.03492578125
STABILIZE,2.3876726627349854,29.88609335698966,0.0324588139851888,0.03264808654785156,0.0,0.0,0.0,0.2940466874016305,-1.1792956596176414,16.17799289828137,-0.01567320030249244,0.0073633516701987305,-0.10566841630478148,0.4,0.04830004196969909,0.15695157897369016,0.7562791647769113,0.06625899558419371,1.5142319723963737,2.718391641974449,1.1593698523938656,-2.602814551406021,52.83142328262329,44.02633607387543,31.250378489494324,0.0,0.0,0.0,0.0,0.0,0.0,0.0,0.0,0.0,0.0,0.0,0.0,0.0,0.0,0.0,0.0,True,0,2.5028488636016846,0.034925048828125
STABILIZE,2.4211533069610596,29.869279742490495,0.03251055081685384,0.03262925148010254,0.0,0.0,0.0,0.2895819848402636,-1.1884362669961168,16.269268131254837,0.008010567890465812,0.0047741549159448105,0.41709545860815406,0.4,0.06055747277746591,0.10966064098298625,0.7376854531096788,0.1762525454716902,0.7832519710063934,-2.5858158245682716,0.5348893813788891,6.336867658151179,-44.63557302951813,-122.34086990356445,-24.77094531059265,0.0,0.0,0.0,0.0,0.0,0.0,0.0,0.0,0.0,0.0,0.0,0.0,0.0,0.0,0.0,0.0,True,0,2.5313796997070312,0.02993701171875
STABILIZE,2.454509735107422,29.97794343627826,0.03247216542561849,0.03264260292053223,0.0,0.0,0.0,0.2813735915617892,-1.1652487352592755,16.26568911212975,-0.006790378359662113,-0.008963456766986169,-0.10072778140813328,0.4,0.020521905346208194,0.12274952376374992,0.7302401754759879,0.12208205038037709,-2.201501838862896,0.9439758956432343,1.2958964332938194,-2.947617868633897,-73.95886182785034,107.10223913192749,-8.583386242389679,0.0,0.0,0.0,0.0,0.0,0.0,0.0,0.0,0.0,0.0,0.0,0.0,0.0,0.0,0.0,0.0,True,1,2.5603463649749756,0.034925048828125
STABILIZE,2.4881412982940674,29.736292095001772,0.03261426289876302,0.03279876708984375,0.0,0.0,0.0,0.2907940232528235,-1.1688637195992104,16.197974616698243,-0.028668387243519895,0.010768960773853909,0.11735477510928427,0.4,0.05856681511695734,0.21564262472679152,0.7491072345353111,0.13824708211574327,1.186224538832903,2.811434492468834,2.078639529645443,0.5592033821613995,68.09059381484985,20.16270160675049,15.27031809091568,0.0,0.0,0.0,0.0,0.0,0.0,0.0,0.0,0.0,0.0,0.0,0.0,0.0,0.0,0.0,0.0,True,0,2.6178231239318848,0.034926025390625
STABILIZE,2.5216097831726074,29.87736494187372,0.03244784673055013,0.032621145248413086,0.0,0.0,0.0,0.28529966967407716,-1.1785767822074975,16.24901149772387,8.922941013917045e-05,0.0022579890478092693,0.006945740120749139,0.4,0.060429366185381056,0.19123250595628635,0.7468591140888278,0.12041028491047767,0.18379032844677567,-1.2630844488739967,1.3771097175776958,-0.9104281444261456,-44.10496652126312,-72.89154529571533,63.129329681396484,0.0,0.0,0.0,0.0,0.0,0.0,0.0,0.0,0.0,0.0,0.0,0.0,0.0,0.0,0.0,0.0,True,0,2.6465771198272705,0.034926025390625
STABILIZE,2.55507493019104,29.882260741943988,0.032509597142537434,0.03264498710632324,0.0,0.0,0.0,0.2819252360589735,-1.1717272764087383,16.324785616375994,0.0031103548490798855,-0.01246796913262455,0.2992966194259934,0.4,0.007328418938837157,0.15851147399955431,0.7541773054673458,0.1889351400127976,-2.9721979051828384,-1.700434461236,1.9175784662365913,4.0774483377869535,-108.94773006439209,-19.333602488040924,7.780938595533371,0.0,0.0,0.0,0.0,0.0,0.0,0.0,0.0,0.0,0.0,0.0,0.0,0.0,0.0,0.0,0.0,True,0,2.675410032272339,0.029940673828125
STABILIZE,2.588576555252075,29.848448619413606,0.032494338353474934,0.03261876106262207,0.0,0.0,0.0,0.2922018959954924,-1.1699766135470995,16.264516027139802,-0.012638266920047835,0.004650115927984693,-0.27756318936271074,0.4,0.023851998196423817,0.18776757181336676,0.7681889056294985,0.08234240051787872,1.0414152406156063,1.9828245043754578,2.4878114461898804,-5.967314296692115,53.1920850276947,9.047020971775055,60.68443059921265,0.0,0.0,0.0,0.0,0.0,0.0,0.0,0.0,0.0,0.0,0.0,0.0,0.0,0.0,0.0,0.0,True,0,2.703982353210449,0.03492626953125
STABILIZE,2.621950149536133,29.963380744529616,0.03243902524312337,0.03255820274353027,0.0,0.0,0.0,0.3001081601248995,-1.1630961584536637,16.29600832185544,-0.005113331545748594,0.005762313597534288,0.2909611575202007,0.4,0.0426460340486363,0.1857799259431744,0.7729430593340271,0.15390027410838275,1.181052066385746,0.08761618519201875,1.7297225072979927,4.340580948674872,-20.170658826828003,-39.55033719539642,-0.3101430833339691,0.0,0.0,0.0,0.0,0.0,0.0,0.0,0.0,0.0,0.0,0.0,0.0,0.0,0.0,0.0,0.0,True,0,2.732652425765991,0.034926025390625
STABILIZE,2.65547251701355,29.830828645192494,0.032511266072591145,0.032649993896484375,0.0,0.0,0.0,0.28323268367650206,-1.1362779542861374,16.363135421018324,-0.006562130821358243,-0.007123583928399476,0.3062173471403307,0.4,0.01150906708905973,0.18955598023320092,0.7850858095452147,0.21962548991892994,-2.8398720547556877,0.5915670655667782,1.8779030069708824,-0.23217221715389655,-83.69132280349731,52.54595875740051,8.347747474908829,0.0,0.0,0.0,0.0,0.0,0.0,0.0,0.0,0.0,0.0,0.0,0.0,0.0,0.0,0.0,0.0,True,0,2.791456699371338,0.029935791015625
STABILIZE,2.6889283657073975,29.890992018244013,0.03244522412618001,0.03259134292602539,0.0,0.0,0.0,0.28118917645419883,-1.1587218491770936,16.311465039947176,-0.013688465557087488,-0.00542460182933564,-0.031171507292325734,0.4,-0.009777096728517771,0.21935972967610545,0.7845456577285544,0.17920707908382033,-1.1734779924154282,2.08053607493639,1.6403838992118835,-2.072932104134428,32.07176327705383,-5.041811615228653,-28.34039330482483,0.0,0.0,0.0,0.0,0.0,0.0,0.0,0.0,0.0,0.0,0.0,0.0,0.0,0.0,0.0,0.0,True,0,2.8202290534973145,0.034926025390625
STABILIZE,2.7223329544067383,29.93622062979987,0.03245428403218587,0.03260064125061035,0.0,0.0,0.0,0.2238952018186047,-1.1749446156729317,16.375904459671663,-0.01501855004885257,-0.006158921070761093,-0.04601138272919322,0.4,-0.03143534860069089,0.2507680339390337,0.7881272108518251,0.1403386656635474,-1.1734779924154282,2.08053607493639,1.6403838992118835,-2.072932104134428,32.07176327705383,-5.041811615228653,-28.34039330482483,0.0,0.0,0.0,0.0,0.0,0.0,0.0,0.0,0.0,0.0,0.0,0.0,0.0,0.0,0.0,0.0,True,0,2.8486170768737793,0.034926025390625
STABILIZE,2.755922555923462,29.773654284355413,0.03251841862996419,0.032671213150024414,0.0,0.0,0.0,0.22695768788770918,-1.1999758715988533,16.366285845772993,-0.0024483279079737935,0.02379147007896181,0.029999304505692853,0.4,0.06057549183328715,0.23169563073363472,0.7909907318525863,0.12881546668559146,5.473305284976959,-0.867791660130024,1.6028163954615593,-0.43704576902083886,21.795479953289032,16.276876628398895,12.71945834159851,0.0,0.0,0.0,0.0,0.0,0.0,0.0,0.0,0.0,0.0,0.0,0.0,0.0,0.0,0.0,0.0,True,0,2.8774054050445557,0.064862060546875
STABILIZE,2.791672468185425,27.969858226970217,0.03238371213277181,0.0348505973815918,0.0,0.0,0.0,0.2487296629190653,-1.2033412338689655,16.335613173757757,-0.004295384571932586,0.028196608345684056,0.034287578716693454,0.4,0.16462428601217663,0.22099280635559868,0.8168356900587596,0.11967478999214642,5.473305284976959,-0.867791660130024,1.6028163954615593,-0.43704576902083886,21.795479953289032,16.276876628398895,12.71945834159851,0.0,0.0,0.0,0.0,0.0,0.0,0.0,0.0,0.0,0.0,0.0,0.0,0.0,0.0,0.0,0.0,True,0,2.906093120574951,0.064862060546875
STABILIZE,2.8275258541107178,27.891368533049608,0.03243258794148763,0.03500032424926758,0.0,0.0,0.0,0.2644268250139297,-1.1922921222260006,16.348346353917954,-0.0018700725343427775,0.007577197066137378,-0.2141671687653928,0.4,0.17506268343230708,0.20215173481983328,0.8353405368681511,0.03628902732553978,-0.0856321887113154,-0.9588535875082016,1.3598511926829815,-4.019441675600151,-75.57727098464966,-34.634020924568176,54.0070116519928,0.0,0.0,0.0,0.0,0.0,0.0,0.0,0.0,0.0,0.0,0.0,0.0,0.0,0.0,0.0,0.0,True,1,2.935023307800293,0.034926025390625
STABILIZE,2.8661856651306152,25.868569560685586,0.03245976765950521,0.03700542449951172,0.0,0.0,0.0,0.287622147435293,-1.1758836599621028,16.270383159636843,0.05219218286443906,0.030903477591882438,0.5579078914847468,0.4,0.28056004495275366,-0.039689980435518996,0.7939193443717304,0.20808524808106518,2.861306816339493,-5.707019940018654,0.6576379761099815,4.6088955387087145,26.517701148986816,-56.04730844497681,31.396353244781494,0.0,0.0,0.0,0.0,0.0,0.0,0.0,0.0,0.0,0.0,0.0,0.0,0.0,0.0,0.0,0.0,True,0,2.9921934604644775,0.0349248046875
STABILIZE,2.8988001346588135,30.65877227606976,0.03164199193318685,0.03177475929260254,0.0,0.0,0.0,0.28974911103151735,-1.2043436708513706,16.339106815518218,-0.004549050679668838,-0.006509131744710707,0.058277962811556,0.4,0.22518225095941097,-0.01829018288780173,0.7336390949359626,0.194974465260379,-2.603415586054325,1.4542116783559322,-1.4150082133710384,-0.40562284341396054,95.97044587135315,-86.6853415966034,3.897073119878769,0.0,0.0,0.0,0.0,0.0,0.0,0.0,0.0,0.0,0.0,0.0,0.0,0.0,0.0,0.0,0.0,True,0,3.0208775997161865,0.0648623046875
STABILIZE,2.9322986602783203,29.852485035693697,0.03251674969991048,0.032643795013427734,0.0,0.0,0.0,0.2871765843136555,-1.2026870298125252,16.399600093449727,0.030762500724032395,0.02279214360482454,0.3670602457860195,0.4,0.2842208979353826,-0.13094754743802878,0.7559579347916361,0.27222982589796335,2.4372523650527,-4.43904735147953,2.0148824900388718,3.5094950564119447,113.14008235931396,-139.260733127594,121.6283917427063,0.0,0.0,0.0,0.0,0.0,0.0,0.0,0.0,0.0,0.0,0.0,0.0,0.0,0.0,0.0,0.0,True,0,3.0499343872070312,0.03492578125
STABILIZE,2.965733289718628,29.907403578075197,0.0324580987294515,0.03258323669433594,0.0,0.0,0.0,0.2933913094064266,-1.1761083091527726,16.25892893239873,0.029213224002709,0.020096187264587402,0.36135080143667087,0.4,0.3265738506081397,-0.22534261331637173,0.7625255111860662,0.3367887211497552,2.4372523650527,-4.43904735147953,2.0148824900388718,3.5094950564119447,113.14008235931396,-139.260733127594,121.6283917427063,0.0,0.0,0.0,0.0,0.0,0.0,0.0,0.0,0.0,0.0,0.0,0.0,0.0,0.0,0.0,0.0,True,0,3.0786495208740234,0.03492578125
STABILIZE,2.999180793762207,29.898449584773854,0.03247788747151693,0.0326075553894043,0.0,0.0,0.0,0.2936015511668161,-1.193863706065338,16.303188558220413,0.0030278291790433076,0.017712663190100928,0.3727802748110784,0.4,0.3558907074178978,-0.21193483258071685,0.7582803849813993,0.39533745336985027,1.8569614738225937,0.7198175881057978,1.4651033096015453,3.2974304892877426,-16.68996512889862,66.20292067527771,79.94553446769714,0.0,0.0,0.0,0.0,0.0,0.0,0.0,0.0,0.0,0.0,0.0,0.0,0.0,0.0,0.0,0.0,True,0,3.106937885284424,0.029937255859375
STABILIZE,3.03256893157959,29.979014781141892,0.0324740727742513,0.03257894515991211,0.0,0.0,0.0,0.285573197405995,-1.1886150258533006,16.37772641263276,0.011507463107465414,0.014529781946386508,0.7516211019906108,0.4,0.36977396435716026,-0.23156346101246525,0.7582289163303206,0.5539091682825734,0.11120560811832547,-2.1060559898614883,2.1267514675855637,6.261984879185744,128.14764976501465,-32.11559355258942,-18.878984451293945,0.0,0.0,0.0,0.0,0.0,0.0,0.0,0.0,0.0,0.0,0.0,0.0,0.0,0.0,0.0,0.0,True,0,3.167039632797241,0.069850830078125
STABILIZE,3.066542625427246,29.407091124525866,0.03251317342122396,0.03312516212463379,0.0,0.0,0.0,0.2925481012090474,-1.184992997880784,16.290919830923777,0.010099065962568753,0.029618665745173918,-0.012245401078271267,0.4,0.4391925260691054,-0.24434218150642004,0.7753325182191795,0.4699791537429653,2.5980284437537193,0.6690492853522301,1.2738780118525028,-5.61410258970913,-15.840663015842438,56.45508170127869,12.939955294132233,0.0,0.0,0.0,0.0,0.0,0.0,0.0,0.0,0.0,0.0,0.0,0.0,0.0,0.0,0.0,0.0,True,0,3.1973695755004883,0.0348837890625
STABILIZE,3.09993839263916,29.9432732464751,0.032483847935994466,0.03259539604187012,0.0,0.0,0.0,0.2916995569263791,-1.1853625751479053,16.285575207898244,0.0022287867527255503,0.02391309301688908,-0.22478008553885948,0.4,0.47901279371845573,-0.22592308316507004,0.7666162971307929,0.3382888575189248,2.5980284437537193,0.6690492853522301,1.2738780118525028,-5.61410258970913,-15.840663015842438,56.45508170127869,12.939955294132233,0.0,0.0,0.0,0.0,0.0,0.0,0.0,0.0,0.0,0.0,0.0,0.0,0.0,0.0,0.0,0.0,True,0,3.226280450820923,0.0348837890625
STABILIZE,3.1333892345428467,29.89397459837783,0.03252104123433431,0.03263449668884277,0.0,0.0,0.0,0.2849249697650785,-1.1949503464736049,16.396550413985317,0.013325371936495127,0.0027961336570869453,0.5122225875023898,0.4,0.4356498810681415,-0.2503181535956309,0.7670017815027118,0.43657120555308493,-1.4488042332231998,-1.4435132965445518,1.6893882304430008,5.59362952455884,44.626522064208984,-23.880635201931,8.497397601604462,0.0,0.0,0.0,0.0,0.0,0.0,0.0,0.0,0.0,0.0,0.0,0.0,0.0,0.0,0.0,0.0,True,0,3.254941940307617,0.064862060546875
STABILIZE,3.166858673095703,29.879067646891208,0.0325048287709554,0.032633304595947266,0.0,0.0,0.0,0.2900243463107277,-1.192028199447603,16.333804881174995,0.006462044683246131,0.030040120322306806,-0.005104167701100948,0.4,0.49853528351745074,-0.24715194098935062,0.7788955744649023,0.37255983165666173,2.615557610988617,0.6845173425972462,1.2470916844904423,-3.027899912138227,97.6442039012909,37.29609549045563,20.861569046974182,0.0,0.0,0.0,0.0,0.0,0.0,0.0,0.0,0.0,0.0,0.0,0.0,0.0,0.0,0.0,0.0,True,0,3.283465623855591,0.029935791015625
STABILIZE,3.200289726257324,29.911882586184763,0.0324886163075765,0.03260231018066406,0.0,0.0,0.0,0.2890060077941611,-1.18464828677111,16.341710825139284,0.006345787908466898,0.012647159858539331,0.026351988004714333,0.4,0.48982572284509596,-0.24345037855180332,0.7737624498368652,0.3267480083554151,0.6420041434466839,-0.3199802478775382,1.6538050025701523,-1.2835327773667928,-70.01993656158447,-33.274710178375244,32.29718804359436,0.0,0.0,0.0,0.0,0.0,0.0,0.0,0.0,0.0,0.0,0.0,0.0,0.0,0.0,0.0,0.0,True,0,3.312415361404419,0.034926025390625
STABILIZE,3.233703374862671,29.92938490081347,0.03249243100484212,0.03259563446044922,0.0,0.0,0.0,0.2884014293309092,-1.1917366357474082,16.37871508251512,-5.458569858819417e-05,0.013338263720674369,-0.17209495075646103,0.4,0.4847922020619751,-0.21634415624065112,0.7647745772387105,0.2307188828473534,0.793201383203268,0.9066782891750336,1.263133529573679,-1.8946187033504323,82.29618668556213,29.567798972129822,24.172744154930115,0.0,0.0,0.0,0.0,0.0,0.0,0.0,0.0,0.0,0.0,0.0,0.0,0.0,0.0,0.0,0.0,True,0,3.369744062423706,0.064862060546875
STABILIZE,3.2671422958374023,29.903565495754343,0.03250292142232259,0.03261876106262207,0.0,0.0,0.0,0.29031943182721337,-1.1930113198012617,16.360927562369117,0.011662902217366669,0.02902403478964234,-0.025528747318276493,0.4,0.5384466096161521,-0.235919977648284,0.783664010205475,0.19034329656555282,2.3658491671085358,-0.8385599590837955,1.5448923222720623,-1.0883161524908964,41.60852134227753,-44.908908009529114,29.65427041053772,0.0,0.0,0.0,0.0,0.0,0.0,0.0,0.0,0.0,0.0,0.0,0.0,0.0,0.0,0.0,0.0,True,0,3.398695945739746,0.034926025390625
STABILIZE,3.300584077835083,29.903778696706116,0.03250697453816732,0.0326235294342041,0.0,0.0,0.0,0.29101045487214827,-1.1842461593837255,16.339243419301617,0.009267685677303744,0.02391455375531456,-0.03137604296561379,0.4,0.5671765485209479,-0.2442920920373358,0.7795324387200746,0.1540924538911426,2.3658491671085358,-0.8385599590837955,1.5448923222720623,-1.0883161524908964,41.60852134227753,-44.908908009529114,29.65427041053772,0.0,0.0,0.0,0.0,0.0,0.0,0.0,0.0,0.0,0.0,0.0,0.0,0.0,0.0,0.0,0.0,True,0,3.427647352218628,0.034926025390625
STABILIZE,3.334092378616333,29.84398858696039,0.03249362309773763,0.03262925148010254,0.0,0.0,0.0,0.29102913117066004,-1.1879956130729452,16.360010609473044,0.0077870680377914985,0.005198689491655459,0.1263905751359139,0.4,0.5231719447980203,-0.24605211605489086,0.7744235520438597,0.16823877118330838,-1.1035795323550701,-0.5310109816491604,1.4667525887489319,1.2672666818584073,-68.35044026374817,7.733536511659622,30.859237909317017,0.0,0.0,0.0,0.0,0.0,0.0,0.0,0.0,0.0,0.0,0.0,0.0,0.0,0.0,0.0,0.0,True,0,3.456462860107422,0.034926025390625
STABILIZE,3.3675949573516846,29.848448619413606,0.03243568738301595,0.032582759857177734,0.0,0.0,0.0,0.29066766475317823,-1.1909576740169092,16.355996165788365,0.0078281640763898,0.004222233737457736,0.13370261600488378,0.4,0.4804335468635742,-0.24776199149169534,0.7699301086166032,0.1824547003702408,-1.1035795323550701,-0.5310109816491604,1.4667525887489319,1.2672666818584073,-68.35044026374817,7.733536511659622,30.859237909317017,0.0,0.0,0.0,0.0,0.0,0.0,0.0,0.0,0.0,0.0,0.0,0.0,0.0,0.0,0.0,0.0,True,0,3.485020637512207,0.034926025390625
STABILIZE,3.4011154174804688,29.834435861323318,0.03240540822347005,0.03253293037414551,0.0,0.0,0.0,0.28985423191171206,-1.1876602934733798,16.353404108998348,0.010154708819024152,0.01922734379133738,0.016258412917769194,0.4,0.4982074652799298,-0.25807125798494024,0.7663453508835205,0.16097792307597972,1.8558120355010033,-0.9627622552216053,1.4846240170300007,-0.5157002531511488,71.92152738571167,-46.825698018074036,21.116718649864197,0.0,0.0,0.0,0.0,0.0,0.0,0.0,0.0,0.0,0.0,0.0,0.0,0.0,0.0,0.0,0.0,True,0,3.5136773586273193,0.064862060546875
STABILIZE,3.4346139430999756,29.847598986649967,0.03231838544209798,0.03270244598388672,0.0,0.0,0.0,0.29086445957863927,-1.185582421861815,16.350680571066803,0.011445576391880973,0.02064864753827424,0.029013057727763823,0.4,0.5194189107327581,-0.2721148510365573,0.7757108869822763,0.14613575923482597,1.130444835871458,-0.5933329928666353,1.0589567944407463,-0.05926095572474543,-2.740296721458435,1.9551819190382957,22.581784427165985,0.0,0.0,0.0,0.0,0.0,0.0,0.0,0.0,0.0,0.0,0.0,0.0,0.0,0.0,0.0,0.0,True,1,3.54239821434021,0.034926025390625
STABILIZE,3.468127965927124,29.840166762711743,0.03255155881245931,0.03267669677734375,0.0,0.0,0.0,0.29230552277180616,-1.1909324876943448,16.36822732704457,-0.0064796530440307965,-0.013823570304455083,0.039538147685702366,0.4,0.4102118959265305,-0.2175830936520744,0.7850829169606605,0.13652590580498414,-1.5848839655518532,0.8001001551747322,1.9513949751853943,0.23165381646806316,-22.56072461605072,-3.83722260594368,22.114233672618866,0.0,0.0,0.0,0.0,0.0,0.0,0.0,0.0,0.0,0.0,0.0,0.0,0.0,0.0,0.0,0.0,True,0,3.5997817516326904,0.03492578125
STABILIZE,3.501544237136841,29.924900649966823,0.03247979482014974,0.03260159492492676,0.0,0.0,0.0,0.29214864186430745,-1.1898803183970454,16.372774525484502,0.008917280367390567,0.010169993977180018,0.06761504777737319,0.4,0.40219804802435916,-0.2265490882850911,0.776010132195241,0.13634028313704,0.5862291436642408,-0.9305188432335854,1.2427600100636482,0.4264572682600266,30.53622543811798,-35.03528833389282,19.172506034374237,0.0,0.0,0.0,0.0,0.0,0.0,0.0,0.0,0.0,0.0,0.0,0.0,0.0,0.0,0.0,0.0,True,0,3.628547430038452,0.02993603515625
STABILIZE,3.534914493560791,29.965949603126408,0.032507928212483723,0.03261518478393555,0.0,0.0,0.0,0.29295268319566486,-1.184609226626794,16.34944259927974,0.00882619005043771,0.009748227313243832,0.0691107238127702,0.4,0.3935166700299725,-0.2341694108199557,0.7638923843444345,0.1366095954977744,0.5862291436642408,-0.9305188432335854,1.2427600100636482,0.4264572682600266,30.53622543811798,-35.03528833389282,19.172506034374237,0.0,0.0,0.0,0.0,0.0,0.0,0.0,0.0,0.0,0.0,0.0,0.0,0.0,0.0,0.0,0.0,True,0,3.6572799682617188,0.02993603515625
STABILIZE,3.568424701690674,29.84250220565216,0.032567532857259114,0.03269839286804199,0.0,0.0,0.0,0.292239675479339,-1.1860013045570073,16.369161355413567,0.003537245875004624,0.013248098264446293,-0.007386022492955571,0.4,0.39885152691625064,-0.22130581602735527,0.7528918863608326,0.11491197642953427,1.2827872298657894,0.13236997183412313,1.2412029318511486,-0.7315473576933628,-3.3547431230545044,25.79672634601593,21.89670205116272,0.0,0.0,0.0,0.0,0.0,0.0,0.0,0.0,0.0,0.0,0.0,0.0,0.0,0.0,0.0,0.0,True,0,3.6858742237091064,0.034926025390625
STABILIZE,3.601876735687256,29.892909322861357,0.03251174290974935,0.03265070915222168,0.0,0.0,0.0,0.2915211182343125,-1.1884657221869124,16.385745054718356,0.007927228198675026,0.005341696715978369,0.10034313498921456,0.4,0.3741738150240541,-0.22613583634725629,0.7559351597771184,0.12720372977149208,-0.39825388230383396,-0.7164543960243464,1.741102896630764,1.0416266868719817,19.009418785572052,-25.050991773605347,16.596056520938873,0.0,0.0,0.0,0.0,0.0,0.0,0.0,0.0,0.0,0.0,0.0,0.0,0.0,0.0,0.0,0.0,True,0,3.714608907699585,0.064862060546875
STABILIZE,3.635354518890381,29.8711942626395,0.0325196107228597,0.03265380859375,0.0,0.0,0.0,0.29407251405442963,-1.1849097549502745,16.353827580726886,0.006128973720135029,0.014759466661877406,-0.02811905003612103,0.4,0.38727058592745195,-0.2237973788375644,0.7707114650975024,0.10090673250691154,1.178513653576374,0.007772337994538248,1.1912954039871693,-0.9288056221617111,43.5666024684906,14.318722486495972,19.32496875524521,0.0,0.0,0.0,0.0,0.0,0.0,0.0,0.0,0.0,0.0,0.0,0.0,0.0,0.0,0.0,0.0,True,1,3.7442595958709717,0.03492578125
