Mode,Time,Freq,time2delay,actualDelay,North-Desired,East-Desired,Down-Desired,Roll-UAV,Pitch-UAV,Yaw-UAV,Roll-Control,Pitch-Control,Yaw-Control,Thrust-Control,North-Pos,East-Pos,Down-Pos,Yaw-Ang,North-Vel,East-Vel,Down-Vel,Yaw-Vel,North-Acc,East-Acc,Down-Acc,North-Avg,East-Avg,Down-Avg,Yaw-Avg,North-Dif,East-Dif,Down-Dif,Yaw-Dif,North-One,East-One,Down-One,Yaw-One,North-Two,East-Two,Down-Two,Yaw-Two,Landing-State,Q-Size,Kalman-Time,Kalman-Dt
STABILIZE,0.034390926361083984,29.085502683660874,0.03279760678609212,0.03291630744934082,0.0,0.0,0.0,0.5823474781639878,-1.2134410559390045,-6.79017706808117,-0.06148673269689334,-0.06441786964188355,-0.001792983936695198,0.4,-0.02014438618102174,0.019221775028848503,0.6757528741049029,-0.008935408343534849,1.077889185398817,0.06508650840260088,0.783313438296318,-0.4216523902614813,35.6680691242218,10.587911307811737,14.675825834274292,0.0,0.0,0.0,0.0,0.0,0.0,0.0,0.0,0.0,0.0,0.0,0.0,0.0,0.0,0.0,0.0,False,0,3.5325632095336914,0.034919921875
STABILIZE,0.06766843795776367,30.049893249652524,0.032274754842122395,0.03239846229553223,0.0,0.0,0.0,0.5814565653641243,-1.212747471573131,-6.784732126652201,-0.03077246701322801,-0.025791807825830466,-0.0009266416005240271,0.4,-0.015254962594044547,0.018251795666355625,0.6785257587227757,-0.004588358282267964,0.26033471804112196,-0.026600589626468718,1.3960651122033596,0.2566735998106132,-29.571104049682617,-10.945364832878113,19.84504759311676,0.0,0.0,0.0,0.0,0.0,0.0,0.0,0.0,0.0,0.0,0.0,0.0,0.0,0.0,0.0,0.0,False,0,3.5619421005249023,0.03492041015625
STABILIZE,0.10113000869750977,29.884815709410113,0.03246572812398275,0.032594919204711914,0.0,0.0,0.0,0.5807089798151251,-1.2134683766956846,-6.776182010471814,-0.01764618172951274,-0.040545787112454344,-0.000889576280530631,0.4,-0.034511377284856114,0.014892715900217578,0.6740187889766421,-0.004388353004429531,-1.1792969889938831,-0.16723278677091002,0.9664439596235752,0.005098687857141586,-17.03895777463913,4.673953354358673,19.837801158428192,0.0,0.0,0.0,0.0,0.0,0.0,0.0,0.0,0.0,0.0,0.0,0.0,0.0,0.0,0.0,0.0,False,0,3.590951681137085,0.029931884765625
STABILIZE,0.13468146324157715,29.805602535495517,0.03246787389119466,0.03260016441345215,0.0,0.0,0.0,0.5825575064809657,-1.2132410594623702,-6.793818839569256,-0.016801203399711525,-0.0376945749219476,-0.002089640700850234,0.4,-0.040825772926163455,0.018069419295835547,0.663267504129384,-0.010354030375199351,0.7107569370418787,0.43309670872986317,1.2278559617698193,-0.38380543161636793,32.30465054512024,14.435863494873047,15.320396423339844,0.0,0.0,0.0,0.0,0.0,0.0,0.0,0.0,0.0,0.0,0.0,0.0,0.0,0.0,0.0,0.0,False,0,3.6484243869781494,0.034919921875
STABILIZE,0.16806602478027344,29.953965363327978,0.0323672612508138,0.03249049186706543,0.0,0.0,0.0,0.5823270943181835,-1.2131974102847054,-6.78141350848922,-0.010994992191913739,-0.024005116862173142,0.00015981683219395789,0.4,-0.03097102786800669,0.014073513787503558,0.6666303620805435,0.0008902794637474978,0.5652053281664848,-0.21103373728692532,1.4155130833387375,0.6745184264140769,-14.617221057415009,-20.77632248401642,18.257200717926025,0.0,0.0,0.0,0.0,0.0,0.0,0.0,0.0,0.0,0.0,0.0,0.0,0.0,0.0,0.0,0.0,False,0,3.67700457572937,0.034919921875
STABILIZE,0.20151066780090332,29.901220485913083,0.032425673802693684,0.03255319595336914,0.0,0.0,0.0,0.5823755459726083,-1.2148126433017077,-6.78598034372302,0.0037612995001071077,-0.004058722915420566,0.0024565004494919687,0.4,-0.020872441878190297,0.010010645024368207,0.6699701698649287,0.01233246265417175,0.5652053281664848,-0.21103373728692532,1.4155130833387375,0.6745184264140769,-14.617221057415009,-20.77632248401642,18.257200717926025,0.0,0.0,0.0,0.0,0.0,0.0,0.0,0.0,0.0,0.0,0.0,0.0,0.0,0.0,0.0,0.0,False,0,3.705777645111084,0.034919921875
STABILIZE,0.23508167266845703,29.786552282475924,0.03242162068684896,0.03255176544189453,0.0,0.0,0.0,0.5842731646231083,-1.2144981344347698,-6.793024403191419,0.004128466447165994,-0.011684905238933929,0.0019792563973351426,0.4,-0.026984085062694584,0.008770976290404752,0.669773731606569,0.009913029533726376,-0.4136413335800171,-0.03978261665906757,1.2063178233802319,-0.161284965450787,-12.607190012931824,12.107481807470322,10.078522562980652,0.0,0.0,0.0,0.0,0.0,0.0,0.0,0.0,0.0,0.0,0.0,0.0,0.0,0.0,0.0,0.0,False,0,3.73437762260437,0.02993115234375
STABILIZE,0.27025842666625977,28.449074827717183,0.03230145772298177,0.034316062927246094,0.0,0.0,0.0,0.5832044534614128,-1.2118705393167248,-6.771487962964723,0.0009866860789752492,0.00032530391202018527,0.0011780486250113343,0.4,-0.02629096837550429,0.010298332512066322,0.6587561219768427,0.00588623149168757,-0.01124972477555275,0.12308191508054733,0.746901286765933,-0.24295505814093685,18.750448524951935,-5.245353281497955,15.710200369358063,0.0,0.0,0.0,0.0,0.0,0.0,0.0,0.0,0.0,0.0,0.0,0.0,0.0,0.0,0.0,0.0,False,0,3.765413284301758,0.034919921875
STABILIZE,0.30374789237976074,29.83698265682132,0.03244808514912923,0.03256535530090332,0.0,0.0,0.0,0.585158634615977,-1.2114802580386819,-6.786847350860789,-0.00544563694617292,-0.002932227395384476,-0.001064515304715927,0.4,-0.035426138044834576,0.021134149263262028,0.6576381780442511,-0.005308828413230929,-0.5924063734710217,0.6806648802012205,1.1459914967417717,-0.6777171961014643,-21.84610515832901,20.02914845943451,12.534971535205841,0.0,0.0,0.0,0.0,0.0,0.0,0.0,0.0,0.0,0.0,0.0,0.0,0.0,0.0,0.0,0.0,False,0,3.794126033782959,0.064851806640625
STABILIZE,0.33719897270202637,29.893761537200568,0.03241852124532064,0.03255200386047363,0.0,0.0,0.0,0.5853349388739278,-1.21312494624648,-6.785001492237593,-0.014509756674630283,-0.013706189336036846,-0.0024259226938051844,0.4,-0.04175957783466308,0.02980431735649429,0.6868934848165427,-0.012075467871387087,0.34504407085478306,-0.2921938896179199,1.0913748294115067,0.38884208247944413,30.23506999015808,-20.934607088565826,12.848138809204102,0.0,0.0,0.0,0.0,0.0,0.0,0.0,0.0,0.0,0.0,0.0,0.0,0.0,0.0,0.0,0.0,False,0,3.8514721393585205,0.03492041015625
STABILIZE,0.37069249153137207,29.85737268469084,0.03242352803548177,0.03255605697631836,0.0,0.0,0.0,0.584233250705146,-1.2128805535402403,-6.779311090885326,-0.016528057631540333,-0.011062513993564671,-0.004328338817442441,0.4,-0.030434008148713977,0.029247081591580158,0.6788357796055302,-0.021515571960250304,0.5076419096440077,0.018419194384478033,1.0078811086714268,-0.4984711543306445,-11.974746733903885,27.771317958831787,12.546858191490173,0.0,0.0,0.0,0.0,0.0,0.0,0.0,0.0,0.0,0.0,0.0,0.0,0.0,0.0,0.0,0.0,False,0,3.880120038986206,0.034919921875
STABILIZE,0.4040985107421875,29.933870495792863,0.03237727483113607,0.03250288963317871,0.0,0.0,0.0,0.5840082813493587,-1.2127710570701087,-6.783819869511181,-0.016837182870146634,0.0012330296481517073,-0.006221950168897076,0.4,-0.01916562367174414,0.02867357280174518,0.6711399890958301,-0.030880348286310012,0.5076419096440077,0.018419194384478033,1.0078811086714268,-0.4984711543306445,-11.974746733903885,27.771317958831787,12.546858191490173,0.0,0.0,0.0,0.0,0.0,0.0,0.0,0.0,0.0,0.0,0.0,0.0,0.0,0.0,0.0,0.0,False,0,3.9087533950805664,0.034919921875
STABILIZE,0.43755555152893066,29.890139961802685,0.03242042859395345,0.032530784606933594,0.0,0.0,0.0,0.5824534528178288,-1.2142735919658056,-6.773579708398039,-0.01741138852762179,-0.0020811225556355978,-0.008062604683077533,0.4,-0.022956972278823498,0.030525795028873932,0.6750738020243492,-0.039950060739322654,-0.267300009727478,0.144779437687248,1.593492180109024,-0.489436094719187,-23.197007179260254,-17.070387303829193,20.337460935115814,0.0,0.0,0.0,0.0,0.0,0.0,0.0,0.0,0.0,0.0,0.0,0.0,0.0,0.0,0.0,0.0,False,0,3.9374356269836426,0.029930908203125
STABILIZE,0.4710826873779297,29.82573758950984,0.03238538106282552,0.03253936767578125,0.0,0.0,0.0,0.5838368862898737,-1.2140265312169216,-6.786199763550107,-0.005275536856125112,0.004505490517755031,-0.006006603900331476,0.4,-0.021463298466149843,0.023137353633906843,0.6716821753975611,-0.029570959694037897,0.012826503370888531,-0.3307461040094495,1.3544675894081593,0.49852814372153176,22.298401594161987,-3.5265162587165833,13.250230252742767,0.0,0.0,0.0,0.0,0.0,0.0,0.0,0.0,0.0,0.0,0.0,0.0,0.0,0.0,0.0,0.0,False,0,3.966113567352295,0.034919921875
STABILIZE,0.5044994354248047,29.924900649966823,0.03234294255574544,0.032471418380737305,0.0,0.0,0.0,0.581754105479843,-1.2131415948325819,-6.777893399745725,0.005382241252232653,0.009401403544091838,-0.004049731917802355,0.4,-0.02000065595675374,0.01600537861251342,0.6717807371310548,-0.019720709457213964,0.012826503370888531,-0.3307461040094495,1.3544675894081593,0.49852814372153176,22.298401594161987,-3.5265162587165833,13.250230252742767,0.0,0.0,0.0,0.0,0.0,0.0,0.0,0.0,0.0,0.0,0.0,0.0,0.0,0.0,0.0,0.0,False,0,3.9948625564575195,0.034919921875
STABILIZE,0.5455887317657471,24.33893308729233,0.032379897435506184,0.04014778137207031,0.0,0.0,0.0,0.5819452440548974,-1.2146275878638826,-6.7786336214970255,0.009492719621244249,-0.00419586561537571,-0.0007233881670296813,0.4,-0.03036662907098829,0.009226427442787717,0.6629611766762091,-0.0030763529726034085,-0.6170532666146755,-0.3145538503304124,0.8690087124705315,0.8617625663421287,-25.47447979450226,-28.86754870414734,18.234170973300934,0.0,0.0,0.0,0.0,0.0,0.0,0.0,0.0,0.0,0.0,0.0,0.0,0.0,0.0,0.0,0.0,False,1,4.023804187774658,0.069840087890625
STABILIZE,0.5790696144104004,29.865238783546115,0.03236845334370931,0.03249931335449219,0.0,0.0,0.0,0.5834951633879615,-1.2132311343437325,-6.791924315848224,0.022172620361992322,-0.01139860479136275,-0.0008471539912093839,0.4,-0.030950711017977566,-0.00775226731913327,0.6662998631803783,-0.0036828403797098154,-0.056442763889208436,-0.37004626356065273,1.0363588109612465,-0.058170546706243303,14.299805462360382,15.947301685810089,13.322241604328156,0.0,0.0,0.0,0.0,0.0,0.0,0.0,0.0,0.0,0.0,0.0,0.0,0.0,0.0,0.0,0.0,False,0,4.080949068069458,0.02993212890625
STABILIZE,0.6129069328308105,29.55337753570598,0.032347710927327473,0.0329289436340332,0.0,0.0,0.0,0.5805269125850621,-1.2152310991100768,-6.759975252231843,0.01299358763375496,3.906359790167713e-05,-0.002111671135975368,0.4,-0.018886421030718324,0.005764110972057554,0.6619177518968153,-0.00997167654083793,0.5537342745810747,0.7145866751670837,1.3312005437910557,-0.3429260557427541,8.436661213636398,9.980424493551254,10.572303086519241,0.0,0.0,0.0,0.0,0.0,0.0,0.0,0.0,0.0,0.0,0.0,0.0,0.0,0.0,0.0,0.0,False,0,4.109600782394409,0.034919921875
STABILIZE,0.6464290618896484,29.83252605000178,0.032413752873738606,0.032546043395996094,0.0,0.0,0.0,0.5816806809462652,-1.215537176962258,-6.782160987316514,0.018332569214873216,-0.006606009573660324,0.0022065198007810254,0.4,-0.02636997490935636,-0.0069251433069095515,0.6676191519664182,0.011580538609715385,-0.4516678396612406,-0.6317428778856993,1.6745839267969131,1.1047951578023159,-7.942166179418564,0.4008558578789234,21.429897844791412,0.0,0.0,0.0,0.0,0.0,0.0,0.0,0.0,0.0,0.0,0.0,0.0,0.0,0.0,0.0,0.0,False,0,4.139153242111206,0.039908935546875
STABILIZE,0.6805191040039062,29.332848450940624,0.03231838544209798,0.03319692611694336,0.0,0.0,0.0,0.5804905204833906,-1.2164070655860826,-6.761255058927574,0.014062437508335187,-0.005408980984655135,0.005152760423336993,0.4,-0.02361283724328264,-0.006917625189436493,0.6611232101483369,0.026222109744176228,0.0883036176674068,0.04113915201742202,0.8680618368089199,0.7269236931512344,8.546460419893265,-13.91419768333435,9.886440634727478,0.0,0.0,0.0,0.0,0.0,0.0,0.0,0.0,0.0,0.0,0.0,0.0,0.0,0.0,0.0,0.0,False,1,4.167622089385986,0.05986181640625
STABILIZE,0.7164390087127686,27.838608834168518,0.03246310551961263,0.035085439682006836,0.0,0.0,0.0,0.5793122061298576,-1.214876035994942,-6.761967106148548,0.010203702957558326,-0.005314898748116565,0.007503908171617665,0.4,-0.03040809741950791,-0.006143004638680999,0.6697099455419473,0.03784184065697779,-0.37880754098296165,0.11612710077315569,1.0711342096328735,0.4428445462653268,-22.7608323097229,25.554922223091125,21.712711453437805,0.0,0.0,0.0,0.0,0.0,0.0,0.0,0.0,0.0,0.0,0.0,0.0,0.0,0.0,0.0,0.0,False,1,4.196812629699707,0.034844482421875
STABILIZE,0.7508649826049805,29.049243001399027,0.03249219258626302,0.033554792404174805,0.0,0.0,0.0,0.5814218808097453,-1.216270675246094,-6.777719656808713,0.007581597836938549,0.010405580891722528,0.01621934963011835,0.4,-0.009954296378681914,-0.016149550795100893,0.662719831960404,0.08114002310786413,1.2878509238362312,-0.6030803080648184,1.4409972354769707,1.7739625578885108,23.18800836801529,-2.2837603464722633,11.380846798419952,0.0,0.0,0.0,0.0,0.0,0.0,0.0,0.0,0.0,0.0,0.0,0.0,0.0,0.0,0.0,0.0,False,0,4.2615272998809814,0.034920166015625
STABILIZE,0.7843983173370361,29.82064827125296,0.03244736989339193,0.032582998275756836,0.0,0.0,0.0,0.5798184939020847,-1.215524050192447,-6.766161269185759,0.024687928390830713,0.02356470497304776,0.023097739696282184,0.4,0.01641980890326043,-0.02805600075357891,0.6635013976510322,0.11514651861836954,1.2878509238362312,-0.6030803080648184,1.4409972354769707,1.7739625578885108,23.18800836801529,-2.2837603464722633,11.380846798419952,0.0,0.0,0.0,0.0,0.0,0.0,0.0,0.0,0.0,0.0,0.0,0.0,0.0,0.0,0.0,0.0,False,0,4.290271520614624,0.034920166015625
STABILIZE,0.817840576171875,29.902712722346987,0.03237322171529134,0.03249716758728027,0.0,0.0,0.0,0.5810399238247534,-1.2187104401619635,-6.767399667859647,0.009343767820898677,0.011542461905638946,0.019667757269175228,0.4,-0.005011083311515618,-0.017907937708755435,0.6629046792532604,0.09766998298360313,-1.1440318077802658,0.5174990743398666,1.356661319732666,-0.8332996206059518,-30.89284896850586,11.842593550682068,32.25545883178711,0.0,0.0,0.0,0.0,0.0,0.0,0.0,0.0,0.0,0.0,0.0,0.0,0.0,0.0,0.0,0.0,False,0,4.318883895874023,0.034919921875
STABILIZE,0.8515763282775879,29.643400333587763,0.03237799008687337,0.0328066349029541,0.0,0.0,0.0,0.5800397279981697,-1.2168484665611947,-6.775140406623387,0.012762503858300108,0.005491645341349451,0.01568995066886928,0.4,-0.010823243666831643,-0.02235318160619361,0.6554924069666208,0.07751940840086671,-0.3433073638007045,-0.23713205009698868,0.9892962872982025,-0.9726265150509262,-25.18521547317505,-6.601616740226746,7.187437266111374,0.0,0.0,0.0,0.0,0.0,0.0,0.0,0.0,0.0,0.0,0.0,0.0,0.0,0.0,0.0,0.0,False,0,4.347678899765015,0.024943115234375
STABILIZE,0.8850531578063965,29.87013061003575,0.0323822816212972,0.03249859809875488,0.0,0.0,0.0,0.5801444219915414,-1.2159222288767175,-6.771032474724447,0.017614849996029313,0.015589490108999689,0.017228111742817527,0.4,-0.0026076055614852427,-0.028112699225442433,0.6375807508521582,0.08492614284640267,0.40935222059488297,-0.35489387810230255,0.720702949911356,0.5692340485660922,24.010369181632996,8.693152666091919,-4.889356344938278,0.0,0.0,0.0,0.0,0.0,0.0,0.0,0.0,0.0,0.0,0.0,0.0,0.0,0.0,0.0,0.0,False,0,4.37645411491394,0.039908935546875
STABILIZE,0.9184975624084473,29.900367846245974,0.032352717717488606,0.03249788284301758,0.0,0.0,0.0,0.5794700475327084,-1.2179685108633709,-6.764898111076129,0.007053681952774497,-0.0072726140203994765,0.020247446945556663,0.4,-0.01685656300387719,-0.021878577826913922,0.6352692259184908,0.09968943724054995,-0.3170422278344631,-0.28735219966620207,1.1110104620456696,0.7603388995616408,-1.3153871521353722,-6.841183453798294,1.5202350914478302,0.0,0.0,0.0,0.0,0.0,0.0,0.0,0.0,0.0,0.0,0.0,0.0,0.0,0.0,0.0,0.0,False,0,4.433777809143066,0.029930908203125
STABILIZE,0.9518857002258301,29.950115321722613,0.03237465222676595,0.032492876052856445,0.0,0.0,0.0,0.5794256513031033,-1.2191076583508822,-6.7734375550859385,0.0035640901121413117,-0.02692972868328881,0.02251424442641833,0.4,-0.021914091414415086,-0.026529860460657723,0.6288219178171164,0.11065323540744554,-0.3170422278344631,-0.28735219966620207,1.1110104620456696,0.7603388995616408,-1.3153871521353722,-6.841183453798294,1.5202350914478302,0.0,0.0,0.0,0.0,0.0,0.0,0.0,0.0,0.0,0.0,0.0,0.0,0.0,0.0,0.0,0.0,False,0,4.462629556655884,0.029930908203125
STABILIZE,0.9861409664154053,29.193201275108926,0.03243616422017415,0.033240556716918945,0.0,0.0,0.0,0.5781477655980762,-1.2184276276416428,-6.773131477233757,0.009133718967519187,0.00043978292014469443,0.020995956897853902,0.4,-0.002670693695880119,-0.025921254261030046,0.6321925925473906,0.10271113591896194,1.039217785000801,-0.0009051670531334821,1.63034126162529,-0.28058595869269565,23.55947196483612,-2.6223689317703247,6.810978800058365,0.0,0.0,0.0,0.0,0.0,0.0,0.0,0.0,0.0,0.0,0.0,0.0,0.0,0.0,0.0,0.0,False,0,4.49236273765564,0.034919921875
STABILIZE,1.0195064544677734,29.971088641966485,0.032267125447591145,0.03238654136657715,0.0,0.0,0.0,0.5765473668981775,-1.2184342443874012,-6.7614420353561036,0.012707917887874426,0.008169268014091043,0.023851836794218897,0.4,0.002891396904952565,-0.03400189931334164,0.6344184044157244,0.1166007379737115,0.27924440801143646,-0.47471411526203156,1.3782004825770855,0.8886340246408398,-17.070432007312775,-4.5466940850019455,14.731071889400482,0.0,0.0,0.0,0.0,0.0,0.0,0.0,0.0,0.0,0.0,0.0,0.0,0.0,0.0,0.0,0.0,False,0,4.521003007888794,0.034920166015625
STABILIZE,1.0529370307922363,29.91209590574878,0.032358439763387044,0.03247952461242676,0.0,0.0,0.0,0.5768791646814521,-1.219847026328536,-6.772361373404838,0.007693933382471844,-0.000611011013863977,0.021503855713878806,0.4,-0.0021278233554088335,-0.031913547798253006,0.6295557629481605,0.1045113305504996,-0.3155309008434415,0.09652601438574493,0.9709587320685387,-0.5698443366406034,-9.229173511266708,12.68034428358078,6.464187800884247,0.0,0.0,0.0,0.0,0.0,0.0,0.0,0.0,0.0,0.0,0.0,0.0,0.0,0.0,0.0,0.0,False,0,4.549560070037842,0.034919921875
STABILIZE,1.0877840518951416,28.697053873205707,0.032388957341512044,0.03388714790344238,0.0,0.0,0.0,0.5714026336275713,-1.2238879369962448,-6.752751473410909,0.011328615218559704,0.015866549557554246,0.021218448454403085,0.4,0.0085430992390359,-0.03180518347690971,0.6292037934870713,0.10272671412693514,0.5780525039881468,-0.02038586972048506,1.221135538071394,0.025847943779414115,21.857312321662903,-12.385069578886032,15.946780145168304,0.0,0.0,0.0,0.0,0.0,0.0,0.0,0.0,0.0,0.0,0.0,0.0,0.0,0.0,0.0,0.0,False,0,4.5782856941223145,0.02993212890625
STABILIZE,1.1212067604064941,29.91913715867264,0.03236368497212728,0.03248786926269531,0.0,0.0,0.0,0.5682283032108079,-1.2237106722429418,-6.74574156488836,0.011986111505807976,0.034072325834185374,0.021061317354093834,0.4,0.028293078487152002,-0.036300081456537854,0.6175450581297497,0.10160123029164972,0.5528274923563004,-0.33892563078552485,0.8937112987041473,0.27232991417258984,4.673439636826515,-2.8090564534068108,11.807448416948318,0.0,0.0,0.0,0.0,0.0,0.0,0.0,0.0,0.0,0.0,0.0,0.0,0.0,0.0,0.0,0.0,False,0,4.635713577270508,0.034919921875
STABILIZE,1.1546673774719238,29.88651926379319,0.03239324887593587,0.03252220153808594,0.0,0.0,0.0,0.5658556662478746,-1.223697332029719,-6.7461449729362135,0.010631622487069049,0.021866668865237655,0.021144138793846266,0.4,0.0270639903663963,-0.03402147739028271,0.6132852782224704,0.10167522046961441,-0.09653233573772013,0.102324562612921,0.9421709924936295,0.14065907481781786,1.3071723282337189,0.8332615718245506,2.5168526917696,0.0,0.0,0.0,0.0,0.0,0.0,0.0,0.0,0.0,0.0,0.0,0.0,0.0,0.0,0.0,0.0,False,0,4.664639711380005,0.064850830078125
STABILIZE,1.1880950927734375,29.914229268744965,0.03237918217976888,0.03250288963317871,0.0,0.0,0.0,0.5611010008118995,-1.2261675126317366,-6.738373925208031,0.008800129378173913,0.027883308068270118,0.02244710652118052,0.4,0.03920915587543324,-0.03792474519299351,0.6386411911507918,0.10782939412582856,0.5027393344789743,-0.1521493773907423,1.6458099707961082,0.24331583086733102,0.08632857352495193,-22.126424312591553,24.03414398431778,0.0,0.0,0.0,0.0,0.0,0.0,0.0,0.0,0.0,0.0,0.0,0.0,0.0,0.0,0.0,0.0,False,0,4.693253755569458,0.034920166015625
STABILIZE,1.2220466136932373,29.45396834314125,0.0323975404103597,0.033016204833984375,0.0,0.0,0.0,0.5629321318396976,-1.2245830154659993,-6.73394070554987,0.011456177542539631,0.03777888657007896,0.02276341246695561,0.4,0.04825094715153959,-0.03977718122504298,0.6452528172702239,0.10904075291036137,0.5027393344789743,-0.1521493773907423,1.6458099707961082,0.24331583086733102,0.08632857352495193,-22.126424312591553,24.03414398431778,0.0,0.0,0.0,0.0,0.0,0.0,0.0,0.0,0.0,0.0,0.0,0.0,0.0,0.0,0.0,0.0,False,0,4.721796274185181,0.034920166015625
STABILIZE,1.2632265090942383,24.283835108846688,0.03239277203877767,0.040288448333740234,0.0,0.0,0.0,0.5732309898910191,-1.2230546539175033,-6.764854568620171,0.01458041060684273,0.03893716392022543,0.0209199435991463,0.4,0.05931178058703058,-0.04440059272959245,0.6522817453405187,0.09941379369839742,0.6202999502420425,-0.30552998650819063,1.6565296798944473,-0.34503124811099894,9.670612961053848,-0.8396238088607788,21.589118242263794,0.0,0.0,0.0,0.0,0.0,0.0,0.0,0.0,0.0,0.0,0.0,0.0,0.0,0.0,0.0,0.0,False,1,4.750333547592163,0.034919921875
STABILIZE,1.2968549728393555,29.73882216140331,0.03243401845296224,0.03259587287902832,0.0,0.0,0.0,0.5728738990634743,-1.2294811148745448,-6.731520257262747,0.005839404334997647,0.01390942551845171,0.022185162569349465,0.4,0.04206892189780577,-0.03642952864983848,0.654078467477312,0.105386813036653,-0.42971447110176086,0.15436606481671333,1.4028198085725307,0.36480224451980575,-20.709235966205597,-5.049385502934456,18.336960673332214,0.0,0.0,0.0,0.0,0.0,0.0,0.0,0.0,0.0,0.0,0.0,0.0,0.0,0.0,0.0,0.0,False,0,4.807788133621216,0.02993212890625
STABILIZE,1.330127477645874,30.051830993988638,0.03226807912190755,0.03238821029663086,0.0,0.0,0.0,0.568540250756807,-1.2387793502124593,-6.720648303651379,0.018750381932446488,0.01578447899247137,0.023976713739586063,0.4,0.04348929816915237,-0.05142706588450891,0.6448882773581011,0.11396386641099018,0.14308448880910873,-0.9209326468408108,0.9051376953721046,0.7014180592431143,34.61845517158508,-14.951711893081665,15.3305783867836,0.0,0.0,0.0,0.0,0.0,0.0,0.0,0.0,0.0,0.0,0.0,0.0,0.0,0.0,0.0,0.0,False,0,4.836524248123169,0.034919921875
STABILIZE,1.3636195659637451,29.8582228739838,0.03244951566060384,0.03259897232055664,0.0,0.0,0.0,0.5653042351941019,-1.246649649127018,-6.696203056611903,0.006405349318627276,0.028396308631559414,0.015484696075949513,0.4,0.06938145404969999,-0.03836090799318479,0.6428902555051489,0.07126517599339888,1.5059714205563068,0.6843211594969034,1.1012140661478043,-2.241166066694189,19.188091158866882,33.75594615936279,14.293617010116577,0.0,0.0,0.0,0.0,0.0,0.0,0.0,0.0,0.0,0.0,0.0,0.0,0.0,0.0,0.0,0.0,False,0,4.866215229034424,0.034919921875
STABILIZE,1.397063970565796,29.901859997576086,0.032436641057332356,0.03255772590637207,0.0,0.0,0.0,0.5620511441584718,-1.2520385616604524,-6.664821325583457,-0.004790451147223565,0.042988785450838146,0.006922607872738754,0.4,0.09526665615133931,-0.025170712920668966,0.6408958458324283,0.028359898480016597,1.5059714205563068,0.6843211594969034,1.1012140661478043,-2.241166066694189,19.188091158866882,33.75594615936279,14.293617010116577,0.0,0.0,0.0,0.0,0.0,0.0,0.0,0.0,0.0,0.0,0.0,0.0,0.0,0.0,0.0,0.0,False,0,4.894909381866455,0.034919921875
STABILIZE,1.4306597709655762,29.765625110885594,0.03243115743001302,0.03257012367248535,0.0,0.0,0.0,0.5420075271522462,-1.264041551909692,-6.678656727520964,-0.01750260311785535,0.045052236094317334,-0.00011406378497976952,0.4,0.10487446308448119,-0.011491928413864419,0.6399932984449003,-0.006800701162154029,0.5889639258384705,0.7087674923241138,1.1626976542174816,-1.8011917473450012,-1.0695245116949081,33.367013931274414,11.073250323534012,0.0,0.0,0.0,0.0,0.0,0.0,0.0,0.0,0.0,0.0,0.0,0.0,0.0,0.0,0.0,0.0,False,0,4.9237823486328125,0.06485205078125
STABILIZE,1.4639716148376465,30.01935299169768,0.03229645093282064,0.03241539001464844,0.0,0.0,0.0,0.5447270096589691,-1.2698976920710374,-6.669067568813089,-0.012626335665891638,0.07003391884075537,-0.004351180988823875,0.4,0.12390775390231207,-0.0116003072330415,0.6568068692384407,-0.027893036492748116,0.6821974646300077,-0.12631388381123543,1.1124780401587486,-0.6132643828029034,-12.368028610944748,-34.97334122657776,22.15876579284668,0.0,0.0,0.0,0.0,0.0,0.0,0.0,0.0,0.0,0.0,0.0,0.0,0.0,0.0,0.0,0.0,False,0,4.953970193862915,0.034920166015625
STABILIZE,1.4974281787872314,29.88992695528238,0.03242066701253255,0.03254961967468262,0.0,0.0,0.0,0.5637872928681243,-1.2524185976547402,-6.72680230409356,-0.007905575779168601,0.10164499117075186,-0.0036423111486669447,0.4,0.16607539603537988,-0.02940985368448982,0.6082357306587274,-0.024267512733110733,0.9366792626678944,0.417869770899415,0.22479519248008728,-0.5444879530380187,-17.021694779396057,21.997345983982086,-9.783439338207245,0.0,0.0,0.0,0.0,0.0,0.0,0.0,0.0,0.0,0.0,0.0,0.0,0.0,0.0,0.0,0.0,False,0,5.011215448379517,0.029930908203125
STABILIZE,1.5309712886810303,29.810686719072056,0.03241923650105794,0.03255891799926758,0.0,0.0,0.0,0.5598237554371072,-1.219650765111604,-6.787888527822393,0.0016913067193126124,0.051103224313686336,0.0007733387778121258,0.4,0.12031721137170659,-0.03177630115048293,0.6243553468089295,-0.0021819627948490433,-2.2308913990855217,-0.19029449904337525,2.306649088859558,1.2344044006056547,-59.18900966644287,-1.875876635313034,-8.88931229710579,0.0,0.0,0.0,0.0,0.0,0.0,0.0,0.0,0.0,0.0,0.0,0.0,0.0,0.0,0.0,0.0,False,0,5.0399861335754395,0.034919921875
STABILIZE,1.5643210411071777,29.985658828828186,0.032338651021321614,0.03246188163757324,0.0,0.0,0.0,0.5860712119221141,-1.2881806143752805,-6.745791510646665,0.035560495273074456,0.00963714069698459,0.005391659813062918,0.4,0.08641071937529904,-0.06556813794710672,0.663619225786087,0.020839946408898656,-1.6848934814333916,-1.8910100683569908,3.4049909561872482,1.3268913518265626,-49.853911995887756,-49.8975932598114,74.46433305740356,0.0,0.0,0.0,0.0,0.0,0.0,0.0,0.0,0.0,0.0,0.0,0.0,0.0,0.0,0.0,0.0,False,0,5.06868052482605,0.02993212890625
STABILIZE,1.5977938175201416,29.874598460081057,0.03243735631306966,0.03255772590637207,0.0,0.0,0.0,0.5744102647399041,-1.2035735670224517,-6.76262024298793,0.06874646992766248,-0.022060575555918106,0.00998171312478899,0.4,0.05253432010397987,-0.0980385511944814,0.6989338909835275,0.04364427745640658,-1.6848934814333916,-1.8910100683569908,3.4049909561872482,1.3268913518265626,-49.853911995887756,-49.8975932598114,74.46433305740356,0.0,0.0,0.0,0.0,0.0,0.0,0.0,0.0,0.0,0.0,0.0,0.0,0.0,0.0,0.0,0.0,False,0,5.097362756729126,0.02993212890625
STABILIZE,1.631181001663208,29.952254111530852,0.03240850766499837,0.032515764236450195,0.0,0.0,0.0,0.5763221840989787,-1.2323289835933227,-6.7941735825192735,0.04069983302089662,0.0066801122423630795,0.027178297482266908,0.4,0.10463871291799241,-0.06162241056481817,0.7564670710856003,0.12919537175686774,3.1029291450977325,1.9365759566426277,4.700011759996414,4.90107609036305,282.9184055328369,134.49227809906006,253.72662544250488,0.0,0.0,0.0,0.0,0.0,0.0,0.0,0.0,0.0,0.0,0.0,0.0,0.0,0.0,0.0,0.0,False,0,5.126197814941406,0.034919921875
STABILIZE,1.6646277904510498,29.897383990305794,0.03245094617207845,0.03256082534790039,0.0,0.0,0.0,0.5885497168171825,-1.2252891929931553,-6.716217645314156,0.03735897085782953,0.019526252544954617,-0.0004957701404860746,0.4,0.1542092333623744,-0.07106542397029376,0.7239886860542774,-0.009144392202403456,2.953105606138706,-0.5955403205007315,-0.6328901741653681,-7.768228567602085,-211.98670864105225,-21.970736980438232,99.96588230133057,0.0,0.0,0.0,0.0,0.0,0.0,0.0,0.0,0.0,0.0,0.0,0.0,0.0,0.0,0.0,0.0,False,0,5.154853820800781,0.034919921875
STABILIZE,1.6980793476104736,29.894400729843767,0.03243211110432943,0.03256106376647949,0.0,0.0,0.0,0.5854709023270934,-1.2040589373403459,-6.784231815295497,0.05184418080375321,-0.1628078733895809,-0.006569200182886722,0.4,-0.11871567118539511,-0.09185887623880229,0.6107177154714021,-0.039379830466084995,-7.624679058790207,-0.6849604193121195,-1.8859673291444778,-0.7953712599797536,-172.23926782608032,31.720492243766785,29.34413254261017,0.0,0.0,0.0,0.0,0.0,0.0,0.0,0.0,0.0,0.0,0.0,0.0,0.0,0.0,0.0,0.0,False,0,5.212172269821167,0.02993115234375
STABILIZE,1.731506109237671,29.915296064362437,0.03243568738301595,0.032541513442993164,0.0,0.0,0.0,0.5922708892543701,-1.2241534606002291,-6.811919694643437,0.03169579342177918,-0.1425766314187144,-0.006595525484783591,0.4,-0.11871567118539511,-0.09185887623880229,0.6107177154714021,-0.039379830466084995,-7.624679058790207,-0.6849604193121195,-1.8859673291444778,-0.7953712599797536,-172.23926782608032,31.720492243766785,29.34413254261017,0.0,0.0,0.0,0.0,0.0,0.0,0.0,0.0,0.0,0.0,0.0,0.0,0.0,0.0,0.0,0.0,False,1,5.212172269821167,0.02993115234375
STABILIZE,1.7649669647216797,29.88588040814,0.03243687947591146,0.03258204460144043,0.0,0.0,0.0,0.5788219266134976,-1.2205486148223432,-6.703142955695459,0.008556035886884089,-0.08536326387346832,0.000998933416209639,0.4,-0.07055702182462434,-0.0868329677778679,0.5867699340528687,-0.0014028407319510994,4.510306194424629,-1.2458075769245625,0.10696069803088903,3.6890291400666686,67.44726896286011,-101.77130699157715,12.69589364528656,0.0,0.0,0.0,0.0,0.0,0.0,0.0,0.0,0.0,0.0,0.0,0.0,0.0,0.0,0.0,0.0,False,0,5.276335716247559,0.034864013671875
STABILIZE,1.7985484600067139,29.78126486647685,0.032425912221272786,0.03256034851074219,0.0,0.0,0.0,0.5855997154259717,-1.2078313361963084,-6.788822983078215,0.05160420538957896,-0.1506232945841147,0.006420051939464467,0.4,-0.11490317085539913,-0.11435534507247322,0.5778675523467607,0.02561704483294188,-2.4638015776872635,-1.6848521307110786,0.706904474645853,1.6037406901151587,-102.4495005607605,39.32892084121704,-41.37394726276398,0.0,0.0,0.0,0.0,0.0,0.0,0.0,0.0,0.0,0.0,0.0,0.0,0.0,0.0,0.0,0.0,False,0,5.304915189743042,0.02993115234375
STABILIZE,1.8319091796875,29.97387302404025,0.032306941350301106,0.03244161605834961,0.0,0.0,0.0,0.5825518502305592,-1.2373231325370715,-6.7297785590243935,0.06715843990221007,-0.1502161514432158,0.02174492017662083,0.4,-0.07583948144309437,-0.14161028557234467,0.5681250185890235,0.10190058315599905,2.2844530642032623,-1.7577284947037697,0.7683924399316311,4.52880004474609,43.271756172180176,-86.56030297279358,-12.140816450119019,0.0,0.0,0.0,0.0,0.0,0.0,0.0,0.0,0.0,0.0,0.0,0.0,0.0,0.0,0.0,0.0,False,0,5.333524227142334,0.06983984375
STABILIZE,1.8656005859375,29.682629772477974,0.03240683873494466,0.03273773193359375,0.0,0.0,0.0,0.5799552044071908,-1.222558184542208,-6.706633182361336,0.059841136535964956,-0.003335258018559299,0.020175669847681706,0.4,-0.09710115991870959,-0.14854939714151633,0.5660577067348934,0.09373884961607945,-0.5937397480010986,0.11465393472462893,0.2738877898082137,-0.9734135876310644,-95.86052894592285,79.10374999046326,-27.406850457191467,0.0,0.0,0.0,0.0,0.0,0.0,0.0,0.0,0.0,0.0,0.0,0.0,0.0,0.0,0.0,0.0,False,0,5.362260818481445,0.034920166015625
STABILIZE,1.8990509510040283,29.892270193993472,0.03230717976888021,0.03244185447692871,0.0,0.0,0.0,0.5879512214911601,-1.2095623622640836,-6.797916526184441,0.055744594343055676,-0.011472547177632787,0.016287471993730356,0.4,-0.10760147220764546,-0.1431049921197261,0.5477943340718335,0.07404993111001293,-0.5937397480010986,0.11465393472462893,0.2738877898082137,-0.9734135876310644,-95.86052894592285,79.10374999046326,-27.406850457191467,0.0,0.0,0.0,0.0,0.0,0.0,0.0,0.0,0.0,0.0,0.0,0.0,0.0,0.0,0.0,0.0,False,0,5.390840768814087,0.034920166015625
STABILIZE,1.933241844177246,29.24775811332859,0.032378466924031575,0.03331589698791504,0.0,0.0,0.0,0.5825088413831293,-1.2321716757990009,-6.723456792060723,0.03327261294935765,-0.07071452613819411,0.010689465799722436,0.4,-0.1478182587773227,-0.10921027050719961,0.5399939318630879,0.04590282950338725,-2.2214651107788086,1.6435854136943817,0.8156663738191128,-1.4199444616966412,-41.28798246383667,-0.5884892772883177,-20.37018984556198,0.0,0.0,0.0,0.0,0.0,0.0,0.0,0.0,0.0,0.0,0.0,0.0,0.0,0.0,0.0,0.0,False,1,5.419564485549927,0.029931884765625
STABILIZE,1.9733617305755615,25.303322253123472,0.03244951566060384,0.03849935531616211,0.0,0.0,0.0,0.5821726680099177,-1.221702169740135,-6.7221185018702245,0.015345592345419198,-0.010452161683616642,-0.004676841347232425,0.4,-0.09787560119963369,-0.10703285695811125,0.5261791877590554,-0.030807344082559474,-0.011486979201436043,1.2135915458202362,-0.09021228179335594,-3.856063123766623,-34.893494844436646,71.55497670173645,-28.97855043411255,0.0,0.0,0.0,0.0,0.0,0.0,0.0,0.0,0.0,0.0,0.0,0.0,0.0,0.0,0.0,0.0,False,0,5.476972579956055,0.024943115234375
STABILIZE,2.0063250064849854,29.797344434893187,0.031687291463216145,0.03183770179748535,0.0,0.0,0.0,0.5882831259961404,-1.2177706488208522,-6.782805159532611,-0.021493033587783605,-0.03107126115304953,-0.01860847635460907,0.4,-0.09430265381678467,-0.08028580843745128,0.4997384907449588,-0.10013042402146702,-0.011486979201436043,1.2135915458202362,-0.09021228179335594,-3.856063123766623,-34.893494844436646,71.55497670173645,-28.97855043411255,0.0,0.0,0.0,0.0,0.0,0.0,0.0,0.0,0.0,0.0,0.0,0.0,0.0,0.0,0.0,0.0,False,0,5.505687475204468,0.024943115234375
STABILIZE,2.0396766662597656,29.98330092645545,0.032198699315389,0.032317161560058594,0.0,0.0,0.0,0.5830364734965128,-1.2308342393821479,-6.734467483889607,-0.025726599089422566,-0.05277441920310369,-0.016148116956059878,0.4,-0.1389129273435773,-0.08012465691857001,0.48758585923904263,-0.08753596837134248,-2.752460353076458,-0.2158476272597909,0.625248160213232,0.6054150547035307,-72.99159169197083,-37.764278054237366,-18.862663209438324,0.0,0.0,0.0,0.0,0.0,0.0,0.0,0.0,0.0,0.0,0.0,0.0,0.0,0.0,0.0,0.0,False,0,5.534316539764404,0.029930908203125
STABILIZE,2.0730676651000977,29.946480079965728,0.03228953679402669,0.03241896629333496,0.0,0.0,0.0,0.5877898582720186,-1.2137955854456106,-6.774024524467736,-0.037195576912799344,-0.030534978406442054,-0.026401895134022663,0.4,-0.1181026173772497,-0.06090006217575209,0.4878621598207776,-0.1383419388073312,1.036785077303648,0.8996314369142056,1.2153444811701775,-2.9315880549821114,-44.48590278625488,-23.78583401441574,52.51821279525757,0.0,0.0,0.0,0.0,0.0,0.0,0.0,0.0,0.0,0.0,0.0,0.0,0.0,0.0,0.0,0.0,False,0,5.5631561279296875,0.0698408203125
STABILIZE,2.106559991836548,29.857797773285117,0.03235295613606771,0.032488346099853516,0.0,0.0,0.0,0.5869919000778907,-1.2185707414490956,-6.7684647504833455,-0.024720150343012576,-0.02757405142751014,-0.03880657853667955,0.4,-0.14475986344677422,-0.05134235603700037,0.5188226490510986,-0.19969730866016358,-1.8733875826001167,-0.9273003786802292,1.3798406347632408,1.630309805821391,-18.348965048789978,-23.819531500339508,51.358020305633545,0.0,0.0,0.0,0.0,0.0,0.0,0.0,0.0,0.0,0.0,0.0,0.0,0.0,0.0,0.0,0.0,False,0,5.620548248291016,0.02993115234375
STABILIZE,2.1399736404418945,29.92789000121301,0.03231814702351888,0.03243875503540039,0.0,0.0,0.0,0.5834192842551509,-1.228445807606759,-6.749721430740362,-0.029950660932762316,-0.04163769773866791,-0.04065844484965384,0.4,-0.13000657335788512,-0.0431390778742112,0.5208577912708258,-0.20826042850592844,0.4520190879702568,0.2580326050519943,1.356598548591137,-0.7696928969908262,85.09694337844849,33.20900499820709,52.4097204208374,0.0,0.0,0.0,0.0,0.0,0.0,0.0,0.0,0.0,0.0,0.0,0.0,0.0,0.0,0.0,0.0,False,0,5.649177312850952,0.034920166015625
STABILIZE,2.1734297275543213,29.891418064681652,0.03232935269673665,0.032469749450683594,0.0,0.0,0.0,0.5861348180587599,-1.2190160911273216,-6.757620117628658,-0.00923575188700361,-0.026561450136695357,-0.04410463737660655,0.4,-0.10742235720069801,-0.04920683707809814,0.5290651062073535,-0.22473938322192766,0.9203623048961163,-0.44913371093571186,1.5378428623080254,-1.061428259049495,-13.678908348083496,-53.07551622390747,47.21454977989197,0.0,0.0,0.0,0.0,0.0,0.0,0.0,0.0,0.0,0.0,0.0,0.0,0.0,0.0,0.0,0.0,False,0,5.677894830703735,0.034919921875
STABILIZE,2.207899570465088,29.009260988345957,0.03234127362569173,0.032471418380737305,0.0,0.0,0.0,0.5860690774879985,-1.2182520704356323,-6.759069825279993,0.0032461835278517668,-0.004796320157937426,-0.04086887478241173,0.4,-0.11369266604403577,-0.0651754228055801,0.5563310254614969,-0.20786552011630072,-0.5255312658846378,-0.9465799666941166,2.4894922971725464,0.5964609968667614,-44.158002734184265,17.08768606185913,43.456441164016724,0.0,0.0,0.0,0.0,0.0,0.0,0.0,0.0,0.0,0.0,0.0,0.0,0.0,0.0,0.0,0.0,False,0,5.706605672836304,0.02993212890625
STABILIZE,2.240509271621704,30.665496870796048,0.031325610478719075,0.03177189826965332,0.0,0.0,0.0,0.5855955532794462,-1.2286918011385852,-6.755022084423114,0.026416373685083608,-0.021502675721525154,-0.037258753571702136,0.4,-0.11911110766586123,-0.0805068591774053,0.5801933230931208,-0.18917650541895817,-0.5255312658846378,-0.9465799666941166,2.4894922971725464,0.5964609968667614,-44.158002734184265,17.08768606185913,43.456441164016724,0.0,0.0,0.0,0.0,0.0,0.0,0.0,0.0,0.0,0.0,0.0,0.0,0.0,0.0,0.0,0.0,False,0,5.735302925109863,0.02993212890625
STABILIZE,2.2741541862487793,29.722173799046182,0.03249624570210775,0.032761573791503906,0.0,0.0,0.0,0.5842142542415169,-1.2204616366321315,-6.742005451412362,0.015778842736981553,0.00415166234718682,-0.038287859430741054,0.4,-0.10638593504623767,-0.058986729336316775,0.5768992311696004,-0.19367121453813532,0.42607677169144154,0.9731928817927837,1.086960919201374,-0.5882309390820133,61.16901636123657,9.527619183063507,39.0220582485199,0.0,0.0,0.0,0.0,0.0,0.0,0.0,0.0,0.0,0.0,0.0,0.0,0.0,0.0,0.0,0.0,False,0,5.764018297195435,0.034919921875
STABILIZE,2.3077950477600098,29.72638681190954,0.03237775166829427,0.03264927864074707,0.0,0.0,0.0,0.5869247721249541,-1.217019221290445,-6.760370549430058,0.034068018956169406,0.005764249575480855,-0.036935452554798985,0.4,-0.09261119469769624,-0.07641323485580469,0.5851628966506816,-0.1862834304492276,-1.130368933081627,0.031557801412418485,1.0812445543706417,-0.5024406681771855,-45.95749080181122,42.6072359085083,37.52929866313934,0.0,0.0,0.0,0.0,0.0,0.0,0.0,0.0,0.0,0.0,0.0,0.0,0.0,0.0,0.0,0.0,False,0,5.821584463119507,0.029931884765625
STABILIZE,2.3414323329925537,29.729968812021546,0.032393725713094075,0.032653093338012695,0.0,0.0,0.0,0.5847374040432576,-1.2276863759484182,-6.750593133633184,0.019996811200342097,-0.0018223548311654693,-0.033283281881442514,0.4,-0.08490008236346262,-0.06275886751781196,0.5834418641525823,-0.16746012512077563,0.20539439283311367,0.5866188555955887,1.1599458754062653,0.6713948421684125,23.096588253974915,-17.968744039535522,30.8677077293396,0.0,0.0,0.0,0.0,0.0,0.0,0.0,0.0,0.0,0.0,0.0,0.0,0.0,0.0,0.0,0.0,False,0,5.851332664489746,0.034919921875
STABILIZE,2.3749277591705322,29.85439740341087,0.032329829533894856,0.03245425224304199,0.0,0.0,0.0,0.5835503385098505,-1.2233551822409838,-6.73508518912267,0.03039357685426305,0.026290282515536372,-0.03093607294513734,0.4,-0.053106970187181975,-0.08858011327672136,0.5791396341136748,-0.15520487745442774,1.5550714917480946,-1.5508612617850304,0.819246843457222,0.3920255109216254,46.020305156707764,-31.71825110912323,30.932313203811646,0.0,0.0,0.0,0.0,0.0,0.0,0.0,0.0,0.0,0.0,0.0,0.0,0.0,0.0,0.0,0.0,False,0,5.880178451538086,0.034919921875
STABILIZE,2.4090399742126465,29.317471079579214,0.03227237065633138,0.03313899040222168,0.0,0.0,0.0,0.5880696825845775,-1.2199522539304366,-6.776270802931024,0.009687282761277205,0.02091192293470002,-0.0337552163862169,0.4,-0.06450412929367168,-0.07316227163102362,0.5816114713787581,-0.16872423438337095,-0.8171173743903637,0.7197896484285593,1.197045762091875,-1.0307929396312838,-39.699819684028625,38.528844714164734,26.851195096969604,0.0,0.0,0.0,0.0,0.0,0.0,0.0,0.0,0.0,0.0,0.0,0.0,0.0,0.0,0.0,0.0,False,0,5.9086949825286865,0.02993115234375
STABILIZE,2.4425973892211914,29.797344434893187,0.032347710927327473,0.03250288963317871,0.0,0.0,0.0,0.5845954641745682,-1.2258697590726064,-6.740031099855406,0.019206008003048638,0.006046260912777259,-0.025835898028646814,0.4,-0.07394478807668248,-0.06889089234964858,0.5837361599509933,-0.12869644563162347,-0.7110030390322208,0.08244680939242244,1.3626308180391788,1.9032486473667434,-10.917021334171295,-29.978904128074646,23.628157377243042,0.0,0.0,0.0,0.0,0.0,0.0,0.0,0.0,0.0,0.0,0.0,0.0,0.0,0.0,0.0,0.0,False,0,5.937465667724609,0.034920166015625
STABILIZE,2.4759750366210938,29.95995628477753,0.03228023846944173,0.03240513801574707,0.0,0.0,0.0,0.5837569517322434,-1.2236133420472692,-6.735766500492379,0.014785515674976596,0.014045062963643926,-0.027043402008012373,0.4,-0.052829101776683804,-0.07656915260459461,0.5770558261983469,-0.13428489929886095,1.0172157548367977,-0.5658336915075779,0.6714269518852234,-0.6017612770235441,18.65273267030716,28.28301191329956,6.107885763049126,0.0,0.0,0.0,0.0,0.0,0.0,0.0,0.0,0.0,0.0,0.0,0.0,0.0,0.0,0.0,0.0,False,0,5.966041803359985,0.0349208984375
STABILIZE,2.5095126628875732,29.816832422211007,0.03234103520711263,0.03265976905822754,0.0,0.0,0.0,0.5881537792887334,-1.2188808747260966,-6.771385510127172,0.02886726624691388,0.02550708171162183,-0.028272629388588367,0.4,-0.03177561755443361,-0.08425447140253861,0.5702662888176788,-0.1399605671940552,1.0172157548367977,-0.5658336915075779,0.6714269518852234,-0.6017612770235441,18.65273267030716,28.28301191329956,6.107885763049126,0.0,0.0,0.0,0.0,0.0,0.0,0.0,0.0,0.0,0.0,0.0,0.0,0.0,0.0,0.0,0.0,False,1,5.995256423950195,0.0349208984375
STABILIZE,2.5431532859802246,29.725965456877795,0.032433541615804036,0.0326840877532959,0.0,0.0,0.0,0.5845728391729426,-1.223515264799656,-6.737310123244802,0.004401014321533203,0.0017402382371910405,-0.023062526969241794,0.4,-0.038046822934136484,-0.07249162408820321,0.5700549139835704,-0.11352887042961912,-0.4996642470359802,-0.5474083591252565,0.7455989252775908,1.6689550161453233,6.531618535518646,-6.956557929515839,4.155083745718002,0.0,0.0,0.0,0.0,0.0,0.0,0.0,0.0,0.0,0.0,0.0,0.0,0.0,0.0,0.0,0.0,False,0,6.053918361663818,0.034919921875
STABILIZE,2.5766348838806152,29.866940106670086,0.03238061269124349,0.032494306564331055,0.0,0.0,0.0,0.58886145091977,-1.2197602615817358,-6.77132916106652,0.010635220532766722,0.019750258494174045,-0.02650380360019967,0.4,-0.02325491351352124,-0.06875777907180543,0.5631884852656628,-0.13029966981167043,0.7054571993649006,0.08099067490547895,0.6510774604976177,-1.2427547337528184,38.65862786769867,16.922733187675476,13.968171179294586,0.0,0.0,0.0,0.0,0.0,0.0,0.0,0.0,0.0,0.0,0.0,0.0,0.0,0.0,0.0,0.0,False,0,6.08270001411438,0.034919921875
STABILIZE,2.6102747917175293,29.726176132900537,0.0323362668355306,0.03272581100463867,0.0,0.0,0.0,0.5879652020346174,-1.218995814003223,-6.761127419767459,0.014568206202947987,0.02788001645973426,-0.024258040818738835,0.4,-0.01996574839759962,-0.07050661503126007,0.5650461564595857,-0.11867078552929028,0.048939575208351016,-0.2355857752263546,1.1578389443457127,0.40210076031890823,-31.585878133773804,-24.440185725688934,11.361879855394363,0.0,0.0,0.0,0.0,0.0,0.0,0.0,0.0,0.0,0.0,0.0,0.0,0.0,0.0,0.0,0.0,False,0,6.112767696380615,0.034920166015625
STABILIZE,2.6446475982666016,29.093572687041327,0.03240779240926107,0.0334012508392334,0.0,0.0,0.0,0.5857912808878494,-1.2227863555491687,-6.739527800290941,0.011741685865335869,0.007094597210928873,-0.02045838838907536,0.4,-0.030793430774339846,-0.07286257490366285,0.5597107702456439,-0.09933163264282246,-0.7532209623605013,-0.2695107366889715,0.744663318619132,0.8456340884733485,-10.519084334373474,16.82746410369873,10.843606293201447,0.0,0.0,0.0,0.0,0.0,0.0,0.0,0.0,0.0,0.0,0.0,0.0,0.0,0.0,0.0,0.0,False,0,6.141590356826782,0.029931640625
STABILIZE,2.67806339263916,29.926395250938253,0.032344849904378255,0.03246283531188965,0.0,0.0,0.0,0.5882025511082755,-1.220651814711834,-6.766513450814838,0.008679776866469964,-0.013919719183536738,-0.016676148781434287,0.4,-0.04182482838090601,-0.07482151306764559,0.5516548319463793,-0.08015248595762944,-0.7532209623605013,-0.2695107366889715,0.744663318619132,0.8456340884733485,-10.519084334373474,16.82746410369873,10.843606293201447,0.0,0.0,0.0,0.0,0.0,0.0,0.0,0.0,0.0,0.0,0.0,0.0,0.0,0.0,0.0,0.0,False,0,6.17015528678894,0.029931640625
STABILIZE,2.711454153060913,29.94840450978572,0.032369407018025716,0.03248763084411621,0.0,0.0,0.0,0.5881923058245204,-1.2179357472996961,-6.754549093823091,0.00637659043182567,0.0008916431042622282,-0.02004700563620322,0.4,-0.0273898832710358,-0.06263340059107851,0.5497064182745217,-0.09668349411070254,0.7419168949127197,0.5660912487655878,1.0815215297043324,-1.2344609631097188,37.95173466205597,-2.4520033970475197,11.686982214450836,0.0,0.0,0.0,0.0,0.0,0.0,0.0,0.0,0.0,0.0,0.0,0.0,0.0,0.0,0.0,0.0,False,0,6.204742431640625,0.03492041015625
STABILIZE,2.745908498764038,29.024919208066045,0.03241732915242513,0.033425331115722656,0.0,0.0,0.0,0.5887305033867762,-1.221432590711331,-6.754341199940229,0.017574668077221134,-0.007685987731468781,-0.01710007240152576,0.4,-0.026990939086938157,-0.07451117364556367,0.5541582108532918,-0.08166843189223504,-0.08618695428594947,-0.8348534815013409,1.2854063883423805,0.6392845754154488,-13.646583259105682,-20.14293521642685,15.96558690071106,0.0,0.0,0.0,0.0,0.0,0.0,0.0,0.0,0.0,0.0,0.0,0.0,0.0,0.0,0.0,0.0,False,1,6.233411550521851,0.034919921875
STABILIZE,2.779265880584717,29.97665792351289,0.03228286107381185,0.032460927963256836,0.0,0.0,0.0,0.5889784179093066,-1.2204079556141234,-6.758077740303049,0.010492079105903909,-0.012375331429917098,-0.016570429945929825,0.4,-0.030553085599196967,-0.06659735719039865,0.5442368899681244,-0.0787565226810042,0.3252859227359295,-0.01423769717803225,0.835740938782692,-0.39778947020960215,26.129505038261414,-19.8899507522583,14.09166157245636,0.0,0.0,0.0,0.0,0.0,0.0,0.0,0.0,0.0,0.0,0.0,0.0,0.0,0.0,0.0,0.0,False,0,6.292113304138184,0.034919921875
STABILIZE,2.8127026557922363,29.906763829271423,0.032442601521809895,0.0325620174407959,0.0,0.0,0.0,0.587677373594125,-1.2175124890145668,-6.750360480314581,0.012658583537637587,-0.007918434247924483,-0.014683722063288728,0.4,-0.032943784677471624,-0.07115037447879866,0.5473110303004128,-0.06909187501268288,-0.2349581802263856,-0.4003559239208698,1.1944406665861607,0.3491988107630439,-21.437974274158478,20.90422809123993,7.712416350841522,0.0,0.0,0.0,0.0,0.0,0.0,0.0,0.0,0.0,0.0,0.0,0.0,0.0,0.0,0.0,0.0,False,0,6.320677280426025,0.039908203125
STABILIZE,2.8463635444641113,29.709541922551125,0.03244951566060384,0.032598018646240234,0.0,0.0,0.0,0.5869010799062706,-1.2193807591959769,-6.752435150274972,0.002836144420045538,-0.0028660963017766426,-0.01591903211677033,0.4,-0.03495206009180035,-0.059833040660794715,0.5486902384445554,-0.07501733039012892,-0.2024736488237977,0.5564054939895868,0.9382773190736771,-0.5717838969214755,-27.066725492477417,21.305720508098602,17.03496128320694,0.0,0.0,0.0,0.0,0.0,0.0,0.0,0.0,0.0,0.0,0.0,0.0,0.0,0.0,0.0,0.0,False,0,6.349381446838379,0.02494384765625
STABILIZE,2.8798577785491943,29.854822407288776,0.03224781354268392,0.03238034248352051,0.0,0.0,0.0,0.5866279790611759,-1.2195538618027544,-6.748575666507092,0.011411009647616857,-0.010688780987590104,-0.014324517607529568,0.4,-0.033855424793050266,-0.06148438818709198,0.5408353176701658,-0.06681991572504345,-0.02785717078950256,-0.25600416120141745,0.8727092295885086,0.27925169724658955,4.345358163118362,-23.61081838607788,18.25798749923706,0.0,0.0,0.0,0.0,0.0,0.0,0.0,0.0,0.0,0.0,0.0,0.0,0.0,0.0,0.0,0.0,False,0,6.380298852920532,0.034919921875
STABILIZE,2.9136552810668945,29.587358916478554,0.03219488461812337,0.03286910057067871,0.0,0.0,0.0,0.5865608511082394,-1.217859121114945,-6.752143586574777,0.004148564167955045,-0.008603800033939997,-0.013947297323609597,0.4,-0.03080439816735783,-0.06098947558813189,0.5396204195407597,-0.06471511959349183,0.10139149380847812,-0.09966915240511298,0.9265201166272163,-0.07686692223889706,-2.480425499379635,21.077023446559906,8.023559302091599,0.0,0.0,0.0,0.0,0.0,0.0,0.0,0.0,0.0,0.0,0.0,0.0,0.0,0.0,0.0,0.0,False,0,6.408982515335083,0.034920166015625
STABILIZE,2.975381851196289,16.20035380182463,0.0324130376180013,0.06080961227416992,0.0,0.0,0.0,0.5857765532924515,-1.219390470871203,-6.742977045821797,0.005822202070352744,-0.006350419249785561,-0.011993768147129902,0.4,-0.030491319940237935,-0.05470003475283329,0.5386364226720658,-0.05461050418892427,0.35073324106633663,-0.38281071465462446,0.9358325973153114,0.18464924167261557,22.270895540714264,-0.4625353030860424,3.9701297879219055,0.0,0.0,0.0,0.0,0.0,0.0,0.0,0.0,0.0,0.0,0.0,0.0,0.0,0.0,0.0,0.0,False,0,6.474196672439575,0.034920166015625
STABILIZE,3.0088112354278564,29.913802571801472,0.0324132760365804,0.03253746032714844,0.0,0.0,0.0,0.5870367231943189,-1.217805440096937,-6.752068027607084,0.0016733568540445657,-0.003924117435079719,-0.013544004372727004,0.4,-0.02917849521616921,-0.05280484649023798,0.5318387440477477,-0.06215368708929169,0.001971291203517467,-0.01088610733859241,0.5798791069537401,-0.6349278218594798,10.980499535799026,9.306177496910095,3.9419025182724,0.0,0.0,0.0,0.0,0.0,0.0,0.0,0.0,0.0,0.0,0.0,0.0,0.0,0.0,0.0,0.0,False,0,6.5046961307525635,0.034919921875
STABILIZE,3.042476177215576,29.707858483549952,0.03243234952290853,0.03256082534790039,0.0,0.0,0.0,0.5855293858218616,-1.2181466293903203,-6.7408874348225964,0.010102673295448814,-0.01025633197801771,-0.01080238709655332,0.4,-0.03895270844973582,-0.05494536570137329,0.5398185154077872,-0.048284097847892074,-0.658529344946146,-0.25057231541723013,1.4701456762850285,0.6594609542236665,-26.842647790908813,-15.899805724620819,13.012246787548065,0.0,0.0,0.0,0.0,0.0,0.0,0.0,0.0,0.0,0.0,0.0,0.0,0.0,0.0,0.0,0.0,False,0,6.533301830291748,0.0349208984375
STABILIZE,3.0757737159729004,30.03031452935154,0.03215936024983724,0.03227424621582031,0.0,0.0,0.0,0.584356300831912,-1.21939004398438,-6.740998425396609,0.005050166036341617,0.00019648103815742747,-0.01085853612949668,0.4,-0.024495305773700807,-0.04960526017115809,0.5288708850601941,-0.04840313471357109,0.5533817689865828,0.09988400852307677,0.7941852323710918,-0.3747541236252052,17.798814177513123,-2.241280674934387,12.981706857681274,0.0,0.0,0.0,0.0,0.0,0.0,0.0,0.0,0.0,0.0,0.0,0.0,0.0,0.0,0.0,0.0,False,0,6.591136693954468,0.034920166015625
STABILIZE,3.1092474460601807,29.87587523416743,0.03234890302022298,0.032469749450683594,0.0,0.0,0.0,0.5857490190923599,-1.2177617909192724,-6.748885159453858,0.002593921782882312,0.006443622183800825,-0.011639573317902233,0.4,-0.013998392030882826,-0.04598651374716575,0.5257215111123335,-0.05213385766336867,0.5533817689865828,0.09988400852307677,0.7941852323710918,-0.3747541236252052,17.798814177513123,-2.241280674934387,12.981706857681274,0.0,0.0,0.0,0.0,0.0,0.0,0.0,0.0,0.0,0.0,0.0,0.0,0.0,0.0,0.0,0.0,False,0,6.61972451210022,0.034920166015625
STABILIZE,3.142681837081909,29.90655058575228,0.03230431874593099,0.032488107681274414,0.0,0.0,0.0,0.5849441239873562,-1.2179990332712245,-6.734466203229138,0.007144312265605578,-0.000516069265110116,-0.008097054888182636,0.4,-0.02292298750390407,-0.04923733675049774,0.5282242501739034,-0.03430632801544507,-0.6081323139369488,-0.3092001657932997,1.1344455182552338,0.9198384375551306,-22.57871776819229,-7.969193905591965,18.687447905540466,0.0,0.0,0.0,0.0,0.0,0.0,0.0,0.0,0.0,0.0,0.0,0.0,0.0,0.0,0.0,0.0,False,0,6.648653984069824,0.029931884765625
STABILIZE,3.176530361175537,29.543801815889385,0.03239324887593587,0.03297543525695801,0.0,0.0,0.0,0.5855944860623884,-1.218423999103646,-6.7524266125385095,0.0039142290621057875,-0.0032868000614842243,-0.009561029966321149,0.4,-0.025520381006140642,-0.0434722962304985,0.522076862964951,-0.04148562835649491,-0.22217656951397657,0.22785747423768044,0.7606548257172108,-0.5655701856849092,-9.123820066452026,13.349540531635284,11.91364973783493,0.0,0.0,0.0,0.0,0.0,0.0,0.0,0.0,0.0,0.0,0.0,0.0,0.0,0.0,0.0,0.0,False,0,6.677358865737915,0.034920166015625
STABILIZE,3.210073947906494,29.81216993268937,0.03243568738301595,0.032564401626586914,0.0,0.0,0.0,0.5842856510626847,-1.2183522821173611,-6.743271170842931,0.0036167245160713757,0.006119775086848314,-0.00836235369681644,0.4,-0.020867236291688525,-0.044714728796917354,0.5262522872901556,-0.03537387540527664,0.21706572733819485,-0.18492885865271091,1.2221370823681355,0.2320113875432839,11.2882100045681,-11.888577789068222,14.870727062225342,0.0,0.0,0.0,0.0,0.0,0.0,0.0,0.0,0.0,0.0,0.0,0.0,0.0,0.0,0.0,0.0,False,0,6.705978631973267,0.034919921875
STABILIZE,3.2442829608917236,29.23267354335099,0.032347710927327473,0.03324723243713379,0.0,0.0,0.0,0.5828961344534103,-1.217628708952163,-6.733565472032343,0.006955881698975512,-0.004503397243945559,-0.007996781020622816,0.4,-0.023457878890633686,-0.044881325382689616,0.5333608531362422,-0.03343160118041557,-0.21691613364964724,-0.11615444673225284,1.394577231258154,-0.01453288164564174,-13.864186406135559,1.7615923658013344,14.194278419017792,0.0,0.0,0.0,0.0,0.0,0.0,0.0,0.0,0.0,0.0,0.0,0.0,0.0,0.0,0.0,0.0,False,0,6.734686374664307,0.03489697265625
STABILIZE,3.2776541709899902,29.964022917887096,0.03236392339070638,0.03247785568237305,0.0,0.0,0.0,0.5843144659232457,-1.2201511831900131,-6.750378836447975,-0.0018282510817578042,-0.017043037908582973,-0.009815064394879024,0.4,-0.03159898856503763,-0.03062824253430716,0.5117173561537303,-0.04238137206900187,-0.30260123312473297,0.32073857728391886,0.399256544187665,-0.3851117319755593,-11.317864060401917,7.616174221038818,13.131435215473175,0.0,0.0,0.0,0.0,0.0,0.0,0.0,0.0,0.0,0.0,0.0,0.0,0.0,0.0,0.0,0.0,False,0,6.7921319007873535,0.029931884765625
STABILIZE,3.3111610412597656,29.845687489771088,0.0324280579884847,0.03255152702331543,0.0,0.0,0.0,0.5842693226417002,-1.2206096596380502,-6.741426592880204,-0.00023595469115416919,-0.005763617283707827,-0.007903845124043003,0.4,-0.02383049788776007,-0.035194160138258934,0.5110458754382919,-0.032715829929282673,0.40872925892472267,-0.37711153272539377,1.064880657941103,0.474511704495886,9.800170361995697,-13.638778030872345,19.3899467587471,0.0,0.0,0.0,0.0,0.0,0.0,0.0,0.0,0.0,0.0,0.0,0.0,0.0,0.0,0.0,0.0,False,0,6.823503255844116,0.034919921875
STABILIZE,3.3445539474487305,29.94690770966314,0.03235057195027669,0.03247880935668945,0.0,0.0,0.0,0.5866074884936658,-1.2190585663662228,-6.74424489968648,0.00020213157538246458,-0.008198187628955567,-0.00898133714320392,0.4,-0.028976322482151887,-0.031317155795226016,0.5144586414696036,-0.037976313102349335,-0.3654812928289175,0.1364983501844108,1.1592092923820019,-0.425716299456786,-9.435787796974182,9.597662836313248,12.830273807048798,0.0,0.0,0.0,0.0,0.0,0.0,0.0,0.0,0.0,0.0,0.0,0.0,0.0,0.0,0.0,0.0,False,0,6.852148056030273,0.03492041015625
STABILIZE,3.3780312538146973,29.869705170203673,0.03241780598958333,0.03254389762878418,0.0,0.0,0.0,0.5872399213221268,-1.2203986708257204,-6.747516133412094,-0.001976117472128053,-0.013721120907185516,-0.009322644643958074,0.4,-0.03252767393733302,-0.02943353645632925,0.5119301825142569,-0.03955054974449084,-0.26402613148093224,0.01747153582982719,0.8006483316421509,-0.194128450343109,-16.26499891281128,-4.062424972653389,14.316180348396301,0.0,0.0,0.0,0.0,0.0,0.0,0.0,0.0,0.0,0.0,0.0,0.0,0.0,0.0,0.0,0.0,False,0,6.8809192180633545,0.029930908203125
STABILIZE,3.4115071296691895,29.87268350355398,0.0323977788289388,0.032526254653930664,0.0,0.0,0.0,0.5859901034257202,-1.2217643884946054,-6.741541852322448,0.0012370045712224785,-0.008335768583488714,-0.007025410119365686,0.4,-0.02746468527391877,-0.03371640175336894,0.5153238783360969,-0.02797078980100317,0.24515590630471706,-0.3494564909487963,1.3002325780689716,0.600481950575489,21.07437551021576,3.632630407810211,9.175074845552444,0.0,0.0,0.0,0.0,0.0,0.0,0.0,0.0,0.0,0.0,0.0,0.0,0.0,0.0,0.0,0.0,False,0,6.909327268600464,0.0349208984375
STABILIZE,3.4449045658111572,29.942845720567973,0.0323665459950765,0.03248715400695801,0.0,0.0,0.0,0.587668088805722,-1.2198355003843115,-6.743160607155741,0.005626175183985191,-0.0013718365954911542,-0.007164123577359254,0.4,-0.024722643175405706,-0.028305124108010137,0.5162510786616287,-0.028568861320374082,0.112571706995368,0.2404383383691311,0.9942390955984592,-0.13537448275178496,-7.0478565990924835,1.919226162135601,17.579318583011627,0.0,0.0,0.0,0.0,0.0,0.0,0.0,0.0,0.0,0.0,0.0,0.0,0.0,0.0,0.0,0.0,False,0,6.938046455383301,0.034919921875
STABILIZE,3.4790868759155273,29.255714355465344,0.03241685231526693,0.03330206871032715,0.0,0.0,0.0,0.5874615823050349,-1.2208449809992983,-6.742511312297767,-0.0012023450328425965,-0.003925584362775721,-0.007325193601189316,0.4,-0.021942312628641963,-0.02286063451964073,0.5171309201760412,-0.0292740858279659,0.112571706995368,0.2404383383691311,0.9942390955984592,-0.13537448275178496,-7.0478565990924835,1.919226162135601,17.579318583011627,0.0,0.0,0.0,0.0,0.0,0.0,0.0,0.0,0.0,0.0,0.0,0.0,0.0,0.0,0.0,0.0,False,1,6.966773509979248,0.034919921875
STABILIZE,3.5136420726776123,28.94020561650452,0.03243115743001302,0.032930850982666016,0.0,0.0,0.0,0.5862736629979816,-1.2222704628234211,-6.7404182862039805,0.0022820287181837947,-0.007569237799379172,-0.006059121901650044,0.4,-0.030747440596819223,-0.0243761237788881,0.516827361677968,-0.02286640262158296,-0.5798420868813992,-0.17518430249765515,0.9264032356441021,0.29442955152112144,-13.501258194446564,-6.004925072193146,16.290554404258728,0.0,0.0,0.0,0.0,0.0,0.0,0.0,0.0,0.0,0.0,0.0,0.0,0.0,0.0,0.0,0.0,False,1,6.995459079742432,0.02993115234375
STABILIZE,3.546457290649414,30.472559247903984,0.03170445760091146,0.031848907470703125,0.0,0.0,0.0,0.588379068809638,-1.2213970523833058,-6.739558963029029,0.0014860521580916945,0.0012364150056495009,-0.006396164692424972,0.4,-0.022026519900792522,-0.021852679162959812,0.5179257778908103,-0.024469706756127373,0.24144204799085855,-0.04920111387036741,0.9803319349884987,-0.25042931280534064,2.730732783675194,-8.246710896492004,5.717792734503746,0.0,0.0,0.0,0.0,0.0,0.0,0.0,0.0,0.0,0.0,0.0,0.0,0.0,0.0,0.0,0.0,False,0,7.058225870132446,0.0349208984375
STABILIZE,3.579904794692993,29.89567919713752,0.03235343297322591,0.03254365921020508,0.0,0.0,0.0,0.5897001768055065,-1.2205781767348447,-6.738558340315622,0.0014498495738979199,-0.007115132685533313,-0.005971668724027595,0.4,-0.02895149020206379,-0.025131555460143642,0.5203939563659136,-0.022272597878352292,-0.4661963786929846,-0.268009165301919,1.0857940651476383,0.05449769585640159,-15.364627540111542,-0.059715716633945704,17.49553680419922,0.0,0.0,0.0,0.0,0.0,0.0,0.0,0.0,0.0,0.0,0.0,0.0,0.0,0.0,0.0,0.0,False,0,7.086929559707642,0.034920166015625
STABILIZE,3.615070104598999,28.438080128009545,0.03242472012837728,0.03416037559509277,0.0,0.0,0.0,0.590523748209022,-1.220679135468514,-6.738940830909143,0.002420585634317882,-0.0028849397192246013,-0.005976972741894299,0.4,-0.020992139773264425,-0.022046132986294573,0.5181948357094913,-0.022221017863582822,0.42492998763918877,0.11656935093924403,0.8109772577881813,-0.07088386328895101,12.383679300546646,5.783442035317421,11.923274397850037,0.0,0.0,0.0,0.0,0.0,0.0,0.0,0.0,0.0,0.0,0.0,0.0,0.0,0.0,0.0,0.0,False,0,7.115659713745117,0.02993115234375
STABILIZE,3.6484522819519043,29.95567681067299,0.03231552441914876,0.03248143196105957,0.0,0.0,0.0,0.5900683666904525,-1.2205017639935052,-6.7351300122390985,0.006283074638292038,-0.0007009781541483728,-0.005369112617360819,0.4,-0.01602571593269032,-0.02291286871197683,0.5164481704382174,-0.01911787936472841,0.24304625112563372,-0.11728970566764474,0.9879427030682564,0.1177394412429145,10.02914011478424,-9.756869077682495,16.813524067401886,0.0,0.0,0.0,0.0,0.0,0.0,0.0,0.0,0.0,0.0,0.0,0.0,0.0,0.0,0.0,0.0,False,0,7.155412673950195,0.0349208984375
STABILIZE,3.6819379329681396,29.86502613178394,0.03240254720052083,0.03253173828125,0.0,0.0,0.0,0.5921455979717827,-1.2210640806612676,-6.741253703716838,0.00564948904831672,-0.000986197063489477,-0.005759674993626194,0.4,-0.023164751573676354,-0.02324003664279842,0.5200341937841879,-0.021000431518737032,-0.4802700597792864,-0.08228354272432625,1.1493735015392303,-0.18118400122610512,-14.170962572097778,3.475414589047432,7.454153150320053,0.0,0.0,0.0,0.0,0.0,0.0,0.0,0.0,0.0,0.0,0.0,0.0,0.0,0.0,0.0,0.0,False,0,7.173454523086548,0.029930908203125
