E-kp,E-ki,E-kd,E-I-Tot,E-P,E-I,E-D,E-PID,N-kp,N-ki,N-kd,N-I-Tot,N-P,N-I,N-D,N-PID,Y-kp,Y-ki,Y-kd,Y-I-Tot,Y-P,Y-I,Y-D,Y-PID,D-kp,D-ki,D-kd,D-I-Tot,D-P,D-I,D-D,D-PID,errorN,desiredN,actualN,errorE,desiredE,actualE,errorD,desiredD,actualD,errorY,desiredY,actualY,roll,pitch,yaw-rate,thrust,dt,Time,Mode
0.04,0.002,0.01,-0.003378747322155672,-0.0040248490225239485,-6.7574946443113445e-06,-0.02996563539223283,-0.033997241909401094,0.05,0.002,0.01,-0.0032564210463007642,-0.00484891359705463,-6.5128420926015284e-06,-0.028880740834678533,-0.033736167273825765,0.5,0,0,-0.0032261310903799996,-0.048038108977936644,-0.0,-0.0,-0.048038108977936644,0.002,8e-05,0.0,-0.004447616928241111,-0.00026490567271498735,-3.5580935425928895e-07,-0.0,-0.00026526148206924664,-0.0969782719410926,0.0,0.0969782719410926,-0.10062122556309872,0.0,0.10062122556309872,-0.13245283635749366,0.0,0.13245283635749366,-0.09607621795587329,0,0.09607621795587329,-0.03405376445443756,0.03367911172010889,0.048038108977936644,0.4,0.03357887268066406,0.03381967544555664,STABILIZE
0.04,0.002,0.01,-0.007853480919659251,-0.005356467632818994,-1.5706961839318504e-05,-0.009962565130810444,-0.015334739725468756,0.05,0.002,0.01,-0.007475436960118724,-0.006312951847379802,-1.4950873920237448e-05,-0.008762614947011341,-0.01509051766831138,0.5,0,0,-0.007484928199756926,-0.06372476811761293,-0.0,-0.0,-0.06372476811761293,0.002,8e-05,0.0,-0.010713390591913112,-0.00037502136264327534,-8.570712473530491e-07,-0.0,-0.0003758784338906284,-0.12625903694759605,0.0,0.12625903694759605,-0.13391169082047485,0.0,0.13391169082047485,-0.18751068132163767,0.0,0.18751068132163767,-0.12744953623522587,0,0.12744953623522587,-0.015368269318853319,0.015056369552075934,0.06372476811761293,0.4,0.03341555595397949,0.06717658042907715,STABILIZE
0.04,0.002,0.01,-0.013284542587011873,-0.006493500285236461,-2.6569085174023747e-05,-0.008496637380747836,-0.01501670675115832,0.05,0.002,0.01,-0.012607968830313282,-0.007670714126539144,-2.5215937660626564e-05,-0.008116856599146452,-0.01581278666334622,0.5,0,0,-0.012557116934471063,-0.07580529602901342,-0.0,-0.0,-0.07580529602901342,0.002,8e-05,0.0,-0.01887186807813713,-0.00048772301926111854,-1.5097494462509705e-06,-0.0,-0.0004892327687073695,-0.15341428253078288,0.0,0.15341428253078288,-0.16233750713091152,0.0,0.16233750713091152,-0.24386150963055928,0.0,0.24386150963055928,-0.15161059205802685,0,0.15161059205802685,-0.015058496408108147,0.01577299558225317,0.07580529602901342,0.4,0.03345537185668945,0.10062265396118164,STABILIZE
0.04,0.002,0.01,-0.01904712136272531,-0.006890606230420426,-3.809424272545062e-05,-0.0029677476075835253,-0.009896448080729403,0.05,0.002,0.01,-0.0179889530553465,-0.00804289296292905,-3.5977906110693e-05,-0.002225165076846523,-0.010304035945886266,0.5,0,0,-0.01781971604616191,-0.07865944145538487,-0.0,-0.0,-0.07865944145538487,0.002,8e-05,0.0,-0.028607453469701637,-0.0005820665362409655,-2.288596277576131e-06,-0.0,-0.0005843551325185417,-0.16085785925858098,0.0,0.16085785925858098,-0.17226515576051066,0.0,0.17226515576051066,-0.29103326812048275,0.0,0.29103326812048275,-0.15731888291076973,0,0.15731888291076973,-0.009924702866506586,0.010276824139793623,0.07865944145538487,0.4,0.03345179557800293,0.1340951919555664,STABILIZE
0.04,0.002,0.01,-0.024966326374078474,-0.007077085083967309,-4.993265274815695e-05,-0.0013934796885526712,-0.008520497425268137,0.05,0.002,0.01,-0.023565688861000772,-0.008334530082951097,-4.7131377722001544e-05,-0.001743427291401917,-0.010125088752075016,0.5,0,0,-0.02320684522062184,-0.08051159626345639,-0.0,-0.0,-0.08051159626345639,0.002,8e-05,0.0,-0.03927708997780963,-0.0006378384026068915,-3.1421671982247708e-06,-0.0,-0.0006409805698051163,-0.16669060165902194,0.0,0.16669060165902194,-0.17692712709918273,0.0,0.17692712709918273,-0.3189192013034457,0.0,0.3189192013034457,-0.16102319252691277,0,0.16102319252691277,-0.008548919135621079,0.01010110292116701,0.08051159626345639,0.4,0.033455610275268555,0.1675565242767334,STABILIZE
0.04,0.002,0.01,-0.030978104587767383,-0.007191303038426924,-6.195620917553476e-05,-0.0008539236372256386,-0.008107182884828097,0.05,0.002,0.01,-0.029211209946524572,-0.008441481765616958,-5.842241989304915e-05,-0.000639679253942349,-0.009139583439452356,0.5,0,0,-0.02878093230923247,-0.08334669874694457,-0.0,-0.0,-0.08334669874694457,0.002,8e-05,0.0,-0.05077060529599486,-0.0006874284836528807,-4.061648423679589e-06,-0.0,-0.0006914901320765603,-0.16882963531233916,0.0,0.16882963531233916,-0.1797825759606731,0.0,0.1797825759606731,-0.34371424182644034,0.0,0.34371424182644034,-0.16669339749388914,0,0.16669339749388914,-0.008133738771025129,0.009115958171222816,0.08334669874694457,0.4,0.03343915939331055,0.20098352432250977,STABILIZE
0.04,0.002,0.01,-0.037033227912028205,-0.007229956011512484,-7.406645582405642e-05,-0.00028845334784829697,-0.007592475815184838,0.05,0.002,0.01,-0.03474465132758442,-0.00825881977024583,-6.948930265516884e-05,0.0010905130422505284,-0.00723779603065047,0.5,0,0,-0.034612120142439945,-0.08703214879216226,-0.0,-0.0,-0.08703214879216226,0.002,8e-05,0.0,-0.06318400546220178,-0.0007410942135182173,-5.054720436976143e-06,-0.0,-0.0007461489339551934,-0.16517639540491658,0.0,0.16517639540491658,-0.1807489002878121,0.0,0.1807489002878121,-0.3705471067591086,0.0,0.3705471067591086,-0.1740642975843245,0,0.1740642975843245,-0.007614429133234008,0.007214696761501732,0.08703214879216226,0.4,0.03350019454956055,0.2345108985900879,STABILIZE
0.04,0.002,0.01,-0.04506973543327695,-0.007141544758106046,-9.01394708665539e-05,0.0004910349129059704,-0.006740649316066629,0.05,0.002,0.01,-0.04187224597027876,-0.00791731296583936,-8.374449194055752e-05,0.0015173793606352605,-0.0064836780971446566,0.5,0,0,-0.042661957671685805,-0.08941737884676666,-0.0,-0.0,-0.08941737884676666,0.002,8e-05,0.0,-0.08078626157057492,-0.0007821015503887656,-6.462900925645994e-06,-0.0,-0.0007885644513144116,-0.15834625931678717,0.0,0.15834625931678717,-0.17853861895265116,0.0,0.17853861895265116,-0.3910507751943828,0.0,0.3910507751943828,-0.17883475769353332,0,0.17883475769353332,-0.006760853663615049,0.0064626072609099364,0.08941737884676666,0.4,0.045012712478637695,0.27950239181518555,STABILIZE
0.04,0.002,0.01,-0.051005330014730954,-0.007094405589698751,-0.0001020106600294619,0.0003521386687268409,-0.006844277581001372,0.05,0.002,0.01,-0.04740249199437166,-0.008262400625440603,-9.480498398874332e-05,-0.0020622970349597285,-0.010419502644389076,0.5,0,0,-0.048512101376467186,-0.08740340085183008,-0.0,0.0,-0.08740340085183008,0.002,8e-05,0.0,-0.09531076469133909,-0.0008680066900922381,-7.624861175307128e-06,-0.0,-0.0008756315512675452,-0.16524801250881205,0.0,0.16524801250881205,-0.17736013974246875,0.0,0.17736013974246875,-0.43400334504611904,0.0,0.43400334504611904,-0.17480680170366017,0,0.17480680170366017,-0.006876035103158909,0.010398572605043222,0.08740340085183008,0.4,0.033466339111328125,0.3129689693450928,STABILIZE
0.04,0.002,0.01,-0.056886356243846505,-0.007016088128246964,-0.00011377271248769301,0.0005839565559217006,-0.006545904284812956,0.05,0.002,0.01,-0.05285667786213931,-0.008133582308867711,-0.00010571335572427862,0.0007684038689823582,-0.0074708917956096315,0.5,0,0,-0.05446314025647079,-0.08874516880663666,-0.0,-0.0,-0.08874516880663666,0.002,8e-05,0.0,-0.1107839398884551,-0.000922978036293315,-8.862715191076408e-06,-0.0,-0.0009318407514843914,-0.16267164617735422,0.0,0.16267164617735422,-0.17540220320617408,0.0,0.17540220320617408,-0.4614890181466575,0.0,0.4614890181466575,-0.17749033761327332,0,0.17749033761327332,-0.0065690160993036525,0.007450578139629792,0.08874516880663666,0.4,0.033528804779052734,0.34650254249572754,STABILIZE
0.04,0.002,0.01,-0.0626374805878945,-0.006894107144548078,-0.000125274961175789,0.0009138973539232911,-0.006105484751800576,0.05,0.002,0.01,-0.0582132322747469,-0.008026400108253853,-0.0001164264645494938,0.0006424183610158911,-0.007500408211787456,0.5,0,0,-0.05993414918027532,-0.0819790171736642,-0.0,0.0,-0.0819790171736642,0.002,8e-05,0.0,-0.12673580963803638,-0.0009561078202326114,-1.0138864771042911e-05,-0.0,-0.0009662466850036543,-0.16052800216507707,0.0,0.16052800216507707,-0.17235267861370196,0.0,0.17235267861370196,-0.4780539101163057,0.0,0.4780539101163057,-0.1639580343473284,0,0.1639580343473284,-0.006126922948885324,0.007482906024823537,0.0819790171736642,0.4,0.03336834907531738,0.3798792362213135,STABILIZE
0.04,0.002,0.01,-0.0683147934755207,-0.006788939823329013,-0.0001366295869510414,0.0007859953173149333,-0.006139574092965122,0.05,0.002,0.01,-0.06372525664466698,-0.008239109437157712,-0.00012745051328933395,-0.0012717907770561487,-0.009638350727503195,0.5,0,0,-0.06560103871890138,-0.08470594457422762,-0.0,-0.0,-0.08470594457422762,0.002,8e-05,0.0,-0.14348360867258714,-0.0010013522424189758,-1.1478688693806972e-05,-0.0,-0.0010128309311127827,-0.16478218874315426,0.0,0.16478218874315426,-0.16972349558322533,0.0,0.16972349558322533,-0.5006761212094879,0.0,0.5006761212094879,-0.16941188914845523,0,0.16941188914845523,-0.006168045843144458,0.009620155158116643,0.08470594457422762,0.4,0.03345036506652832,0.41333866119384766,STABILIZE
0.04,0.002,0.01,-0.07388884060725925,-0.006665264439853047,-0.0001477776812145185,0.0009242937807183981,-0.005888748340349167,0.05,0.002,0.01,-0.06937676807442292,-0.008447367162920449,-0.00013875353614884584,-0.0012451391072271741,-0.009831259806296469,0.5,0,0,-0.07144999265300477,-0.08742486326797179,-0.0,-0.0,-0.08742486326797179,0.002,8e-05,0.0,-0.16095914973995362,-0.0010448342083463809,-1.287673197919629e-05,-0.0,-0.001057710940325577,-0.16894734325840896,0.0,0.16894734325840896,-0.16663161099632617,0.0,0.16663161099632617,-0.5224171041731904,0.0,0.5224171041731904,-0.17484972653594358,0,0.17484972653594358,-0.005918722962374537,0.00981324334201114,0.08742486326797179,0.4,0.03345131874084473,0.44681668281555176,STABILIZE
0.04,0.002,0.01,-0.07927050861707166,-0.00643582004967589,-0.00015854101723414334,0.0017149223111396414,-0.004879438755770392,0.05,0.002,0.01,-0.07477169098019042,-0.008064589115328112,-0.00014954338196038083,0.0022887798251200707,-0.005925352672168422,0.5,0,0,-0.07691501232775654,-0.08169373122448191,-0.0,0.0,-0.08169373122448191,0.002,8e-05,0.0,-0.17989149288749468,-0.0011320389272817272,-1.4391319430999575e-05,-0.0,-0.0011464302467127268,-0.16129178230656224,0.0,0.16129178230656224,-0.16089550124189725,0.0,0.16089550124189725,-0.5660194636408636,0.0,0.5660194636408636,-0.16338746244896382,0,0.16338746244896382,-0.004896315920387988,0.005911414151338299,0.08169373122448191,0.4,0.033448219299316406,0.4802546501159668,STABILIZE
0.04,0.002,0.01,-0.08444724643644855,-0.006191410464370849,-0.0001688944928728971,0.0018269711023248191,-0.004533333854918927,0.05,0.002,0.01,-0.08014011198564125,-0.008025830926255346,-0.0001602802239712825,0.00023177516978643278,-0.007954335980440196,0.5,0,0,-0.08234950580558173,-0.08124609783505547,-0.0,0.0,-0.08124609783505547,0.002,8e-05,0.0,-0.1994533171911033,-0.0011698031455466375,-1.5956265375288263e-05,-0.0,-0.0011857594109219258,-0.16051661852510693,0.0,0.16051661852510693,-0.15478526160927122,0.0,0.15478526160927122,-0.5849015727733188,0.0,0.5849015727733188,-0.16249219567011094,0,0.16249219567011094,-0.004555874280157042,0.007941447366398844,0.08124609783505547,0.4,0.03344464302062988,0.513690710067749,STABILIZE
0.04,0.002,0.01,-0.0896027848738093,-0.006166275661564935,-0.0001792055697476186,0.00018789032014239503,-0.006157590911170159,0.05,0.002,0.01,-0.08539973523086539,-0.007863457716414038,-0.0001707994704617308,0.0009710314296940801,-0.007063225757181689,0.5,0,0,-0.08753736169792498,-0.07756161144304932,-0.0,0.0,-0.07756161144304932,0.002,8e-05,0.0,-0.21955825912547786,-0.0012023246032724277,-1.756466073003823e-05,-0.0,-0.001219889264002466,-0.15726915432828076,0.0,0.15726915432828076,-0.15415689153912338,0.0,0.15415689153912338,-0.6011623016362139,0.0,0.6011623016362139,-0.15512322288609864,0,0.15512322288609864,-0.006176691375031685,0.0070465287613015095,0.07756161144304932,0.4,0.033443450927734375,0.5471723079681396,STABILIZE
0.04,0.002,0.01,-0.09470724348595895,-0.006101658297228778,-0.0001894144869719179,0.0004827557474806388,-0.005808317036720058,0.05,0.002,0.01,-0.09051293171016268,-0.00764012897690202,-0.00018102586342032536,0.0013347896025738219,-0.006486365237748523,0.5,0,0,-0.09244154425075084,-0.0732782074414074,-0.0,0.0,-0.0732782074414074,0.002,8e-05,0.0,-0.23999094343288524,-0.0012212192047379965,-1.9199275474630822e-05,-0.0,-0.0012404184802126273,-0.15280257953804038,0.0,0.15280257953804038,-0.15254145743071945,0.0,0.15254145743071945,-0.6106096023689982,0.0,0.6106096023689982,-0.1465564148828148,0,0.1465564148828148,-0.005824889438895147,0.006471486986865747,0.0732782074414074,0.4,0.0334627628326416,0.5806186199188232,STABILIZE
0.04,0.002,0.01,-0.09949694205079371,-0.005722308597022178,-0.00019899388410158741,0.002832584375334413,-0.003088718105789353,0.05,0.002,0.01,-0.09521675639743438,-0.007024642595590079,-0.00019043351279486877,0.0036766437004923424,-0.0035384324078926053,0.5,0,0,-0.09713234116089837,-0.07005187049476763,-0.0,0.0,-0.07005187049476763,0.002,8e-05,0.0,-0.26086589699808327,-0.0012469774937986374,-2.0869271759846664e-05,-0.0,-0.001267846765558484,-0.14049285191180158,0.0,0.14049285191180158,-0.14305771492555444,0.0,0.14305771492555444,-0.6234887468993187,0.0,0.6234887468993187,-0.14010374098953526,0,0.14010374098953526,-0.0030973612910890178,0.0035308690820701634,0.07005187049476763,0.4,0.03348088264465332,0.6140916347503662,STABILIZE
0.04,0.002,0.01,-0.10412514280595465,-0.005537409432034107,-0.0002082502856119093,0.0013826409472385878,-0.004363018770407429,0.05,0.002,0.01,-0.0996523165930322,-0.00663365586401737,-0.0001993046331860644,0.002338979799867843,-0.004493980697335592,0.5,0,0,-0.10176593867381188,-0.06929832976574488,-0.0,0.0,-0.06929832976574488,0.002,8e-05,0.0,-0.2836583695021352,-0.0013635023511304688,-2.2692669560170815e-05,-0.0,-0.0013861950206906397,-0.1326731172803474,0.0,0.1326731172803474,-0.13843523580085268,0.0,0.13843523580085268,-0.6817511755652343,0.0,0.6817511755652343,-0.13859665953148975,0,0.13859665953148975,-0.00437387679059827,0.004483413556612664,0.06929832976574488,0.4,0.0334322452545166,0.6475803852081299,STABILIZE
0.04,0.002,0.01,-0.10864384316797118,-0.0052707801417497735,-0.00021728768633594238,0.00194378949677185,-0.0035442783313138658,0.05,0.002,0.01,-0.10466424208831343,-0.00730762034879342,-0.00020932848417662688,-0.003930686190726922,-0.01144763502369697,0.5,0,0,-0.10606602397017703,-0.06269724249263213,-0.0,0.0,-0.06269724249263213,0.002,8e-05,0.0,-0.3088040516496841,-0.0014665429381879398,-2.4704324131974732e-05,-0.0,-0.0014912472623199145,-0.1461524069758684,0.0,0.1461524069758684,-0.13176950354374434,0.0,0.13176950354374434,-0.7332714690939699,0.0,0.7332714690939699,-0.12539448498526426,0,0.12539448498526426,-0.003569323506254167,0.011439850795936806,0.06269724249263213,0.4,0.03429245948791504,0.6818244457244873,STABILIZE
0.04,0.002,0.01,-0.11298736926242878,-0.005190259076676358,-0.00022597473852485755,0.0006013622051710221,-0.004814871610030194,0.05,0.002,0.01,-0.10841162735520403,-0.005597382164947897,-0.00021682325471040806,0.01021817189991028,0.004403966480251975,0.5,0,0,-0.1100445097077658,-0.05942571559917776,-0.0,0.0,-0.05942571559917776,0.002,8e-05,0.0,-0.33380081677033063,-0.0014934834536913751,-2.670406534162645e-05,-0.0,-0.0015201875190330016,-0.11194764329895793,0.0,0.11194764329895793,-0.12975647691690895,0.0,0.12975647691690895,-0.7467417268456875,0.0,0.7467417268456875,-0.11885143119835552,0,0.11885143119835552,-0.0048057258950126,-0.004413944721251396,0.05942571559917776,0.4,0.03347444534301758,0.7153420448303223,STABILIZE
0.04,0.002,0.01,-0.11739547070380828,-0.005115667478189014,-0.00023479094140761657,0.0005410291420273281,-0.004809429277569302,0.05,0.002,0.01,-0.11109239139920835,-0.0038888333273926477,-0.0002221847827984167,0.009913982061678433,0.0058029639514873685,0.5,0,0,-0.11392109776774248,-0.05623547838134714,-0.0,0.0,-0.05623547838134714,0.002,8e-05,0.0,-0.3599892339898592,-0.0015196024417403356,-2.879913871918874e-05,-0.0,-0.0015484015804595244,-0.07777666654785295,0.0,0.07777666654785295,-0.12789168695472536,0.0,0.12789168695472536,-0.7598012208701678,0.0,0.7598012208701678,-0.11247095676269428,0,0.11247095676269428,-0.00479802886719226,-0.005812393619481773,0.05623547838134714,0.4,0.034467458724975586,0.7497739791870117,STABILIZE
0.04,0.002,0.01,-0.12187629038510153,-0.005371341172653608,-0.00024375258077020308,-0.0019155404863415654,-0.007530634239765377,0.05,0.002,0.01,-0.11429241635318321,-0.004795000416040862,-0.00022858483270636642,-0.0054312971049473215,-0.01045488235369455,0.5,0,0,-0.1169640225052307,-0.04559597375674604,-0.0,0.0,-0.04559597375674604,0.002,8e-05,0.0,-0.3854733334937779,-0.0015274414353792115,-3.0837866679502236e-05,-0.0,-0.0015582793020587136,-0.09590000832081724,0.0,0.09590000832081724,-0.13428352931634022,0.0,0.13428352931634022,-0.7637207176896057,0.0,0.7637207176896057,-0.09119194751349208,0,0.09119194751349208,-0.007547264682467353,0.010442883361193943,0.04559597375674604,0.4,0.03336834907531738,0.7831432819366455,STABILIZE
0.04,0.002,0.01,-0.1265129457607651,-0.005545863870694382,-0.0002530258915215302,-0.0013046569230168311,-0.007103546685232743,0.05,0.002,0.01,-0.11668031353623627,-0.0035701792675640626,-0.00023336062707247254,0.007324990542808837,0.0035214506481723016,0.5,0,0,-0.1196721363138124,-0.040489397291556393,-0.0,0.0,-0.040489397291556393,0.002,8e-05,0.0,-0.41091170941737293,-0.0015213312024900838,-3.2872936753389837e-05,0.0,-0.0015542041392434737,-0.07140358535128125,0.0,0.07140358535128125,-0.13864659676735955,0.0,0.13864659676735955,-0.7606656012450419,0.0,0.7606656012450419,-0.08097879458311279,0,0.08097879458311279,-0.00709856256178645,-0.0035314869011788784,0.040489397291556393,0.4,0.03344225883483887,0.8165819644927979,STABILIZE
0.04,0.002,0.01,-0.13130116114566848,-0.0057106142448833256,-0.000262602322291337,-0.0012280486544364979,-0.00720126522161116,0.05,0.002,0.01,-0.11907362940806715,-0.0035679534574807274,-0.00023814725881613432,1.3272943828273357e-05,-0.0037928277724685886,0.5,0,0,-0.12173990936085242,-0.030826344651397764,-0.0,0.0,-0.030826344651397764,0.002,8e-05,0.0,-0.4367304002866475,-0.001539619378100444,-3.49384320229318e-05,-0.0,-0.0015745578101233758,-0.07135906914961454,0.0,0.07135906914961454,-0.14276535612208313,0.0,0.14276535612208313,-0.7698096890502221,0.0,0.7698096890502221,-0.06165268930279553,0,0.06165268930279553,-0.007205342295348129,0.003785076711304915,0.030826344651397764,0.4,0.0335390567779541,0.850144624710083,STABILIZE
0.04,0.002,0.01,-0.13584639575441565,-0.0054372915500243745,-0.0002716927915088313,0.0020435347500083354,-0.00366544959152487,0.05,0.002,0.01,-0.12146422513788746,-0.0035747236061977267,-0.00024292845027577492,-4.0494359015602405e-05,-0.003858146415489104,0.5,0,0,-0.12373537063875778,-0.02983868182479319,-0.0,0.0,-0.02983868182479319,0.002,8e-05,0.0,-0.46253397845790556,-0.0015433920317442851,-3.700271827663245e-05,-0.0,-0.0015803947500209175,-0.07149447212395453,0.0,0.07149447212395453,-0.13593228875060936,0.0,0.13593228875060936,-0.7716960158721425,0.0,0.7716960158721425,-0.05967736364958638,0,0.05967736364958638,-0.003669466118546315,0.0038543265139582947,0.02983868182479319,0.4,0.033437490463256836,0.8835744857788086,STABILIZE
0.04,0.002,0.01,-0.14077411832100037,-0.005845002289803398,-0.00028154823664200076,-0.003022529900203816,-0.009149080426649215,0.05,0.002,0.01,-0.12363400170603346,-0.003217091881139768,-0.00024726800341206694,0.002121018608114218,-0.0013433412764376168,0.5,0,0,-0.12536280900055852,-0.024129759799545656,-0.0,0.0,-0.024129759799545656,0.002,8e-05,0.0,-0.4886886102809496,-0.0015511616251623764,-3.909508882247597e-05,-0.0,-0.0015902567139848523,-0.06434183762279536,0.0,0.06434183762279536,-0.14612505724508493,0.0,0.14612505724508493,-0.7755808125811882,0.0,0.7755808125811882,-0.04825951959909131,0,0.04825951959909131,-0.009150208660698133,0.001335634644639641,0.024129759799545656,0.4,0.033722639083862305,0.9172887802124023,STABILIZE
0.04,0.002,0.01,-0.1459082680959583,-0.005848700713007692,-0.00029181653619191663,-2.6332220742600696e-05,-0.00616684946994221,0.05,0.002,0.01,-0.12598588097588792,-0.0033490058153344514,-0.00025197176195177585,-0.0007513660048867739,-0.004352343582173001,0.5,0,0,-0.12633462141782534,-0.01383831848240345,-0.0,0.0,-0.01383831848240345,0.002,8e-05,0.0,-0.5160639906814127,-0.0015592689528458202,-4.1285119254513025e-05,-0.0,-0.0016005540721003332,-0.06698011630668903,0.0,0.06698011630668903,-0.1462175178251923,0.0,0.1462175178251923,-0.7796344764229101,0.0,0.7796344764229101,-0.0276766369648069,0,0.0276766369648069,-0.006168951143168793,0.004349364187488266,0.01383831848240345,0.4,0.03511309623718262,0.9524283409118652,STABILIZE
0.04,0.002,0.01,-0.1501695403936929,-0.005021301449234414,-0.0003003390807873858,0.006093574923164591,0.000771934393142791,0.05,0.002,0.01,-0.12850593770664084,-0.0037119091524055316,-0.0002570118754132817,-0.002138149037478513,-0.006107070065297327,0.5,0,0,-0.1279760898785197,-0.024177954917768918,-0.0,-0.0,-0.024177954917768918,0.002,8e-05,0.0,-0.5426814010492199,-0.001568241031273586,-4.34145120839376e-05,-0.0,-0.0016116555433575237,-0.07423818304811063,0.0,0.07423818304811063,-0.12553253623086036,0.0,0.12553253623086036,-0.7841205156367931,0.0,0.7841205156367931,-0.048355909835537836,0,0.048355909835537836,0.0007667799358936203,0.006107719379578469,0.024177954917768918,0.4,0.033945560455322266,0.986398458480835,STABILIZE
0.04,0.002,0.01,-0.1543153780785529,-0.004925372247348878,-0.0003086307561571058,0.0007122912553999677,-0.004521711748106016,0.05,0.002,0.01,-0.13083195027321393,-0.0034542107690989643,-0.0002616639005464279,0.0015307647836286437,-0.0021851098860167484,0.5,0,0,-0.1289457438998801,-0.014399704502963526,-0.0,0.0,-0.014399704502963526,0.002,8e-05,0.0,-0.5691030748582536,-0.0015694847314302624,-4.552824598866029e-05,-0.0,-0.0016150129774189226,-0.06908421538197929,0.0,0.06908421538197929,-0.12313430618372195,0.0,0.12313430618372195,-0.7847423657151312,0.0,0.7847423657151312,-0.028799409005927052,0,0.028799409005927052,-0.00452280951033862,0.0021828367964918083,0.014399704502963526,0.4,0.033669233322143555,1.0200493335723877,STABILIZE
0.04,0.002,0.01,-0.15864764841525972,-0.005163716109160622,-0.00031729529683051946,-0.0017755413777057875,-0.00725655278369693,0.05,0.002,0.01,-0.1325625508020686,-0.002578419955021125,-0.0002651251016041372,0.005219359346751076,0.0023758142901258135,0.5,0,0,-0.13003404224017567,-0.016214545822955655,-0.0,-0.0,-0.016214545822955655,0.002,8e-05,0.0,-0.5957767301470656,-0.001589642067555451,-4.766213841176525e-05,-0.0,-0.0016373042059672164,-0.05156839910042249,0.0,0.05156839910042249,-0.12909290272901555,0.0,0.12909290272901555,-0.7948210337777255,0.0,0.7948210337777255,-0.03242909164591131,0,0.03242909164591131,-0.0072552069238140835,-0.0023799210777641073,0.016214545822955655,0.4,0.033559322357177734,1.05362868309021,STABILIZE
0.04,0.002,0.01,-0.16281481554279228,-0.0049821108257533005,-0.0003256296310855846,0.0013570034822033637,-0.003950736974635521,0.05,0.002,0.01,-0.1339454704288158,-0.002066709419344611,-0.0002678909408576316,0.0030589109116863134,0.0007243105514840708,0.5,0,0,-0.13172861654799234,-0.02532462925543784,-0.0,-0.0,-0.02532462925543784,0.002,8e-05,0.0,-0.6230516943010519,-0.0016304468962355819,-4.9844135544084155e-05,-0.0,-0.0016802910317796661,-0.04133418838689222,0.0,0.04133418838689222,-0.12455277064383251,0.0,0.12455277064383251,-0.8152234481177909,0.0,0.8152234481177909,-0.05064925851087568,0,0.05064925851087568,-0.003950095143202833,-0.0007278027049886367,0.02532462925543784,0.4,0.033457040786743164,1.0870869159698486,STABILIZE
0.04,0.002,0.01,-0.16680972035370964,-0.004778816615368149,-0.0003336194407074193,0.0015199137970411706,-0.003592522259034398,0.05,0.002,0.01,-0.13500066409631517,-0.0015778151387039223,-0.00027000132819263037,0.0029241449071569746,0.001076328440260422,0.5,0,0,-0.13334670408096008,-0.024195018259679908,-0.0,0.0,-0.024195018259679908,0.002,8e-05,0.0,-0.6504583476247138,-0.0016392301753577275,-5.2036667809977105e-05,-0.0,-0.0016912668431677046,-0.03155630277407844,0.0,0.03155630277407844,-0.11947041538420371,0.0,0.11947041538420371,-0.8196150876788637,0.0,0.8196150876788637,-0.048390036519359816,0,0.048390036519359816,-0.003591611948059099,-0.0010793621762551118,0.024195018259679908,0.4,0.03343844413757324,1.120516061782837,STABILIZE
0.04,0.002,0.01,-0.17062653231736638,-0.004561938800280213,-0.00034125306463473275,0.0016201075154318031,-0.0032830843494831433,0.05,0.002,0.01,-0.13574970503301753,-0.0011190880454282832,-0.0002714994100660351,0.0027414042733572026,0.0013508168178628843,0.5,0,0,-0.1348937768841463,-0.02311369905996042,-0.0,0.0,-0.02311369905996042,0.002,8e-05,0.0,-0.677859809718532,-0.001637541936837193,-5.4228784777482565e-05,0.0,-0.0016917707216146756,-0.02238176090856566,0.0,0.02238176090856566,-0.11404847000700533,0.0,0.11404847000700533,-0.8187709684185965,0.0,0.8187709684185965,-0.04622739811992084,0,0.04622739811992084,-0.003281993414592097,-0.001353465237018103,0.02311369905996042,0.4,0.03346657752990723,1.1540305614471436,STABILIZE
0.04,0.002,0.01,-0.17461549132852416,-0.004770989716075939,-0.00034923098265704836,-0.001562719381497509,-0.006682940080230496,0.05,0.002,0.01,-0.13762069236140778,-0.0027972402316273114,-0.0002752413847228156,-0.01003575970569084,-0.013108241322040968,0.5,0,0,-0.13574570608370903,-0.01273686141725644,-0.0,0.0,-0.01273686141725644,0.002,8e-05,0.0,-0.7051464085855587,-0.0016318052180672598,-5.64117126868447e-05,0.0,-0.0016882169307541046,-0.055944804632546224,0.0,0.055944804632546224,-0.11927474290189846,0.0,0.11927474290189846,-0.8159026090336299,0.0,0.8159026090336299,-0.02547372283451288,0,0.02547372283451288,-0.006688767348030737,0.0131052687891829,0.01273686141725644,0.4,0.033443450927734375,1.1874339580535889,STABILIZE
0.04,0.002,0.01,-0.1797322488912228,-0.006119237480951798,-0.0003594644977824456,-0.010077485784872935,-0.016556187763607177,0.05,0.002,0.01,-0.13900773410660955,-0.002073490323432221,-0.0002780154682132191,0.004327738329199854,0.0019762325375544143,0.5,0,0,-0.134666037397846,0.016139979783551264,-0.0,0.0,0.016139979783551264,0.002,8e-05,0.0,-0.7343182985783334,-0.0017443636956276088,-5.874546388626668e-05,-0.0,-0.0018031091595138754,-0.04146980646864442,0.0,0.04146980646864442,-0.15298093702379495,0.0,0.15298093702379495,-0.8721818478138044,0.0,0.8721818478138044,0.03227995956710253,0,-0.03227995956710253,-0.016557298528763566,-0.001966904607678944,-0.016139979783551264,0.4,0.0334470272064209,1.220888614654541,STABILIZE
0.04,0.002,0.01,-0.18537926058702378,-0.006689104739293204,-0.00037075852117404755,-0.004218936917305742,-0.011278800177772993,0.05,0.002,0.01,-0.13912183205167652,-0.00016894181077634716,-0.00027824366410335305,0.011280058523425117,0.010832873048545416,0.5,0,0,-0.1329879549467138,0.0248469232079414,-0.0,0.0,0.0248469232079414,0.002,8e-05,0.0,-0.7637267415976066,-0.0017417721635119739,-6.109813932780853e-05,0.0,-0.0018028703028397824,-0.003378836215526943,0.0,0.003378836215526943,-0.16722761848233011,0.0,0.16722761848233011,-0.8708860817559869,0.0,0.8708860817559869,0.0496938464158828,0,-0.0496938464158828,-0.011288191515241288,-0.01082308663234608,-0.0248469232079414,0.4,0.033768415451049805,1.254655122756958,STABILIZE
0.04,0.002,0.01,-0.19084703586011895,-0.006533903630147113,-0.0003816940717202379,0.0011591427040746737,-0.005756454997792677,0.05,0.002,0.01,-0.14097824835418038,-0.0027729845806025717,-0.0002819564967083608,-0.015558946424287146,-0.018613887501598078,0.5,0,0,-0.1293504871920528,0.05433394429099524,-0.0,0.0,0.05433394429099524,0.002,8e-05,0.0,-0.7925123725143063,-0.0017199183301129994,-6.340098980114451e-05,0.0,-0.001783319319914144,-0.05545969161205143,0.0,0.05545969161205143,-0.16334759075367783,0.0,0.16334759075367783,-0.8599591650564997,0.0,0.8599591650564997,0.10866788858199047,0,-0.10866788858199047,-0.005721141334855619,0.01862477178089353,-0.05433394429099524,0.4,0.03347325325012207,1.2881414890289307,STABILIZE
0.04,0.002,0.01,-0.19615607155898862,-0.006335458078514787,-0.00039231214311797723,0.0014800751310426533,-0.005247695090590111,0.05,0.002,0.01,-0.14455483107393108,-0.005335076643519571,-0.00028910966214786216,-0.015287170569753428,-0.02091135687542086,0.5,0,0,-0.12383731610623906,0.08223824973829372,-0.0,0.0,0.08223824973829372,0.002,8e-05,0.0,-0.8208176857617098,-0.0016888860392889654,-6.566541486093678e-05,0.0,-0.0017545514541499022,-0.10670153287039141,0.0,0.10670153287039141,-0.15838645196286968,0.0,0.15838645196286968,-0.8444430196444827,0.0,0.8444430196444827,0.16447649947658743,0,-0.16447649947658743,-0.005187644229133655,0.020926335022811594,-0.08223824973829372,0.4,0.03351950645446777,1.3216464519500732,STABILIZE
0.04,0.002,0.01,-0.20108886547909277,-0.005896205379140197,-0.00040217773095818556,0.0032815126817618435,-0.0030168704283365395,0.05,0.002,0.01,-0.1475966132420502,-0.00454483115256974,-0.0002951932264841004,0.004722931659064031,-0.00011709271998980916,0.5,0,0,-0.11851454012876332,0.07952942302748806,-0.0,-0.0,0.07952942302748806,0.002,8e-05,0.0,-0.8492168904393412,-0.0016972890627064633,-6.79373512351473e-05,-0.0,-0.0017652264139416105,-0.09089662305139479,0.0,0.09089662305139479,-0.14740513447850492,0.0,0.14740513447850492,-0.8486445313532317,0.0,0.8486445313532317,0.1590588460549761,0,-0.1590588460549761,-0.003016533742485549,0.0001254673937413028,-0.07952942302748806,0.4,0.03346419334411621,1.3551504611968994,STABILIZE
0.04,0.002,0.01,-0.20584446902909195,-0.0056856641560275225,-0.0004116889380581839,0.0015732318109471805,-0.0045241212831385255,0.05,0.002,0.01,-0.15171788652408774,-0.006159096193184237,-0.0003034357730481755,-0.00964984652657994,-0.01611237849281235,0.5,0,0,-0.11090232788029042,0.1137618019305445,-0.0,0.0,0.1137618019305445,0.002,8e-05,0.0,-0.8785926640369414,-0.0017560419118566298,-7.028741312295532e-05,-0.0,-0.0018263293249795851,-0.12318192386368473,0.0,0.12318192386368473,-0.14214160390068806,0.0,0.14214160390068806,-0.8780209559283149,0.0,0.8780209559283149,0.227523603861089,0,-0.227523603861089,-0.004460102945366438,0.016130216855235472,-0.1137618019305445,0.4,0.03345680236816406,1.3885838985443115,STABILIZE
0.04,0.002,0.01,-0.2090189185967824,-0.003797067350975259,-0.0004180378371935648,0.014118843902514453,0.00990373871434563,0.05,0.002,0.01,-0.1542308536540333,-0.003757307069983024,-0.0003084617073080666,0.014364309259242477,0.010298540481951387,0.5,0,0,-0.10696385402184552,0.05888678565246071,-0.0,-0.0,0.05888678565246071,0.002,8e-05,0.0,-0.9074587211097686,-0.0017263837481967638,-7.259669768878148e-05,0.0,-0.0017989804458855452,-0.07514614139966047,0.0,0.07514614139966047,-0.09492668377438147,0.0,0.09492668377438147,-0.8631918740983819,0.0,0.8631918740983819,0.11777357130492142,0,-0.11777357130492142,0.009882548779674405,-0.01031887620808467,-0.05888678565246071,0.4,0.03344106674194336,1.422032356262207,STABILIZE
0.04,0.002,0.01,-0.21070760567980693,-0.0019440534088347471,-0.00042141521135961386,0.013332687961587064,0.010967219341392703,0.05,0.002,0.01,-0.15521854895021206,-0.0014213204645256825,-0.00031043709790042415,0.013446193699776508,0.011714436137350402,0.5,0,0,-0.10657571733962297,0.0055853926976299414,-0.0,-0.0,0.0055853926976299414,0.002,8e-05,0.0,-0.9371168659533022,-0.0017071551669454283,-7.496934927626418e-05,0.0,-0.0017821245162216925,-0.028426409290513648,0.0,0.028426409290513648,-0.04860133522086868,0.0,0.04860133522086868,-0.8535775834727142,0.0,0.8535775834727142,0.011170785395259883,0,-0.011170785395259883,0.01096493520466672,-0.011716574160382359,-0.0055853926976299414,0.4,0.03474569320678711,1.4568099975585938,STABILIZE
0.04,0.002,0.01,-0.21469016323263368,-0.0047343745692769714,-0.00042938032646526735,-0.020731692773555348,-0.025895447669297585,0.05,0.002,0.01,-0.15695186830808394,-0.002575663684545985,-0.0003139037366161679,-0.006861285885501361,-0.009750853306663514,0.5,0,0,-0.10273948072145302,0.05700539429085498,-0.0,0.0,0.05700539429085498,0.002,8e-05,0.0,-0.9659708339759415,-0.001715047310893903,-7.727766671807533e-05,-0.0,-0.0017923249776119784,-0.0515132736909197,0.0,0.0515132736909197,-0.1183593642319243,0.0,0.1183593642319243,-0.8575236554469515,0.0,0.8575236554469515,0.11401078858170996,0,-0.11401078858170996,-0.025875993546375795,0.009802362377984132,-0.05700539429085498,0.4,0.033648014068603516,1.490450143814087,STABILIZE
0.04,0.002,0.01,-0.21547158910891662,-0.0009344303115721365,-0.00043094317821783327,0.02839987134779585,0.027034497858005883,0.05,0.002,0.01,-0.15753438845725937,-0.0008707231565587854,-0.0003150687769145187,0.010193853039249648,0.009008061105776344,0.5,0,0,-0.10196374268146176,0.011595359848067775,-0.0,-0.0,0.011595359848067775,0.002,8e-05,0.0,-0.9940555379893432,-0.0016791866969191518,-7.952444303914746e-05,0.0,-0.0017587111399582993,-0.017414463131175707,0.0,0.017414463131175707,-0.02336075778930341,0.0,0.02336075778930341,-0.8395933484595759,0.0,0.8395933484595759,0.02319071969613555,0,-0.02319071969613555,0.02703084959112721,-0.009019002699954306,-0.011595359848067775,0.4,0.03345036506652832,1.5239002704620361,STABILIZE
0.04,0.002,0.01,-0.21829502630037792,-0.0033755008175966974,-0.00043659005260075583,-0.018239814918267334,-0.022051905788464787,0.05,0.002,0.01,-0.15684163727265366,0.0010352550948802112,-0.0003136832745453073,0.01139326060716095,0.012114832427495854,0.5,0,0,-0.09934019367355623,0.039206608916128816,-0.0,0.0,0.039206608916128816,0.002,8e-05,0.0,-1.0219579702419022,-0.0016679082355060767,-8.175663761935218e-05,0.0,-0.001749664873125429,0.020705101897604224,0.0,-0.020705101897604224,-0.08438752043991743,0.0,0.08438752043991743,-0.8339541177530383,0.0,0.8339541177530383,0.07841321783225763,0,-0.07841321783225763,-0.022068465113915886,-0.012084641540629553,-0.039206608916128816,0.4,0.03345799446105957,1.5573906898498535,STABILIZE
0.04,0.002,0.01,-0.2212956355813026,-0.003594102153074104,-0.0004425912711626052,-0.0016364916608330013,-0.005673185085069711,0.05,0.002,0.01,-0.15600150902703225,0.0012578723409782727,-0.0003120030180540645,0.001333244432387246,0.002279113755311454,0.5,0,0,-0.09768616033937295,0.02476482362030687,-0.0,-0.0,0.02476482362030687,0.002,8e-05,0.0,-1.0500726500132296,-0.001683775220944078,-8.400581200105837e-05,-0.0,-0.0017677810329451364,0.025157446819565454,0.0,-0.025157446819565454,-0.08985255382685259,0.0,0.08985255382685259,-0.841887610472039,0.0,0.841887610472039,0.04952964724061374,0,-0.04952964724061374,-0.005675153157329026,-0.002274208688745534,-0.02476482362030687,0.4,0.033394813537597656,1.5907764434814453,STABILIZE
0.04,0.002,0.01,-0.22285564478207273,-0.001865541275405947,-0.00044571128956414545,0.012919401624161695,0.010608149059191602,0.05,0.002,0.01,-0.15560067747324052,0.0005991693892850231,-0.00031120135494648105,-0.003938558644426107,-0.003650590610087565,0.5,0,0,-0.09592227065461695,0.02636690388228674,-0.0,0.0,0.02636690388228674,0.002,8e-05,0.0,-1.0781239994652345,-0.0016772641535613164,-8.624991995721877e-05,0.0,-0.001763514073518535,0.011983387785700461,0.0,-0.011983387785700461,-0.046638531885148674,0.0,0.046638531885148674,-0.8386320767806582,0.0,0.8386320767806582,0.05273380776457348,0,-0.05273380776457348,0.010611504491028314,0.0036408255521753682,-0.02636690388228674,0.4,0.03344893455505371,1.6242282390594482,STABILIZE
0.04,0.002,0.01,-0.22631010803710758,-0.004132001268610367,-0.00045262021607421515,-0.016943687911439437,-0.021528309396124018,0.05,0.002,0.01,-0.1545459124129795,0.001577050559422024,-0.000309091824825959,0.005848385027206661,0.007116343761802726,0.5,0,0,-0.09182109669766796,0.0613194248346914,-0.0,0.0,0.0613194248346914,0.002,8e-05,0.0,-1.106929917924961,-0.0017227870559282587,-8.855439343399688e-05,-0.0,-0.0018113414493622555,0.03154101118844048,0.0,-0.03154101118844048,-0.10330003171525919,0.0,0.10330003171525919,-0.8613935279641294,0.0,0.8613935279641294,0.1226388496693828,0,-0.1226388496693828,-0.021543492258403678,-0.007070247188287763,-0.0613194248346914,0.4,0.03344106674194336,1.6576876640319824,STABILIZE
0.04,0.002,0.01,-0.231604897927675,-0.006310782289869853,-0.00046320979585535,-0.01623035683031064,-0.023004348916035845,0.05,0.002,0.01,-0.15293697675958445,0.0023970834624321125,-0.0003058739535191689,0.004886925853890717,0.00697813536280366,0.5,0,0,-0.08551634650622815,0.09393173920147747,-0.0,0.0,0.09393173920147747,0.002,8e-05,0.0,-1.1361387086135721,-0.001740676427166488,-9.089109668908578e-05,-0.0,-0.0018315675238555738,0.047941669248642245,0.0,-0.047941669248642245,-0.15776955724674632,0.0,0.15776955724674632,-0.8703382135832439,0.0,0.8703382135832439,0.18786347840295495,0,-0.18786347840295495,-0.02302710538108311,-0.0069026704948754345,-0.09393173920147747,0.4,0.03356027603149414,1.6912424564361572,STABILIZE
0.04,0.002,0.01,-0.2374268956543773,-0.00695729288168336,-0.0004748537913087546,-0.0048286298680255005,-0.012260776541017615,0.05,0.002,0.01,-0.14990270140225864,0.004532452462100896,-0.0002998054028045173,0.012758840039583715,0.016991487098880095,0.5,0,0,-0.07793546336445852,0.1132395330498129,-0.0,0.0,0.1132395330498129,0.002,8e-05,0.0,-1.1645725896210029,-0.0016989257572561833,-9.316580716968024e-05,0.0,-0.0017920915644258635,0.09064904924201792,0.0,-0.09064904924201792,-0.173932322042084,0.0,0.173932322042084,-0.8494628786280917,0.0,0.8494628786280917,0.2264790660996258,0,-0.2264790660996258,-0.012327844622736653,-0.01694289001846614,-0.1132395330498129,0.4,0.03347277641296387,1.7247257232666016,STABILIZE
0.04,0.002,0.01,-0.242796485642533,-0.006423665596805934,-0.000485592971285066,0.003989880092038276,-0.0029193784760527244,0.05,0.002,0.01,-0.14494785287601275,0.0074093855596138285,-0.0002898957057520255,0.017208442547355117,0.02432793240121692,0.5,0,0,-0.0715627611503544,0.09529616800753607,-0.0,-0.0,0.09529616800753607,0.002,8e-05,0.0,-1.1938736571339954,-0.0017526501999973552,-9.550989257071964e-05,-0.0,-0.001848160092568075,0.14818771119227656,0.0,-0.14818771119227656,-0.16059163992014835,0.0,0.16059163992014835,-0.8763250999986776,0.0,0.8763250999986776,0.19059233601507214,0,-0.19059233601507214,-0.0030002881611126985,-0.024318086613771793,-0.09529616800753607,0.4,0.03343629837036133,1.758178472518921,STABILIZE
0.04,0.002,0.01,-0.24729208887647497,-0.005380950467021204,-0.0004945841777529499,0.007800397094409234,0.0019248624496350803,0.05,0.002,0.01,-0.1384851581468199,0.00966929197585488,-0.0002769703162936398,0.013524819532654392,0.02291714119221563,0.5,0,0,-0.067107401593925,0.06665976688320452,-0.0,-0.0,0.06665976688320452,0.002,8e-05,0.0,-1.2229025680382644,-0.0017372877849640275,-9.783220544306116e-05,0.0,-0.0018351199904070887,0.19338583951709756,0.0,-0.19338583951709756,-0.1345237616755301,0.0,0.1345237616755301,-0.8686438924820137,0.0,0.8686438924820137,0.13331953376640904,0,-0.13331953376640904,0.0018715321972174938,-0.022921558042784524,-0.06665976688320452,0.4,0.03341865539550781,1.7915899753570557,STABILIZE
0.04,0.002,0.01,-0.25155811336231304,-0.004931511607377708,-0.0005031162267246261,0.003247187399674352,-0.002187440434427983,0.05,0.002,0.01,-0.13185232712623438,0.009584416145634968,-0.00026370465425246874,-0.0004905810354638493,0.00883013045591865,0.5,0,0,-0.06309840508314879,0.057929850415948,-0.0,-0.0,0.057929850415948,0.002,8e-05,0.0,-1.2528221977074019,-0.0017293501419367475,-0.00010022577581659216,0.0,-0.0018295759177533396,0.19168832291269933,0.0,-0.19168832291269933,-0.1232877901844427,0.0,0.1232877901844427,-0.8646750709683737,0.0,0.8646750709683737,0.115859700831896,0,-0.115859700831896,-0.0022052916504095876,-0.008825689109601943,-0.057929850415948,0.4,0.03460216522216797,1.8262519836425781,STABILIZE
0.04,0.002,0.01,-0.2565832723699056,-0.0059957172191052125,-0.0005131665447398112,-0.00793591294979717,-0.014444796713642193,0.05,0.002,0.01,-0.12625855217707815,0.008342694413197025,-0.0002525171043541563,-0.007407738104671498,0.0006824392041713707,0.5,0,0,-0.05773106633120176,0.08004981864055656,-0.0,0.0,0.08004981864055656,0.002,8e-05,0.0,-1.2813752251594555,-0.0017033876748297936,-0.00010251001801275644,0.0,-0.0018058976928425501,0.1668538882639405,0.0,-0.1668538882639405,-0.1498929304776303,0.0,0.1498929304776303,-0.8516938374148968,0.0,0.8516938374148968,0.16009963728111312,0,-0.16009963728111312,-0.014446647235808923,-0.0006420739910109876,-0.08004981864055656,0.4,0.03352499008178711,1.8597197532653809,STABILIZE
0.04,0.002,0.01,-0.26250758216722425,-0.007084703094276362,-0.0005250151643344485,-0.008139283164829777,-0.015749001423440587,0.05,0.002,0.01,-0.12143581460965092,0.007209207683209553,-0.00024287162921930182,-0.006777512670672626,0.00018882338331762446,0.5,0,0,-0.05088003270311556,0.10241180155252387,-0.0,0.0,0.10241180155252387,0.002,8e-05,0.0,-1.309589867141675,-0.0016870518946004672,-0.00010476718937133401,0.0,-0.0017918190839718014,0.14418415366419104,0.0,-0.14418415366419104,-0.17711757735690906,0.0,0.17711757735690906,-0.8435259473002336,0.0,0.8435259473002336,0.20482360310504774,0,-0.20482360310504774,-0.015749575804290813,-0.00013252203786026198,-0.10241180155252387,0.4,0.03344845771789551,1.8931725025177002,STABILIZE
0.04,0.002,0.01,-0.26823624528016926,-0.006844831600631781,-0.0005364724905603385,0.001791299238821345,-0.005590004852370775,0.05,0.002,0.01,-0.11663140874842351,0.0071756159362205965,-0.00023326281749684702,-0.00020068369074702994,0.00674166942797672,0.5,0,0,-0.04473535195982628,0.09177382248316113,-0.0,-0.0,0.09177382248316113,0.002,8e-05,0.0,-1.3377946907197804,-0.0016850115280946547,-0.00010702357525758244,0.0,-0.0017920351033522371,0.14351231872441192,0.0,-0.14351231872441192,-0.17112079001579453,0.0,0.17112079001579453,-0.8425057640473274,0.0,0.8425057640473274,0.18354764496632225,0,-0.18354764496632225,-0.0056115731422069935,-0.00672372722493305,-0.09177382248316113,0.4,0.0334773063659668,1.9266479015350342,STABILIZE
0.04,0.002,0.01,-0.2747354831288501,-0.007748382819164579,-0.0005494709662577002,-0.006732578593172832,-0.01503043237859511,0.05,0.002,0.01,-0.11234808775302313,0.006383212074717291,-0.00022469617550604625,-0.0047235142098685555,0.0014350016893426888,0.5,0,0,-0.03729801234858014,0.1108348313405867,-0.0,0.0,0.1108348313405867,0.002,8e-05,0.0,-1.3667833548691286,-0.0017280123644877285,-0.0001093426683895303,-0.0,-0.0018373550328772588,0.1276642414943458,0.0,-0.1276642414943458,-0.19370957047911447,0.0,0.19370957047911447,-0.8640061822438643,0.0,0.8640061822438643,0.2216696626811734,0,-0.2216696626811734,-0.015035871704706617,-0.0013768403740229104,-0.1108348313405867,0.4,0.03355145454406738,1.9602184295654297,STABILIZE
0.04,0.002,0.01,-0.27991955501071886,-0.0062042510769083,-0.0005598391100214377,0.01155001951541263,0.0047859293284828915,0.05,0.002,0.01,-0.10758377492414538,0.0071273589740033704,-0.00021516754984829075,0.004452941921408428,0.011365133345563508,0.5,0,0,-0.030940414442872703,0.09510895718621941,-0.0,-0.0,0.09510895718621941,0.002,8e-05,0.0,-1.3965245452190718,-0.0017796995919610245,-0.00011172196361752575,-0.0,-0.0018914215555785503,0.1425471794800674,0.0,-0.1425471794800674,-0.1551062769227075,0.0,0.1551062769227075,-0.8898497959805123,0.0,0.8898497959805123,0.19021791437243882,0,-0.19021791437243882,0.0047481715880653575,-0.011380959628693933,-0.09510895718621941,0.4,0.03342270851135254,1.9936425685882568,STABILIZE
0.04,0.002,0.01,-0.2855060772151549,-0.006679277223612522,-0.0005710121544303099,-0.00354964950262625,-0.010799938880669081,0.05,0.002,0.01,-0.10221147964882056,0.008028932884779507,-0.00020442295929764114,0.005389634075801713,0.01321414400128358,0.5,0,0,-0.024880474741880765,0.09056622291136689,-0.0,-0.0,0.09056622291136689,0.002,8e-05,0.0,-1.4262220907447778,-0.0017753275845707175,-0.00011409776725958223,0.0,-0.0018894253518302998,0.16057865769559015,0.0,-0.16057865769559015,-0.16698193059031305,0.0,0.16698193059031305,-0.8876637922853587,0.0,0.8876637922853587,0.18113244582273377,0,-0.18113244582273377,-0.010841659476915913,-0.013179935557484564,-0.09056622291136689,0.4,0.033455848693847656,2.027101516723633,STABILIZE
0.04,0.002,0.01,-0.29082521853499443,-0.006361408489740277,-0.0005816504370699889,0.0023759625152463817,-0.004567096411563884,0.05,0.002,0.01,-0.09743338399141868,0.007142933523503519,-0.00019486676798283737,-0.005298039213306333,0.001650027542214349,0.5,0,0,-0.01860303179690323,0.09384357465531014,-0.0,0.0,0.09384357465531014,0.002,8e-05,0.0,-1.4555485571439166,-0.0017536442548512089,-0.00011644388457151334,0.0,-0.0018700881394227223,0.14285867047007036,0.0,-0.14285867047007036,-0.15903521224350692,0.0,0.15903521224350692,-0.8768221274256044,0.0,0.8768221274256044,0.18768714931062028,0,-0.18768714931062028,-0.004572476990196026,-0.0016350580101982728,-0.09384357465531014,0.4,0.033446311950683594,2.060588836669922,STABILIZE
0.04,0.002,0.01,-0.2946171152971038,-0.00453729912471365,-0.0005892342305942077,0.013641803733985882,0.008515270378678025,0.05,0.002,0.01,-0.09320798350002049,0.00632002502769894,-0.000186415967000041,-0.004923369796144533,0.0012102392645543664,0.5,0,0,-0.013268082776208938,0.0797960131848447,-0.0,-0.0,0.0797960131848447,0.002,8e-05,0.0,-1.4846805320201601,-0.0017429335817891395,-0.00011877444256161282,0.0,-0.0018617080243507524,0.1264005005539788,0.0,-0.1264005005539788,-0.11343247811784124,0.0,0.11343247811784124,-0.8714667908945698,0.0,0.8714667908945698,0.1595920263696894,0,-0.1595920263696894,0.008511866342148977,-0.0012339530270038157,-0.0797960131848447,0.4,0.03342866897583008,2.0940122604370117,STABILIZE
0.04,0.002,0.01,-0.296335918139077,-0.002054922435772695,-0.0005926718362781541,0.018548853552219417,0.015901259280168566,0.05,0.002,0.01,-0.08833179393826927,0.007287187837102322,-0.00017666358787653855,0.005781479142210274,0.012892003391436056,0.5,0,0,-0.012031675925720993,0.01847739684539653,-0.0,-0.0,0.01847739684539653,0.002,8e-05,0.0,-1.5136872279897449,-0.0017339542639779487,-0.0001210949782391796,0.0,-0.0018550492422171282,0.14574375674204643,0.0,-0.14574375674204643,-0.051373060894317375,0.0,0.051373060894317375,-0.8669771319889743,0.0,0.8669771319889743,0.03695479369079306,0,-0.03695479369079306,0.015892940852502372,-0.012902256748290465,-0.01847739684539653,0.4,0.033457279205322266,2.1274919509887695,STABILIZE
0.04,0.002,0.01,-0.29723858018097293,-0.0010790586159840152,-0.0005944771603619459,0.007291033450890903,0.005617497674544942,0.05,0.002,0.01,-0.08326673224609632,0.007568583542006107,-0.00016653346449219263,0.001681927708179449,0.009083977785693363,0.5,0,0,-0.011207654766032278,0.012313123445509732,-0.0,-0.0,0.012313123445509732,0.002,8e-05,0.0,-1.5436988273684846,-0.0017938205765842372,-0.00012349590618947878,-0.0,-0.001917316482773716,0.15137167084012212,0.0,-0.15137167084012212,-0.02697646539960038,0.0,0.02697646539960038,-0.8969102882921186,0.0,0.8969102882921186,0.024626246891019464,0,-0.024626246891019464,0.005613592779556927,-0.009086391398118102,-0.012313123445509732,0.4,0.03346109390258789,2.1609044075012207,STABILIZE
0.04,0.002,0.01,-0.2992553011067804,-0.002413094454476162,-0.0005985106022135608,-0.009976450021985977,-0.0129880550786757,0.05,0.002,0.01,-0.08041662526481812,0.004262846474675519,-0.00016083325052963624,-0.019777292145510363,-0.01567527892136448,0.5,0,0,-0.008911322683457686,0.03434576732448596,-0.0,0.0,0.03434576732448596,0.002,8e-05,0.0,-1.5736925035964164,-0.001794437020233628,-0.00012589540028771332,-0.0,-0.0019203324205213413,0.08525692949351038,0.0,-0.08525692949351038,-0.06032736136190406,0.0,0.06032736136190406,-0.897218510116814,0.0,0.897218510116814,0.06869153464897192,0,-0.06869153464897192,-0.012969252759825169,0.01569083894637423,-0.03434576732448596,0.4,0.033429622650146484,2.1943552494049072,STABILIZE
0.04,0.002,0.01,-0.3023721260804803,-0.0037260154350057585,-0.0006047442521609607,-0.009809589645863688,-0.014140349333030407,0.05,0.002,0.01,-0.07969448929186096,0.001079098844222727,-0.00015938897858372192,-0.01903009137877281,-0.018110381513133805,0.5,0,0,-0.0051678492825269606,0.055939296359669044,-0.0,0.0,0.055939296359669044,0.002,8e-05,0.0,-1.6035880914739755,-0.00178693739318519,-0.00012828704731791804,0.0,-0.001915224440503108,0.02158197688445454,0.0,-0.02158197688445454,-0.09315038587514396,0.0,0.09315038587514396,-0.893468696592595,0.0,0.893468696592595,0.11187859271933809,0,-0.11187859271933809,-0.014104959165119415,0.018137958119967806,-0.055939296359669044,0.4,0.033460140228271484,2.2278010845184326,STABILIZE
0.04,0.002,0.01,-0.3043243015867466,-0.0023270834171886952,-0.0006086486031734933,0.010422447578313272,0.0074867155579510835,0.05,0.002,0.01,-0.07740566409583559,0.0034104817557498376,-0.0001548113281916712,0.013895580840752018,0.017151251268310186,0.5,0,0,-0.0037484966126544133,0.021149174668214775,-0.0,-0.0,0.021149174668214775,0.002,8e-05,0.0,-1.6333541761455268,-0.0017741274237756263,-0.00013066833409164214,0.0,-0.0019047957578672684,0.06820963511499675,0.0,-0.06820963511499675,-0.05817708542971738,0.0,0.05817708542971738,-0.8870637118878131,0.0,0.8870637118878131,0.04229834933642955,0,-0.04229834933642955,0.007474051685495373,-0.01715677362783931,-0.021149174668214775,0.4,0.03355574607849121,2.2613885402679443,STABILIZE
0.04,0.002,0.01,-0.3059116868811466,-0.0018913765622002349,-0.0006118233737622932,0.0032446664666982462,0.000741466530735718,0.05,0.002,0.01,-0.07487954477592307,0.0037623528546117525,-0.00014975908955184615,0.0020962798119992954,0.005708873577059202,0.5,0,0,-0.0029853408910339445,0.011366292499007929,-0.0,-0.0,0.011366292499007929,0.002,8e-05,0.0,-1.6625569135963965,-0.0017397595077110184,-0.00013300455308771174,0.0,-0.00187276406079873,0.07524705709223505,0.0,-0.07524705709223505,-0.04728441405500587,0.0,0.04728441405500587,-0.8698797538555092,0.0,0.8698797538555092,0.022732584998015858,0,-0.022732584998015858,0.0007392014285710774,-0.005709167310829528,-0.011366292499007929,0.4,0.03357100486755371,2.2949557304382324,STABILIZE
0.04,0.002,0.01,-0.306856413582013,-0.0011313426259762628,-0.000613712827164026,0.005688541911447614,0.003943486458307325,0.05,0.002,0.01,-0.07182248458510748,0.004576168034725194,-0.00014364496917021496,0.004872857949735941,0.009305381015290921,0.5,0,0,-0.0030352065899595555,-0.0007464485591032223,-0.0,-0.0,-0.0007464485591032223,0.002,8e-05,0.0,-1.690557856659378,-0.0016766044839017715,-0.00013524462853275026,0.0,-0.0018118491124345217,0.09152336069450388,0.0,-0.09152336069450388,-0.02828356564940657,0.0,0.02828356564940657,-0.8383022419508858,0.0,0.8383022419508858,-0.0014928971182064446,0,0.0014928971182064446,0.003943728917698216,-0.009305278260766886,0.0007464485591032223,0.4,0.0334019660949707,2.328326940536499,STABILIZE
0.04,0.002,0.01,-0.30810029770635633,-0.0014791101227632653,-0.0006162005954127126,-0.0025845776889449213,-0.0046798884071209,0.05,0.002,0.01,-0.06912677330552713,0.004006858198889013,-0.00013825354661105426,-0.003384848816277493,0.0004837558360004661,0.5,0,0,-0.0006471171028626737,0.0354961453533124,-0.0,0.0,0.0354961453533124,0.002,8e-05,0.0,-1.719187694757316,-0.00170219566738535,-0.0001375350155805853,-0.0,-0.0018397306829659352,0.08013716397778026,0.0,-0.08013716397778026,-0.03697775306908163,0.0,0.03697775306908163,-0.851097833692675,0.0,0.851097833692675,0.0709922907066248,0,-0.0709922907066248,-0.00468048421187463,-0.00047795685407934347,-0.0354961453533124,0.4,0.033638715744018555,2.3620214462280273,STABILIZE
0.04,0.002,0.01,-0.3091503418662805,-0.0012375358388655039,-0.000618300683732561,0.0017794301270942802,-7.640639550378467e-05,0.05,0.002,0.01,-0.06684722231488069,0.0033582231051717346,-0.00013369444462976138,-0.0038222638887825513,-0.0005977352282405782,0.5,0,0,0.0025334505547131765,0.0468559634728951,0.0,0.0,0.0468559634728951,0.002,8e-05,0.0,-1.7484774876608888,-0.0017259830497861346,-0.00013987819901287112,-0.0,-0.0018658612487990056,0.06716446210343469,0.0,-0.06716446210343469,-0.030938395971637594,0.0,0.030938395971637594,-0.8629915248930673,0.0,0.8629915248930673,0.0937119269457902,0,-0.0937119269457902,-7.542864895630242e-05,0.000597859397576323,-0.0468559634728951,0.4,0.03393983840942383,2.3959219455718994,STABILIZE
0.04,0.002,0.01,-0.30992331471153145,-0.0009244209961728031,-0.0006198466294230629,0.0023403954014751386,0.0007961277758792725,0.05,0.002,0.01,-0.06404744626504223,0.004185418318628244,-0.00012809489253008446,0.004946335618068082,0.00900365904416624,0.5,0,0,0.005077025487995639,0.03802420240425404,0.0,-0.0,0.03802420240425404,0.002,8e-05,0.0,-1.776725856409736,-0.0016891528169135153,-0.00014213806851277888,0.0,-0.001831290885426294,0.08370836637256489,0.0,-0.08370836637256489,-0.023110524904320077,0.0,0.023110524904320077,-0.8445764084567576,0.0,0.8445764084567576,0.07604840480850808,0,-0.07604840480850808,0.0007841765659898673,-0.009004707809389228,-0.03802420240425404,0.4,0.0334467887878418,2.4293835163116455,STABILIZE
0.04,0.002,0.01,-0.31042894263425225,-0.000603855957397641,-0.0006208578852685045,0.0023927563592137328,0.0011680425165475873,0.05,0.002,0.01,-0.06068707198870214,0.005016490225991534,-0.00012137414397740429,0.004962618753200039,0.009857734835214169,0.5,0,0,0.00705428560958828,0.029517265811876692,0.0,-0.0,0.029517265811876692,0.002,8e-05,0.0,-1.8045627438062735,-0.001662237144593886,-0.00014436501950450189,0.0,-0.0018066021640983877,0.10032980451983067,0.0,-0.10032980451983067,-0.015096398934941024,0.0,0.015096398934941024,-0.831118572296943,0.0,0.831118572296943,0.059034531623753383,0,-0.059034531623753383,0.0011578850113255702,-0.009858933091486385,-0.029517265811876692,0.4,0.0334932804107666,2.462862253189087,STABILIZE
0.04,0.002,0.01,-0.31119369759910953,-0.0009111118456266072,-0.0006223873951982191,-0.002287860918433033,-0.003821360159257859,0.05,0.002,0.01,-0.057026787228365024,0.005450976058932917,-0.00011405357445673006,0.0025881831916169024,0.00792510567609309,0.5,0,0,0.009334779388940357,0.033961611753531185,0.0,0.0,0.033961611753531185,0.002,8e-05,0.0,-1.8324369900362154,-0.001660437466578092,-0.00014659495920289723,0.0,-0.001807032425780989,0.10901952117865835,0.0,-0.10901952117865835,-0.02277779614066518,0.0,0.02277779614066518,-0.8302187332890459,0.0,0.8302187332890459,0.06792322350706237,0,-0.06792322350706237,-0.003830752556936972,-0.007920569947391855,-0.033961611753531185,0.4,0.033574581146240234,2.4964582920074463,STABILIZE
0.04,0.002,0.01,-0.31142157467762566,-0.0002728847736785458,-0.0006228431493552514,0.004776765263595624,0.003881037340561827,0.05,0.002,0.01,-0.05398136363806488,0.0045586513823920715,-0.00010796272727612976,-0.005342832613777171,-0.0008921439586612291,0.5,0,0,0.01179670978174649,0.03685228690112252,0.0,0.0,0.03685228690112252,0.002,8e-05,0.0,-1.85937538159138,-0.0016129478512415117,-0.00014875003052731043,0.0,-0.0017616978817688222,0.09117302764784142,0.0,-0.09117302764784142,-0.006822119341963645,0.0,0.006822119341963645,-0.8064739256207558,0.0,0.8064739256207558,0.07370457380224504,0,-0.07370457380224504,0.0038821817719141864,0.0008871507040115408,-0.03685228690112252,0.4,0.03340268135070801,2.5298707485198975,STABILIZE
0.04,0.002,0.01,-0.31224085859307643,-0.0008904993822580184,-0.0006244817171861529,-0.004195626029644839,-0.00571060712908901,0.05,0.002,0.01,-0.04980408015633794,0.0056754872911603926,-9.96081603126759e-05,0.006069578982852002,0.011645458113699719,0.5,0,0,0.014522394280930034,0.03703265005235832,0.0,0.0,0.03703265005235832,0.002,8e-05,0.0,-1.8887800685077776,-0.0015980330530555326,-0.00015110240548062221,0.0,-0.0017491354585361548,0.11350974582320784,0.0,-0.11350974582320784,-0.02226248455645046,0.0,0.02226248455645046,-0.7990165265277663,0.0,0.7990165265277663,0.07406530010471664,0,-0.07406530010471664,-0.005725656243385455,-0.011638066379056186,-0.03703265005235832,0.4,0.03680109977722168,2.5666675567626953,STABILIZE
0.04,0.002,0.01,-0.313493947260397,-0.0014978369055407643,-0.000626987894520794,-0.004537251534032462,-0.006662076334094021,0.05,0.002,0.01,-0.045240629820624274,0.006818456374729329,-9.048125964124855e-05,0.006831046038116137,0.013559021153204218,0.5,0,0,0.017025597329232242,0.037401482488729335,0.0,0.0,0.037401482488729335,0.002,8e-05,0.0,-1.9154080126190185,-0.0015914403524922537,-0.0001532326410095215,0.0,-0.0017446729935017753,0.13636912749458657,0.0,-0.13636912749458657,-0.037445922638519105,0.0,0.037445922638519105,-0.7957201762461268,0.0,0.7957201762461268,0.07480296497745867,0,-0.07480296497745867,-0.0066797727403056385,-0.013550311872876017,-0.037401482488729335,0.4,0.03346395492553711,2.600125551223755,STABILIZE
0.04,0.002,0.01,-0.31449082880784257,-0.0011920300662772092,-0.0006289816576156851,0.0022854454712387326,0.0004644337473458382,0.05,0.002,0.01,-0.041199402064458615,0.006040417994453785,-8.239880412891723e-05,-0.004651731915304029,0.0013062872750208392,0.5,0,0,0.019550122093100503,0.037734039582026785,0.0,0.0,0.037734039582026785,0.002,8e-05,0.0,-1.94161339670813,-0.0015667661726012625,-0.0001553290717366504,0.0,-0.0017220952443379128,0.12080835988907569,0.0,-0.12080835988907569,-0.029800751656930226,0.0,0.029800751656930226,-0.7833830863006312,0.0,0.7833830863006312,0.07546807916405357,0,-0.07546807916405357,0.00046271274717614685,-0.0013068978782428912,-0.037734039582026785,0.4,0.03345155715942383,2.6335787773132324,STABILIZE
0.04,0.002,0.01,-0.3152522665285708,-0.0009092517410358553,-0.0006305045330571417,0.002110453993425371,0.000570697719332374,0.05,0.002,0.01,-0.03760384030305615,0.005366937279568895,-7.52076806061123e-05,-0.004021100451770916,0.0012706291471918669,0.5,0,0,0.022531600456366388,0.044503219351732966,0.0,0.0,0.044503219351732966,0.002,8e-05,0.0,-1.9680107755973582,-0.001576088369437367,-0.00015744086204778866,-0.0,-0.0017335292314851556,0.1073387455913779,0.0,-0.1073387455913779,-0.02273129352589638,0.0,0.02273129352589638,-0.7880441847186834,0.0,0.7880441847186834,0.08900643870346593,0,-0.08900643870346593,0.0005687231657918854,-0.001271514167139462,-0.044503219351732966,0.4,0.03349733352661133,2.667086124420166,STABILIZE
0.04,0.002,0.01,-0.3162935449681544,-0.0012440363244536304,-0.0006325870899363088,-0.0024998367800002632,-0.004376460194390202,0.05,0.002,0.01,-0.03370877172855913,0.005816896097034474,-6.741754345711826e-05,0.002687874309868612,0.008437352863445968,0.5,0,0,0.025156030778208497,0.03919324706121161,0.0,-0.0,0.03919324706121161,0.002,8e-05,0.0,-1.993641015667135,-0.001531048201863233,-0.0001594912812533708,0.0,-0.0016905394831166038,0.11633792194068948,0.0,-0.11633792194068948,-0.03110090811134076,0.0,0.03110090811134076,-0.7655241009316165,0.0,0.7655241009316165,0.07838649412242323,0,-0.07838649412242323,-0.004387999257869884,-0.00843135752345464,-0.03919324706121161,0.4,0.03348064422607422,2.700566291809082,STABILIZE
0.04,0.002,0.01,-0.31704034317328394,-0.0008884945535166126,-0.0006340806863465679,0.0026437607647504845,0.001121185524887304,0.05,0.002,0.01,-0.02993072741904372,0.005618605817629813,-5.986145483808744e-05,-0.0011795678675726006,0.004379176495219125,0.5,0,0,0.0279114776300577,0.04097826400017916,0.0,0.0,0.04097826400017916,0.002,8e-05,0.0,-2.0194229694361145,-0.0015336891107540478,-0.00016155383755488918,-0.0,-0.001695242948308937,0.11237211635259625,0.0,-0.11237211635259625,-0.022212363837915316,0.0,0.022212363837915316,-0.7668445553770239,0.0,0.7668445553770239,0.08195652800035833,0,-0.08195652800035833,0.0011149203566523805,-0.004380775771004333,-0.04097826400017916,0.4,0.03362083435058594,2.7342324256896973,STABILIZE
