E-kp,E-ki,E-kd,E-I-Tot,E-P,E-I,E-D,E-PID,N-kp,N-ki,N-kd,N-I-Tot,N-P,N-I,N-D,N-PID,D-kp,D-ki,D-kd,D-I-Tot,D-P,D-I,D-D,D-PID,Y-kp,Y-ki,Y-kd,Y-I-Tot,Y-P,Y-I,Y-D,Y-PID,errorN,desiredN,actualN,errorE,desiredE,actualE,errorD,desiredD,actualD,errorY,desiredY,actualY,roll,pitch,yaw-rate,thrust,dt,Time,Mode
0.035,0.005,0.05,1.385786419792698,1.3991453402628404,0.00692893209896349,6.25,7.656074272361804,0.04,0.006,0.04,-0.34559250720369916,-0.3987702901215288,-0.002073555043222195,-5.0,-5.400843845164751,0.002,8e-05,0,0.32010854995900206,0.018468250421629338,2.5608683996720167e-05,0.0,0.018493859105626058,0.1,0.02,0,0.0002927568149748577,0.0008445113653300956,5.855136299497154e-06,0.0,0.0008503665016295928,-9.96925725303822,-10.0,-0.03074274696177953,39.975581150366864,40.0,0.0244188496331389,9.23412521081467,10.0,0.7658747891853307,0.008445113653300956,0,-0.008445113653300956,4.000589536703091,3.9994103763957187,-0.0008503665016295928,0.5184938591056261,0.034665822982788086,0.03495979309082031,STABILIZE
0.035,0.005,0.05,2.734094463102081,1.3991622215739945,0.013670472315510405,3.125357510696229,4.538190204585733,0.04,0.006,0.04,-0.6817977031063644,-0.3987266950822699,-0.0040907862186381864,-2.499353724074704,-2.902171205375612,0.002,8e-05,0,0.631838241192032,0.01848498343558425,5.054705929536257e-05,0.0,0.01853553049487961,0.1,0.02,0,0.0005540297156961314,0.0007746495405837778,1.1080594313922628e-05,0.0,0.0007857301348977004,-9.968167377056746,-10.0,-0.03183262294325478,39.976063473542695,40.0,0.023936526457305297,9.242491717792124,10.0,0.7575082822078766,0.007746495405837777,0,-0.007746495405837777,4.000392342356643,2.9016303714507923,-0.0007857301348977004,0.5185355304948797,0.03372788429260254,0.06863617897033691,STABILIZE
0.035,0.005,0.05,4.071071002499687,1.399153187254887,0.020355355012498435,2.08344304163612,3.5029515839035055,0.04,0.006,0.04,-1.0152892683168437,-0.39885797555652724,-0.006091735609901063,-1.6675442515459984,-2.072493962712427,0.002,8e-05,0,0.941021062810572,0.01848922839019837,7.528168502484577e-05,0.0,0.018564510075223216,0.1,0.02,0,0.0008273760453020396,0.0008173097540233815,1.654752090604079e-05,0.0,0.0008338572749294222,-9.97144938891318,-10.0,-0.028550611086819822,39.97580535013962,40.0,0.024194649860377473,9.244614195099185,10.0,0.7553858049008148,0.008173097540233815,0,-0.008173097540233815,3.503247184267081,2.0719942544747325,-0.0008338572749294222,0.5185645100752232,0.03344464302062988,0.1020803451538086,STABILIZE
0.035,0.005,0.05,5.411232182197095,1.3990948383391382,0.027056160910985474,1.5619607015087231,2.9881117007588465,0.04,0.006,0.04,-1.3495767587859118,-0.3988432005872331,-0.008097460552715471,-1.2505480122355774,-1.657488673375526,0.002,8e-05,0,1.2510384628031221,0.018494310372975577,0.00010008307702424978,0.0,0.018594393449999826,0.1,0.02,0,0.0010829408431205613,0.0007622950665633721,2.1658816862411227e-05,0.0,0.0007839538834257833,-9.971080014680828,-10.0,-0.028919985319172094,39.974138238261084,40.0,0.02586176173891295,9.247155186487788,10.0,0.7528448135122112,0.007622950665633721,0,-0.007622950665633721,2.9883321958665965,1.6570911036292526,-0.0007839538834257833,0.5185943934499998,0.033525705337524414,0.13566064834594727,STABILIZE
0.035,0.005,0.05,6.749315509722588,1.3991345051751984,0.03374657754861294,1.2499071462586553,2.6827882289824667,0.04,0.006,0.04,-1.6833672136693487,-0.398879914549498,-0.010100203282016093,-1.0006577758895103,-1.4096378937210243,0.002,8e-05,0,1.5609180594513112,0.018515320798317404,0.00012487344475610492,0.0,0.018640194243073508,0.1,0.02,0,0.0012787857831047377,0.0005850872290005988,2.5575715662094756e-05,0.0,0.0006106629446626937,-9.97199786373745,-10.0,-0.028002136262550922,39.97527157643424,40.0,0.024728423565762256,9.257660399158702,10.0,0.7423396008412974,0.005850872290005988,0,-0.005850872290005988,2.6829321629667793,1.409363928124856,-0.0006106629446626937,0.5186401942430735,0.03347277641296387,0.16913676261901855,STABILIZE
0.035,0.005,0.05,8.128241375134532,1.3991664159128767,0.040641206875672665,0.00017146576187784037,1.4399790885504273,0.04,0.006,0.04,-2.0273546792599024,-0.39889906560858246,-0.012164128075559414,-0.0007688168479517117,-0.41183201053209356,0.002,8e-05,0,1.8803522031799964,0.0185213117050782,0.00015042817625439972,0.0,0.0186717398813326,0.1,0.02,0,0.0014235704579258848,0.00041974255807145317,2.8471409158517697e-05,-0.0,0.00044821396722997085,-9.97247664021456,-10.0,-0.02752335978543896,39.976183311796476,40.0,0.02381668820352292,9.260655852539099,10.0,0.7393441474609009,0.0041974255807145314,0,-0.0041974255807145314,1.4400092550449444,0.4117265181480672,-0.00044821396722997085,0.5186717398813326,0.03449368476867676,0.20362567901611328,STABILIZE
0.035,0.005,0.05,9.465428504478533,1.3990444472059154,0.047327142522392666,-0.0010132600831109962,1.445358329645197,0.04,0.006,0.04,-2.361018281111115,-0.3989698752473661,-0.01416610968666669,-0.0014506714575240728,-0.4145866563915569,0.002,8e-05,0,2.1903783043597187,0.018535296362091284,0.0001752302643487775,0.0,0.01871052662644006,0.1,0.02,0,0.0015502899864058704,0.0003788042371760513,3.100579972811741e-05,-0.0,0.0004098100369041687,-9.974246881184152,-10.0,-0.02575311881584708,39.972698491597576,40.0,0.027301508402423312,9.267648181045642,10.0,0.7323518189543582,0.003788042371760513,0,-0.003788042371760513,1.4453857363904097,0.4144910973372504,-0.0004098100369041687,0.51871052662644,0.033452510833740234,0.23707246780395508,STABILIZE
0.035,0.005,0.05,10.802064455732065,1.3990560715504872,0.054010322278660323,-0.0008367567479910656,1.4522296370811565,0.04,0.006,0.04,-2.694503413234094,-0.39892422117601767,-0.016167020479404565,-0.000392546789031384,-0.4154837884444536,0.002,8e-05,0,2.5004747910487577,0.018547303541590204,0.00020003798328390064,0.0,0.018747341524874107,0.1,0.02,0,0.001623702134882976,0.00021954415156121384,3.247404269765952e-05,-0.0,0.0002520181942588734,-9.973105529400442,-10.0,-0.026894470599557362,39.9730306157282,40.0,0.026969384271804123,9.273651770795102,10.0,0.7263482292048993,0.0021954415156121383,0,-0.0021954415156121383,1.4522455563911283,0.41542814206459994,-0.0002520181942588734,0.5187473415248741,0.03343844413757324,0.2704927921295166,STABILIZE
0.035,0.005,0.05,12.140182123189046,1.3990707594315874,0.06070091061594523,-0.00021413024516816613,1.4595575398023646,0.04,0.006,0.04,-3.0282817293696263,-0.3988370005286214,-0.018169690376217757,4.041874218785916e-05,-0.4169662721626513,0.002,8e-05,0,2.8109202555804935,0.0185478103154064,0.0002248736204464395,0.0,0.01877268393585284,0.1,0.02,0,0.0017143738082567768,0.00027086254928131176,3.428747616513554e-05,-0.0,0.00030515002544644727,-9.970925013215535,-10.0,-0.029074986784465535,39.97345026947392,40.0,0.02654973052608106,9.2739051577032,10.0,0.7260948422967994,0.0027086254928131177,0,-0.0027086254928131177,1.4595772500155137,0.4168972719415414,-0.00030515002544644727,0.5187726839358529,0.03347516059875488,0.3039853572845459,STABILIZE
0.035,0.005,0.05,13.477275606576807,1.399086068748593,0.06738637803288404,-0.00042194702414349974,1.4660504997573336,0.04,0.006,0.04,-3.3616725118442212,-0.3986834385859395,-0.020170035071065327,0.0011779656473051444,-0.4176755080096997,0.002,8e-05,0,3.1211706015164546,0.01855055407083003,0.0002496936481213164,0.0,0.018800247718951345,0.1,0.02,0,0.0017865589948132502,0.00021580559439653493,3.5731179896265006e-05,-0.0,0.0002515367742927999,-9.967085964648488,-10.0,-0.03291403535151213,39.97388767853123,40.0,0.026112321468772473,9.275277035415014,10.0,0.7247229645849855,0.0021580559439653493,0,-0.0021580559439653493,1.466066230541298,0.4176202886550392,-0.0002515367742927999,0.5188002477189514,0.03344917297363281,0.33741331100463867,STABILIZE
0.035,0.005,0.05,14.81428852459829,1.399101493048638,0.07407144262299145,-0.0005545067073737852,1.4726184289642557,0.04,0.006,0.04,-3.694911138828441,-0.3985298906845791,-0.022169466832970646,0.002207168898302769,-0.41849218861924703,0.002,8e-05,0,3.4314429485196554,0.01855319199527982,0.00027451543588157245,0.0,0.018827707431161394,0.1,0.02,0,0.0018405166636525198,0.00016132391417762585,3.6810333273050394e-05,-0.0,0.00019813424745067625,-9.963247267114477,-10.0,-0.036752732885523234,39.97432837281823,40.0,0.025671627181770316,9.27659599763991,10.0,0.7234040023600888,0.0016132391417762585,0,-0.0016132391417762585,1.472630211586633,0.4184507249160747,-0.00019813424745067625,0.5188277074311614,0.0334467887878418,0.37087011337280273,STABILIZE
0.035,0.005,0.05,16.152688932074362,1.3991072939290328,0.08076344466037182,0.0005367168633479247,1.4804074554527524,0.04,0.006,0.04,-4.02855881019591,-0.3986070775276852,-0.024171352861175457,0.002169439607286414,-0.4206089907815742,0.002,8e-05,0,3.7421269780143755,0.018558626907816973,0.0002993701582411501,0.0,0.018857997066058122,0.1,0.02,0,0.0019019506924313697,0.00018348725896934843,3.80390138486274e-05,-0.0,0.00022152627281797583,-9.96517693819213,-10.0,-0.034823061807870405,39.97449411225808,40.0,0.025505887741918636,9.279313453908486,10.0,0.7206865460915142,0.0018348725896934843,0,-0.0018348725896934843,1.4804209245148627,0.42056158115660863,-0.00022152627281797583,0.5188579970660582,0.03348135948181152,0.4044201374053955,STABILIZE
0.035,0.005,0.05,17.490125201670175,1.3991854472989098,0.08745062600835088,0.0011048352419552427,1.487740908549216,0.04,0.006,0.04,-4.361997256325066,-0.3986665550243874,-0.026171983537950395,0.0015408130285638072,-0.42329772553377404,0.002,8e-05,0,4.052791037841026,0.018571849158181324,0.0003242232830272821,0.0,0.018896072441208604,0.1,0.02,0,0.0018606276123033774,-0.00012351702532258557,3.721255224606755e-05,-0.0,-8.630447307651803e-05,-9.966663875609685,-10.0,-0.033336124390315997,39.976727065683136,40.0,0.023272934316864533,9.285924579090661,10.0,0.7140754209093381,-0.0012351702532258557,0,0.0012351702532258557,1.487731782840993,0.42332979783813107,8.630447307651803e-05,0.5188960724412086,0.03345537185668945,0.4378066062927246,STABILIZE
0.035,0.005,0.05,18.827748781193755,1.3991720110953352,0.09413874390596877,0.0008647423325703227,1.4941754973338741,0.04,0.006,0.04,-4.695408793904324,-0.3985747335356467,-0.028172452763425945,0.0015685434751438673,-0.4251786428239288,0.002,8e-05,0,4.363557282022722,0.01857517797163041,0.0003490845825618178,0.0,0.018924262554192228,0.1,0.02,0,0.0019015698251376037,0.00012236027950054309,3.8031396502752075e-05,-0.0,0.00016039167600329516,-9.964368338391168,-10.0,-0.03563166160883166,39.97634317415243,40.0,0.023656825847566766,9.287588985815205,10.0,0.7124110141847955,0.0012236027950054307,0,-0.0012236027950054307,1.4941845770646653,0.4251467332681925,-0.00016039167600329516,0.5189242625541922,0.033460378646850586,0.4713160991668701,STABILIZE
0.035,0.005,0.05,20.165492078509264,1.3991875700131586,0.10082746039254632,0.0008668194391277048,1.5008818498448326,0.04,0.006,0.04,-5.028805417723695,-0.398525668772413,-0.03017283250634217,0.0009436105053940718,-0.4277548907733611,0.002,8e-05,0,4.6737425124744965,0.0185389964350827,0.00037389940099795974,-0.0,0.018912895836080662,0.1,0.02,0,0.002035993895352398,0.00040170954543382564,4.071987790704796e-05,0.0,0.0004424294233408736,-9.963141719310325,-10.0,-0.036858280689674755,39.97678771466167,40.0,0.023212285338332105,9.26949821754135,10.0,0.7305017824586493,0.004017095454338256,0,-0.004017095454338256,1.5009118367109289,0.42764966058118514,-0.0004424294233408736,0.5189128958360807,0.0334630012512207,0.5047690868377686,STABILIZE
0.035,0.005,0.05,21.510590439529796,1.3991447619979123,0.10755295219764899,0.00037156531382565136,1.507069279509387,0.04,0.006,0.04,-5.36404290979356,-0.3985227673601932,-0.03218425745876136,4.269387978211902e-05,-0.43066433093917245,0.002,8e-05,0,4.985850666787166,0.018551356622493385,0.0003988680533429733,-0.0,0.018950224675836357,0.1,0.02,0,0.0022316086429783706,0.0005813559969011601,4.4632172859567415e-05,0.0,0.0006259881697607276,-9.96306918400483,-10.0,-0.036930815995169584,39.975564628511776,40.0,0.024435371488225097,9.275678311246692,10.0,0.7243216887533085,0.005813559969011601,0,-0.005813559969011601,1.5071129694362617,0.43051141278860594,-0.0006259881697607276,0.5189502246758364,0.033648014068603516,0.5384011268615723,STABILIZE
0.035,0.005,0.05,22.84736899380941,1.3991055767927114,0.11423684496904705,-1.2730219024484572e-05,1.513329691542734,0.04,0.006,0.04,-5.697221623736801,-0.3985292597677161,-0.034183329742420804,0.00046493818353518653,-0.4322476513266017,0.002,8e-05,0,5.296338711053245,0.018569399134718736,0.0004237070968842596,0.0,0.018993106231602996,0.1,0.02,0,0.002482814275777465,0.0007511944093310136,4.96562855155493e-05,0.0,0.0008008506948465629,-9.963231494192902,-10.0,-0.0367685058070977,39.97444505122032,40.0,0.025554948779677976,9.284699567359368,10.0,0.7153004326406317,0.007511944093310135,0,-0.007511944093310135,1.513386349729211,0.43204923774436094,-0.0008008506948465629,0.518993106231603,0.03344082832336426,0.5718231201171875,STABILIZE
0.035,0.005,0.05,24.233776971712697,1.399157025891863,0.12116888485856349,-0.0002563178464116193,1.5200695929040149,0.04,0.006,0.04,-6.0427323363087755,-0.398500502198768,-0.036256394017852654,0.0009863414834225597,-0.43377055473319803,0.002,8e-05,0,5.618450777186233,0.018575664291673556,0.00044947606217489867,0.0,0.019025140353848453,0.1,0.02,0,0.00275608468172989,0.0007879523705463805,5.512169363459781e-05,0.0,0.0008430740641809783,-9.9625125549692,-10.0,-0.037487445030800155,39.9759150254818,40.0,0.024084974518200273,9.287832145836777,10.0,0.712167854163223,0.007879523705463805,0,-0.007879523705463805,1.5201292322316855,0.43356150514042424,-0.0008430740641809783,0.5190251403538485,0.034681081771850586,0.6065356731414795,STABILIZE
0.035,0.005,0.05,25.571223142772208,1.3991858346606458,0.12785611571386105,0.00010444212558324248,1.52714639250009,0.04,0.006,0.04,-6.376071316169657,-0.39854479068617893,-0.03825642789701794,0.0001727446622302057,-0.43662847392096665,0.002,8e-05,0,5.9293933987548355,0.01858836942505045,0.0004743514719003869,0.0,0.01906272089695084,0.1,0.02,0,0.0029546962066728014,0.0005936568584723473,5.909392413345603e-05,0.0,0.0006527507826058033,-9.963619767154473,-10.0,-0.036380232845527716,39.976738133161305,40.0,0.023261866838691688,9.294184712525224,10.0,0.7058152874747752,0.0059365685847234725,0,-0.0059365685847234725,1.5271916245437445,0.4364702398652524,-0.0006527507826058033,0.5190627208969508,0.033455610275268555,0.6399831771850586,STABILIZE
0.035,0.005,0.05,26.906847285644993,1.3991742057415193,0.13453423642822496,-0.00012785004862486408,1.5335805921211194,0.04,0.006,0.04,-6.709012501307534,-0.39860890570773067,-0.040254075007845204,-0.0005043069746972927,-0.43936728769027317,0.002,8e-05,0,6.239477664548754,0.01856218986757572,0.0004991582131639004,0.0,0.01906134808073962,0.1,0.02,0,0.0032696177414427144,0.0009425878650793067,6.539235482885429e-05,0.0,0.001007980219908161,-9.965222642693266,-10.0,-0.034777357306732905,39.97640587832912,40.0,0.023594121670884066,9.281094933787859,10.0,0.7189050662121416,0.009425878650793067,0,-0.009425878650793067,1.5336528528305489,0.43911498838867824,-0.001007980219908161,0.5190613480807397,0.03341031074523926,0.6733756065368652,STABILIZE
0.035,0.005,0.05,28.244795018070878,1.3991222764077216,0.1412239750903544,-0.0002076511036573101,1.5401386003944186,0.04,0.006,0.04,-7.042387408474505,-0.39842022670429444,-0.04225432445084703,0.0006059097094127975,-0.44006864144572866,0.002,8e-05,0,6.549608169527178,0.01853202857279462,0.0005239686535621743,-0.0,0.019055997226356793,0.1,0.02,0,0.003633977492572758,0.0010886264347307675,7.267954985145515e-05,0.0,0.0011613059845822227,-9.960505667607361,-10.0,-0.039494332392639046,39.97492218307776,40.0,0.02507781692223827,9.26601428639731,10.0,0.733985713602691,0.010886264347307675,0,-0.010886264347307675,1.540222186144715,0.4397760053895199,-0.0011613059845822227,0.5190559972263568,0.03346967697143555,0.70684814453125,STABILIZE
0.035,0.005,0.05,29.582330920256844,1.399120176600069,0.14791165460128422,0.00010921190033718811,1.5471410431016903,0.04,0.006,0.04,-7.3757906535658115,-0.39857618039160864,-0.04425474392139487,-0.0002874569246309596,-0.4431183812376345,0.002,8e-05,0,6.859711280227565,0.018536069340996792,0.0005487769024182052,-0.0,0.019084846243415,0.1,0.02,0,0.003936208512797963,0.000903276193399311,7.872417025595926e-05,0.0,0.0009820003636552702,-9.964404509790215,-10.0,-0.03559549020978442,39.9748621885734,40.0,0.025137811426604127,9.268034670498396,10.0,0.7319653295016033,0.009032761933993109,0,-0.009032761933993109,1.5472108821243502,0.44287446672441916,-0.0009820003636552702,0.519084846243415,0.03345942497253418,0.7404270172119141,STABILIZE
0.035,0.005,0.05,30.91911150613882,1.3991176782193724,0.1545955575306941,-0.0003359888958846182,1.5533772468541818,0.04,0.006,0.04,-7.709133773769305,-0.39872875586539147,-0.04625480264261583,-0.00136581365708024,-0.4463493721650875,0.002,8e-05,0,7.169692027453049,0.018539191330540966,0.000573575362196244,-0.0,0.01911276669273721,0.1,0.02,0,0.004177115530222076,0.0007204030135534187,8.354231060444152e-05,-0.0,0.0008039453241578602,-9.968218896634786,-10.0,-0.031781103365213025,39.97479080626778,40.0,0.02520919373222364,9.269595665270483,10.0,0.7304043347295177,0.0072040301355341865,0,-0.0072040301355341865,1.5534333558874942,0.4461540562323326,-0.0008039453241578602,0.5191127666927372,0.033440589904785156,0.7737865447998047,STABILIZE
0.035,0.005,0.05,32.301994049193034,1.3991870036886522,0.16150997024596517,-9.424152979353174e-06,1.5606875497816382,0.04,0.006,0.04,-8.053796174345404,-0.3985440444926409,-0.04832277704607243,-3.311591495364696e-05,-0.44689993745366696,0.002,8e-05,0,7.490299735872242,0.018536442123557165,0.0005992239788697794,-0.0,0.019135666102426944,0.1,0.02,0,0.004486054518221835,0.0008930898291566226,8.97210903644367e-05,0.0,0.0009828109195210593,-9.963601112316022,-10.0,-0.036398887683977435,39.97677153396149,40.0,0.023228466038513345,9.268221061778583,10.0,0.7317789382214177,0.008930898291566226,0,-0.008930898291566226,1.560757190714985,0.4466566620693937,-0.0009828109195210593,0.5191356661024269,0.0345921516418457,0.8083975315093994,STABILIZE
0.035,0.005,0.05,33.638645723478305,1.3992521107168037,0.16819322861739153,0.0006464000762668965,1.568091739410462,0.04,0.006,0.04,-8.386904834120246,-0.39852502167913595,-0.05032142900472148,0.0004644805937582486,-0.44838197009009917,0.002,8e-05,0,7.800523733232971,0.018557311802872355,0.0006240418986586377,-0.0,0.019181353701530995,0.1,0.02,0,0.004902553237871533,0.001245728356251102,9.805106475743066e-05,0.0,0.0013437794210085325,-9.963125541978398,-10.0,-0.03687445802160169,39.97863173476581,40.0,0.021368265234185755,9.278655901436178,10.0,0.7213440985638229,0.012457283562511018,0,-0.012457283562511018,1.5681891898297473,0.44804102402606816,-0.0013437794210085325,0.519181353701531,0.033434152603149414,0.8417816162109375,STABILIZE
0.035,0.005,0.05,35.0417966848745,1.3992966213754754,0.1752089834243725,0.0014520496534391118,1.575957654453287,0.04,0.006,0.04,-8.736497950268381,-0.39843750020246305,-0.05241898770161029,-0.000164232829345345,-0.4510207207334187,0.002,8e-05,0,8.125633077352662,0.0185266454601215,0.000650050646188213,-0.0,0.019176696106309715,0.1,0.02,0,0.005432884113123029,0.0015110688573016198,0.00010865768226246058,0.0,0.0016197265395640804,-9.960937505061576,-10.0,-0.03906249493842387,39.97990346787072,40.0,0.020096532129279653,9.26332273006075,10.0,0.7366772699392498,0.015110688573016198,0,-0.015110688573016198,1.576076547911188,0.4506050757427731,-0.0016197265395640804,0.5191766961063097,0.03509640693664551,0.8768754005432129,STABILIZE
0.035,0.005,0.05,36.379479533195955,1.3993237437157966,0.1818973976659798,0.0017015895436833185,1.5829227309254597,0.04,0.006,0.04,-9.069895593121089,-0.3985836837851645,-0.05441937355872654,-0.00010586424587884224,-0.4531089215897699,0.002,8e-05,0,8.435156526031944,0.01850207987927817,0.0006748125220825556,-0.0,0.019176892401360723,0.1,0.02,0,0.005717356687571316,0.0008502319159282462,0.00011434713375142631,-0.0,0.0009645790496796725,-9.964592094629113,-10.0,-0.03540790537088711,39.9806783918799,40.0,0.019321608120102328,9.251039939639083,10.0,0.7489600603609169,0.008502319159282462,0,-0.008502319159282462,1.5829899518989081,0.4528740212154496,-0.0009645790496796725,0.5191768924013607,0.03345823287963867,0.9103488922119141,STABILIZE
0.035,0.005,0.05,37.717259706289106,1.3993358100467066,0.18858629853144554,0.0018259685481131342,1.5897480771262653,0.04,0.006,0.04,-9.403404319450477,-0.39869091721803307,-0.05642042591670286,0.0001656947174905187,-0.45494564841724544,0.002,8e-05,0,8.74499295383057,0.018519600813171777,0.0006995994363064457,-0.0,0.01921920024947822,0.1,0.02,0,0.0059311357999726946,0.0006389022511001989,0.00011862271599945389,-0.0,0.0007575249670996528,-9.967272930450827,-10.0,-0.03272706954917389,39.98102314419161,40.0,0.018976855808390685,9.259800406585889,10.0,0.7401995934141121,0.006389022511001988,0,-0.006389022511001988,1.5897987979945452,0.4547683736096277,-0.0007575249670996528,0.5192192002494782,0.033460378646850586,0.9438116550445557,STABILIZE
0.035,0.005,0.05,39.06031215127771,1.399346736774842,0.19530156075638855,0.0013463105366517986,1.5959946080678824,0.04,0.006,0.04,-9.738310854940039,-0.3987933770339656,-0.058429865129640234,-0.0015122686808328313,-0.45873551084443864,0.002,8e-05,0,9.056316360111081,0.018535576255452307,0.0007245053088088865,0.0,0.01926008156426119,0.1,0.02,0,0.00607755440063739,0.00043587360973940456,0.00012155108801274781,-0.0,0.0005574246977521523,-9.96983442584914,-10.0,-0.030165574150859787,39.98133533642405,40.0,0.01866466357594474,9.267788127726153,10.0,0.7322118722738475,0.004358736097394045,0,-0.004358736097394045,1.5960295014306953,0.4586140953507079,-0.0005574246977521523,0.5192600815642612,0.03359198570251465,0.9774043560028076,STABILIZE
0.035,0.005,0.05,40.397282697862245,1.3993963144893486,0.20198641348931123,0.0012135461219121325,1.602596274100572,0.04,0.006,0.04,-10.071655627271154,-0.3987534757343877,-0.060429933763626924,-0.0013874078484130753,-0.4605708173464277,0.002,8e-05,0,9.366809531147924,0.018570897374048333,0.000749344762491834,0.0,0.019320242136540166,0.1,0.02,0,0.006268908342917193,0.0005722532338361992,0.00012537816685834386,-0.0,0.0006976314006945431,-9.968836893359692,-10.0,-0.031163106640309083,39.982751842552815,40.0,0.017248157447185147,9.285448687024166,10.0,0.7145513129758331,0.005722532338361992,0,-0.005722532338361992,1.6026422665529445,0.4604107524919813,-0.0006976314006945431,0.5193202421365402,0.033438682556152344,1.0108428001403809,STABILIZE
0.035,0.005,0.05,41.734115618734954,1.3994318664316976,0.20867057809367479,0.0011550017698218626,1.6092574462951943,0.04,0.006,0.04,-10.404981163978723,-0.39878164551098977,-0.06242988698387234,-0.0020546645657462674,-0.4632661970606084,0.002,8e-05,0,9.677325428504252,0.01857464053432459,0.0007741860342803402,0.0,0.01934882656860493,0.1,0.02,0,0.006479875465757946,0.0006309883817044785,0.0001295975093151589,-0.0,0.0007605858910196374,-9.969541137774744,-10.0,-0.030458862225256796,39.98376761233421,40.0,0.01623238766578817,9.287320267162295,10.0,0.7126797328377048,0.006309883817044785,0,-0.006309883817044785,1.6093084552310197,0.46308896954848405,-0.0007605858910196374,0.5193488265686049,0.033434391021728516,1.0443181991577148,STABILIZE
0.035,0.005,0.05,43.070965350308974,1.399379612088437,0.21535482675154488,0.00047687411282757884,1.6152113129528094,0.04,0.006,0.04,-10.738441676024639,-0.398923213472874,-0.06443065005614783,-0.002027635398566451,-0.4653814989275883,0.002,8e-05,0,9.988021104644417,0.018584466984938826,0.0007990416883715535,0.0,0.01938350867331038,0.1,0.02,0,0.006547653055941141,0.00020270806512769887,0.00013095306111882282,-0.0,0.00033366112624652166,-9.97308033682185,-10.0,-0.026919663178150192,39.98227463109819,40.0,0.017725368901809375,9.292233492469412,10.0,0.7077665075305875,0.0020270806512769886,0,-0.0020270806512769886,1.615227776781752,0.4653243537012709,-0.00033366112624652166,0.5193835086733104,0.03343605995178223,1.0777153968811035,STABILIZE
0.035,0.005,0.05,44.408769933586434,1.3993114901535055,0.22204384966793217,-0.00020782344965704477,1.6211475163717808,0.04,0.006,0.04,-11.072269691823692,-0.39905839256078635,-0.06643361815094215,-0.002194643904267903,-0.4676866546159964,0.002,8e-05,0,10.298468133929735,0.018555436724706012,0.0008238774507143788,0.0,0.01937931417542039,0.1,0.02,0,0.006453012599362944,-0.00028283327556342605,0.00012906025198725887,-0.0,-0.00015377302357616718,-9.976459814019659,-10.0,-0.023540185980340675,39.980328290100154,40.0,0.01967170989984716,9.277718362353006,10.0,0.722281637646994,-0.0028283327556342603,0,0.0028283327556342603,1.621124427644038,0.46776667991647863,0.00015377302357616718,0.5193793141754204,0.033461570739746094,1.1111907958984375,STABILIZE
0.035,0.005,0.05,45.74630030532208,1.399244007455714,0.2287315015266104,-0.0008770566957510686,1.6270984522865735,0.04,0.006,0.04,-11.406114594809491,-0.39914114618045,-0.06843668756885694,-0.0020793149478594247,-0.46965714869716635,0.002,8e-05,0,10.608292184504656,0.018521104494143556,0.0008486633747603725,-0.0,0.019369767868903928,0.1,0.02,0,0.006270141009461217,-0.0005465979512073107,0.00012540282018922436,-0.0,-0.0004211951310180864,-9.97852865451125,-10.0,-0.021471345488750355,39.97840021302039,40.0,0.021599786979608907,9.260552247071777,10.0,0.7394477529282236,-0.005465979512073107,0,0.005465979512073107,1.627053639900804,0.4698123706771247,0.0004211951310180864,0.5193697678689039,0.03345632553100586,1.1446280479431152,STABILIZE
0.035,0.005,0.05,47.24336745063142,1.399294623988485,0.2362168372531571,-0.0009144591145509668,1.634597002127091,0.04,0.006,0.04,-11.779777877203756,-0.39915379031934656,-0.07067866726322254,-0.0023855019610869565,-0.47221795954365603,0.002,8e-05,0,10.95549609538822,0.01854447086088681,0.0008764396876310577,-0.0,0.01942091054851787,0.1,0.02,0,0.006205271344987973,-0.0001732373347290724,0.00012410542689975947,-0.0,-4.913190782931292e-05,-9.978844757983664,-10.0,-0.021155242016336537,39.979846399671,40.0,0.02015360032900544,9.272235430443406,10.0,0.7277645695565952,-0.0017323733472907237,0,0.0017323733472907237,1.634582723577717,0.4722673823796212,4.913190782931292e-05,0.5194209105485179,0.0374455451965332,1.182102918624878,STABILIZE
0.035,0.005,0.05,48.58048120575941,1.399386567182772,0.24290240602879706,-0.00043275694402219273,1.641856216267547,0.04,0.006,0.04,-12.11353078364652,-0.399196153222263,-0.07268118470187912,-0.002470341896280362,-0.4743476798204225,0.002,8e-05,0,11.265665550785041,0.01854941950336076,0.0009012532440628034,-0.0,0.019450672747423563,0.1,0.02,0,0.00585938764395843,-0.0010342639737951757,0.0001171877528791686,-0.0,-0.0009170762209160071,-9.979903830556575,-10.0,-0.02009616944342592,39.982473348079196,40.0,0.017526651920805807,9.27470975168038,10.0,0.7252902483196209,-0.010342639737951756,0,0.010342639737951756,1.6417705635399624,0.4746440486734015,0.0009170762209160071,0.5194506727474235,0.03344249725341797,1.2155404090881348,STABILIZE
0.035,0.005,0.05,49.94253397147828,1.3993884390225626,0.24971266985739138,2.946052615552065e-05,1.6491305694061094,0.04,0.006,0.04,-12.453608106714677,-0.3993134784731858,-0.07472164864028806,-0.0023123511673235025,-0.4763474782807974,0.002,8e-05,0,11.581843829571447,0.018562579706992217,0.0009265475063657159,-0.0,0.019489127213357934,0.1,0.02,0,0.005543410672501682,-0.0009275380555478018,0.00011086821345003365,-0.0,-0.0008166698420977682,-9.982836961829646,-10.0,-0.01716303817035323,39.98252682921607,40.0,0.017473170783928495,9.281289853496109,10.0,0.7187101465038916,-0.009275380555478017,0,0.009275380555478017,1.6490534338424618,0.476614443073832,0.0008166698420977682,0.5194891272133579,0.034066200256347656,1.2496178150177002,STABILIZE
0.035,0.005,0.05,51.27948472733758,1.399325713573155,0.25639742363668794,7.519135426703184e-05,1.6557983285641098,0.04,0.006,0.04,-12.787462175051909,-0.399348468666269,-0.07672477305031146,-0.0017136572586778475,-0.4777868989752583,0.002,8e-05,0,11.89257930566595,0.018584727326623012,0.0009514063444532761,0.0,0.01953613367107629,0.1,0.02,0,0.005070942232766521,-0.0014128893863799643,0.00010141884465533042,-0.0,-0.0013114705417246338,-9.983711716656725,-10.0,-0.016288283343275447,39.98073467351871,40.0,0.01926532648129021,9.292363663311505,10.0,0.7076363366884939,-0.014128893863799643,0,0.014128893863799643,1.655680458018006,0.47819519722115483,0.0013114705417246338,0.5195361336710763,0.03343987464904785,1.2830533981323242,STABILIZE
0.035,0.005,0.05,52.617100507154326,1.3993233843180366,0.2630855025357716,0.0006315965715830955,1.6630404834253913,0.04,0.006,0.04,-13.12146969144518,-0.3993327191597795,-0.07872881814867108,-0.0011248118767936575,-0.4791863491852442,0.002,8e-05,0,12.20368736994202,0.01859772956630413,0.0009762949895953618,0.0,0.019574024555899492,0.1,0.02,0,0.004442702605975511,-0.0018777768922645256,8.885405211951022e-05,-0.0,-0.0017889228401450153,-9.983317978994489,-10.0,-0.0166820210055121,39.98066812337247,40.0,0.01933187662752957,9.298864783152064,10.0,0.7011352168479353,-0.018777768922645256,0,0.018777768922645256,1.6628833485069139,0.4797313581742143,0.0017889228401450153,0.5195740245558995,0.03345656394958496,1.3165080547332764,STABILIZE
0.035,0.005,0.05,53.95356929553592,1.3993400625829486,0.2697678464776796,0.0003879399111959689,1.6694958489718241,0.04,0.006,0.04,-13.45517818563623,-0.3993223842286659,-0.08073106911381739,-0.0009954434562463048,-0.4810488967987296,0.002,8e-05,0,12.514732614864597,0.018610153916903755,0.0010011786091891678,0.0,0.01961133252609292,0.1,0.02,0,0.003688220755708119,-0.0022570708908412128,7.376441511416238e-05,-0.0,-0.0021833064757270505,-9.983059605716647,-10.0,-0.016940394283352603,39.9811446452271,40.0,0.01885535477290111,9.305076958451878,10.0,0.6949230415481216,-0.022570708908412125,0,0.022570708908412125,1.6693062183137064,0.4817065292733942,0.0021833064757270505,0.5196113325260929,0.03342747688293457,1.349931240081787,STABILIZE
0.035,0.005,0.05,55.307939480274634,1.3993201950702823,0.2765396974013732,-0.0005651385965484189,1.675294753875107,0.04,0.006,0.04,-13.793197921198539,-0.39912940252607465,-0.08275918752719123,0.00039725596218233126,-0.4814913340910836,0.002,8e-05,0,12.830335460499194,0.018632991207468416,0.0010264268368399357,0.0,0.01965941804430835,0.1,0.02,0,0.003005670068081177,-0.0020148679166107847,6.011340136162355e-05,-0.0,-0.001954754515249161,-9.978235063151866,-10.0,-0.021764936848134086,39.98057700200806,40.0,0.019422997991941717,9.316495603734207,10.0,0.6835043962657935,-0.020148679166107845,0,0.020148679166107845,1.6751253286670862,0.48208043978598997,0.001954754515249161,0.5196594180443084,0.03387570381164551,1.3838062286376953,STABILIZE
0.035,0.005,0.05,56.64676145983529,1.399358657497836,0.28323380729917647,-0.0002526617823871604,1.6823398030146253,0.04,0.006,0.04,-14.127390684807164,-0.3992042848486188,-0.08476434410884298,0.0006388163159619068,-0.4833298126414999,0.002,8e-05,0,13.142875369921247,0.018666961797772226,0.0010514300295936998,0.0,0.019718391827365928,0.1,0.02,0,0.0021934584706070574,-0.0024255338925824777,4.3869169412141145e-05,-0.0,-0.0023816647231703365,-9.98010712121547,-10.0,-0.01989287878452966,39.981675928509596,40.0,0.018324071490407746,9.333480898886112,10.0,0.6665191011138875,-0.024255338925824776,0,0.024255338925824776,1.6821350415919885,0.4840419635152257,0.0023816647231703365,0.5197183918273659,0.03348588943481445,1.4173340797424316,STABILIZE
0.035,0.005,0.05,58.007767656417116,1.3993513055385147,0.2900388382820856,0.00022156506386151778,1.6896117088844618,0.04,0.006,0.04,-14.467210564055451,-0.3993074223789677,-0.08680326338433271,0.00024212666872354773,-0.4858685590945769,0.002,8e-05,0,13.460784516884164,0.018678054136395665,0.0010768627613507332,0.0,0.0197549168977464,0.1,0.02,0,0.0012181243104186425,-0.0028651808888028336,2.436248620837285e-05,-0.0,-0.0028408184025944605,-9.982685559474193,-10.0,-0.01731444052580603,39.981465872528986,40.0,0.01853412747101585,9.339027068197833,10.0,0.6609729318021665,-0.028651808888028332,0,0.028651808888028332,1.6893685301215327,0.4867134197360123,0.0028408184025944605,0.5197549168977464,0.03404092788696289,1.4513568878173828,STABILIZE
0.035,0.005,0.05,59.344218947217286,1.399341703232394,0.29672109473608643,0.0001593817198657126,1.6962221796883463,0.04,0.006,0.04,-14.801077974042993,-0.3995182451674753,-0.08880646784425796,-0.0011134145262991402,-0.4894381275380324,0.002,8e-05,0,13.773150239565789,0.018689426048036455,0.0011018520191652633,0.0,0.01979127806720172,0.1,0.02,0,0.00033357889782414983,-0.00264620041099458,6.671577956482997e-06,-0.0,-0.002639528833038097,-9.987956129186882,-10.0,-0.012043870813117887,39.98119152092554,40.0,0.01880847907445845,9.344713024018228,10.0,0.6552869759817718,-0.0264620041099458,0,0.0264620041099458,1.6959959522324741,0.4902214739948498,0.002639528833038097,0.5197912780672017,0.03342700004577637,1.4847843647003174,STABILIZE
0.035,0.005,0.05,60.68175539051695,1.3993600534491255,0.3034087769525847,0.0001735494158909163,1.7029423798176013,0.04,0.006,0.04,-15.135256151925491,-0.39957092775691055,-0.09081153691155294,-0.0014902076670588221,-0.4918726723355223,0.002,8e-05,0,14.08577854705285,0.018690206472668103,0.0011268622837642282,0.0,0.01981706875643233,0.1,0.02,0,-0.0006562554759103271,-0.0029588185675743944,-1.3125109518206543e-05,-0.0,-0.002971943677092601,-9.989273193922763,-10.0,-0.010726806077237746,39.98171581283216,40.0,0.01828418716784502,9.345103236334051,10.0,0.65489676366595,-0.029588185675743943,0,0.029588185675743943,1.7026881441717086,0.492752025329604,0.002971943677092601,0.5198170687564323,0.03345370292663574,1.518226146697998,STABILIZE
0.035,0.005,0.05,62.4784040209414,1.399355730884783,0.312392020104707,0.000313632494745288,1.7120613834842353,0.04,0.006,0.04,-15.584209892633574,-0.39963040348619744,-0.09350525935580145,-0.002894267141885586,-0.49602992998388445,0.002,8e-05,0,14.505801405809082,0.018693897533122533,0.0011604641124647267,0.0,0.019854361645587258,0.1,0.02,0,-0.002011388010095016,-0.00301563453151862,-4.0227760201900324e-05,-0.0,-0.0030558622917205205,-9.990760087154936,-10.0,-0.009239912845064155,39.9815923109938,40.0,0.018407689006202068,9.346948766561267,10.0,0.6530512334387326,-0.030156345315186198,0,0.030156345315186198,1.7118000721571438,0.4969309662524255,0.0030558622917205205,0.5198543616455873,0.0449368953704834,1.563309669494629,STABILIZE
0.035,0.005,0.05,63.82148371677599,1.3993453343519657,0.3191074185838799,-0.00010296859840005202,1.7183497843374458,0.04,0.006,0.04,-15.919839005406805,-0.399645283885141,-0.09551903403244083,-0.0025356131631107054,-0.4976999310806925,0.002,8e-05,0,14.819920344605672,0.018701618496647112,0.0011855936275684538,0.0,0.019887212124215566,0.1,0.02,0,-0.0030801607382872544,-0.0031815623564192663,-6.160321476574509e-05,-0.0,-0.0032431655711850113,-9.991132097128524,-10.0,-0.008867902871475423,39.981295267199016,40.0,0.018704732800985203,9.350809248323555,10.0,0.649190751676445,-0.03181562356419266,0,0.03181562356419266,1.7180731529370337,0.4986540322581102,0.0032431655711850113,0.5198872121242155,0.03359270095825195,1.596787452697754,STABILIZE
0.035,0.005,0.05,65.16993449727424,1.399340017712488,0.3258496724863712,-8.63007638797542e-05,1.7251033894349794,0.04,0.006,0.04,-16.2568414503627,-0.39968067831312765,-0.0975410487021762,-0.002139537982825782,-0.49936126499812966,0.002,8e-05,0,15.135246040062528,0.018698616246871604,0.0012108196832050023,0.0,0.019909435930076606,0.1,0.02,0,-0.004213135518721215,-0.003359234743940623,-8.42627103744243e-05,-0.0,-0.003443497454315047,-9.992016957828191,-10.0,-0.007983042171809151,39.98114336321394,40.0,0.01885663678606413,9.349308123435803,10.0,0.6506918765641971,-0.03359234743940623,0,0.03359234743940623,1.7248103189098878,0.5003726021701805,0.003443497454315047,0.5199094359300767,0.033727169036865234,1.6304895877838135,STABILIZE
0.035,0.005,0.05,66.834634783669,1.399386527465797,0.334173173918345,0.0003149349135274789,1.7338746362976694,0.04,0.006,0.04,-16.67286066373411,-0.3996749871377247,-0.10003716398240466,-0.0008508078400993935,-0.5005629589602287,0.002,8e-05,0,15.524638864318828,0.01870473370267352,0.0012419711091455064,0.0,0.019946704811819028,0.1,0.02,0,-0.005586089709848971,-0.003297536694475793,-0.00011172179419697942,-0.0,-0.0034092584886727725,-9.991874678443118,-10.0,-0.008125321556881815,39.98247221330848,40.0,0.017527786691514762,9.352366851336761,10.0,0.6476331486632395,-0.03297536694475793,0,0.03297536694475793,1.7335862607933885,0.5015607706627311,0.0034092584886727725,0.519946704811819,0.041635751724243164,1.6721272468566895,STABILIZE
0.035,0.005,0.05,68.1725788573937,1.399327778421314,0.34086289428696853,-0.00034337365589032096,1.7398472990523923,0.04,0.006,0.04,-17.007257766142825,-0.39970165622111054,-0.10204354659685695,-0.0006952361458796421,-0.5024404389638472,0.002,8e-05,0,15.83759117039238,0.018703444819765176,0.0012670072936313906,0.0,0.019970452113396566,0.1,0.02,0,-0.006672594489178141,-0.003246721911328257,-0.00013345188978356284,-0.0,-0.00338017380111182,-9.992541405527763,-10.0,-0.007458594472237224,39.9807936691804,40.0,0.01920633081960326,9.351722409882587,10.0,0.6482775901174126,-0.03246721911328257,0,0.03246721911328257,1.739562306897107,0.5034262598920559,0.00338017380111182,0.5199704521133965,0.033464670181274414,1.7056081295013428,STABILIZE
0.035,0.005,0.05,69.50830206004481,1.3993478798512202,0.34754151030022407,-0.00014398067913673853,1.7467454094723076,0.04,0.006,0.04,-17.341069616356602,-0.39967126117895063,-0.10404641769813962,-0.00024856920399123517,-0.5039662480810815,0.002,8e-05,0,16.150053298924085,0.01870546730155787,0.001292004263913927,0.0,0.019997471565471797,0.1,0.02,0,-0.007648080076118216,-0.0029198600539836316,-0.00015296160152236432,0.0,-0.0030728216555059957,-9.991781529473766,-10.0,-0.008218470526234697,39.981367995749146,40.0,0.018632004250850587,9.352733650778934,10.0,0.6472663492210662,-0.029198600539836313,0,0.029198600539836313,1.746488355560266,0.5048563445277281,0.0030728216555059957,0.5199974715654718,0.03340864181518555,1.7389965057373047,STABILIZE
0.035,0.005,0.05,71.14486108530042,1.3993285046438861,0.35572430542650213,-0.00019079343503131737,1.7548620166353568,0.04,0.006,0.04,-17.74999795183079,-0.3996015454062545,-0.10649998771098473,0.0001806523617857835,-0.5059208807554534,0.002,8e-05,0,16.532529884678397,0.01868765520637035,0.0013226023907742719,-0.0,0.020010257597144622,0.1,0.02,0,-0.008845366425433538,-0.0029249469526575244,-0.00017690732850867075,0.0,-0.003101854281166195,-9.990038635156361,-10.0,-0.009961364843639107,39.98081441839674,40.0,0.019185581603258752,9.343827603185174,10.0,0.6561723968148253,-0.029249469526575242,0,0.029249469526575242,1.7546035155986726,0.5068166710583456,0.003101854281166195,0.5200102575971446,0.04093360900878906,1.779947280883789,STABILIZE
0.035,0.005,0.05,72.49058139380796,1.39926621866587,0.3624529069690398,-0.0006744427314290349,1.7610446829034807,0.04,0.006,0.04,-18.08626494273084,-0.399596547743011,-0.10851758965638504,0.00042023349805723613,-0.5076939039013388,0.002,8e-05,0,16.847325779256963,0.01870408873326767,0.001347786062340557,0.0,0.020051874795608226,0.1,0.02,0,-0.00983547358343237,-0.0029414380011921655,-0.00019670947166864738,0.0,-0.003138147472860813,-9.989913693575275,-10.0,-0.010086306424724646,39.979034819024854,40.0,0.0209651809751487,9.352044366633834,10.0,0.647955633366167,-0.029414380011921655,0,0.029414380011921655,1.7607838120787194,0.5085979181659478,0.003138147472860813,0.5200518747956082,0.0336606502532959,1.8136792182922363,STABILIZE
0.035,0.005,0.05,73.82956709364824,1.3992010256571978,0.3691478354682412,-0.0015497243233317671,1.7667991368021072,0.04,0.006,0.04,-18.420859363404475,-0.3995901901323625,-0.11052515618042685,0.00043085853141033165,-0.5096844877813791,0.002,8e-05,0,17.16070198634211,0.018712514380844165,0.001372856158907369,0.0,0.020085370539751533,0.1,0.02,0,-0.010833134733748225,-0.002978648059490752,-0.0002166626946749645,0.0,-0.0031953107541657167,-9.989754753309063,-10.0,-0.010245246690937184,39.97717216163422,40.0,0.022827838365780832,9.356257190422083,10.0,0.6437428095779166,-0.02978648059490752,0,0.02978648059490752,1.7665339272851899,0.5106029285462449,0.0031953107541657167,0.5200853705397516,0.033493757247924805,1.8471012115478516,STABILIZE
0.035,0.005,0.05,75.16813598588102,1.3992336015257048,0.3758406799294051,-0.0007701600389950534,1.7743041214161148,0.04,0.006,0.04,-18.755314271194862,-0.39955725243238494,-0.11253188562716918,0.0007869904916287236,-0.5113021475679255,0.002,8e-05,0,17.4740131853529,0.018714893834283867,0.001397921054828232,0.0,0.0201128148891121,0.1,0.02,0,-0.011794887290154377,-0.0028723992383324426,-0.00023589774580308755,0.0,-0.00310829698413553,-9.988931310809622,-10.0,-0.011068689190376986,39.97810290073442,40.0,0.02189709926557826,9.357446917141933,10.0,0.6425530828580663,-0.028723992383324425,0,0.028723992383324425,1.7740475682524566,0.5121915920427913,0.00310829698413553,0.5201128148891121,0.03348255157470703,1.880629539489746,STABILIZE
0.035,0.005,0.05,76.50330783929569,1.3991896475775842,0.38251653919647843,-0.001318081199707227,1.7803881055743553,0.04,0.006,0.04,-19.0889418074561,-0.39957034632096233,-0.11453365084473659,0.0005266215919349758,-0.5135773755737639,0.002,8e-05,0,17.786551995673467,0.018715667489260693,0.0014229241596538775,0.0,0.02013859164891457,0.1,0.02,0,-0.012664135769648375,-0.0026026472506036342,-0.0002532827153929675,0.0,-0.002855929965996602,-9.989258658024058,-10.0,-0.010741341975942379,39.97684707364526,40.0,0.023152926354740175,9.357833744630346,10.0,0.6421662553696539,-0.02602647250603634,0,0.02602647250603634,1.7801546305891862,0.5143860596514596,0.002855929965996602,0.5201385916489145,0.03339862823486328,1.9139785766601562,STABILIZE
0.035,0.005,0.05,77.84103877526147,1.3991945789698428,0.38920519387630736,-0.0011407374582686149,1.7872590353878817,0.04,0.006,0.04,-19.42324785598886,-0.399618444079216,-0.11653948713593315,-0.00010147930872359523,-0.5162594105238728,0.002,8e-05,0,18.099844433604865,0.018724973289805925,0.0014479875546883894,0.0,0.020172960844494315,0.1,0.02,0,-0.013484897605432231,-0.0024527791915153144,-0.00026969795210864464,0.0,-0.002722477143623959,-9.990461101980399,-10.0,-0.009538898019600681,39.97698797056693,40.0,0.02301202943306758,9.362486644902962,10.0,0.6375133550970378,-0.024527791915153144,0,0.024527791915153144,1.78703786576014,0.5170244722153119,0.002722477143623959,0.5201729608444943,0.0334625244140625,1.9474520683288574,STABILIZE
0.035,0.005,0.05,79.2336789617334,1.3991942583055523,0.396168394808667,-0.0006146790929942022,1.794747974021225,0.04,0.006,0.04,-19.771316670450208,-0.39966503206983545,-0.11862790002270125,-0.00039864366943042007,-0.5186915757619671,0.002,8e-05,0,18.42603869668655,0.018727394583925593,0.001474083095734924,0.0,0.020201477679660518,0.1,0.02,0,-0.014291261634978967,-0.002314739875701674,-0.00028582523269957935,0.0,-0.0026005651084012532,-9.991625801745887,-10.0,-0.00837419825411328,39.97697880873006,40.0,0.023021191269941225,9.363697291962797,10.0,0.6363027080372037,-0.02314739875701674,0,0.02314739875701674,1.7945382770363252,0.5194166085823807,0.0026005651084012532,0.5202014776796605,0.0348360538482666,1.982274055480957,STABILIZE
0.035,0.005,0.05,80.57205077993557,1.399246794977999,0.40286025389967783,0.00038981937840603883,1.802496868256083,0.04,0.006,0.04,-20.105792184877664,-0.3996444764952591,-0.12063475310926598,-0.00031380359064140946,-0.5205930331951665,0.002,8e-05,0,18.73953914649483,0.01872913228926848,0.0014991631317195866,0.0,0.020228295420988068,0.1,0.02,0,-0.014977039666768062,-0.002048486291854895,-0.00029954079333536127,0.0,-0.0023480270851902563,-9.991111912381477,-10.0,-0.008888087618522097,39.978479856514255,40.0,0.021520143485745158,9.36456614463424,10.0,0.6354338553657601,-0.020484862918548948,0,0.020484862918548948,1.8023106263120046,0.5212374435582694,0.0023480270851902563,0.520228295420988,0.0334773063659668,2.015772581100464,STABILIZE
0.035,0.005,0.05,81.9082652385059,1.399213485140842,0.40954132619252953,-0.00017289519004556287,1.808581916143326,0.04,0.006,0.04,-20.43973420701422,-0.3996417342669455,-0.12263840524208532,-0.0004941403802989652,-0.5227742798893298,0.002,8e-05,0,19.052427827212995,0.018722318053097733,0.0015241942261770398,0.0,0.02024651227927477,0.1,0.02,0,-0.01564510828965703,-0.001998760902809509,-0.0003129021657931406,0.0,-0.00231166306860265,-9.991043356673638,-10.0,-0.008956643326362757,39.9775281468812,40.0,0.02247185311880039,9.361159026548867,10.0,0.6388409734511329,-0.01998760902809509,0,0.01998760902809509,1.8083994365066949,0.5234051711215133,0.00231166306860265,0.5202465122792748,0.03342413902282715,2.0491888523101807,STABILIZE
0.035,0.005,0.05,83.24596538595144,1.399232161980113,0.4162298269297572,0.0003625934754473338,1.8158245823853174,0.04,0.006,0.04,-20.774077833538836,-0.39968329761849875,-0.12464446700123302,-0.0006641603421475097,-0.5249919249618793,0.002,8e-05,0,19.36504807492093,0.018685729529978184,0.0015492038459936747,-0.0,0.020234933375971858,0.1,0.02,0,-0.016206060370317105,-0.0016764427344906322,-0.0003241212074063421,0.0,-0.0020005639418969744,-9.992082440462468,-10.0,-0.007917559537531966,39.978061770860364,40.0,0.021938229139637073,9.342864764989091,10.0,0.6571352350109091,-0.01676442734490632,0,0.01676442734490632,1.815670894933925,0.5255232026845543,0.0020005639418969744,0.5202349333759718,0.03346085548400879,2.0826821327209473,STABILIZE
0.035,0.005,0.05,84.58227048727201,1.39919861420754,0.4229113524363601,3.3738966792402314e-05,1.8221437056106926,0.04,0.006,0.04,-21.10805693237384,-0.39965474676825097,-0.12664834159424304,-0.00020586165747210456,-0.526508950019966,0.002,8e-05,0,19.677380023242094,0.018687538553961255,0.0015741904018593677,-0.0,0.020261728955820624,0.1,0.02,0,-0.016674410194334705,-0.0014011223379668777,-0.0003334882038866941,0.0,-0.0017346105418535717,-9.991368669206274,-10.0,-0.00863133079372689,39.97710326307257,40.0,0.022896736927431282,9.343769276980627,10.0,0.6562307230193737,-0.014011223379668775,0,0.014011223379668775,1.8220148975879336,0.5269545249026949,0.0017346105418535717,0.5202617289558207,0.033426761627197266,2.1160762310028076,STABILIZE
0.035,0.005,0.05,85.91793890078068,1.3991606756924058,0.42958969450390344,-0.000288055196072647,1.8284623150002366,0.04,0.006,0.04,-21.441861140157144,-0.3996250362632329,-0.12865116684094285,0.00023945300521934241,-0.5280367500989565,0.002,8e-05,0,19.989481472460298,0.01868214211406842,0.001599158517796824,-0.0,0.020281300631865243,0.1,0.02,0,-0.017051243216154137,-0.001127846103332642,-0.00034102486432308277,0.0,-0.0014688709676557248,-9.990625906580823,-10.0,-0.009374093419178147,39.9760193054973,40.0,0.023980694502694654,9.34107105703421,10.0,0.6589289429657901,-0.01127846103332642,0,0.01127846103332642,1.8283583375061172,0.5283966658704045,0.0014688709676557248,0.5202813006318653,0.03341174125671387,2.149501085281372,STABILIZE
0.035,0.005,0.05,87.33624558906743,1.399164899681972,0.43668122794533715,-0.0007024167256875547,1.8351437109016218,0.04,0.006,0.04,-21.796303641792015,-0.39961013174664123,-0.1307778218507521,0.0002006691781438218,-0.5301872844192494,0.002,8e-05,0,20.320736372174814,0.018673383342300384,0.0016256589097739852,-0.0,0.020299042252074368,0.1,0.02,0,-0.017430758558830656,-0.0010696951930659455,-0.0003486151711766131,0.0,-0.0014183103642425585,-9.990253293666031,-10.0,-0.00974670633396941,39.97613999091349,40.0,0.02386000908651101,9.336691671150191,10.0,0.6633083288498084,-0.010696951930659454,0,0.010696951930659454,1.8350446945275753,0.5305298910597125,0.0014183103642425585,0.5202990422520744,0.035478830337524414,2.1849915981292725,STABILIZE
0.035,0.005,0.05,88.81375898543286,1.399191785437942,0.4440687949271643,-0.00020983814486074632,1.8430507422202456,0.04,0.006,0.04,-22.165615569928036,-0.39969719579110147,-0.1329936934195682,-0.00028687583709398177,-0.5329777650477636,0.002,8e-05,0,20.665571512586972,0.018660328591147756,0.001653245721006958,-0.0,0.020313574312154713,0.1,0.02,0,-0.017763453118168588,-0.0009001678005195026,-0.00035526906236337175,0.0,-0.0012554368628828743,-9.992429894777537,-10.0,-0.00757010522246271,39.97690815536977,40.0,0.023091844630232568,9.330164295573878,10.0,0.6698357044261212,-0.009001678005195026,0,0.009001678005195026,1.842966983913655,0.5332673181792711,0.0012554368628828743,0.5203135743121547,0.036959171295166016,2.2219314575195312,STABILIZE
0.035,0.005,0.05,90.15150781774922,1.3991335476153879,0.4507575390887461,-0.0008665410034254806,1.8490245457007086,0.04,0.006,0.04,-22.50025563290823,-0.39999491442521745,-0.1350015337974494,-0.0018177599836407218,-0.5368142082063075,0.002,8e-05,0,20.97836401046281,0.018694027144636784,0.0016782691208370249,0.0,0.020372296265473808,0.1,0.02,0,-0.01812723677925225,-0.0010870755662709083,-0.00036254473558504504,0.0,-0.0014496203018559534,-9.999872860630436,-10.0,-0.0001271393695636224,39.97524421758251,40.0,0.024755782417491223,9.347013572318392,10.0,0.6529864276816078,-0.010870755662709081,0,0.010870755662709081,1.848922662404461,0.5371650148539797,0.0014496203018559534,0.5203722962654738,0.03346443176269531,2.2554078102111816,STABILIZE
0.035,0.005,0.05,91.48824853491776,1.399145777947003,0.4574412426745888,-0.00047529198479194767,1.8561117286367999,0.04,0.006,0.04,-22.834592983720533,-0.3999379657793951,-0.1370075579023232,-0.001647973345404524,-0.5385934970271229,0.002,8e-05,0,21.290978785547807,0.01869765925289466,0.0017032783028438248,0.0,0.020400937555738484,0.1,0.02,0,-0.018483972080645665,-0.0010668265930679544,-0.0003696794416129133,0.0,-0.0014365060346808677,-9.998449144484878,-10.0,-0.0015508555151221247,39.97559365562865,40.0,0.024406344371350856,9.34882962644733,10.0,0.6511703735526698,-0.010668265930679544,0,0.010668265930679544,1.8560114123106495,0.5389390889475577,0.0014365060346808677,0.5204009375557385,0.033438920974731445,2.2888474464416504,STABILIZE
0.035,0.005,0.05,92.82705090847007,1.3991289680503312,0.4641352545423504,-0.0002942747950827026,1.862969947797599,0.04,0.006,0.04,-23.169514572201056,-0.40001508019454884,-0.13901708743320634,-0.0022863277561700683,-0.5413184953839253,0.002,8e-05,0,21.604166823570953,0.01870287590509968,0.0017283333458856763,0.0,0.020431209250985356,0.1,0.02,0,-0.018840049535864867,-0.0010632067079580274,-0.00037680099071729737,0.0,-0.0014400076986753247,-10.00037700486372,-10.0,0.00037700486372095523,39.9751133728666,40.0,0.02488662713339695,9.35143795254984,10.0,0.6485620474501597,-0.010632067079580273,0,0.010632067079580273,1.8628694661856973,0.5416641872920164,0.0014400076986753247,0.5204312092509854,0.033490896224975586,2.32232403755188,STABILIZE
0.035,0.005,0.05,94.1645687964415,1.399081394358415,0.47082284398220753,-0.0007345229888975889,1.869169715351725,0.04,0.006,0.04,-23.50421190579757,-0.4001175323228961,-0.1410252714347854,-0.0029827344682736004,-0.5441255382259551,0.002,8e-05,0,21.916536849968566,0.01867130562272772,0.0017533229479974853,-0.0,0.020424628570725203,0.1,0.02,0,-0.019194249059949868,-0.0010585790899792732,-0.00038388498119899735,-0.0,-0.0014424640711782706,-10.002938308072402,-10.0,0.002938308072401049,39.97375412452614,40.0,0.026245875473863742,9.33565281136386,10.0,0.6643471886361407,-0.010585790899792731,0,0.010585790899792731,1.8690691524996923,0.5444708709488661,0.0014424640711782706,0.5204246285707252,0.03345990180969238,2.3558008670806885,STABILIZE
0.035,0.005,0.05,95.50105856608332,1.399032741032184,0.4775052928304166,-0.0013581205075823746,1.8751799133550182,0.04,0.006,0.04,-23.838663144786054,-0.40011699239702886,-0.14303197886871633,-0.002508368451591695,-0.5456573397173369,0.002,8e-05,0,22.227987868221742,0.018630046801343014,0.0017782390294577395,-0.0,0.020408285830800753,0.1,0.02,0,-0.019494839088597574,-0.0008990187820114297,-0.00038989678177195146,0.0,-0.0012889155637833812,-10.002924809925721,-10.0,0.0029248099257205506,39.97236402949096,40.0,0.027635970509041718,9.315023400671507,10.0,0.684976599328494,-0.008990187820114296,0,0.008990187820114296,1.8750942720636528,0.5459515644373732,0.0012889155637833812,0.5204082858308008,0.03343534469604492,2.3892486095428467,STABILIZE
0.035,0.005,0.05,96.83830481061054,1.399026529270606,0.4841915240530527,-0.0009139456975706617,1.882304107626088,0.04,0.006,0.04,-24.17325857523541,-0.40006127576375283,-0.14503955145141245,-0.00039596476873516266,-0.5454967919839004,0.002,8e-05,0,22.53965053089371,0.01863207789015926,0.0018031720424714968,-0.0,0.020435249932630756,0.1,0.02,0,-0.019839227944739943,-0.0010294271275769077,-0.0003967845588947989,0.0,-0.0014262116864717064,-10.001531894093821,-10.0,0.0015318940938217687,39.97218655058874,40.0,0.027813449411263735,9.31603894507963,10.0,0.6839610549203705,-0.010294271275769077,0,0.010294271275769077,1.8822060684215933,0.5458349747384263,0.0014262116864717064,0.5204352499326308,0.03345441818237305,2.422678232192993,STABILIZE
0.035,0.005,0.05,98.17594986184473,1.3990349718508357,0.4908797493092237,-0.0009463640990234484,1.8889683570610358,0.04,0.006,0.04,-24.507978156910585,-0.40009281351349774,-0.14704786894146352,-0.0009250642461194037,-0.5480657467010807,0.002,8e-05,0,22.85160130748949,0.01864385454554094,0.0018281281045991592,-0.0,0.0204719826501401,0.1,0.02,0,-0.020179484078426995,-0.0010167767386118028,-0.00040358968156853993,0.0,-0.0014203664201803427,-10.002320337837443,-10.0,0.0023203378374421694,39.97242776716673,40.0,0.027572232833272814,9.32192727277047,10.0,0.6780727272295307,-0.010167767386118028,0,0.010167767386118028,1.8888710670118656,0.5484009563178563,0.0014203664201803427,0.52047198265014,0.03346419334411621,2.4561524391174316,STABILIZE
0.035,0.005,0.05,99.51145001457355,1.3990642837108844,0.4975572500728678,-0.0005522879143578152,1.8960692458693944,0.04,0.006,0.04,-24.842257517588965,-0.40021672852138795,-0.14905354510553379,-0.0012063421643964778,-0.5504766157913182,0.002,8e-05,0,23.16339269902243,0.018664647803443794,0.0018530714159217946,-0.0,0.02051771921936559,0.1,0.02,0,-0.02054971581266708,-0.001108151974830785,-0.0004109943162533416,-0.0,-0.0015191462910841267,-10.005418213034698,-10.0,0.0054182130346985755,39.973265248882406,40.0,0.026734751117596534,9.332323901721896,10.0,0.6676760982781039,-0.01108151974830785,0,0.01108151974830785,1.8959627432719464,0.5508433223608246,0.0015191462910841267,0.5205177192193656,0.033409833908081055,2.489555597305298,STABILIZE
0.035,0.005,0.05,100.84955763413761,1.399070218376121,0.504247788170688,-9.540249676737209e-05,1.9032226040500415,0.04,0.006,0.04,-25.17718249945292,-0.4002100199800323,-0.15106309499671752,-0.0005538736654356616,-0.5518269886421855,0.002,8e-05,0,23.475767830378835,0.018663232713436905,0.001878061426430307,-0.0,0.020541294139867213,0.1,0.02,0,-0.02087589337727812,-0.0009743937950189151,-0.0004175178675455624,0.0,-0.0013919116625644775,-10.005250499500807,-10.0,0.005250499500806344,39.97343481074631,40.0,0.02656518925368592,9.331616356718452,10.0,0.6683836432815468,-0.00974393795018915,0,0.00974393795018915,1.9031287307340141,0.5521506499277753,0.0013919116625644775,0.5205412941398672,0.03347492218017578,2.5230605602264404,STABILIZE
0.035,0.005,0.05,102.21821562113632,1.3991049707708774,0.5110910781056817,0.000610357673850463,1.9108064065504096,0.04,0.006,0.04,-25.519766801108215,-0.4002347274542902,-0.1531186008066493,-0.00070142969930497,-0.5540547579602445,0.002,8e-05,0,23.79549866664666,0.018676772913130316,0.0019036398933317332,0.0,0.02058041280646205,0.1,0.02,0,-0.02101727707720286,-0.00041293972266418427,-0.0004203455415440572,0.0,-0.0008332852642082415,-10.005868186357255,-10.0,0.005868186357255073,39.97442773631078,40.0,0.02557226368922236,9.338386456565157,10.0,0.661613543434843,-0.004129397226641842,0,0.004129397226641842,1.9107664699872278,0.5541924713536107,0.0008332852642082415,0.5205804128064621,0.034238338470458984,2.5572714805603027,STABILIZE
0.035,0.005,0.05,103.55704038406911,1.3990926062371896,0.5177852019203456,0.0005579300292386016,1.9174357381867737,0.04,0.006,0.04,-25.854862737610503,-0.4002062193399059,-0.155129176425663,-0.0008642828440062503,-0.5561996786095752,0.002,8e-05,0,24.108238542663624,0.018675315004412878,0.0019286590834130901,0.0,0.02060397408782597,0.1,0.02,0,-0.021082507162675568,-0.0001947612836396856,-0.00042165014325351135,0.0,-0.000616411426893197,-10.005155483497647,-10.0,0.0051554834976473415,39.9740744639197,40.0,0.02592553608029911,9.337657502206438,10.0,0.662342497793562,-0.001947612836396856,0,0.001947612836396856,1.9174168305968364,0.5562648562557548,0.000616411426893197,0.520603974087826,0.033492326736450195,2.590782403945923,STABILIZE
0.035,0.005,0.05,104.89359955183245,1.3990754574306024,0.5244679977591623,0.0003393098657269325,1.9238827650554915,0.04,0.006,0.04,-26.189373320326997,-0.40017942688090524,-0.157136239921962,-0.0005155354437383117,-0.5578312022466055,0.002,8e-05,0,24.420317748161413,0.01866722370685023,0.0019536254198529134,0.0,0.020620849126703145,0.1,0.02,0,-0.021072222875907192,3.075807012909975e-05,-0.00042144445751814385,0.0,-0.0003906863873890441,-10.00448567202263,-10.0,0.004485672022629469,39.9735844980172,40.0,0.026415501982793858,9.333611853425115,10.0,0.6663881465748845,0.0003075807012909975,0,-0.0003075807012909975,1.9238857596307555,0.5578208742665057,0.0003906863873890441,0.5206208491267031,0.03343605995178223,2.6242966651916504,STABILIZE
0.035,0.005,0.05,106.23024338879544,1.3990343998618497,0.5311512169439773,-0.0002621676369255862,1.9299234491689015,0.04,0.006,0.04,-26.52379821458877,-0.4000398339303635,-0.15914278928753262,0.0010611592437237475,-0.5581214639741724,0.002,8e-05,0,24.732332003048807,0.018661608757414638,0.0019785865602439047,-0.0,0.020640195317658542,0.1,0.02,0,-0.02113599474387882,-0.0001907101408308286,-0.00042271989487757645,0.0,-0.0006134300357084051,-10.000995848259087,-10.0,0.0009958482590874456,39.972411424624276,40.0,0.027588575375725857,9.330804378707318,10.0,0.6691956212926814,-0.0019071014083082859,0,0.0019071014083082859,1.9299048709159676,0.558185701550555,0.0006134300357084051,0.5206401953176586,0.03343915939331055,2.6577038764953613,STABILIZE
0.035,0.005,0.05,107.56746650761825,1.3990821015322135,0.5378373325380913,9.459378246384916e-05,1.9370140278527685,0.04,0.006,0.04,-26.858299997523467,-0.3999721092353019,-0.1611497999851408,0.001425978765671362,-0.5596959304547713,0.002,8e-05,0,25.045045712331934,0.01869597835793673,0.002003603656986555,0.0,0.020699582014923286,0.1,0.02,0,-0.02117124002426257,-0.00010535914795429627,-0.00042342480048525137,0.0,-0.0005287839484395476,-9.999302730882548,-10.0,-0.0006972691174532372,39.97377432949181,40.0,0.026225670508191214,9.347989178968366,10.0,0.6520108210316345,-0.0010535914795429626,0,0.0010535914795429626,1.9370037354781398,0.5597315494143338,0.0005287839484395476,0.5206995820149233,0.033452510833740234,2.6911122798919678,STABILIZE
0.035,0.005,0.05,108.90591050383327,1.3990532340877837,0.5445295525191663,-0.0004417339820059454,1.943141052624944,0.04,0.006,0.04,-27.193111724521803,-0.3999692869734691,-0.16315867034713083,0.0015871626329417925,-0.5615407946876582,0.002,8e-05,0,25.358204269364162,0.01870511016575653,0.002028656341549133,0.0,0.020733766507305663,0.1,0.02,0,-0.021138349486034963,9.822837778868073e-05,-0.00042276698972069926,0.0,-0.00032453861193201854,-9.999232174336727,-10.0,-0.0007678256632720992,39.972949545365246,40.0,0.02705045463475212,9.352555082878265,10.0,0.6474449171217358,0.0009822837778868073,0,-0.0009822837778868073,1.94315067944312,0.5615074812275997,0.00032453861193201854,0.5207337665073056,0.03348374366760254,2.7245967388153076,STABILIZE
