Mode,Time,Freq,North-Vision,East-Vision,Down-Vision,Yaw-Vision,North-Desired,East-Desired,Down-Desired,Roll-UAV,Pitch-UAV,Yaw-UAV,Roll-Control,Pitch-Control,Yaw-Control,Thrust-Control,northVraw,eastVraw,downVraw,yawVraw,zGyro
GUIDED_NOGPS,0.005367755889892578,187.10371592987465,332.378219987237,63.2442061322615,46.32539522267229,-0.00018249198703938164,335.06111140188125,56.21506901565177,35.597592922950966,1.3250580863646488,-1.1171857612869536,99.98780861835532,0.5623405648839448,0.2682959183271008,7.299679481575266e-06,0.4946360988501393,332.378219987237,63.2442061322615,46.32539522267229,-0.4564124595854935,1.1459155902616465
GUIDED_NOGPS,0.010066509246826172,213.04942347742164,330.52586279446564,63.202901287729674,48.74239954134224,0.0006627859746268262,335.06085684206084,56.21490078251166,35.59755175579914,1.3250580863646488,-1.1171857612869536,99.98780861835532,0.559071300422515,0.45351054875232455,-2.651143898507305e-05,0.4934275761072284,328.6735056016942,63.161596443197844,51.159403860012176,1.0351024937895517,1.1459155902616465
GUIDED_NOGPS,0.01953125,105.76986508636995,329.09813278588206,63.095533998737295,50.32312806450673,0.007221066587617683,335.05909546591715,56.21373672669521,35.597265239584665,1.3010664065747444,-1.0881507338469352,99.99199552431654,0.550669251978868,0.5960708142162643,-0.0002888426635047073,0.492637068587539,326.2426727687149,62.88079942075253,53.484585110835724,3.2238151176343735,1.2032113697747289
GUIDED_NOGPS,0.0650930404663086,21.950053379665487,327.9641277698479,62.97998642967877,51.71469420030948,0.019599636451121432,335.05437657400364,56.21061811196959,35.59649255833314,1.2644306592489711,-1.0719419478945544,100.14883032803837,0.5419676762002592,0.7090474286880891,-0.0007839854580448573,0.49194089917901185,324.5621127217455,62.63334372250319,55.88939260771773,2.894225192505246,1.8907607239317168
GUIDED_NOGPS,0.11484861373901367,20.104031059770886,328.67496294036266,63.1001716502897,53.564881706472576,0.09073470070239421,335.0453099271621,56.204626159013216,35.594997810965225,1.3900119047110007,-1.1276040409270445,100.3788710992844,0.552964880294928,0.6365242949120256,-0.0036293880280957687,0.4910150580522463,331.5183036224217,63.580912532733414,60.965631731125,0.21548004969390888,2.4064227395494577
GUIDED_NOGPS,0.1555767059326172,24.557246321656702,328.78890565032697,63.08127958475127,56.668046952111084,0.19814077762870683,335.03056491258764,56.19488149428596,35.59254997797533,1.3615513602132039,-0.9874784412360016,100.53029639318359,0.5534932549299597,0.622741044079454,-0.007925631105148273,0.4894622515129321,329.3586192001486,63.14974580456936,61.84122145086477,-1.2391587477478225,3.323155211758775
GUIDED_NOGPS,0.19701528549194336,24.134461904953707,329.02684542202866,63.082321859129436,59.12503499266963,0.31981379344720756,335.0088697098937,56.180543598899334,35.58892288811029,1.3160506676749888,-0.8690193755310028,100.65606066637103,0.5560155611184809,0.5957070028633261,-0.012792551737888304,0.48823194394772035,330.454484052239,63.16680781508865,63.444344062804916,-2.333476982135423,3.9534087864026803
GUIDED_NOGPS,0.23396754264831543,27.066661504110684,329.35367853640173,63.09441149921876,61.555930574798694,0.4551328480203607,334.97901045717686,56.16081025748669,35.583895185048036,1.2818402778348048,-0.7053145754429008,100.83037392417893,0.5597866939766517,0.5587901504366545,-0.01820531392081443,0.48701398230512466,331.6415103370131,62.94124762119911,65.63906302148105,-1.7116112562775072,3.896113006889598
GUIDED_NOGPS,0.269014835357666,28.54355400696864,328.9468012428044,62.917932587472215,64.29002157608707,0.5834804871460929,334.9398304170821,56.134917007073376,35.577250294076265,1.265527971827816,-0.6465690255261203,100.99213329429234,0.5494611495430352,0.5945024188436298,-0.023339219485843717,0.4856436143589946,329.12320163845857,61.75094916377047,69.5598476141596,0.7922630965858417,3.7815214478634336
GUIDED_NOGPS,0.30754828453063965,25.957260884364267,329.2841467059717,62.52261485868064,66.55833392750962,0.7224001964537085,334.89022914286755,56.102136585946965,35.568776388771155,1.292345749108519,-0.5982861514790356,101.10179881160606,0.5215117523326536,0.5549212562485873,-0.02889600785814834,0.4845052212306308,331.3722693070327,61.604323888775525,72.3071934882378,-1.6055938681072348,4.469070802020421
GUIDED_NOGPS,0.34398913383483887,27.44424523980894,329.9624815412164,62.13681178867315,69.04206142497108,0.8872366388215317,334.82916164446965,56.06177838252742,35.558266357676,1.314227220610007,-0.5796540357534755,101.33086286580078,0.4944202816252104,0.4799763873709538,-0.03548946555286127,0.4832581024663525,331.6693514506722,61.22073045453193,74.25985893817212,0.7603002464173443,5.042028597151244
GUIDED_NOGPS,0.3922710418701172,20.716090602866654,331.143005418652,61.68990968012643,71.6000673441227,1.0397978013217395,334.7556375545681,56.013187884237304,35.54551777097989,1.4266929020400254,-0.6147876750703749,101.57118990193685,0.46167242826048044,0.3539353774078608,-0.04159191205286958,0.4819727252134286,334.0063037412308,60.93229727235508,76.234373658563,2.1659305603486985,4.354479242994256
GUIDED_NOGPS,0.43160247802734375,25.429887956540718,330.76868250523563,60.980925451699264,73.72230101819893,1.2716683714455328,334.66872029465077,55.95574612637195,35.530332847196426,1.5153332828194526,-0.5582736226606316,101.81698108940893,0.41170930541042555,0.3819566605534094,-0.05086673485782131,0.4809040159144987,328.52372031509054,59.39632647906327,76.2502313918622,2.840683963125116,5.729577951308232
GUIDED_NOGPS,0.4727213382720947,24.324817751074356,331.02463798321656,60.342352636436566,75.58211032000148,1.5069929400786763,334.5675262410787,55.88886914096964,35.512518419842365,1.6530566836350606,-0.500772287750704,102.10901265756199,0.3666916266415301,0.34578158295878936,-0.06027971760314706,0.47996520404992044,331.4062630239961,58.558085087457,78.8588941231723,2.777713696940978,6.932789321082962
GUIDED_NOGPS,0.5135529041290283,24.496291364427467,331.1436103546862,59.73310487617287,76.89245044698839,1.7710624783321474,334.4512238911512,55.81200740568184,35.4918859041163,1.781903399850591,-0.5114432843900855,102.42343358581437,0.3250509382470068,0.32188357761251796,-0.0708424991332859,0.47929971772856395,331.4062630239961,58.558085087457,78.8588941231723,2.777713696940978,7.219268218648373
GUIDED_NOGPS,0.5520405769348145,25.989106929306573,330.7294630336155,58.75733098525327,77.89599617072697,2.0576122813535096,334.3190330291707,55.724645292643345,35.46825126357736,1.7434699253909294,-0.5249528649598417,102.70203700205919,0.2566925303032472,0.3509040948898938,-0.08230449125414038,0.4787861275464252,328.3283317684476,56.34186099993394,79.277587556865,6.199874633013565,7.792226013779196
GUIDED_NOGPS,0.593275785446167,24.258413774356423,330.7582100900868,57.651884140262645,78.66264826413392,2.3540441564430226,334.1702238925079,55.626300517342486,35.44143497682385,1.7691785439834458,-0.6127968883707278,103.04987804592042,0.1773137336176348,0.33509534217459575,-0.09416176625772091,0.47838939335634495,329.35317809022837,55.40506304740196,80.06763412559775,1.711601503373089,8.59436692696235
GUIDED_NOGPS,0.6382181644439697,22.25460951137853,330.80323646151663,56.73557039208517,79.63290395894134,2.674187848292161,334.0041163376666,55.51652358749133,35.41126200417196,1.7391786456014573,-0.7557425557761925,103.40744527915976,0.11377378443740943,0.3159669077107313,-0.10696751393168644,0.4778891790226153,331.7324802784717,54.814757738175885,81.10150986589926,2.0779146944553446,8.422479588423101
GUIDED_NOGPS,0.6809720993041992,23.393051752120783,330.5890053420623,55.38126708757382,80.08621804053585,3.0272225528541297,333.8200790063487,55.394897251895834,35.37756175433444,1.6464976743194386,-0.7591717909872149,103.80873938346552,0.01740911729313365,0.3233420331535002,-0.12108890211416519,0.47764567185689927,329.9555024950378,51.78656856490023,81.1254645311449,8.218884674865436,8.708958485988513
GUIDED_NOGPS,0.7125904560089111,31.63172898535423,329.8167473583402,53.69716447035764,80.38011016798704,3.376235441766832,333.6175284915194,55.261035949326086,35.340168051099255,1.672874904398676,-0.8152444424218461,103.97909796174397,-0.10108125435517971,0.38703588835796987,-0.13504941767067327,0.4774800289415561,327.8282398714536,50.137572001376135,80.3283547604282,10.955066618525592,8.479775367936185
GUIDED_NOGPS,0.7549586296081543,23.608866473786716,330.2003380587901,52.197159854425855,80.64106725722493,3.6507825173831083,333.39592850347185,55.114585257386445,35.29891910000829,1.615336643778548,-0.8667478040234446,104.46210844927977,-0.21118205995914263,0.3340888871290746,-0.14603130069532433,0.4773289259213917,331.59244591869,48.841837920275,80.58237300305443,2.068698337982397,9.224620501606255
GUIDED_NOGPS,0.800178050994873,22.170031925914962,330.49784429271836,50.640722249742424,80.79118576300151,4.027449575523568,333.15478903589246,54.95522134138577,35.253657455036006,1.6079093466646879,-0.7848224596934921,104.86435194988016,-0.3243182461357493,0.2896064112851822,-0.16109798302094272,0.47723123584601723,333.786312895422,47.62287502398483,80.81822665448064,2.221455988530167,9.740282517223996
GUIDED_NOGPS,0.8408622741699219,24.547760486471617,330.8865916498686,48.514980375373355,80.66230528213332,4.417318763763706,332.89366553192565,54.78265040320758,35.20422998526813,1.5694590101755128,-0.7146265245200083,105.24046997690525,-0.483225461448376,0.23915953267519435,-0.17669275055054826,0.4772709623515674,334.51624188119774,44.18604836633052,80.4571074615583,3.4269838091938,9.568395178684748
GUIDED_NOGPS,0.8916993141174316,19.674387623952793,331.97286880951134,46.74941310953879,80.63109869158184,4.808278122573715,332.61215805023903,54.59660813018026,35.15048784158033,1.5626556081536511,-0.6111456901388772,105.78100431763089,-0.6191130919694113,0.11744441293559435,-0.19233112490294862,0.4772596945749992,337.0185490455899,42.95873223572746,80.96943157838749,3.8566420113774313,10.198648753328653
GUIDED_NOGPS,0.9284241199493408,27.23927782828939,333.1258494790778,44.58887549724429,80.85751850237531,5.279135070059103,332.3099104310882,54.39685914394724,35.09228642331688,1.5648054101949127,-0.622959569525472,106.04306501570593,-0.7878537478295984,-0.006929967723809355,-0.21116540280236412,0.47711738396047076,338.5770234467598,39.33488393990359,81.46045381439556,-0.8835007575571581,9.682986737710912
GUIDED_NOGPS,0.9594137668609619,32.275297412930726,333.9814173751138,42.68748470117,81.03313466464354,5.622012872002097,331.9866094623819,54.183196449337196,35.02948534496937,1.5028616775601265,-0.5376820964169241,106.39959406019143,-0.9339452721438446,-0.10522975834119248,-0.22488051488008387,0.4769981753401629,338.5770234467598,39.33488393990359,81.46045381439556,-0.8835007575571581,9.85487407625016
GUIDED_NOGPS,0.9926245212554932,30.119593551398513,335.18640464946225,40.653043357658056,81.22340125179619,5.911305550443685,331.64198404574694,53.95544088323424,34.96194840285535,1.426368788219567,-0.5609998819956716,106.67120336272616,-1.0943802204963078,-0.2381107913774893,-0.2364522220177474,0.47686927357552955,339.59540068982545,37.450668306425094,81.76955959024383,3.908394858706984,9.912169855763242
GUIDED_NOGPS,1.0331225395202637,24.696637284862188,336.2194680017606,38.82979498725107,81.33967316638265,6.225713102591109,331.27580436259314,53.713440563448096,34.88954354179701,1.2783893247566558,-0.65017339105633,107.13425603750717,-1.2368662113608822,-0.35568113879958807,-0.24902852410364434,0.4767749351877072,336.0927466898407,35.069806514295585,81.03846703449061,6.827785689378928,9.912169855763242
GUIDED_NOGPS,1.076481580734253,23.081135813339202,336.8925524544634,36.915496854929614,81.45727879848558,6.60027081805375,330.8878810401784,53.45707033758429,34.81214282179989,1.0218462455922133,-0.6449881035375268,107.57834810715224,-1.3834478666893806,-0.4359645464432239,-0.26401083272215004,0.47667743201165713,336.97712154031194,33.387241574120196,81.55745973890201,3.3960233772468484,9.453803619658583
GUIDED_NOGPS,1.1188499927520752,23.599700664502297,337.76319155235257,35.42248978470694,81.60917351242654,6.998779998151264,330.4780643176736,53.186231231914356,34.72962238473151,0.7829588319062835,-0.7949563259876753,107.98940255178194,-1.499459886457855,-0.5390258167591646,-0.27995119992605055,0.4765602244361525,340.75142567853544,31.86984858879022,82.21992738410037,-0.6622781093101509,9.511099399171666
GUIDED_NOGPS,1.1543018817901611,28.21597040026909,338.8171866967775,33.50145892791627,81.77600112769676,7.393465136822043,330.04624321222764,52.900849900246016,34.641862421000106,0.5577099719715468,-0.798609089811457,108.23395064482507,-1.652378866938871,-0.6559727321807475,-0.2957386054728817,0.47643293064665165,342.9482030365976,29.729729655950237,82.2945918907467,-1.368007781950027,9.682986737710912
GUIDED_NOGPS,1.1920688152313232,26.484040638753306,339.4902901607179,31.136558236252217,81.58844005099385,7.720789818127311,329.5923446850326,52.60087807279338,34.54874713623323,0.27532129690521745,-0.9887640109038449,108.64418546675438,-1.8353561973990242,-0.7332380188623814,-0.3088315927250924,0.4764801535426197,342.40337675711334,25.626164848104818,80.83175420672929,5.897936430667343,9.625690958197831
GUIDED_NOGPS,1.2327299118041992,24.599302073252982,339.5877836593223,28.761584584958293,81.27469174480883,8.051884840315584,329.11633280738823,52.28629200504709,34.450164717956504,-0.0244022915528986,-1.0810928005567848,109.03319206074329,-2.0113023628703823,-0.7543000329106927,-0.32207539361262333,0.4765877364865738,339.35697143559554,23.19493825782596,79.46972550356554,8.740597063755828,8.938141604040842
GUIDED_NOGPS,1.26953125,27.17891162633973,339.8282307829842,26.306337289801967,80.70910145664666,8.411922548954307,328.6182079267675,51.95709192664457,34.34600730227226,-0.11369102003516132,-1.2432782037196763,109.37335597197743,-2.1955765315769487,-0.7871591568352323,-0.33647690195817226,0.4768184529228128,340.5006004360547,21.111005098338566,78.72950829809122,5.804595487239567,8.995437383553925
GUIDED_NOGPS,1.3107163906097412,24.287350531283476,339.80994217822195,23.697729199860074,79.816339245368,8.75859170808413,328.0980058328815,51.61330149024021,34.23617094053821,-0.3190255963308663,-1.3287210954721855,109.82098607961257,-2.387629990159532,-0.7936112906808463,-0.35034366832336516,0.4772099158475851,339.4490918517278,18.826808139080768,77.75611632770705,6.810949392276655,10.026761414789407
GUIDED_NOGPS,1.3497164249420166,25.643668111591396,340.3802308261982,20.722976712751738,78.48538492157243,9.109890057555209,327.5557969237438,51.25496722037549,34.12055556604615,-0.5195528533690061,-1.3612888248169814,110.16634093461592,-2.6173941176359055,-0.8517518515399927,-0.36439560230220835,0.47781758532223684,340.6550558736509,14.855967220408543,75.6398202717688,2.532962334630497,8.766254265501596
GUIDED_NOGPS,1.3851683139801025,28.217299166459235,340.7807027403622,18.127518695375187,77.19713297775824,9.456955742382377,326.99168537173637,50.88215796234925,33.99906496070061,-0.7306803505555943,-1.3933545352577814,110.51037756310946,-2.8144045021550457,-0.8978660447926797,-0.37827822969529507,0.4784009659914712,340.1808968536237,12.648874761222073,74.39049448765836,8.588002332625138,8.995437383553925
GUIDED_NOGPS,1.4198877811431885,28.808813731618027,340.7144340763819,15.64670994311125,76.0193536731067,9.712579230672151,326.405808289674,50.494964331087814,33.87160672169755,-0.8027963692986451,-1.382677242037759,110.68746387772038,-2.9929031430795923,-0.9058111374423512,-0.38850316922688605,0.47892612652429545,340.22127636669285,10.790894496506265,73.58082898030784,9.070185453425452,7.677634454753031
GUIDED_NOGPS,1.4565341472625732,27.29227425641426,339.93588040428,13.163763070223183,74.70136344693165,9.965848366068053,325.7983348968693,50.09349816001526,33.73809222820305,-0.9329351118452185,-1.356985485474756,110.89805910039938,-3.1586508179982276,-0.8464154121533376,-0.3986339346427221,0.4795183643906357,336.71977365978205,8.696270733898231,72.13955716721588,15.116987013621127,7.333859777674538
GUIDED_NOGPS,1.4987034797668457,23.719145855953673,339.2947531803788,10.817901450513855,73.51523663438745,10.203438433789296,325.1694656851978,49.67789194992349,33.59843660803194,-1.2191690233317065,-1.351837230387859,111.34282735877227,-3.314735565955769,-0.8039297360460165,-0.4081375373515719,0.4800415999868222,337.27435896590345,7.097500040534122,71.82548226498609,9.319592674826069,6.245239966925974
GUIDED_NOGPS,1.5390651226043701,24.780536222807786,339.05351903483296,8.675143263604985,72.61165026474092,10.467339277552233,324.51943158516315,49.248298317842554,33.45255870432653,-1.3207003189524749,-1.2880757069384974,111.56857194103036,-3.4614643021970437,-0.8015732610301741,-0.4186935711020893,0.4804204542197928,337.42709827122866,4.142176285864195,71.12188842353605,9.499377416933726,5.729577951308232
GUIDED_NOGPS,1.5823805332183838,23.092191396937782,339.326993714851,6.740034008795708,72.14839410589808,10.6859146481705,323.8484931319617,48.80488944591074,33.30038104223525,-1.4883906411429852,-1.147070933835227,111.79305976848117,-3.6001988280769033,-0.854981943551041,-0.42743658592682005,0.4805759934681686,342.68839787619913,2.9733284871756838,72.0742136934442,8.3699340305769,4.8128454790989155
GUIDED_NOGPS,1.6173200607299805,28.62810729643028,339.51799783557703,4.951263676930574,71.6962659271384,10.896005688232764,323.1569396315477,48.3478565302448,33.141829795591356,-1.6418310542907333,-1.0541701158392986,111.9405098922834,-3.725410869807003,-0.9042252890992423,-0.43584022752931056,0.48072278193422646,340.9771248175357,1.8470428371805945,71.32018808650939,9.581295657229788,4.18259190445501
GUIDED_NOGPS,1.6585159301757812,24.29044494506958,339.83463418581226,3.375472809699869,71.68420565348433,11.031670368788198,322.4450883266984,47.87740922981014,32.97683475359158,-1.7194655457180368,-1.1081941374097493,112.12483620741455,-3.834919246925237,-0.9751752498549068,-0.44126681475152796,0.48064631455005363,343.18814667553266,0.8173163977447074,72.07925579894554,9.010132037949745,3.9534087864026803
GUIDED_NOGPS,1.6935763359069824,28.521814818844522,339.21449289077964,2.031211169183306,71.38147404390199,11.192943658691076,321.71328356307873,47.39377511529102,32.805329287474834,-1.8382536344419598,-1.1014570095671778,112.20920270404254,-3.9081847889687014,-0.9606718700453777,-0.44771774634764305,0.48071192762178644,335.2197664933627,0.37619183795130534,70.3118242170743,13.736406235054119,3.380450991271857
GUIDED_NOGPS,1.737785816192627,22.623975144558557,338.80753599261016,1.158737985943199,71.35545386698654,11.298058518303865,320.96189595530666,46.897199117960724,32.627250317200875,-1.941401870627023,-1.2121272050191292,112.38436973549669,-3.947143787407218,-0.9795420860078383,-0.4519223407321546,0.48063589822510716,336.96562118133704,-0.22018963033634173,70.9917875389588,8.311663938058032,2.6929016371148693
GUIDED_NOGPS,1.7764883041381836,25.845456113973036,338.64080069824445,0.3757742545636151,70.97979996709944,11.417247370978963,320.1913215530179,46.38794297855174,32.442538278128964,-1.963985037344024,-1.2490638008335002,112.42074049282701,-3.983472268240597,-1.023107385772699,-0.4566898948391585,0.4807313691555148,335.385891304856,-0.9414901697222349,70.19594419400869,9.933723368727755,2.0053522829578814
GUIDED_NOGPS,1.8108720779418945,29.08691461105833,338.68633583413066,-0.201954616908675,70.73563084025487,11.481238127738113,319.4019810069309,45.86628469612599,32.25113708769659,-2.082422651986161,-1.28287686576306,112.47379057211049,-4.0063807543924765,-1.0959205819302937,-0.45924952510952455,0.4807577531237209,337.63864005299325,-1.041601520180856,70.09934245228659,9.66233333157082,1.1459155902616465
GUIDED_NOGPS,1.8553056716918945,22.51008425911018,338.9472897637537,-0.5401928465016732,70.34666525803324,11.473263681731854,318.5943187349121,45.33251797694496,32.0529941120981,-2.412843511812694,-1.3819232531864132,112.46141426933443,-4.013032284949882,-1.2003656715298305,-0.4589305472692742,0.4808531644270324,339.5147297082131,-0.8738747502202834,70.1344278878374,8.068949512243208,-1.088619810748564
GUIDED_NOGPS,1.8956644535064697,24.784782750001476,338.0609621973707,-0.7079738305377058,69.96298010386701,11.4215599073566,317.76880208804073,44.78695168333998,31.848060132963393,-2.616883887322601,-1.4273466792096425,112.3590365638651,-3.98185515339514,-1.2048922629709242,-0.45686239629426406,0.48094254001454817,335.59777734513494,-0.4627130822288579,68.39339844624322,11.977490508631206,-3.0366763141933633
GUIDED_NOGPS,1.9295105934143066,29.55108712500176,338.1630935410186,-0.4829474141082768,69.37803273064506,11.307990547098,316.92592051667367,44.2299092825823,31.636289314036624,-2.8315136173669657,-1.4203226834219307,112.20866994928728,-3.9371786002430476,-1.3152072214032304,-0.45231962188392,0.4811291282916958,341.7941755667189,0.9049424518108029,68.06705067284905,7.8318648116151905,-4.354479242994256
GUIDED_NOGPS,1.9724020957946777,23.322160563160995,337.9888471524169,-0.11366088980166925,68.95225402641314,11.14772389668162,316.0661847365107,43.66172829575337,31.41763916785483,-3.0125219546653548,-1.3883811970466602,112.05457405142262,-3.8737825257229,-1.4071370942939758,-0.4459089558672648,0.4812326925707208,341.7941755667189,0.9049424518108029,68.06705067284905,7.8318648116151905,-5.844169510334397
GUIDED_NOGPS,2.01039719581604,26.322321518224722,338.38780917678486,0.8248797016862637,68.23745885128852,10.902873234512313,315.1901258946594,43.082759746615,31.19207052242666,-3.1316899726618597,-1.3934735299597278,111.66157862695843,-3.7730658555122547,-1.5698696815169821,-0.4361149293804925,0.4814773058355691,338.41146268830664,3.651101437258809,66.5253665766635,15.755834107508875,-8.13600069085769
GUIDED_NOGPS,2.049988031387329,25.264912988741845,338.25105773416635,2.110944045558109,67.38073368527814,10.598842277682216,314.2982947357,42.49336761047953,30.959547487911006,-3.2743768932916573,-1.3023788701124446,111.25892531500783,-3.6314294726409417,-1.6925782011087889,-0.42395369110728864,0.48178940690131644,335.8716096403893,5.556446969138944,65.85080205778554,15.284339391232251,-9.969465635276325
GUIDED_NOGPS,2.0959317684173584,21.769367311984222,339.24339143525077,3.8376950862636194,67.12835923356522,10.222450701956424,313.3912607677505,41.89392826308004,30.72003742329572,-3.3105852201857755,-1.3309146534128173,110.70980542649549,-3.471126743933298,-1.9348477468146674,-0.408898028078257,0.48179583909486523,343.3245609135314,8.171042121298694,67.13152618767863,8.70194631997191,-11.631043241155712
GUIDED_NOGPS,2.1349215507507324,25.671920235523103,339.5800391527392,6.472557042475607,66.91566043918955,9.728444726771734,312.4696114285318,41.28482992944054,30.473510903076267,-3.4307924941531804,-1.277683574116323,110.2227856179169,-3.219782879616473,-2.1352032153652583,-0.3891377890708694,0.4817789252319434,340.3318217929005,14.079252232870743,67.00355670097072,9.802894534226695,-13.34991662654818
GUIDED_NOGPS,2.1755270957946777,24.633687091450486,339.26610372714674,9.78913436397884,66.58392633464456,9.239026779687645,311.53395125143237,40.666472132746165,30.219941683934408,-3.46674831749142,-1.3204038460538141,109.61107387585056,-2.9006808017307986,-2.279313346925724,-0.3695610711875058,0.48181800767464494,337.0032463034738,17.48782905932697,66.4083801501241,14.606782571808864,-14.667719555349075
GUIDED_NOGPS,2.2190628051757812,22.974053361231768,340.8337256508902,13.483517968019253,67.01812029968809,8.701698927442754,310.5849010315734,40.03926514321333,29.959306671416883,-3.491284918311045,-1.3406903616623982,109.08043647923226,-2.575439092725601,-2.6088787610371784,-0.34806795709771016,0.4814705931858644,348.1387527350824,22.12301945746087,68.6963364018812,9.527025600829205,-14.839606893888321
GUIDED_NOGPS,2.2543041706085205,28.38861288968906,340.8213235425428,17.580231965354578,67.30985913735715,8.128804230801691,309.62309699187387,39.40362942695996,29.691585886614085,-3.3941882297306125,-1.4339397327494088,108.44977779240831,-2.187590457247003,-2.7881636616086896,-0.32515216923206763,0.48119086337462846,341.69495869993995,26.040016955815574,67.30949624613076,12.604462427747762,-15.2406773504799
GUIDED_NOGPS,2.2899084091186523,28.091622685991375,341.23266961202864,22.146271355179028,67.43995841498253,7.593426252038805,308.6491899491154,38.75999509487568,29.41676243283873,-3.289849406195852,-1.4564083870761062,107.8667801656127,-1.7663792004602237,-3.0059581779167126,-0.3037370500815522,0.4809884020089281,345.08494412260575,31.00123907042094,67.78202257580554,10.644747361826845,-16.558480279280793
GUIDED_NOGPS,2.3357560634613037,21.816812396294427,341.0144985432572,26.338187747998756,67.22355419354919,7.035100695325661,307.66384448000724,38.108801351491934,29.13482246230455,-3.0936673767694565,-1.4063427802947954,107.05966354158147,-1.3616349590023822,-3.1535550702818806,-0.2814040278130264,0.4809556341343777,336.6660941381349,35.03883419696938,65.92153559380405,11.527716337131352,-16.95955073587237
GUIDED_NOGPS,2.382046699523926,21.61132322404794,341.7253843942395,32.09105456682935,67.23504486765347,6.291955885830611,306.6677380872515,37.45049594385229,28.84575514280496,-2.8845325339123664,-1.342288199041358,106.31593790323711,-0.8290694916464219,-3.4049710561754303,-0.25167823543322443,0.4808053551375757,341.558696448247,46.25216315347992,66.46583352064549,10.052667174654388,-17.818987428568605
GUIDED_NOGPS,2.421102523803711,25.602812809024428,341.53950892361587,37.981629805267666,66.85570447358646,5.531357884328323,305.6615603656078,36.785534610382534,28.549552624391744,-2.744967863506911,-1.3138576433428857,105.65750083705872,-0.2691955283296061,-3.557045108089633,-0.22125431537313295,0.48084692407540264,341.8375571485426,51.57589564965243,66.7996344315461,7.674799849451617,-17.818987428568605
GUIDED_NOGPS,2.462324619293213,24.265571304599362,341.76370339240185,44.32555863851494,66.75966419770796,4.8696590741554875,304.64601216795836,36.11438052976091,28.246210006053705,-2.6480361666836174,-1.2114334072098438,104.77680258509893,0.32101433339872937,-3.738297831013218,-0.1947863629662195,0.48074327290417285,342.1253775431881,57.75966112205197,66.82929486673827,7.542756174718718,-18.678424121264836
GUIDED_NOGPS,2.5009264945983887,25.911398582822123,341.8249214954591,52.00753007392029,66.46676629873191,4.140050705329546,303.62180477137315,35.43750376978828,27.935725302395387,-2.647908314080091,-1.1516187726053977,104.12193087766728,1.0282641527078686,-3.8980039083648017,-0.16560202821318185,0.48073447950183174,337.4929911279316,69.41109624744769,66.31753308092529,4.473272414483247,-18.793015680291003
GUIDED_NOGPS,2.538092851638794,26.911923415012865,340.49124970853666,60.14364504115404,66.65179097021296,3.463164907005317,302.58965904317483,34.755380736258324,27.61809941031572,-2.683183252935445,-1.1750993621463148,103.4457899611602,1.7808067629219673,-3.9049490157948505,-0.1385265962802127,0.4804831542200514,337.4693784397031,75.71940903313812,66.84665895120932,5.906965646843645,-18.334649444186343
GUIDED_NOGPS,2.573709487915039,28.082970660310405,339.7921864502015,67.30068296476288,66.80198145918236,2.8353738529721126,301.55030460700345,34.06849362182775,27.293336075686703,-2.7256488868829414,-1.1585313509322737,102.8177608971667,2.449141621950178,-3.9554837064247774,-0.11341495411888451,0.4802456773082522,336.10245263325857,82.03735277152413,67.21678596549246,5.374483985540678,-17.417916971977025
GUIDED_NOGPS,2.617677927017212,22.74802718284422,338.12287954251076,74.41242601450946,66.79422241401197,2.2276854269523216,300.5044790088819,33.37732985488644,26.961441860032092,-2.783171672855731,-1.1530760574978434,102.0517278609931,3.1179165888958074,-3.8958363680546664,-0.08910741707809287,0.48008360972301006,331.7304888610797,87.13461089838532,66.7608392056942,3.4372692817757837,-17.704395869542438
GUIDED_NOGPS,2.655900239944458,26.168604941352633,337.3710355737419,81.57064452985074,66.78419211591616,1.4848238946605017,299.4529268832806,32.68238154842772,26.62242610720607,-2.881788505413314,-1.1241952429226791,101.27678825814179,3.796251043637514,-3.9052990077458642,-0.059392955786420065,0.47991911699564493,330.6513423879837,93.55075369875838,66.7791433762592,5.223674795631226,-18.105466326134014
GUIDED_NOGPS,2.68770694732666,31.4474526710403,337.02658352511787,88.18247685784294,67.33599718789007,0.7880795498635781,298.39639911918243,31.98414494891842,26.27630091007192,-2.9185951141900435,-1.139748650879856,100.7202098030558,4.427968122334191,-3.940566320473331,-0.031523181994543126,0.47947015186109093,338.80308005925446,102.47025788740862,69.07655844079486,-0.005537894564355383,-18.678424121264836
STABILIZE,2.7329883575439453,22.08783940345038,336.04824368176236,94.62930218418556,67.56109063188012,0.21486241043817345,297.33565202614795,31.283119885169185,25.923081077180715,-2.331318373879422,-1.2471996927986158,99.83633551313196,5.040113051793594,-3.908020249470922,-0.008594496417526938,0.4791809952226503,334.01083840169855,107.95353566485123,67.97212617115949,1.7349308547115072,-19.022198798343332
STABILIZE,2.77148699760437,25.98057482656095,334.477958504993,100.85390599354027,67.68659362914347,-0.6052097495237551,296.27144650038025,30.5798092172046,25.56278409944998,-1.5255163478200011,-1.2966772629810708,99.18571901355321,5.663058043707684,-3.7613546439846655,0.024208389980950203,0.47893809523515324,329.5630961290335,113.16037181829762,67.84430095180923,2.0910529020257513,-18.850311459804086
STABILIZE,2.810744524002075,25.48288201806881,333.17373961464045,108.78431479058823,67.9213652101876,-1.2719810839427292,295.2045471907901,29.874718285133405,25.195430116842388,-0.6276803508198615,-1.1295284467256956,98.41883903392252,6.396755996735645,-3.654732432739942,0.05087924335770917,0.4786370324533274,327.0592400051109,126.78665488362509,67.93469711091487,1.9559694332188826,-17.76169164905552
STABILIZE,2.85103440284729,24.825123998248046,331.01065713415784,116.4471670461763,67.6599339221513,-1.9449626462934124,294.13572166506054,29.168354358018682,24.821041885044416,-0.4592150156019664,-0.7502181600372687,97.76970468539368,7.104856957596279,-3.444972192989714,0.0777985058517365,0.47858055398144655,320.1647185958422,131.8650149766988,65.47198693607766,4.473399641491781,-17.417916971977025
STABILIZE,2.8906383514404297,25.255480957398767,328.9834067041376,124.00181523631083,66.52494728188583,-2.6249481115669195,293.0657395757124,28.461226082748034,24.439644742145042,-0.18650430504293514,-0.022665822678128642,97.05087508657402,7.801275320765979,-3.2314296055999474,0.10499792446267678,0.47895734873012963,319.8844491930969,140.24349883808128,63.40162523946751,3.669949891547816,-17.876283208081684
STABILIZE,2.924145460128784,29.847598986649967,327.27895107839646,131.92518257555815,65.31767117692206,-3.321412270344497,291.99537182616893,27.753842932903773,24.051266575314415,0.5470437778089257,0.6389377298716591,96.58444146815386,8.525565191374579,-3.02907692784304,0.13285649081377987,0.47936679769919616,318.09484385515026,147.5703723610877,61.93574564634067,3.217332729138363,-18.334649444186343
STABILIZE,2.9668033123016357,23.44627424674381,326.48623397922637,142.6271847800524,65.27373651599092,-3.8824561648469027,290.92538973682076,27.04671465763314,23.65593778748252,4.351031991878638,1.8947982092595568,95.80649658206775,9.468013805611927,-2.9076011449557955,0.15529824659387612,0.4791911006357458,324.30960559462306,166.67038284076895,67.62462764715345,-2.989279331584555,-17.1887338539247
STABILIZE,3.005748748779297,25.684811297068567,324.5319938719479,152.27730487427795,65.8134960094757,-4.557397714528413,289.8565642110912,26.340350730518388,23.2536912640179,10.755848933214041,2.8559987783244036,95.23364861637877,10.243959055788402,-2.643289379640043,0.18229590858113653,0.4787200976272711,323.16915920102684,175.03725535475263,70.63349457833874,-1.096992651550707,-15.928226704636886
STABILIZE,3.0400421619415283,29.163160017243538,321.32206217521434,161.3394651937926,66.40050213045444,-5.114322231752957,288.78966490150106,25.635259798447215,22.84456233940625,18.047934768490784,3.3937532320578474,94.84187579577602,10.250242368264734,-2.327104143475217,0.20457288927011827,0.4782220301044759,308.33138482783005,177.1758165742722,68.40701754097138,2.496665675489794,-13.80828286265284
STABILIZE,3.077699899673462,26.563376356888625,318.6680982625639,168.7259287410308,67.4015805907552,-5.4799321883578,287.7254593757334,24.93194913048263,22.428588763929184,26.11951594279523,3.5688596455831108,94.49657558228603,10.249845875461794,-2.10187052322288,0.219197287534312,0.477513504086587,308.33138482783005,177.1758165742722,68.40701754097138,2.496665675489794,-9.740282517223996
STABILIZE,3.116745948791504,25.615634542567484,316.32711636540375,174.6470175836677,68.69583496968134,-5.813814180447996,286.6647122826989,24.230924066733387,22.005810670342864,32.99001176664752,3.4853499108091266,94.0980955159183,10.24909052000868,-1.9133649749863482,0.23255256721791984,0.4766549878503308,308.33138482783005,177.1758165742722,68.40701754097138,2.496665675489794,-7.16197243913529
STABILIZE,3.1460089683532715,34.183406682966584,314.8479496444022,176.74810433036834,68.85231294844493,-6.106643916140429,285.60818451860075,23.532687467224086,21.576270540556685,36.33082804443001,3.4151423963305656,93.82310526974442,10.254352496656644,-1.8169589942044095,0.24426575664561717,0.47636197879605585,308.33138482783005,177.1758165742722,68.40701754097138,2.496665675489794,-5.901465289847479
STABILIZE,3.1827244758605957,27.241577740684694,313.40381659874384,177.17581657427223,68.40701754097145,-6.26888487627617,284.5566323929994,22.83773916076536,21.140013172311953,38.347274057241606,3.4957399091971855,93.66274608841087,10.255257282988401,-1.7481777199937776,0.25075539505104677,0.47636649781567025,308.33138482783005,177.1758165742722,68.40701754097138,2.496665675489794,-5.271211715203574
STABILIZE,3.2143616676330566,31.61694557515453,312.1833842203288,177.17581657427223,68.40701754097145,-6.451337197069498,283.5108067948778,22.14657539382405,20.69708564586057,38.59956416970895,3.6557101966348773,93.68980729790246,10.258890491484026,-1.69687011863287,0.25805348788277993,0.47614503405244457,308.33138482783005,177.1758165742722,68.40701754097138,2.496665675489794,-3.9534087864026803
STABILIZE,3.251477003097534,26.950485124975906,310.18610662447963,177.17581657427223,68.40701754097145,-6.558977580712719,282.47145235870653,21.459688279393482,20.247537290643713,37.29565373639684,4.523289789633182,94.19595163615708,10.251179778226488,-1.5828855297762028,0.26235910322850875,0.4759202598748361,308.33138482783005,177.1758165742722,68.40701754097138,2.496665675489794,-2.635605857601787
STABILIZE,3.2855520248413086,29.354609333445314,308.33138482783,177.17581657427223,68.40701754097145,-6.674470406765368,281.43930663050816,20.77756524586352,19.79141965197048,34.36203626145758,5.671212362680546,94.94906195442103,10.244840486504618,-1.4806984585116496,0.26697881627061476,0.47569220105549953,308.33138482783005,177.1758165742722,68.40701754097138,2.496665675489794,-1.948056503444799
STABILIZE,3.33046555519104,22.269497671800917,308.33138482783,177.17581657427223,68.40701754097145,-6.720934956028353,280.415099233923,20.100688485890892,19.328786457696612,29.92885075424203,7.014244838898024,95.76314537140567,10.258067186057298,-1.5725273125565207,0.2688373982411341,0.4754608844583626,308.33138482783005,177.1758165742722,68.40701754097138,2.496665675489794,-0.34377467707849396
STABILIZE,3.3678572177886963,26.749387755102042,308.33138482783,177.17581657427223,68.40701754097145,-6.752274744458972,279.3995510362735,19.42953440526926,18.859693584903148,24.336614588273875,8.253763663809842,96.4487939112374,10.270872221591253,-1.6660313161366995,0.2700909897783589,0.47522633802196584,308.33138482783005,177.1758165742722,68.40701754097138,2.496665675489794,1.3178029288008934
STABILIZE,3.4064462184906006,25.925653039275073,308.33138482783,177.17581657427223,68.40701754097145,-6.700659408083293,278.3933733146298,18.764573071799497,18.3841990265751,18.33933283659833,9.002883444051209,96.87890458365145,10.281084367700927,-1.7743118022606583,0.26802637632333176,0.4749885907428018,308.33138482783005,177.1758165742722,68.40701754097138,2.496665675489794,2.807493196141034
STABILIZE,3.4504785537719727,22.713780536015033,308.33138482783,177.17581657427223,68.40701754097145,-6.583310762690214,277.39726692187406,18.10626766415988,17.90236285828014,11.87350693804908,9.190907452844257,97.13448343220415,10.288792536720555,-1.894100122566229,0.2633324305076086,0.47474767265865436,308.33138482783005,177.1758165742722,68.40701754097138,2.496665675489794,4.8128454790989155
STABILIZE,3.482593297958374,31.14713242883983,308.33138482783,177.17581657427223,68.40701754097145,-6.396117334345418,276.4119214527659,17.455073920776137,17.41424720484727,8.284669416030503,8.91689306994804,97.28189940506054,10.293399944726088,-2.025888417099814,0.2558446933738167,0.4745036148319379,308.33138482783005,177.1758165742722,68.40701754097138,2.496665675489794,6.474423084978302
STABILIZE,3.517472982406616,28.676648753606543,308.33138482783,177.17581657427223,68.40701754097145,-6.161334947560582,275.43801441000744,16.81143958869182,16.91991620704551,4.5490366145963685,8.360650147905018,97.51829908242385,10.295337345457177,-2.165925778313486,0.2464533979024233,0.474256449333037,308.33138482783005,177.1758165742722,68.40701754097138,2.496665675489794,8.651662706475431
STABILIZE,3.554063558578491,27.334784478825874,308.33138482783,177.17581657427223,68.40701754097145,-5.873549430885033,274.4762103703079,16.175803872438472,16.41943598826255,1.80300110714482,7.546933853588256,97.83967314325129,10.294016216351462,-2.314938656922891,0.23494197723540133,0.47400620922364556,308.33138482783005,177.1758165742722,68.40701754097138,2.496665675489794,10.141352973815572
STABILIZE,3.5881335735321045,29.36139053979321,308.33138482783,177.17581657427223,68.40701754097145,-5.518622723301705,273.52716015044894,15.548596882905649,15.91287462118347,-0.2213355750869292,6.519597843450645,98.27621102367432,10.2884157564973,-2.475441854820881,0.22074490893206822,0.47375292854010603,308.33138482783005,177.1758165742722,68.40701754097138,2.496665675489794,12.146705256773453
STABILIZE,3.616326093673706,35.47820202669554,308.33138482783,177.17581657427223,68.40701754097145,-5.129446415572158,272.5914999733495,14.930239086211252,15.400302094469371,-1.2655483556736202,5.580085686321528,98.69864456346127,10.279535036160814,-2.6411325521167734,0.20517785662288632,0.473496642276749,308.33138482783005,177.1758165742722,68.40701754097138,2.496665675489794,13.693691303626675
STABILIZE,3.645782232284546,33.957851273124724,308.33138482783,177.17581657427223,68.40701754097145,-4.742691615234381,271.66985063413074,14.321140752571743,14.881790279436089,-1.937275155707866,4.528486282931093,99.18035048486558,10.268926812016185,-2.8050932326626192,0.18970766460937527,0.4732373863692323,308.33138482783005,177.1758165742722,68.40701754097138,2.496665675489794,14.725015334862157
STABILIZE,3.680314779281616,28.9635875232196,308.33138482783,177.17581657427223,68.40701754097145,-4.321693414836581,270.7628166661814,13.721701405172261,14.357412896732853,-2.3546750595199266,3.165536548207035,99.79463720824903,10.254718165076293,-2.9740617090827794,0.17286773659346324,0.4729751976778807,308.33138482783005,177.1758165742722,68.40701754097138,2.496665675489794,16.27200138171538
STABILIZE,3.709866762161255,33.8509664662443,308.33138482783,177.17581657427223,68.40701754097145,-3.8139655047509917,269.8709855072219,13.132309269036803,13.827245483020967,-2.5255149526914593,2.5548783628201672,100.08469485173195,10.233718248557672,-3.1573740269015236,0.15255862019003968,0.47271011397102475,308.33138482783005,177.1758165742722,68.40701754097138,2.496665675489794,16.95955073587237
STABILIZE,3.7425343990325928,30.617592525001825,308.33138482783,177.17581657427223,68.40701754097145,-3.347042602547132,268.9949266653706,12.553340719898436,13.291365357652484,-2.713245263350198,0.5879460988492826,100.95614502755554,10.212640326929487,-3.3313233435875014,0.13388170410188527,0.47244217390834053,308.33138482783005,177.1758165742722,68.40701754097138,2.496665675489794,17.131438074411616
STABILIZE,3.771794080734253,34.18452109278216,308.33138482783,177.17581657427223,68.40701754097145,-2.848648779471858,268.1351908852077,11.98515973306953,12.749851589348896,-2.781275441587406,-0.11079399263065777,101.27622135244067,10.187438686428028,-3.508949047863825,0.11394595117887432,0.47217141702418874,308.33138482783005,177.1758165742722,68.40701754097138,2.496665675489794,16.443888720254627
STABILIZE,3.808481454849243,27.26761149395397,308.33138482783,177.17581657427223,68.40701754097145,-2.412505337039767,267.29230931384063,11.428117332311835,12.202784962879818,-2.9680100387312045,-2.461754709902567,102.16845579390862,10.163916960379686,-3.673182062519459,0.09650021348159069,0.4718978837109542,308.33138482783005,177.1758165742722,68.40701754097138,2.496665675489794,15.584452027558392
STABILIZE,3.8456759452819824,26.888460083723853,308.33138482783,177.17581657427223,68.40701754097145,-1.8786127222036295,266.4667926669691,10.882551038706815,11.650247945741608,-3.1099432906747735,-4.200241905572266,102.83506859652351,10.131891790235292,-3.8528457537673244,0.07514450888814518,0.4716216152023851,308.33138482783005,177.1758165742722,68.40701754097138,2.496665675489794,15.29797312999298
STABILIZE,3.875486373901367,33.55228465378216,308.33138482783,177.17581657427223,68.40701754097145,-1.3245613058521015,265.65913039495035,10.348784319525826,11.092324654836123,-3.084346302986505,-5.558434413539411,103.38604629649011,10.095983339381089,-4.033342252829727,0.052982452234084064,0.47134265355693233,308.33138482783005,177.1758165742722,68.40701754097138,2.496665675489794,15.355268909506062
STABILIZE,3.911982774734497,27.40837744233157,308.33138482783,177.17581657427223,68.40701754097145,-0.9055496628746021,264.86978984886343,9.827126037100065,10.529100823149342,-2.8862541684700327,-7.051469369874593,104.02996238049306,10.067450978631598,-4.1872993714332125,0.03622198651498409,0.471061041641089,308.33138482783005,177.1758165742722,68.40701754097138,2.496665675489794,14.667719555349075
STABILIZE,3.947681188583374,28.04054017916834,308.33138482783,177.17581657427223,68.40701754097145,-0.37529429721060903,264.09921544657465,9.317869897691047,9.96066376643008,-2.657714331294114,-7.87550010361172,104.44414505176263,10.028762989877675,-4.358213020521156,0.015011771888424362,0.47077682311272934,308.33138482783005,177.1758165742722,68.40701754097138,2.496665675489794,15.068790011940651
STABILIZE,3.9841043949127197,27.449813153227442,311.1560471008851,155.35265136061213,58.645672859739605,0.11928553602799555,263.3478278388026,8.82129390036075,9.38710234986863,-2.2198123340277904,-8.909596720367174,105.206271219731,9.990023183214285,-4.802492646300419,-0.004771421441119822,0.47537071474506454,330.92868301227065,68.0599905059718,19.600294134812074,15.905994938201133,14.438536437296746
STABILIZE,4.021207094192505,26.965559363005728,313.98070937394016,133.52948614695205,48.884328178507744,0.6462818033499379,262.61602307518297,8.337659785841673,8.808506954775467,-1.903618544798982,-9.148462949794506,105.73615046535141,9.941416324073808,-5.249223792899698,-0.025851272133997516,0.47996208938813384,330.92868301227065,68.0599905059718,19.600294134812074,15.905994938201133,14.610423775835994
STABILIZE,4.0671868324279785,21.75209388921446,318.1777821600272,109.17833423945629,35.792843683331725,1.129209608345833,261.9041717703336,7.867212485407002,8.224969445259916,-1.6658485607334368,-8.626929341566196,106.44446157284925,7.994258476362237,-5.785108898865211,-0.04516838433383332,0.4862160628809641,341.90796711652627,55.42005703679332,2.9495950650912706,-28.034008412997224,13.980170201192088
STABILIZE,4.103820323944092,27.30115666759964,322.7352099341887,82.21001580611502,21.11784418207659,1.7412415074571979,261.21261826991963,7.410179569741068,7.636583134908829,-1.5254166697468012,-7.775281591693769,106.86760545230987,5.79535010238307,-6.326646781234694,-0.06964966029828791,0.49325936947641613,344.7908070211215,42.334224407565934,-4.967979965304327,7.5269841473965045,12.83425461093044
STABILIZE,4.140511751174927,27.260168202675125,329.040217361663,54.22600409453544,6.595710526965161,2.1824485282867094,260.54167981671816,6.96677069780926,7.043442753465275,-1.5994644580862019,-6.6764971070827706,107.264535065736,3.517785157252884,-6.98009971703108,-0.08729794113146838,0.5002238661132501,358.7714442476245,37.25575801637425,-4.203650734585755,3.296975604924569,11.688339020668794
STABILIZE,4.174760580062866,29.20661801570943,333.93419915609456,46.70704441892981,2.5303085304175057,2.5988993991921174,259.8916457166835,6.5371770657282795,6.445644413507175,-1.8303468367040239,-5.518247714897171,107.68396332228814,2.8750394946256925,-7.528272214630946,-0.1039559759676847,0.5019576679415448,347.48323918328254,30.46519212794366,-0.7267158479261975,0.8756727812098717,11.3445643435903
STABILIZE,4.208031892776489,30.06109255622608,340.5155454254779,38.1755496629953,-0.2533429368432792,2.965867648914091,259.262776505012,6.12157085563657,5.843285577126039,-1.9955733815948635,-4.812139770293491,107.90803450819958,2.140830077017384,-8.226515038690534,-0.11863470595656365,0.5030483142569847,360.98215498289665,25.402516726299215,5.6820367985081495,-3.041700120376163,10.714310768946394
STABILIZE,4.2534565925598145,22.033420711175083,345.09006277301785,30.912085855031695,1.5242588739266898,3.270884863044885,258.6553031122073,5.720104684563971,5.236465022605621,-2.2606696718691603,-3.533178310472141,108.36366276735279,1.5192498164832244,-8.718025833437979,-0.1308353945217954,0.5018561030743395,344.92752360814944,19.102737996975257,11.837604118941115,13.515509881841837,8.59436692696235
STABILIZE,4.280051946640015,37.587073994748586,347.99425070716495,25.295186861428487,6.403817916776086,3.649766761257199,258.0694260301449,5.332911053302546,4.625282811100572,-2.189925774097342,-2.981941490203915,108.56158798912142,1.0214412914948858,-9.04046168699191,-0.14599067045028796,0.49911073244716225,354.1621864854472,14.24972943954989,19.429815248942653,-1.7258752546893277,7.047380880109126
STABILIZE,4.315895318984985,27.90751398934082,350.263839702537,19.660824534814886,12.289835545076583,3.808445826020653,257.5053144781374,4.9601017952762945,4.009840253315119,-1.9009626684289047,-2.574469052907056,108.79034468480349,0.5574490581971505,-9.294048571168652,-0.15233783304082613,0.49586000235411926,349.08539497524697,9.083946383306213,25.226437406916727,-12.749059180623092,6.359831525952138
STABILIZE,4.3542304039001465,26.088036075260458,351.3731715748487,14.44615977642473,18.69446142002533,4.036219668111224,256.9631055689998,4.6017675254115815,3.390239876181809,-1.3410378475364226,-2.3666473139179014,109.02121873912826,0.12109664864369796,-9.427934689814604,-0.16144878672444896,0.49234788922807826,350.78262209502026,4.39186833599288,31.29641352681753,0.12232020126747045,5.7868737308213145
STABILIZE,4.398925542831421,22.399606940491005,351.66198627327594,9.3718293437075,24.71093030584336,4.235189763243697,256.4429034751137,4.2579770890071345,2.7665853895401185,-0.7341978979781508,-2.1787795457021155,109.21573569650106,-0.2952741813182343,-9.476208094117073,-0.16940759052974788,0.48902782754184837,347.1013246085393,0.030864562713061754,35.76438122759829,-3.8257848427274723,4.010704565915763
STABILIZE,4.439162731170654,24.833060982830077,349.5888179132063,4.099584991924758,30.595008335515182,4.433281591056459,255.94477859449307,3.9287770106046978,2.1389816528151115,-0.12457020404209582,-2.080755445498443,109.37813710439644,-0.7103712005487276,-9.283363222774138,-0.17733126364225835,0.48577198665864996,342.1860973670672,-7.258483761938459,41.257994267300234,2.9453275237771805,3.4377467707849396
STABILIZE,4.476191997528076,27.008970140315405,348.54545364992106,-0.8769173775557263,35.41060584811046,4.574284396768053,255.46876671684868,3.614190942858407,1.5075346416962105,0.2850544231941914,-2.034979731124429,109.48012548908308,-1.1006493724935034,-9.191964903212854,-0.1829713758707221,0.4830484643967929,339.1363250770006,-10.63278240785253,43.507802811919035,6.207385370849195,2.4064227395494577
STABILIZE,4.518770933151245,23.492105454769494,345.6565474293749,-5.394772196192771,39.289238253445085,4.659954027487682,255.0148681896536,3.3142191154058125,0.8723514148157747,0.6950815113231936,-1.9177534078429117,109.56446466495439,-1.43111061966908,-8.919859565043925,-0.1863981610995073,0.48079155658068534,337.8709052185273,-13.50532770987901,44.61959943358985,0.6481500247796674,1.5469860468532228
STABILIZE,4.559729814529419,24.420557428400087,344.7048690916947,-9.45199806685688,42.314321115965235,4.730526642687303,254.5830470842077,3.0288377837374227,0.233540080427872,1.1636206956375794,-1.8648399323428229,109.62167432944241,-1.7386488529934756,-8.83992166652452,-0.18922106570749211,0.4789596094822313,337.31409690670813,-15.894261017327667,46.42182783941829,2.258875708875209,0.5729577951308232
STABILIZE,4.5972678661346436,26.644712100421813,341.86230939745366,-13.116447616284514,44.59682891140536,4.769535207835004,254.17323036170296,2.7579986780675014,-0.4087902369131484,1.632874862019848,-1.7938838718199108,109.62435859378623,-1.9950523753672849,-8.57431107830003,-0.19078140831340015,0.47749719042584077,331.4217089315191,-18.2913831844251,47.17692020479891,9.943335618962664,0.11459155902616465
STABILIZE,4.641151189804077,22.79413938524412,340.3863846129796,-16.329043670048,46.684379257417646,4.779511948438783,253.78530703928817,2.5016284522036685,-1.0545294296739058,2.259766379351426,-1.809762354092898,109.6019077619844,-2.2232761903873866,-8.446640295836326,-0.19118047793755133,0.47613054565645424,337.27799669945426,-23.321464030755912,51.69574599736164,1.515865192585494,-0.34377467707849396
STABILIZE,4.678195238113403,26.99923398283864,337.7120643664161,-19.124931481234338,48.46131465692334,4.781014892697606,253.4191273561343,2.259628132417582,-1.7035664406632947,2.7546381307111796,-1.771658009373866,109.5743001373592,-2.4078210767126356,-8.200837903236467,-0.19124059570790425,0.4749175594512067,329.388060122512,-24.612221463784206,52.392479809447536,9.816727254028166,-0.7448451336700702
STABILIZE,4.713463306427002,28.358286456079618,335.14689797015535,-21.67111354759052,50.218104055267034,4.7482005317814115,253.07450193949933,2.03187256631454,-2.3557892963539047,3.0300475797453728,-1.7504415208211026,109.53738296489529,-2.56955518662118,-7.967818960984484,-0.18992802127125646,0.47371305332418956,326.57999343845336,-26.23623804165991,53.40354642530834,5.029318482250616,-1.432394487827058
STABILIZE,4.761631488800049,20.765011956096618,333.1781112957656,-24.05842084788615,51.84031919826462,4.695333699427413,252.75120097079298,1.8182098717045037,-3.0110851402031784,3.5329932550343157,-1.5894743459297063,109.43501208961514,-2.722186602130015,-7.794783967843823,-0.1878133479770965,0.4725742978307661,326.43580397194887,-27.830797518805824,54.53290355440627,6.229456620630984,-2.0626480624709638
STABILIZE,4.804973602294922,23.078976763124736,331.07437624754755,-26.529223368101658,53.718122825630154,4.617692162975732,252.44895335164222,1.618460885471471,-3.669340265974995,3.7216727485442753,-1.5051220432885777,109.3775087269928,-2.878120749565999,-7.607022864779581,-0.1847076865190293,0.47130626845419743,322.3064446912561,-30.645395785502625,56.56593834162659,-1.2044288965674923,-2.4064227395494577
STABILIZE,4.840398073196411,28.237435790409123,328.5092967944249,-28.143254075058326,54.86455990028061,4.499550513669569,252.1674458699556,1.4324186124441312,-4.3304401510606425,3.8113360568736177,-1.3788699451840059,109.24875966113807,-2.9581957450163285,-7.37992686043567,-0.17998202054678278,0.47040249997432937,317.3502695935461,-31.39161756553927,57.427931370613905,9.148053974373326,-3.7815214478634336
STABILIZE,4.877695798873901,26.814885850003517,326.6525459705135,-29.960624001744442,56.370872897489505,4.360818302539415,251.9063223659889,1.2598476742660623,-4.994269489800502,3.8554061449458326,-1.21358587729375,109.07027998793646,-3.0593286767447396,-7.221755371980706,-0.1744327321015766,0.469317428806355,322.4600903154165,-33.69907109721478,59.924044795492016,5.968938935643081,-4.698253920072751
STABILIZE,4.924168586730957,21.522054145029863,325.29445339658275,-31.70870791852199,57.81184806214348,4.1638082975165,251.6651828984094,1.1004837582653622,-5.660712226805089,3.8961482233449587,-1.0602431145067919,108.83654408434946,-3.1531333725035875,-7.116219601449141,-0.16655233190066,0.46826371985552573,320.55696834007296,-34.97665762554766,60.60842224857824,8.632412608358607,-6.531718864491385
STABILIZE,4.961661338806152,26.678268391659987,323.443884290677,-33.44433262924971,59.355627607931595,3.883396754282928,251.44358291036195,0.9540330663256427,-6.329651590276512,3.7875174796904907,-0.8454957771426558,108.51092164585826,-3.233794304960374,-6.9658478534259585,-0.15533587017131711,0.46715736040089595,322.4734438522084,-36.5089210724444,62.25180128334682,9.302818828027696,-8.36518380891002
STABILIZE,5.000330448150635,25.86330562612535,322.2028724917509,-34.861267968574154,60.601414679053825,3.5650847538560053,251.24103239553256,0.820171763755944,-7.0009701253298005,3.5266345623604454,-0.6740850295668984,108.14884648776672,-3.290893755856225,-6.879205359860303,-0.14260339015424023,0.4661988075978082,319.4599657311034,-37.73007248212486,62.794873697237726,1.670967676327919,-9.969465635276325
STABILIZE,5.046088457107544,21.860362332436885,321.20182895072014,-36.32623256705207,61.89546432208999,3.193637761853361,251.05699506421473,0.6985454281604788,-7.674549727314115,2.5250236059580415,-0.4456254471137269,107.62191788386774,-3.3489260278604647,-6.8186138643218355,-0.12774551047413446,0.46521499297529795,318.57164511020767,-38.71644055792882,63.89817958579474,6.6378203016630835,-11.401860123103383
STABILIZE,5.088608264923096,23.52346286938526,320.0165687897305,-37.68830508941228,63.01005489893981,2.7051975770123953,250.89088750937321,0.5887684983092285,-8.35027167513428,1.4242251760372409,-0.2906730541993202,107.16570222844591,-3.385728280001236,-6.7465409766647495,-0.10820790308049581,0.46431983671296295,316.95372268403196,-40.50943370901584,65.49699767974111,8.153754593410824,-13.006141949469688
STABILIZE,5.123957872390747,28.294391451584612,319.382700180331,-38.97632779683344,64.1312939988165,2.2165858329514148,250.74207837271035,0.4904237230083126,-9.028016664571837,0.43346701670001664,-0.21311294780094622,106.61641158520432,-3.4210624283437205,-6.7278185764000895,-0.0886634333180566,0.46342034466830584,317.2354958160605,-41.41677116265343,66.21461774796164,8.36450927798235,-13.2926208470351
STABILIZE,5.155953407287598,31.259951555803987,319.2501762269013,-40.14381788759233,64.97212438229992,1.7502758663234912,250.60988751073012,0.40306160996996,-9.707664841606622,-0.2932828801533527,-0.13717597182580227,106.26518959770392,-3.452440911001009,-6.756477846946381,-0.07001103465293965,0.46266010538804675,316.2900779661084,-42.346371526238826,66.45595320076391,6.962599556591385,-14.55312799632291
STABILIZE,5.195810794830322,25.096357283040543,318.0992139061378,-41.22285893375468,65.54583317244204,1.3046285368164445,250.49358516080247,0.3261998746820822,-10.389095835737876,-1.2234535796537143,-0.1459299798250843,105.76739858080423,-3.4776792351605557,-6.680973506464696,-0.052185141472657785,0.46203253549591006,313.25239174930795,-43.125277712936615,65.66341764794832,9.020472322147825,-15.183381570966816
STABILIZE,5.237097501754761,24.224647976805166,317.28221992843646,-42.325379284969706,65.88551427075227,0.7648920121831981,250.39239110723042,0.25932288927977964,-11.072188793305749,-2.423409601015292,-0.29415212844694255,105.18295978409374,-3.4964892761726922,-6.6430922336795435,-0.030595680487327925,0.461521148467971,314.02101651846255,-44.22904231400394,65.5965850773459,3.1894855678798137,-15.068790011940651
STABILIZE,5.274821996688843,26.51518159117489,315.7884255541222,-43.23753566358443,65.52932377600781,0.11271601961693485,250.305473847313,0.20188113141445996,-11.756822410812482,-4.415741630962161,-0.4950077148129191,104.38686025519374,-3.4886856947269576,-6.542652471408769,-0.004508640784677394,0.46135692690658986,310.52308885769446,-45.070215602089476,63.71604520601887,6.54658756423153,-17.876283208081684
STABILIZE,5.316591262817383,23.945148233359784,314.520604022204,-44.029047366114185,64.73069517503437,-0.5495739240965222,250.23194975741148,0.15329063312437796,-12.442874968243807,-6.3573142563184355,-0.6989216251014746,103.51461777742642,-3.473486992346681,-6.463231233771724,0.02198295696386089,0.4614132149283609,309.3173934757574,-45.374329675302235,62.22147474309446,0.387126806969988,-19.70974815250032
STABILIZE,5.3574864864349365,24.45572749641412,313.66621331589556,-44.80261844915274,63.53625209924471,-1.3163590807128256,250.17088225901364,0.11293242970477735,-13.130224362390194,-7.628601571720453,-0.646957332452606,102.72557383393904,-3.4471355595896505,-6.4283484139388385,0.052654363228513024,0.46166676176918253,311.7365194597401,-46.21422694143161,60.48373782181564,3.7397845752585965,-20.397297506657306
STABILIZE,5.393371343612671,27.874500734360772,313.33988922704054,-45.52144325641368,62.13215143290389,-2.0741936396050566,250.1212809847991,0.08015200857843041,-13.818748140168381,-8.244043450847268,-0.6250656156673632,102.0083151786285,-3.417537170423046,-6.442540899462599,0.08296774558420227,0.4620245502134639,314.3431299731917,-46.71940174924136,58.64291431624421,19.860491479676483,-20.798367963248882
STABILIZE,5.427266597747803,29.50556090972403,313.25562014545926,-45.89053504707334,60.09603667624708,-2.76931637966978,250.0821009447044,0.05425875816509773,-14.50832353194231,-8.242962573411113,-0.5708898891921442,101.46709781898585,-3.3666418425993587,-6.4737070488158,0.1107726551867912,0.4626978198959053,316.5613431634099,-46.07450126730225,55.416011294061875,2.1628096407298614,-20.855663742761966
STABILIZE,5.469933271408081,23.44299807171003,313.5773257694289,-45.85065430976956,58.30773574763928,-3.4494718031112326,250.05224169198743,0.0345254167523521,-15.198827484844912,-7.4656298430293635,-0.275903810655799,100.42819189528106,-3.2826423319594116,-6.539858859712837,0.13797887212444931,0.4632467183837579,318.8637229578656,-44.8708119155706,54.77454056297982,8.346472724446699,-21.19943841984046
STABILIZE,5.512486219406128,23.505138924692616,314.220460941884,-45.30491198212782,56.898512417017,-4.245474754142507,250.03054648929356,0.020187521365834016,-15.890136696099006,-5.617816505070325,-0.03737679617029317,99.43385295591061,-3.14153022431903,-6.635306203278417,0.1698189901657003,0.463605675443442,318.39747312894923,-42.645618037093534,55.175358089983064,4.041534845339726,-19.595156593474155
STABILIZE,5.553268671035767,24.5259421688156,315.1766139618572,-44.12847115845274,56.22443162438109,-5.0072024801218085,250.01580147471918,0.010442856638597675,-16.582127646338975,-3.679657266751765,0.09156391518760422,98.65338089983159,-2.949508127825154,-6.749972072659206,0.20028809920487234,0.46359672036463995,321.67024067824786,-40.3320228230562,57.11333385863608,6.688274329998791,-17.99087476710785
STABILIZE,5.590517520904541,26.852997855245047,316.3567330462698,-42.11337670489191,56.25293027072972,-5.699617127481023,250.0067348278775,0.004450903682162277,-17.274676632931786,-2.373110807306849,-0.03084382695088176,98.08609953831618,-2.694328013053342,-6.871010000506604,0.2279846850992409,0.4632361965481693,319.9640415329956,-36.64392948143723,58.78540754798739,0.5507157966322893,-16.902254956359286
