E-kp,E-ki,E-kd,E-I-Tot,E-P,E-I,E-D,E-PID,N-kp,N-ki,N-kd,N-I-Tot,N-P,N-I,N-D,N-PID,D-kp,D-ki,D-kd,D-I-Tot,D-P,D-I,D-D,D-PID,Y-kp,Y-ki,Y-kd,Y-I-Tot,Y-P,Y-I,Y-D,Y-PID,errorN,desiredN,actualN,errorE,desiredE,actualE,errorD,desiredD,actualD,errorY,desiredY,actualY,roll,pitch,yaw-rate,thrust,dt,Time,Mode
0.035,0.005,0.05,-0.0008074686185871404,-0.0008546711801497416,-4.0373430929357015e-06,-0.03692379932231395,-0.037782507845556625,0.035,0.005,0.05,-0.0008624695375442559,-0.0009128873129285602,-4.31234768772128e-06,-0.03943887278444902,-0.040356072445065304,0.002,8e-05,0,-0.0009454306701438212,-5.718275098969537e-05,-7.56344536115057e-08,-0.0,-5.7258385443306876e-05,0.1,0.02,0,-0.0008265485969381144,-0.002499618644294897,-1.6530971938762288e-05,-0.0,-0.0025161496162336592,-0.026082494655101717,0.0,0.026082494655101717,-0.0244191765757069,0.0,0.0244191765757069,-0.028591375494847686,0.0,0.028591375494847686,-0.024996186442948966,0,0.024996186442948966,-0.0378001102218358,0.04033958539087842,0.0025161496162336592,0.4,0.03306698799133301,0.0333714485168457,STABILIZE
0.035,0.005,0.05,-0.002431901725533749,-0.0017031347603287505,-1.2159508627668745e-05,-0.03661640022792049,-0.03833169449687691,0.035,0.005,0.05,-0.0027138961269543033,-0.0019411257792868884,-1.3569480634771517e-05,-0.041720564379747464,-0.043675259639669124,0.002,8e-05,0,-0.002990937426726451,-0.0001225490786284744,-2.392749941381161e-07,-0.0,-0.0001227883536226125,0.1,0.02,0,-0.0024437316307034007,-0.004844381230317659,-4.8874632614068016e-05,-0.0,-0.004893255862931727,-0.05546073655105395,0.0,0.05546073655105395,-0.04866099315225001,0.0,0.04866099315225001,-0.0612745393142372,0.0,0.0612745393142372,-0.048443812303176584,0,0.048443812303176584,-0.038368608399155034,0.0436428344302556,0.004893255862931727,0.4,0.03338265419006348,0.06667876243591309,STABILIZE
0.035,0.005,0.05,-0.005468837042369748,-0.0031794838655968697,-2.734418521184874e-05,-0.045440136299050526,-0.04864696434985925,0.035,0.005,0.05,-0.0058699018375825834,-0.003304143219990774,-2.9349509187912916e-05,-0.0472286095562873,-0.05056210228546599,0.002,8e-05,0,-0.007118810246606766,-0.0002469501776494667,-5.695048197285413e-07,-0.0,-0.0002475196824691952,0.1,0.02,0,-0.005479113486264472,-0.009079592821448752,-0.00010958226972528945,-0.0,-0.009189175091174041,-0.0944040919997364,0.0,0.0944040919997364,-0.09084239615991055,0.0,0.09084239615991055,-0.12347508882473335,0.0,0.12347508882473335,-0.09079592821448751,0,0.09079592821448751,-0.04872702838576389,0.050484948575544385,0.009189175091174041,0.4,0.03343081474304199,0.10011887550354004,STABILIZE
0.035,0.005,0.05,-0.008878832858287423,-0.003566875450137071,-4.439416429143712e-05,-0.03821493742667658,-0.04182620704110509,0.035,0.005,0.05,-0.009555683072406763,-0.00385534860180827,-4.777841536203382e-05,-0.041304763639115775,-0.04520789065628608,0.002,8e-05,0,-0.01206898000913198,-0.00029588036304563863,-9.655184007305585e-07,-0.0,-0.0002968458814463692,0.1,0.02,0,-0.008865429401455025,-0.010120303246556602,-0.0001773085880291005,-0.0,-0.010297611834585703,-0.110152817194522,0.0,0.110152817194522,-0.10191072714677345,0.0,0.10191072714677345,-0.14794018152281932,0.0,0.14794018152281932,-0.10120303246556601,0,0.10120303246556601,-0.041905993631168405,0.04513394145009474,0.010297611834585703,0.4,0.03346061706542969,0.13360977172851562,STABILIZE
0.035,0.005,0.05,-0.012698432413763316,-0.003988672902499513,-6.349216206881659e-05,-0.034167608562246383,-0.03821977362681471,0.035,0.005,0.05,-0.013869050530986261,-0.004504297283178334,-6.934525265493131e-05,-0.03857584508462432,-0.04314948762045758,0.002,8e-05,0,-0.01800702223688947,-0.0003543364433702593,-1.4405617789511577e-06,-0.0,-0.0003557770051492105,0.1,0.02,0,-0.012629798269839619,-0.01123142127654468,-0.0002525959653967924,-0.0,-0.011484017241941471,-0.12869420809080953,0.0,0.12869420809080953,-0.11396208292855751,0.0,0.11396208292855751,-0.17716822168512966,0.0,0.17716822168512966,-0.11231421276544679,0,0.11231421276544679,-0.03830428404552578,0.043074484346915444,0.011484017241941471,0.4,0.03351640701293945,0.16710686683654785,STABILIZE
0.035,0.005,0.05,-0.01684263800548446,-0.004346663283555246,-8.42131900274223e-05,-0.029847986294808893,-0.03427886276839156,0.035,0.005,0.05,-0.018392423853346974,-0.0047443545700040675,-9.196211926673487e-05,-0.03274345708063436,-0.03757977376990516,0.002,8e-05,0,-0.024917142825297476,-0.00041415440401308993,-1.9933714260237984e-06,-0.0,-0.0004161477754391137,0.1,0.02,0,-0.017004178198162256,-0.013108806778136611,-0.0003400835639632451,-0.0,-0.013448890342099857,-0.1355529877144019,0.0,0.1355529877144019,-0.12419037953014986,0.0,0.12419037953014986,-0.20707720200654495,0.0,0.20707720200654495,-0.1310880677813661,0,0.1310880677813661,-0.03436475243146441,0.03750124824076704,0.013448890342099857,0.4,0.03336977958679199,0.20051884651184082,STABILIZE
0.035,0.005,0.05,-0.02200444488023344,-0.005336351331837197,-0.0001100222244011672,-0.030938463276617395,-0.03638483683285576,0.035,0.005,0.05,-0.023793054854329098,-0.005583251201402942,-0.0001189652742716455,-0.031022708653477317,-0.0367249251291519,0.002,8e-05,0,-0.03424445663664921,-0.0005510121849901455,-2.739556530931937e-06,-0.0,-0.0005537517415210775,0.1,0.02,0,-0.02289030162445985,-0.017386172459956557,-0.000457806032489197,-0.0,-0.017843978492445754,-0.1595214628972269,0.0,0.1595214628972269,-0.15246718090963418,0.0,0.15246718090963418,-0.27550609249507274,0.0,0.27550609249507274,-0.17386172459956556,0,0.17386172459956556,-0.03649610944649982,0.03661434790303463,0.017843978492445754,0.4,0.03385519981384277,0.23436832427978516,STABILIZE
0.035,0.005,0.05,-0.027990605582641284,-0.006255853282193757,-0.00013995302791320642,-0.026165251605172704,-0.03256105791527967,0.035,0.005,0.05,-0.029779086308250664,-0.006255718210716843,-0.00014889543154125332,-0.025110613161270046,-0.03151522680352814,0.002,8e-05,0,-0.04574694532830219,-0.0006868975216321379,-3.6597556262641755e-06,-0.0,-0.0006905572772584021,0.1,0.02,0,-0.029516959185616906,-0.019786303544757168,-0.0005903391837123381,-0.0,-0.020376642728469507,-0.1787348060204812,0.0,0.1787348060204812,-0.17873866520553588,0.0,0.17873866520553588,-0.34344876081606895,0.0,0.34344876081606895,-0.19786303544757167,0,0.19786303544757167,-0.03266969701127185,0.03140259400482245,0.020376642728469507,0.4,0.03349113464355469,0.2678849697113037,STABILIZE
0.035,0.005,0.05,-0.0339097815311777,-0.006191845410427494,-0.0001695489076558885,-0.022310800400562755,-0.028672194718646137,0.035,0.005,0.05,-0.03620754614655284,-0.006724589688155968,-0.0001810377307327642,-0.024407806757038478,-0.03131343417592721,0.002,8e-05,0,-0.05886238268385306,-0.000783977473522638,-4.708990614708245e-06,-0.0,-0.0007886864641373463,0.1,0.02,0,-0.036215406495788645,-0.020020040721441798,-0.0007243081299157729,-0.0,-0.02074434885135757,-0.19213113394731338,0.0,0.19213113394731338,-0.17690986886935695,0.0,0.17690986886935695,-0.391988736761319,0.0,0.391988736761319,-0.20020040721441798,0,0.20020040721441798,-0.028781433497286922,0.031213058096177245,0.02074434885135757,0.4,0.033458709716796875,0.30141782760620117,STABILIZE
0.035,0.005,0.05,-0.03980892957983102,-0.006175295280791371,-0.00019904464789915512,-0.018573714318738062,-0.02494805424742859,0.035,0.005,0.05,-0.042659681579206174,-0.006754168764655197,-0.00021329840789603087,-0.019128537593867245,-0.026096004766418473,0.002,8e-05,0,-0.07292943700267508,-0.0008414601414423183,-5.834354960214007e-06,-0.0,-0.0008472944964025323,0.1,0.02,0,-0.04314023491741929,-0.020711397607004696,-0.0008628046983483858,-0.0,-0.02157420230535308,-0.1929762504187199,0.0,0.1929762504187199,-0.1764370080226106,0.0,0.1764370080226106,-0.42073007072115914,0.0,0.42073007072115914,-0.20711397607004695,0,0.20711397607004695,-0.025042223426004054,0.026005651720033263,0.02157420230535308,0.4,0.03343486785888672,0.33478426933288574,STABILIZE
0.035,0.005,0.05,-0.04571626904495726,-0.006176338887504102,-0.00022858134522478628,-0.015517483896283088,-0.021922404129011978,0.035,0.005,0.05,-0.048976706416367574,-0.006604679887692132,-0.0002448835320818379,-0.015797264725568617,-0.022646828145342586,0.002,8e-05,0,-0.08789609263382095,-0.0008941819650065545,-7.0316874107056765e-06,-0.0,-0.0009012136524172601,0.1,0.02,0,-0.05023918041734078,-0.0212063041772153,-0.0010047836083468156,-0.0,-0.022211087785562116,-0.18870513964834662,0.0,0.18870513964834662,-0.17646682535726005,0.0,0.17646682535726005,-0.4470909825032772,0.0,0.4470909825032772,-0.212063041772153,0,0.212063041772153,-0.022006074183587965,0.022565534047897597,0.022211087785562116,0.4,0.033475637435913086,0.3682842254638672,STABILIZE
0.035,0.005,0.05,-0.05162836909904103,-0.0060981013025549835,-0.0002581418454952052,-0.006506439124846561,-0.01286268227289675,0.035,0.005,0.05,-0.0551440327020806,-0.006361357235524091,-0.000275720163510403,-0.0066687631524254476,-0.013305840551459943,0.002,8e-05,0,-0.10373200903883303,-0.0009333789692629831,-8.298560723106643e-06,-0.0,-0.0009416775299860898,0.1,0.02,0,-0.05750749887983973,-0.021419965290594777,-0.0011501499775967946,-0.0,-0.02257011526819157,-0.18175306387211687,0.0,0.18175306387211687,-0.17423146578728524,0.0,0.17423146578728524,-0.46668948463149157,0.0,0.46668948463149157,-0.21419965290594775,0,0.21419965290594775,-0.01291233601196291,0.013257660681603445,0.02257011526819157,0.4,0.03393244743347168,0.40221333503723145,STABILIZE
0.035,0.005,0.05,-0.057307515021546906,-0.005942875668828342,-0.00028653757510773456,0.0026638630924800035,-0.003565550151456073,0.035,0.005,0.05,-0.0607545881380185,-0.005871099958307762,-0.0003037729406900925,0.003256032194484464,-0.002918840704513391,0.002,8e-05,0,-0.11983398476660835,-0.0009628413555580873,-9.58671878132867e-06,-0.0,-0.0009724280743394159,0.1,0.02,0,-0.06434873050716344,-0.02045407608700109,-0.0012869746101432688,-0.0,-0.021741050697144357,-0.16774571309450748,0.0,0.16774571309450748,-0.16979644768080976,0.0,0.16979644768080976,-0.4814206777790436,0.0,0.4814206777790436,-0.20454076087001088,0,0.20454076087001088,-0.003575947407043018,0.0029060934401589655,0.021741050697144357,0.4,0.0334467887878418,0.43563246726989746,STABILIZE
0.035,0.005,0.05,-0.0637688390266872,-0.006761232165044723,-0.00031884419513343603,-0.004873260753247749,-0.011953337113425909,0.035,0.005,0.05,-0.0667498664132481,-0.006273554503787195,-0.0003337493320662405,0.0038220355811832796,-0.0027852682546701557,0.002,8e-05,0,-0.13815487319354247,-0.001095501081519484,-1.1052389855483398e-05,-0.0,-0.0011065534713749672,0.1,0.02,0,-0.07157656543732989,-0.021609489666999427,-0.0014315313087465977,-0.0,-0.023041020975746025,-0.17924441439391983,0.0,0.17924441439391983,-0.19317806185842065,0.0,0.19317806185842065,-0.5477505407597419,0.0,0.5477505407597419,-0.21609489666999426,0,0.21609489666999426,-0.011963756899250519,0.002740165734643469,0.023041020975746025,0.4,0.0334475040435791,0.469052791595459,STABILIZE
0.035,0.005,0.05,-0.0685730004394983,-0.005022604048427338,-0.00034286500219749146,0.009823537108223227,0.004458068057598398,0.035,0.005,0.05,-0.07586274094612003,-0.009527232036700247,-0.00037931370473060015,-0.023693530024229862,-0.03360007576566071,0.002,8e-05,0,-0.15768710428867883,-0.0011668772078859216,-1.2614968343094306e-05,-0.0,-0.0011794921762290158,0.1,0.02,0,-0.07687993927098133,-0.015841472541576168,-0.0015375987854196265,0.0,-0.017379071326995794,-0.272206629620007,0.0,0.272206629620007,-0.14350297281220964,0.0,0.14350297281220964,-0.5834386039429608,0.0,0.5834386039429608,-0.15841472541576168,0,0.15841472541576168,0.004365151679749432,0.03361227325066098,0.017379071326995794,0.4,0.033477783203125,0.5025684833526611,STABILIZE
0.035,0.005,0.05,-0.07369167709544615,-0.005354394455145468,-0.00036845838547723076,0.006999223609318529,0.0012763707686958307,0.035,0.005,0.05,-0.08469797467880481,-0.009242100974131853,-0.0004234898733940241,-0.02253462857976142,-0.0322002194272873,0.002,8e-05,0,-0.1776575077565964,-0.0011937172134005123,-1.4212600620527713e-05,-0.0,-0.00120792981402104,0.1,0.02,0,-0.08157143558654499,-0.01402154923281929,-0.0016314287117308998,0.0,-0.01565297794455019,-0.2640600278323386,0.0,0.2640600278323386,-0.15298269871844195,0.0,0.15298269871844195,-0.5968586067002561,0.0,0.5968586067002561,-0.1402154923281929,0,0.1402154923281929,0.0011975659398295712,0.032203246564972164,0.01565297794455019,0.4,0.03345918655395508,0.536052942276001,STABILIZE
0.035,0.005,0.05,-0.07828246807950953,-0.004805075467129175,-0.00039141234039754766,0.011034003525994537,0.005837515718467814,0.035,0.005,0.05,-0.09457001343931273,-0.010332836198235835,-0.00047285006719656366,-0.03390299884295888,-0.04470868510839128,0.002,8e-05,0,-0.1991683941376487,-0.0012865686082620567,-1.5933471531011897e-05,-0.0,-0.0013025020797930685,0.1,0.02,0,-0.08708310927517748,-0.01648269211496716,-0.0017416621855035497,0.0,-0.01822435430047071,-0.2952238913781667,0.0,0.2952238913781667,-0.137287870489405,0.0,0.137287870489405,-0.6432843041310283,0.0,0.6432843041310283,-0.1648269211496716,0,0.1648269211496716,0.005708875026282516,0.04472529328935625,0.01822435430047071,0.4,0.03343915939331055,0.5694334506988525,STABILIZE
0.035,0.005,0.05,-0.08216310801596471,-0.0040583333424603005,-0.00041081554007982356,0.01608299283997518,0.011613843957435057,0.035,0.005,0.05,-0.104889437744156,-0.010791947827449348,-0.00052444718872078,-0.0420104127285155,-0.05332680774468563,0.002,8e-05,0,-0.2209266279073732,-0.0013002592654326763,-1.7674130232589856e-05,-0.0,-0.001317933395665266,0.1,0.02,0,-0.09336662490143927,-0.0187749600886868,-0.0018673324980287853,0.0,-0.020642292586715585,-0.30834136649855276,0.0,0.30834136649855276,-0.11595238121315142,0.0,0.11595238121315142,-0.6501296327163382,0.0,0.6501296327163382,-0.18774960088686798,0,0.18774960088686798,0.011439038036124543,0.05336457818173409,0.020642292586715585,0.4,0.03346753120422363,0.6029644012451172,STABILIZE
0.035,0.005,0.05,-0.08596323998201665,-0.003972865335647016,-0.00042981619991008324,0.02380294522200171,0.01940026368644461,0.035,0.005,0.05,-0.11456649109109596,-0.010116919658768308,-0.0005728324554554798,-0.032811668895081095,-0.04350142100930488,0.002,8e-05,0,-0.2428870042834341,-0.0013119186211969654,-1.943096034267473e-05,-0.0,-0.0013313495815396401,0.1,0.02,0,-0.09824957359571246,-0.014585431526004373,-0.001964991471914249,0.0,-0.01655042299791862,-0.28905484739338017,0.0,0.28905484739338017,-0.11351043816134332,0.0,0.11351043816134332,-0.6559593105984827,0.0,0.6559593105984827,-0.14585431526004372,0,0.14585431526004372,0.019289462074919415,0.04355066605452343,0.01655042299791862,0.4,0.0334782600402832,0.6364443302154541,STABILIZE
0.035,0.005,0.05,-0.08989143463818754,-0.00411222546776723,-0.00044945717319093767,0.007773789507019471,0.0032121068660613036,0.035,0.005,0.05,-0.1244408523451791,-0.01033696223866769,-0.0006222042617258955,-0.006923756962236691,-0.017882923462630276,0.002,8e-05,0,-0.26549093405371665,-0.0013521653992514518,-2.1239274724297335e-05,-0.0,-0.001373404673975749,0.1,0.02,0,-0.10182469105130906,-0.010693163027061515,-0.0020364938210261814,0.0,-0.012729656848087696,-0.29534177824764823,0.0,0.29534177824764823,-0.11749215622192086,0.0,0.11749215622192086,-0.6760826996257259,0.0,0.6760826996257259,-0.10693163027061514,0,0.10693163027061514,0.0031787262299665876,0.017888887099096272,0.012729656848087696,0.4,0.03343367576599121,0.6698436737060547,STABILIZE
0.035,0.005,0.05,-0.09379420530104807,-0.004074684980699042,-0.0004689710265052403,0.010926962174496117,0.006383306167291835,0.035,0.005,0.05,-0.13026455942616597,-0.006080237304411615,-0.0006513227971308298,0.02692088948336642,0.020189329381823974,0.002,8e-05,0,-0.28826160011456115,-0.0013584970270564666,-2.3060928009164894e-05,-0.0,-0.0013815579550656315,0.1,0.02,0,-0.10629976654243885,-0.013349141246700103,-0.002125995330848777,0.0,-0.01547513657754888,-0.17372106584033184,0.0,0.17372106584033184,-0.11641957087711548,0.0,0.11641957087711548,-0.6792485135282333,0.0,0.6792485135282333,-0.13349141246700102,0,0.13349141246700102,0.006430327204842351,-0.02017440235922321,0.01547513657754888,0.4,0.0335233211517334,0.7033648490905762,STABILIZE
0.035,0.005,0.05,-0.09772078434520208,-0.004110241061404283,-0.0004886039217260104,0.005929584631901204,0.0013307396487709103,0.035,0.005,0.05,-0.139199134520116,-0.009352481385043805,-0.0006959956726005801,0.00827882665993487,-0.0017696503977095157,0.002,8e-05,0,-0.31024124020777444,-0.0013147266828035307,-2.4819299216621956e-05,-0.0,-0.0013395459820201526,0.1,0.02,0,-0.10906864646937633,-0.008281119040133495,-0.0021813729293875266,0.0,-0.010462491969521022,-0.2672137538583944,0.0,0.2672137538583944,-0.11743545889726523,0.0,0.11743545889726523,-0.6573633414017653,0.0,0.6573633414017653,-0.08281119040133496,0,0.08281119040133496,0.0013281805345760297,0.0017715719038463285,0.010462491969521022,0.4,0.03343605995178223,0.7368760108947754,STABILIZE
0.035,0.005,0.05,-0.10048481685350934,-0.0028886007062028235,-0.0005024240842675467,0.009976617026599762,0.0065855922361293924,0.035,0.005,0.05,-0.15198328234647276,-0.013360298161627251,-0.0007599164117323638,-0.021993051497549057,-0.03611326607090867,0.002,8e-05,0,-0.33204443288640845,-0.0013020462485194755,-2.656355463091268e-05,-0.0,-0.0013286098031503881,0.1,0.02,0,-0.11597414265399512,-0.02061917154490732,-0.0023194828530799026,-0.0,-0.022938654397987222,-0.3817228046179214,0.0,0.3817228046179214,-0.08253144874865209,0.0,0.08253144874865209,-0.6510231242597377,0.0,0.6510231242597377,-0.2061917154490732,0,0.2061917154490732,0.006455588183232651,0.03613673190283425,0.022938654397987222,0.4,0.033490657806396484,0.7702789306640625,STABILIZE
0.035,0.005,0.05,-0.10349785076833715,-0.0031546855554096275,-0.0005174892538416857,0.006972966383332637,0.0033007915740813237,0.035,0.005,0.05,-0.16393748952079007,-0.012516209828772561,-0.0008196874476039504,-0.02053949934660082,-0.03387539662297733,0.002,8e-05,0,-0.35310946422515316,-0.001260306331322845,-2.8248757138012254e-05,0.0,-0.0012885550884608572,0.1,0.02,0,-0.12905478289823547,-0.03913028528766216,-0.0025810956579647095,-0.0,-0.04171138094562687,-0.35760599510778746,0.0,0.35760599510778746,-0.09013387301170364,0.0,0.09013387301170364,-0.6301531656614224,0.0,0.6301531656614224,-0.39130285287662153,0,0.39130285287662153,0.003069363588826299,0.033897149268620475,0.04171138094562687,0.4,0.03342843055725098,0.8037073612213135,STABILIZE
0.035,0.005,0.05,-0.10563385157306715,-0.0022342533412296854,-0.0005281692578653357,0.0160232485115224,0.01326082591242738,0.035,0.005,0.05,-0.17855285056446688,-0.015287643699760052,-0.0008927642528223343,-0.0423236952530591,-0.05850410320564149,0.002,8e-05,0,-0.3744168936146834,-0.0012735734984249405,-2.9953351489174672e-05,0.0,-0.0013035268499141152,0.1,0.02,0,-0.1409515752684669,-0.035554358064506235,-0.0028190315053693384,-0.0,-0.03837338956987557,-0.4367898199931443,0.0,0.4367898199931443,-0.06383580974941958,0.0,0.06383580974941958,-0.6367867492124702,0.0,0.6367867492124702,-0.35554358064506236,0,0.35554358064506236,0.012897531205566535,0.05858526508071372,0.03837338956987557,0.4,0.03346085548400879,0.8372032642364502,STABILIZE
0.035,0.005,0.05,-0.10755785071164566,-0.0020138057018179467,-0.0005377892535582283,0.017586867784701782,0.015035272829325607,0.035,0.005,0.05,-0.19375812778968068,-0.015915014388458167,-0.0009687906389484035,-0.08396357426191525,-0.10084737928932183,0.002,8e-05,0,-0.396197971806201,-0.0013027288117700034,-3.169583774449608e-05,0.0,-0.0013344246495144995,0.1,0.02,0,-0.152686029883182,-0.0350919545455516,-0.00305372059766364,-0.0,-0.038145675143215235,-0.4547146968130904,0.0,0.4547146968130904,-0.05753730576622704,0.0,0.05753730576622704,-0.6513644058850017,0.0,0.6513644058850017,-0.35091954545551596,0,0.35091954545551596,0.014417334597503826,0.10093757378538586,0.038145675143215235,0.4,0.03343915939331055,0.8706119060516357,STABILIZE
0.035,0.005,0.05,-0.10926779817287915,-0.0017893544735430012,-0.0005463389908643958,0.019808039532457397,0.01747234606805,0.035,0.005,0.05,-0.2096981313280791,-0.016680229823639942,-0.0010484906566403955,-0.06253868055879334,-0.08026740103907368,0.002,8e-05,0,-0.41861521209571334,-0.0013404719019041503,-3.348921696765707e-05,-0.0,-0.0013739611188718073,0.1,0.02,0,-0.16438810769175063,-0.03498714893916048,-0.003287762153835013,-0.0,-0.038274911092995495,-0.47657799496114117,0.0,0.47657799496114117,-0.05112441352980003,0.0,0.05112441352980003,-0.6702359509520751,0.0,0.6702359509520751,-0.3498714893916048,0,0.3498714893916048,0.01698187774255176,0.0803725971648684,0.038274911092995495,0.4,0.0334467887878418,0.9040672779083252,STABILIZE
0.035,0.005,0.05,-0.11134057542008349,-0.002157728469284964,-0.0005567028771004174,0.006255645803776114,0.0035412144573907325,0.035,0.005,0.05,-0.2216113470229633,-0.01240146991204888,-0.0011080567351148165,0.00801283760616872,-0.0054966890409949756,0.002,8e-05,0,-0.4422648784537993,-0.0014067960120036792,-3.538119027630395e-05,-0.0,-0.0014421772022799831,0.1,0.02,0,-0.1762651812103865,-0.03532527564512272,-0.0035253036242077302,-0.0,-0.03885057926933045,-0.35432771177282507,0.0,0.35432771177282507,-0.061649384836713256,0.0,0.061649384836713256,-0.7033980060018395,0.0,0.7033980060018395,-0.3532527564512272,0,0.3532527564512272,0.003507257950349391,0.0055184175192113175,0.03885057926933045,0.4,0.033622026443481445,0.9377114772796631,STABILIZE
0.035,0.005,0.05,-0.11278580809854839,-0.0015108067574899828,-0.000563929040492742,0.014050491261858176,0.011975755463875451,0.035,0.005,0.05,-0.23577311428541536,-0.014804324588646275,-0.0011788655714270767,-0.019706754677836953,-0.035689944837910305,0.002,8e-05,0,-0.4669003083611677,-0.0014716117354990064,-3.735202466889342e-05,-0.0,-0.0015089637601678999,0.1,0.02,0,-0.1862703893982886,-0.029883346547615215,-0.003725407787965772,0.0,-0.033608754335580984,-0.42298070253275066,0.0,0.42298070253275066,-0.043165907356856645,0.0,0.043165907356856645,-0.7358058677495032,0.0,0.7358058677495032,-0.29883346547615214,0,0.29883346547615214,0.011789447949695626,0.035751920207242584,0.033608754335580984,0.4,0.03348088264465332,0.9711892604827881,STABILIZE
0.035,0.005,0.05,-0.11400545818413266,-0.001277244513449225,-0.0005700272909206633,0.008187805172672603,0.0063405333683027145,0.035,0.005,0.05,-0.2524726564575496,-0.017488129479575003,-0.0012623632822877482,-0.018985321891852737,-0.03773581465371549,0.002,8e-05,0,-0.491740358029553,-0.0014864599294384725,-3.933922864236424e-05,-0.0,-0.0015257991580808366,0.1,0.02,0,-0.19498582716576637,-0.026077139904753945,-0.0038997165433153277,0.0,-0.029976856448069272,-0.4996608422735715,0.0,0.4996608422735715,-0.03649270038426357,0.0,0.03649270038426357,-0.7432299647192362,0.0,0.7432299647192362,-0.26077139904753943,0,0.26077139904753943,0.006168720541442651,0.0377642815085328,0.029976856448069272,0.4,0.03342175483703613,1.0045738220214844,STABILIZE
0.035,0.005,0.05,-0.11549374178724481,-0.0015569751819957396,-0.0005774687089362241,0.003915322809930474,0.0017808789189985102,0.035,0.005,0.05,-0.26699839390075114,-0.015196171382899174,-0.0013349919695037557,0.005948536710455182,-0.010582626641947746,0.002,8e-05,0,-0.5166488037898559,-0.0014890338600128466,-4.133190430318847e-05,-0.0,-0.001530365764316035,0.1,0.02,0,-0.20400455816400662,-0.02695711318152494,-0.004080091163280133,0.0,-0.031037204344805072,-0.43417632522569066,0.0,0.43417632522569066,-0.04448500519987827,0.0,0.04448500519987827,-0.7445169300064233,0.0,0.7445169300064233,-0.2695711318152494,0,0.2695711318152494,0.0017310691513562808,0.010590888346131224,0.031037204344805072,0.4,0.033455848693847656,1.0380761623382568,STABILIZE
0.035,0.005,0.05,-0.11698283582592355,-0.0014888368401933159,-0.0005849141791296178,0.002554116413734814,0.0004803653944118807,0.035,0.005,0.05,-0.2838967267945697,-0.01689541418921455,-0.0014194836339728484,-0.001383696675651548,-0.01969859449883895,0.002,8e-05,0,-0.5430307979128705,-0.0015072821363809775,-4.344246383302964e-05,-0.0,-0.001550724600214007,0.1,0.02,0,-0.21257932298490048,-0.024495096500166492,-0.00425158645969801,0.0,-0.028746682959864503,-0.48272611969184426,0.0,0.48272611969184426,-0.04253819543409473,0.0,0.04253819543409473,-0.7536410681904887,0.0,0.7536410681904887,-0.2449509650016649,0,0.2449509650016649,0.0003961458132050508,0.019700468132420525,0.028746682959864503,0.4,0.035006046295166016,1.0730597972869873,STABILIZE
0.035,0.005,0.05,-0.11836999035482615,-0.001385508913909176,-0.0005918499517741307,0.006526988852526997,0.0045496299868436904,0.035,0.005,0.05,-0.3014557951364295,-0.017538237594072196,-0.0015072789756821476,-0.04298518637231115,-0.06203070294206549,0.002,8e-05,0,-0.5707995199482528,-0.0015849016759026014,-4.566396159586023e-05,-0.0,-0.0016305656374984616,0.1,0.02,0,-0.2214277083347404,-0.025251109417503005,-0.0044285541666948085,0.0,-0.029679663584197814,-0.5010925026877769,0.0,0.5010925026877769,-0.039585968968833596,0.0,0.039585968968833596,-0.7924508379513007,0.0,0.7924508379513007,-0.25251109417503004,0,0.25251109417503004,0.0042762080762961535,0.06205015136961536,0.029679663584197814,0.4,0.03504157066345215,1.1081387996673584,STABILIZE
0.035,0.005,0.05,-0.11964953484697853,-0.0013363257070242137,-0.0005982476742348926,0.0014256948389696567,-0.0005088785422894496,0.035,0.005,0.05,-0.3177879034868432,-0.01705686388587379,-0.001588939517434216,-0.01837609383927633,-0.03702189724258433,0.002,8e-05,0,-0.5972268854427231,-0.0015771491047134492,-4.777815083541785e-05,-0.0,-0.001624927255548867,0.1,0.02,0,-0.229799379782966,-0.024980496319784308,-0.00459598759565932,0.0,-0.029576483915443628,-0.48733896816782246,0.0,0.48733896816782246,-0.038180734486406104,0.0,0.038180734486406104,-0.7885745523567246,0.0,0.7885745523567246,-0.24980496319784307,0,0.24980496319784307,-0.0006702856710537724,0.03701932670822709,0.029576483915443628,0.4,0.03351283073425293,1.1416871547698975,STABILIZE
0.035,0.005,0.05,-0.12098979969431808,-0.0013839577491027994,-0.0006049489984715905,-0.0009724798373663721,-0.002961386584940762,0.035,0.005,0.05,-0.33173152124426236,-0.014398182481778304,-0.0016586576062213119,0.026978148771962824,0.010921308683963207,0.002,8e-05,0,-0.6244050399704069,-0.001603666731118304,-4.9952403197632554e-05,-0.0,-0.0016536191343159367,0.1,0.02,0,-0.23719999491004198,-0.021833933310324096,-0.00474399989820084,0.0,-0.026577933208524935,-0.41137664233652294,0.0,0.41137664233652294,-0.0395416499743657,0.0,0.0395416499743657,-0.801833365559152,0.0,0.801833365559152,-0.21833933310324094,0,0.21833933310324094,-0.002919746912873569,-0.01093251443358949,0.026577933208524935,0.4,0.033895015716552734,1.175504207611084,STABILIZE
0.035,0.005,0.05,-0.1222738282986055,-0.0013387040295990964,-0.0006113691414930275,0.0018015796279853187,-0.00014849354310680538,0.035,0.005,0.05,-0.34616476004052826,-0.015047822822802185,-0.0017308238002026414,0.0018757326934588604,-0.014902913929545965,0.002,8e-05,0,-0.6509427808588236,-0.0015810142077234447,-5.207542246870589e-05,-0.0,-0.0016330896301921505,0.1,0.02,0,-0.24530273763705998,-0.02413647685160502,-0.0049060547527412,0.0,-0.02904253160434622,-0.42993779493720524,0.0,0.42993779493720524,-0.03824868655997418,0.0,0.03824868655997418,-0.7905071038617223,0.0,0.7905071038617223,-0.24136476851605018,0,0.24136476851605018,-0.00021127220272732124,0.014902156152052436,0.02904253160434622,0.4,0.03357052803039551,1.209120273590088,STABILIZE
0.035,0.005,0.05,-0.12351154211483899,-0.0012954866197036692,-0.000617557710574195,0.0016147069531571975,-0.0002983373771206666,0.035,0.005,0.05,-0.3612377766518069,-0.015776580242034696,-0.0018061888832590345,0.009517982981927025,-0.008064786143366707,0.002,8e-05,0,-0.677168802268594,-0.0015685813809671841,-5.4173504181487526e-05,-0.0,-0.0016227548851486717,0.1,0.02,0,-0.25417827898795753,-0.0265423578580539,-0.00508356557975915,-0.0,-0.03162592343781305,-0.4507594354867056,0.0,0.4507594354867056,-0.037013903420104834,0.0,0.037013903420104834,-0.784290690483592,0.0,0.784290690483592,-0.265423578580539,0,0.265423578580539,-0.0003356942879839043,0.00806331756002713,0.03162592343781305,0.4,0.03343915939331055,1.2426373958587646,STABILIZE
0.035,0.005,0.05,-0.12491519856562887,-0.0013404740132454053,-0.0006245759928281444,0.0004215009687754691,-0.0015435490372980808,0.035,0.005,0.05,-0.3755019571576796,-0.013622110508311467,-0.001877509785788398,0.03155514161971104,0.016055521325611177,0.002,8e-05,0,-0.706086184464927,-0.0015780417878689616,-5.6486894757194166e-05,0.0,-0.0016345286826261558,0.1,0.02,0,-0.2622492713994163,-0.02202198526889866,-0.005244985427988326,0.0,-0.027266970696886987,-0.3892031573803276,0.0,0.3892031573803276,-0.03829925752129729,0.0,0.03829925752129729,-0.7890208939344807,0.0,0.7890208939344807,-0.22021985268898658,0,0.22021985268898658,-0.0014818274041020446,-0.01606133544298703,0.027266970696886987,0.4,0.03664970397949219,1.2791883945465088,STABILIZE
0.035,0.005,0.05,-0.12587722787811295,-0.0009885035856023697,-0.0006293861393905647,0.00295448549296682,0.0013365957679738853,0.035,0.005,0.05,-0.39004452592529587,-0.014942768566519576,-0.0019502226296264794,0.016373617458295218,-0.0005193737378508395,0.002,8e-05,0,-0.7335645311774482,-0.0016134016410797977,-5.8685162494195865e-05,-0.0,-0.0016720868035739935,0.1,0.02,0,-0.2680110983563656,-0.01691539371930955,-0.005360221967127312,0.0,-0.022275615686436864,-0.42693624475770214,0.0,0.42693624475770214,-0.028242959588639132,0.0,0.028242959588639132,-0.8067008205398989,0.0,0.8067008205398989,-0.1691539371930955,0,0.1691539371930955,0.0013350566017710822,0.000523317491206154,0.022275615686436864,0.4,0.03406262397766113,1.313230276107788,STABILIZE
0.035,0.005,0.05,-0.12703376757146911,-0.0012019707131232802,-0.0006351688378573455,0.0015449536135743477,-0.00029218593740627796,0.035,0.005,0.05,-0.4039816087018066,-0.014484557183790329,-0.002019908043509033,-0.0021500084604711978,-0.01865447368777056,0.002,8e-05,0,-0.761383717196709,-0.0016521128649127775,-6.091069737573673e-05,-0.0,-0.0017130235622885143,0.1,0.02,0,-0.27568412220355415,-0.022784098359214994,-0.0055136824440710835,-0.0,-0.028297780803286078,-0.4138444909654379,0.0,0.4138444909654379,-0.034342020374950856,0.0,0.034342020374950856,-0.8260564324563887,0.0,0.8260564324563887,-0.22784098359214994,0,0.22784098359214994,-0.00036636435166151213,0.018653164298627022,0.028297780803286078,0.4,0.033677101135253906,1.3469784259796143,STABILIZE
0.035,0.005,0.05,-0.12832289003026498,-0.0013490447817907448,-0.000641614450151325,-9.660714472128866e-05,-0.0020872663766633584,0.035,0.005,0.05,-0.41654906706175676,-0.013151631953336443,-0.0020827453353087838,0.014765799036825528,-0.0004685782518196978,0.002,8e-05,0,-0.789165808119403,-0.001661342102729097,-6.313326464955224e-05,-0.0,-0.0017244753673786493,0.1,0.02,0,-0.2821569738366476,-0.019353512614834978,-0.005643139476732953,0.0,-0.02499665209156793,-0.37576091295246977,0.0,0.37576091295246977,-0.038544136622592706,0.0,0.038544136622592706,-0.8306710513645486,0.0,0.8306710513645486,-0.19353512614834978,0,0.19353512614834978,-0.0020888372415331594,0.0004615251711574678,0.02499665209156793,0.4,0.03344535827636719,1.3803670406341553,STABILIZE
0.035,0.005,0.05,-0.12933829715439843,-0.0010628260453283773,-0.0006466914857719922,0.001979721953584032,0.0002702044224836622,0.035,0.005,0.05,-0.4286611666876742,-0.01267772762282223,-0.002143305833438371,0.02504179117543234,0.01022075771917174,0.002,8e-05,0,-0.8174774845960227,-0.001693360872900612,-6.539819876768181e-05,-0.0,-0.0017587590716682936,0.1,0.02,0,-0.2893272877736674,-0.02144332405993389,-0.005786545755473348,0.0,-0.02722986981540724,-0.3622207892234922,0.0,0.3622207892234922,-0.030366458437953634,0.0,0.030366458437953634,-0.8466804364503059,0.0,0.8466804364503059,-0.21443324059933888,0,0.21443324059933888,0.00030845430193065235,-0.010219674883652557,0.02722986981540724,0.4,0.03343844413757324,1.4138100147247314,STABILIZE
0.035,0.005,0.05,-0.1305314197941659,-0.0012492326853606158,-0.0006526570989708295,0.0007371867323135254,-0.00116470305201792,0.035,0.005,0.05,-0.4410921748270821,-0.01301561227834765,-0.0022054608741354106,0.005357988851480487,-0.009863084301002575,0.002,8e-05,0,-0.8453306716381146,-0.0016664607875982555,-6.762645373104917e-05,-0.0,-0.0017340872413293047,0.1,0.02,0,-0.2957852877822933,-0.019319160432916788,-0.005915705755645866,0.0,-0.025234866188562653,-0.37187463652421854,0.0,0.37187463652421854,-0.035692362438874733,0.0,0.035692362438874733,-0.8332303937991278,0.0,0.8332303937991278,-0.19319160432916785,0,0.19319160432916785,-0.001197953007539259,0.009859101060430963,0.025234866188562653,0.4,0.03342795372009277,1.4472389221191406,STABILIZE
0.035,0.005,0.05,-0.13177724225486304,-0.0013023951358508133,-0.0006588862112743152,-0.0026687963119481984,-0.004630077659073327,0.035,0.005,0.05,-0.4514797780343261,-0.010859303245096827,-0.0022573988901716307,0.0348374037083424,0.021720701573073944,0.002,8e-05,0,-0.8730209822606335,-0.0016541557085010196,-6.984167858085069e-05,-0.0,-0.0017239973870818704,0.1,0.02,0,-0.3015062333807912,-0.017087809069362938,-0.006030124667615824,-0.0,-0.023117933736978763,-0.31026580700276646,0.0,0.31026580700276646,-0.037211289595737516,0.0,0.037211289595737516,-0.8270778542505098,0.0,0.8270778542505098,-0.1708780906936294,0,0.1708780906936294,-0.004565277662601178,-0.02173441362951717,0.023117933736978763,0.4,0.03347969055175781,1.480731725692749,STABILIZE
0.035,0.005,0.05,-0.13306641539696368,-0.0013502047039645158,-0.0006653320769848184,-0.001266514187487953,-0.0032820509684372873,0.035,0.005,0.05,-0.45981907412603196,-0.008734091987385737,-0.00229909537063016,0.04911994620095991,0.03808675884294402,0.002,8e-05,0,-0.9003111525624972,-0.0016332646589061139,-7.202489220499978e-05,0.0,-0.0017052895511111136,0.1,0.02,0,-0.30647603469494195,-0.01487165664120694,-0.006129520693898839,0.0,-0.02100117733510578,-0.2495454853538782,0.0,0.2495454853538782,-0.03857727725612902,0.0,0.03857727725612902,-0.8166323294530569,0.0,0.8166323294530569,-0.1487165664120694,0,0.1487165664120694,-0.003183182270998922,-0.03809514940710422,0.02100117733510578,0.4,0.03341794013977051,1.514145851135254,STABILIZE
0.035,0.005,0.05,-0.13420123930430602,-0.0011874723853473918,-0.0006710061965215301,0.0013799557033389708,-0.00047852287852995093,0.035,0.005,0.05,-0.4674009107823872,-0.007933584762697902,-0.002337004553911936,0.04457106403870301,0.03430047472209317,0.002,8e-05,0,-0.9273358209362534,-0.0016159107384415292,-7.418686567490028e-05,0.0,-0.0016900976041164294,0.1,0.02,0,-0.3117989158692054,-0.01591379537018345,-0.006235978317384108,0.0,-0.02214977368756756,-0.2266738503627972,0.0,0.2266738503627972,-0.0339277824384969,0.0,0.0339277824384969,-0.8079553692207646,0.0,0.8079553692207646,-0.1591379537018345,0,0.1591379537018345,-0.00038325222961635647,-0.03430167150496785,0.02214977368756756,0.4,0.033448219299316406,1.5475914478302002,STABILIZE
0.035,0.005,0.05,-0.13550681274806553,-0.0013360870636809077,-0.0006775340637403276,-0.002307171298329956,-0.004320792425751192,0.035,0.005,0.05,-0.47553651571884026,-0.00832574878324178,-0.0023776825785942015,0.03724563553383847,0.026542204172002492,0.002,8e-05,0,-0.955170816051561,-0.0016277456827856057,-7.641366528412488e-05,0.0,-0.0017041593480697306,0.1,0.02,0,-0.3162470249584947,-0.013005912766746525,-0.006324940499169894,0.0,-0.01933085326591642,-0.23787853666405084,0.0,0.23787853666405084,-0.038173916105168786,0.0,0.038173916105168786,-0.8138728413928028,0.0,0.8138728413928028,-0.13005912766746525,0,0.13005912766746525,-0.0042605316038001875,-0.026551943807331984,0.01933085326591642,0.4,0.03420066833496094,1.5817854404449463,STABILIZE
0.035,0.005,0.05,-0.13690087647159974,-0.0014570463622911624,-0.0006845043823579987,-0.0017459565001209801,-0.0038875072447701413,0.035,0.005,0.05,-0.4818829231784593,-0.006633132866561175,-0.0024094146158922967,0.054575117611299795,0.045532570128846324,0.002,8e-05,0,-0.9824245774129768,-0.0016277179209459526,-7.859396619303816e-05,0.0,-0.0017063118871389908,0.1,0.02,0,-0.3200400039184891,-0.011326693121512422,-0.006400800078369782,0.0,-0.017727493199882205,-0.18951808190174785,0.0,0.18951808190174785,-0.04162989606546178,0.0,0.04162989606546178,-0.8138589604729763,0.0,0.8138589604729763,-0.11326693121512421,0,0.11326693121512421,-0.0037974872396428737,-0.045540166290662557,0.017727493199882205,0.4,0.03348708152770996,1.6153044700622559,STABILIZE
0.035,0.005,0.05,-0.1382935903488031,-0.0014570463622911624,-0.0006914679517440155,-0.0012922703603059772,-0.003440784674341155,0.035,0.005,0.05,-0.4882231855281534,-0.006633132866561175,-0.002441115927640767,0.03617326606903177,0.02709901727482983,0.002,8e-05,0,-1.0096519494572083,-0.0016277179209459526,-8.077215595657666e-05,0.0,-0.0017084900769025293,0.1,0.02,0,-0.3238293102065347,-0.011326693121512422,-0.0064765862041306944,0.0,-0.017803279325643115,-0.18951808190174785,0.0,0.18951808190174785,-0.04162989606546178,0.0,0.04162989606546178,-0.8138589604729763,0.0,0.8138589604729763,-0.11326693121512421,0,0.11326693121512421,-0.003387206456635951,-0.027105766339597007,0.017803279325643115,0.4,0.03345465660095215,1.6487386226654053,STABILIZE
0.035,0.005,0.05,-0.13968303251269998,-0.001454234984336568,-0.0006984151625634999,-0.0008594913399682214,-0.0030121414868682895,0.035,0.005,0.05,-0.4944569598761982,-0.006524469299219693,-0.002472284799380991,0.018931703335766034,0.00993494923716535,0.002,8e-05,0,-1.0371376141787692,-0.0016438504703308386,-8.297100913430154e-05,-0.0,-0.0017268214794651402,0.1,0.02,0,-0.32712575628462653,-0.009857619400488276,-0.006542515125692531,0.0,-0.016400134526180807,-0.18641340854913407,0.0,0.18641340854913407,-0.041549570981044795,0.0,0.041549570981044795,-0.8219252351654193,0.0,0.8219252351654193,-0.09857619400488275,0,0.09857619400488275,-0.0029950441642459746,-0.009940116857269919,0.016400134526180807,0.4,0.033440589904785156,1.6821849346160889,STABILIZE
0.035,0.005,0.05,-0.14123761603890303,-0.001627471771141326,-0.0007061880801945152,-0.003730031874461287,-0.0060636917257971285,0.035,0.005,0.05,-0.4992892119567396,-0.005058817181298808,-0.0024964460597836978,0.024619255565722916,0.017063992324640412,0.002,8e-05,0,-1.064754043583622,-0.0016520716602982642,-8.518032348668977e-05,-0.0,-0.0017372519837849539,0.1,0.02,0,-0.3300596591212654,-0.008775605382258396,-0.006601193182425308,0.0,-0.015376798564683703,-0.1445376337513945,0.0,0.1445376337513945,-0.04649919346118074,0.0,0.04649919346118074,-0.8260358301491321,0.0,0.8260358301491321,-0.08775605382258396,0,0.08775605382258396,-0.006037548865600482,-0.017073259650587345,0.015376798564683703,0.4,0.0334324836730957,1.715620994567871,STABILIZE
0.035,0.005,0.05,-0.142979465488158,-0.001823257803675504,-0.0007148973274407899,-0.004161447052281718,-0.006699602183398013,0.035,0.005,0.05,-0.5026719072014513,-0.00354079137264966,-0.0025133595360072565,0.040866626849552085,0.03481247594089517,0.002,8e-05,0,-1.0928176176025521,-0.001678581360778835,-8.742540940820418e-05,-0.0,-0.001766006770187039,0.1,0.02,0,-0.33261595778345593,-0.007645062036721409,-0.0066523191556691185,0.0,-0.014297381192390528,-0.10116546778999028,0.0,0.10116546778999028,-0.05209308010501439,0.0,0.05209308010501439,-0.8392906803894175,0.0,0.8392906803894175,-0.07645062036721409,0,0.07645062036721409,-0.00665314542295934,-0.034821384328199124,0.014297381192390528,0.4,0.033437252044677734,1.7490532398223877,STABILIZE
0.035,0.005,0.05,-0.14494591057045839,-0.0017998902428939725,-0.000724729552852292,-0.0029548143683445966,-0.005479434164090861,0.035,0.005,0.05,-0.5067516964098236,-0.0037342374090729297,-0.002533758482049118,0.024979701518046637,0.01871170562692459,0.002,8e-05,0,-1.1248851543794678,-0.001677226645553697,-8.999081235035743e-05,-0.0,-0.0017672174579040545,0.1,0.02,0,-0.3354521460172861,-0.007417050007112139,-0.0067090429203457225,0.0,-0.01412609292745786,-0.1066924974020837,0.0,0.1066924974020837,-0.05142543551125635,0.0,0.05142543551125635,-0.8386133227768485,0.0,0.8386133227768485,-0.07417050007112139,0,0.07417050007112139,-0.005455206913113115,-0.01871878318060259,0.01412609292745786,0.4,0.0382387638092041,1.7872898578643799,STABILIZE
0.035,0.005,0.05,-0.14656756828066844,-0.0016964447100725477,-0.0007328378414033423,-0.0020714168584214216,-0.004500699409897311,0.035,0.005,0.05,-0.5107726012311276,-0.00420633939632222,-0.002553863006155638,0.02094807532220351,0.014187872919725652,0.002,8e-05,0,-1.1526931672358534,-0.0016623115614817993,-9.221545337886827e-05,-0.0,-0.0017545270148606675,0.1,0.02,0,-0.3378310730689851,-0.007110392897155396,-0.006756621461379702,0.0,-0.013867014358535098,-0.12018112560920627,0.0,0.12018112560920627,-0.048469848859215646,0.0,0.048469848859215646,-0.8311557807408996,0.0,0.8311557807408996,-0.07110392897155396,0,0.07110392897155396,-0.00448308883145016,-0.01419344735058616,0.013867014358535098,0.4,0.033457040786743164,1.8207638263702393,STABILIZE
0.035,0.005,0.05,-0.14877587858058308,-0.0017638779543175081,-0.0007438793929029154,-0.002535126902899627,-0.005042884250120051,0.035,0.005,0.05,-0.5150969361643823,-0.00345404314608685,-0.0025754846808219117,0.024924911759722536,0.018895383932813772,0.002,8e-05,0,-1.1890409152925452,-0.001659005762751573,-9.512327322340362e-05,-0.0,-0.0017541290359749766,0.1,0.02,0,-0.34109571123620924,-0.007450328868072134,-0.006821914224724185,0.0,-0.01427224309279632,-0.09868694703105285,0.0,0.09868694703105285,-0.05039651298050023,0.0,0.05039651298050023,-0.8295028813757864,0.0,0.8295028813757864,-0.07450328868072134,0,0.07450328868072134,-0.005018309802698306,-0.0189019253583514,0.01427224309279632,0.4,0.04381871223449707,1.8645870685577393,STABILIZE
0.035,0.005,0.05,-0.15065528952002677,-0.0019315634515800176,-0.0007532764476001338,-0.0024614901398726237,-0.005146330039052775,0.035,0.005,0.05,-0.518465409360756,-0.003461946281779239,-0.00259232704680378,0.012333130817915877,0.006278857489332858,0.002,8e-05,0,-1.2182781210418234,-0.0017170583115442117,-9.746224968334588e-05,-0.0,-0.0018145205612275575,0.1,0.02,0,-0.3429753895103449,-0.005519537727563753,-0.006859507790206898,0.0,-0.012379045517770651,-0.09891275090797824,0.0,0.09891275090797824,-0.0551875271880005,0.0,0.0551875271880005,-0.8585291557721059,0.0,0.8585291557721059,-0.055195377275637524,0,0.055195377275637524,-0.0051402789707615595,-0.006283812246157164,0.012379045517770651,0.4,0.03405499458312988,1.89863920211792,STABILIZE
0.035,0.005,0.05,-0.15259478181246522,-0.0020273478863067364,-0.0007629739090623261,-0.0016058727447636574,-0.00439619454013272,0.035,0.005,0.05,-0.5219008042119169,-0.003591012203185174,-0.0026095040210595845,-0.0017394059823639307,-0.007939922206608689,0.002,8e-05,0,-1.2468764452740704,-0.001708215890466466,-9.975011562192563e-05,-0.0,-0.0018079660060883918,0.1,0.02,0,-0.34442687535751276,-0.004334958875183858,-0.006888537507150255,0.0,-0.011223496382334113,-0.10260034866243353,0.0,0.10260034866243353,-0.057924225323049604,0.0,0.057924225323049604,-0.8541079452332331,0.0,0.8541079452332331,-0.04334958875183858,0,0.04334958875183858,-0.004402200571279846,0.00793659380414003,0.011223496382334113,0.4,0.033483266830444336,1.9321441650390625,STABILIZE
0.035,0.005,0.05,-0.15450910731611128,-0.001995343717009125,-0.0007725455365805564,-0.0015081561147287754,-0.0042760453683184565,0.035,0.005,0.05,-0.5244256513578851,-0.002631703897545496,-0.0026221282567894257,0.007868509729177938,0.002614677574843016,0.002,8e-05,0,-1.2754324605935992,-0.0017008322817205499,-0.00010203459684748794,-0.0,-0.0018028668785680377,0.1,0.02,0,-0.3458272562218655,-0.004170422508433829,-0.00691654512443731,0.0,-0.011086967632871139,-0.0751915399298713,0.0,0.0751915399298713,-0.05700982048597499,0.0,0.05700982048597499,-0.850416140860275,0.0,0.850416140860275,-0.04170422508433829,0,0.04170422508433829,-0.004274141074596286,-0.0026177893129038453,0.011086967632871139,0.4,0.03357887268066406,1.9656891822814941,STABILIZE
0.035,0.005,0.05,-0.1563614762971843,-0.001936071254201855,-0.0007818073814859216,-0.0018858329355348567,-0.004603711571222633,0.035,0.005,0.05,-0.5270292579898874,-0.0027212547872341912,-0.002635146289949437,0.011136075592456966,0.005779674515273338,0.002,8e-05,0,-1.3035967543766187,-0.0016821110124495419,-0.00010428774035012951,-0.0,-0.0017863987527996714,0.1,0.02,0,-0.34687398133924424,-0.003125780217524717,-0.006937479626784885,0.0,-0.010063259844309603,-0.07775013677811975,0.0,0.07775013677811975,-0.055316321548624425,0.0,0.055316321548624425,-0.8410555062247709,0.0,0.8410555062247709,-0.031257802175247165,0,0.031257802175247165,-0.004600557775809363,-0.005782185217108603,0.010063259844309603,0.4,0.03348684310913086,1.9991929531097412,STABILIZE
0.035,0.005,0.05,-0.15822003020320832,-0.001864901148172785,-0.0007911001510160417,-0.0008631785331941,-0.003519179832382927,0.035,0.005,0.05,-0.5298546728172655,-0.002835064045526628,-0.0026492733640863277,0.005298596472931523,-0.00018574093668143228,0.002,8e-05,0,-1.3324678010007711,-0.0016554083203787983,-0.0001065974240800617,0.0,-0.00176200574445886,0.1,0.02,0,-0.34762836221062643,-0.002162734845532043,-0.0069525672442125284,0.0,-0.009115302089744572,-0.08100182987218936,0.0,0.08100182987218936,-0.05328288994779385,0.0,0.05328288994779385,-0.8277041601893991,0.0,0.8277041601893991,-0.021627348455320432,0,0.021627348455320432,-0.0035192496930120626,0.0001844125441626029,0.009115302089744572,0.4,0.034880876541137695,2.0340676307678223,STABILIZE
0.035,0.005,0.05,-0.16001328331191955,-0.0018756195337560576,-0.0008000664165595978,0.00045215185971581127,-0.002223534090599844,0.035,0.005,0.05,-0.5319122651222734,-0.0021521001698151018,-0.0026595613256113673,0.011196194261569257,0.006384532766142788,0.002,8e-05,0,-1.360084338468762,-0.001650571463130994,-0.00010880674707750096,0.0,-0.001759378210208495,0.1,0.02,0,-0.3483336804114217,-0.0021077553549371172,-0.006966673608228434,0.0,-0.009074428963165551,-0.06148857628043147,0.0,0.06148857628043147,-0.053589129535887355,0.0,0.053589129535887355,-0.825285731565497,0.0,0.825285731565497,-0.021077553549371172,0,0.021077553549371172,-0.002221185244840928,-0.00638535031162046,0.009074428963165551,0.4,0.0334630012512207,2.0675384998321533,STABILIZE
0.035,0.005,0.05,-0.16197041142509913,-0.0020491238825815143,-0.0008098520571254956,-0.00021345389296429835,-0.003072429832671308,0.035,0.005,0.05,-0.5335372935038508,-0.0017014136397812624,-0.002667686467519254,0.016149530203877153,0.011780430096576637,0.002,8e-05,0,-1.3881125104321121,-0.0016768942839821396,-0.00011104900083456899,0.0,-0.0017879432848167086,0.1,0.02,0,-0.34913618831005433,-0.002400657648717169,-0.006982723766201087,0.0,-0.009383381414918256,-0.04861181827946463,0.0,0.04861181827946463,-0.05854639664518612,0.0,0.05854639664518612,-0.8384471419910698,0.0,0.8384471419910698,-0.024006576487171687,0,0.024006576487171687,-0.003067493635930893,-0.011781716391533992,0.009383381414918256,0.4,0.03342866897583008,2.1009674072265625,STABILIZE
0.035,0.005,0.05,-0.16387973375196557,-0.0019982870962127566,-0.0008193986687598278,-5.14386135030602e-05,-0.0028691243784756443,0.035,0.005,0.05,-0.5351096708292931,-0.0016456421608840987,-0.0026755483541464654,0.008463505153345067,0.004142314638314503,0.002,8e-05,0,-1.415609575293515,-0.0016444736625165352,-0.0001132487660234812,0.0,-0.0017577224285400164,0.1,0.02,0,-0.3496920883596225,-0.0016622919484575443,-0.00699384176719245,0.0,-0.008656133715649994,-0.047018347453831384,0.0,0.047018347453831384,-0.05709391703465018,0.0,0.05709391703465018,-0.8222368312582675,0.0,0.8222368312582675,-0.016622919484575442,0,0.016622919484575442,-0.0028679224700484934,-0.0041431468677502635,0.008656133715649994,0.4,0.033441781997680664,2.134434700012207,STABILIZE
0.035,0.005,0.05,-0.16581817207777041,-0.0020290056673084715,-0.0008290908603888521,-0.0008196392883210789,-0.0036777358160184023,0.035,0.005,0.05,-0.535957151705532,-0.0008870767142465019,-0.0026797857585276605,0.015709255241798444,0.012142392769024282,0.002,8e-05,0,-1.4432874117273626,-0.0016554854267559378,-0.00011546299293818901,0.0,-0.0017709484196941267,0.1,0.02,0,-0.35027109810790397,-0.0017316060858307857,-0.007005421962158079,0.0,-0.008737028047988865,-0.02534504897847148,0.0,0.02534504897847148,-0.05797159049452775,0.0,0.05797159049452775,-0.8277427133779689,0.0,0.8277427133779689,-0.017316060858307857,0,0.017316060858307857,-0.0036740659465430907,-0.012143503708161418,0.008737028047988865,0.4,0.03343772888183594,2.167863607406616,STABILIZE
0.035,0.005,0.05,-0.1677865638144596,-0.0020589198603215364,-0.0008389328190722981,-0.001658032240174437,-0.004555884919568272,0.035,0.005,0.05,-0.5360838252848592,-0.00013249941228333413,-0.0026804191264242962,0.023084593457841026,0.020271674919133394,0.002,8e-05,0,-1.4711690504642312,-0.0016665108928021121,-0.0001176935240371385,-0.0,-0.0017842044168392506,0.1,0.02,0,-0.3508808124935909,-0.0018221591543357554,-0.007017616249871818,0.0,-0.008839775404207573,-0.0037856974938095464,0.0,0.0037856974938095464,-0.058826281723472464,0.0,0.058826281723472464,-0.8332554464010561,0.0,0.8332554464010561,-0.018221591543357552,0,0.018221591543357552,-0.0045494377540395,-0.02027312278731354,0.008839775404207573,0.4,0.03346109390258789,2.201352119445801,STABILIZE
0.035,0.005,0.05,-0.1698090752959983,-0.002115257330207383,-0.0008490453764799916,-0.002047503502058749,-0.005011806208746123,0.035,0.005,0.05,-0.5360982499878233,-1.5086173284750714e-05,-0.0026804912499391164,0.01825572933518794,0.015560151911964075,0.002,8e-05,0,-1.4991088587046357,-0.0016697735810031287,-0.00011992870869637087,-0.0,-0.0017897022896994996,0.1,0.02,0,-0.35145617962782966,-0.001719290325586594,-0.007029123592556593,0.0,-0.008748413918143187,-0.0004310335224214489,0.0,0.0004310335224214489,-0.06043592372021093,0.0,0.06043592372021093,-0.8348867905015643,0.0,0.8348867905015643,-0.01719290325586594,0,0.01719290325586594,-0.005007136805292889,-0.015561655117965659,0.008748413918143187,0.4,0.03346538543701172,2.2348403930664062,STABILIZE
0.035,0.005,0.05,-0.17185282050387157,-0.00214059107522691,-0.0008592641025193579,-0.0007811705686548301,-0.003781025746401098,0.035,0.005,0.05,-0.5363135751702881,-0.00022552868238176176,-0.0026815678758514406,0.012604415797421784,0.009697319239188582,0.002,8e-05,0,-1.5268312784434002,-0.001659204988619756,-0.00012214650227547203,0.0,-0.0017813514908952281,0.1,0.02,0,-0.3518065674291021,-0.0010485469762399207,-0.007036131348582042,0.0,-0.008084678324821962,-0.006443676639478907,0.0,0.006443676639478907,-0.061159745006483135,0.0,0.061159745006483135,-0.829602494309878,0.0,0.829602494309878,-0.010485469762399207,0,0.010485469762399207,-0.0037792510157722923,-0.00969801102708535,0.008084678324821962,0.4,0.0334165096282959,2.268205165863037,STABILIZE
0.035,0.005,0.05,-0.17386948145315154,-0.0021086427631452666,-0.0008693474072657577,-0.000942803375396498,-0.003920793545807523,0.035,0.005,0.05,-0.5360191414104793,0.00030786316215829527,-0.0026800957070523966,0.016680743987694317,0.014308511442800216,0.002,8e-05,0,-1.5545678172850714,-0.0016572359211347388,-0.00012436542538280573,-0.0,-0.0017816013465175445,0.1,0.02,0,-0.35213304969883125,-0.0009753526712494826,-0.007042660993976625,0.0,-0.008018013665226108,0.008796090347379864,0.0,-0.008796090347379864,-0.06024693608986475,0.0,0.06024693608986475,-0.8286179605673694,0.0,0.8286179605673694,-0.009753526712494826,0,0.009753526712494826,-0.003918357734583063,-0.014309178676689441,0.008018013665226108,0.4,0.03347325325012207,2.30167555809021,STABILIZE
0.035,0.005,0.05,-0.17586347413023237,-0.0020854010312382023,-0.0008793173706511619,-0.00048189746012629304,-0.0034466158620156573,0.035,0.005,0.05,-0.5355454488860276,0.0004954074758327218,-0.002677727244430138,0.011800210932393704,0.009617891163796289,0.002,8e-05,0,-1.5819431066444596,-0.0016360127902945016,-0.00012655544853155677,0.0,-0.0017625682388260583,0.1,0.02,0,-0.35236252414838864,-0.0006856971073311018,-0.007047250482967773,0.0,-0.0077329475902988744,0.014154499309506335,0.0,-0.014154499309506335,-0.05958288660680578,0.0,0.05958288660680578,-0.8180063951472507,0.0,0.8180063951472507,-0.006856971073311017,0,0.006856971073311017,-0.0034454647996498057,-0.00961830357460726,0.0077329475902988744,0.4,0.03346586227416992,2.33514142036438,STABILIZE
0.035,0.005,0.05,-0.17787144988753062,-0.00210101301693418,-0.0008893572494376532,-0.0003598188909517275,-0.0033501891573235604,0.035,0.005,0.05,-0.5345950864600387,0.000994396381804186,-0.0026729754323001936,0.009619214921962632,0.007940635871466624,0.002,8e-05,0,-1.6094385396164874,-0.0016439658516936375,-0.00012875508316931902,0.0,-0.0017727209348629566,0.1,0.02,0,-0.3526506180348738,-0.0008612639632646264,-0.007053012360697476,0.0,-0.007914276323962103,0.02841132519440531,0.0,-0.02841132519440531,-0.06002894334097656,0.0,0.06002894334097656,-0.8219829258468188,0.0,0.8219829258468188,-0.008612639632646264,0,0.008612639632646264,-0.0033489954916785937,-0.007941139378564471,0.007914276323962103,0.4,0.03345012664794922,2.368602991104126,STABILIZE
0.035,0.005,0.05,-0.1799046357677325,-0.0021275883613777274,-0.0008995231788386625,-0.00010584611522887234,-0.003132957655445262,0.035,0.005,0.05,-0.5331380254486227,0.0015247135443406687,-0.0026656901272431133,0.013146911170081113,0.012005934587178668,0.002,8e-05,0,-1.637197625818362,-0.0016598836142032753,-0.00013097581006546897,0.0,-0.0017908594242687442,0.1,0.02,0,-0.3529968966917155,-0.001035304736366137,-0.007059937933834311,0.0,-0.008095242670200448,0.0435632441240191,0.0,-0.0435632441240191,-0.06078823889650649,0.0,0.06078823889650649,-0.8299418071016377,0.0,0.8299418071016377,-0.01035304736366137,0,0.01035304736366137,-0.0031307881947924368,-0.012006500500219636,0.008095242670200448,0.4,0.0334470272064209,2.4020421504974365,STABILIZE
0.035,0.005,0.05,-0.18200817244832743,-0.002200703618004785,-0.0009100408622416371,-0.0005136696885810325,-0.0036244141688274545,0.035,0.005,0.05,-0.5314601495816716,0.001755380604971309,-0.002657300747908358,0.016916190439894323,0.016014270296957275,0.002,8e-05,0,-1.665145374376587,-0.0016707837651174344,-0.00013321162995012697,-0.0,-0.0018039953950675614,0.1,0.02,0,-0.35341658518825314,-0.0012544994902911476,-0.007068331703765063,-0.0,-0.008322831194056211,0.050153731570608824,0.0,-0.050153731570608824,-0.06287724622870813,0.0,0.06287724622870813,-0.8353918825587172,0.0,0.8353918825587172,-0.012544994902911475,0,0.012544994902911475,-0.003620907734025064,-0.0160150634838855,0.008322831194056211,0.4,0.03345465660095215,2.43550181388855,STABILIZE
0.035,0.005,0.05,-0.18410574357520093,-0.0021956986870404318,-0.0009205287178760046,-0.0007435997750523327,-0.003859827179968769,0.035,0.005,0.05,-0.5299249956211183,0.0016069707922687375,-0.0026496249781055915,0.011095186357031238,0.010052532171194384,0.002,8e-05,0,-1.692839840217857,-0.001656574570106992,-0.00013542718721742857,0.0,-0.0017920017573244207,0.1,0.02,0,-0.35384495299101176,-0.001281164281646892,-0.007076899059820236,-0.0,-0.008358063341467128,0.04591345120767821,0.0,-0.04591345120767821,-0.06273424820115518,0.0,0.06273424820115518,-0.828287285053496,0.0,0.828287285053496,-0.012811642816468918,0,0.012811642816468918,-0.0038575792835211903,-0.010053394997883644,0.008358063341467128,0.4,0.033435821533203125,2.4689409732818604,STABILIZE
0.035,0.005,0.05,-0.18653997524509697,-0.002227625467839897,-0.0009326998762254849,-0.0011805317040486769,-0.004340857048114059,0.035,0.005,0.05,-0.5277618599384691,0.0019795388403883118,-0.002638809299692346,0.012277264058604312,0.011617993599300278,0.002,8e-05,0,-1.7245150312859738,-0.0016563856547696762,-0.0001379612025028779,-0.0,-0.0017943468572725542,0.1,0.02,0,-0.35436948239550126,-0.0013714565750098718,-0.0070873896479100255,-0.0,-0.008458846222919897,0.05655825258252319,0.0,-0.05655825258252319,-0.06364644193828277,0.0,0.06364644193828277,-0.8281928273848381,0.0,0.8281928273848381,-0.013714565750098717,0,0.013714565750098717,-0.004338075990556783,-0.011619032312791737,0.008458846222919897,0.4,0.03824615478515625,2.5072391033172607,STABILIZE
0.035,0.005,0.05,-0.1886704574913953,-0.0022280364262731063,-0.0009433522874569765,-0.001050690291071392,-0.004222079004801474,0.035,0.005,0.05,-0.5255356741676901,0.002328122188093572,-0.0026276783708384507,0.010991026463403003,0.010691470280658123,0.002,8e-05,0,-1.7520184479096088,-0.0016435880170428616,-0.00014016147583276872,0.0,-0.0017837494928756303,0.1,0.02,0,-0.35476159724008305,-0.001171627635719633,-0.007095231944801661,-0.0,-0.008266859580521294,0.06651777680267348,0.0,-0.06651777680267348,-0.06365818360780304,0.0,0.06365818360780304,-0.8217940085214308,0.0,0.8217940085214308,-0.01171627635719633,0,0.01171627635719633,-0.004219892643461023,-0.010692333419915637,0.008266859580521294,0.4,0.03346753120422363,2.540658950805664,STABILIZE
0.035,0.005,0.05,-0.19089748707432708,-0.0023277443632444337,-0.0009544874353716354,-0.0016744278515812246,-0.004956659650197294,0.035,0.005,0.05,-0.5234877207323798,0.002140569708533011,-0.0026174386036618993,0.004860622052690987,0.0043837531575620994,0.002,8e-05,0,-1.7795688043580373,-0.0016455022143706164,-0.000142365504348643,0.0,-0.0017878677187192593,0.1,0.02,0,-0.3550778966679772,-0.0009445819874929285,-0.007101557933359544,0.0,-0.008046139920852471,0.061159134529514596,0.0,-0.061159134529514596,-0.06650698180698382,0.0,0.06650698180698382,-0.8227511071853082,0.0,0.8227511071853082,-0.009445819874929285,0,0.009445819874929285,-0.004955936874414658,-0.004384570256153585,0.008046139920852471,0.4,0.03348565101623535,2.5741539001464844,STABILIZE
0.035,0.005,0.05,-0.1930103723984191,-0.0022111301688312714,-0.0009650518619920955,-5.378193054773467e-05,-0.0032299639613711014,0.035,0.005,0.05,-0.5211235309430341,0.00247411977756604,-0.0026056176547151707,0.005740110955842053,0.005608613078692922,0.002,8e-05,0,-1.807130056413695,-0.0016481596507228933,-0.0001445704045130956,0.0,-0.001792730055235989,0.1,0.02,0,-0.3553007294840459,-0.000666268817468348,-0.007106014589680918,0.0,-0.007772283407149265,0.07068913650188685,0.0,-0.07068913650188685,-0.06317514768089347,0.0,0.06317514768089347,-0.8240798253614466,0.0,0.8240798253614466,-0.006662688174683479,0,0.006662688174683479,-0.0032293117372191836,-0.0056089886398618975,0.007772283407149265,0.4,0.033444881439208984,2.607591390609741,STABILIZE
0.035,0.005,0.05,-0.19509441600109684,-0.0021791298455144355,-0.0009754720800054842,0.00017659599404926796,-0.0029780059314706516,0.035,0.005,0.05,-0.5186629009411103,0.0025728983160768974,-0.002593314504705552,0.007851441905866377,0.007831025717237722,0.002,8e-05,0,-1.8346997743847162,-0.0016472919742829295,-0.0001467759819507773,0.0,-0.0017940679562337067,0.1,0.02,0,-0.35566117562526606,-0.0010768337133831355,-0.007113223512505321,0.0,-0.008190057225888456,0.07351138045933991,0.0,-0.07351138045933991,-0.062260852728983865,0.0,0.062260852728983865,-0.8236459871414648,0.0,0.8236459871414648,-0.010768337133831353,0,0.010768337133831353,-0.002976534092903477,-0.007831585274112532,0.008190057225888456,0.4,0.03347277641296387,2.641077995300293,STABILIZE
0.035,0.005,0.05,-0.1971384413757404,-0.0021355061003609415,-0.0009856922068787021,0.0007871520650356087,-0.0023340462422040353,0.035,0.005,0.05,-0.5161439557686723,0.00263168101969089,-0.0025807197788433617,0.005569542476414608,0.005620503717262136,0.002,8e-05,0,-1.8621413370888449,-0.0016382694177889132,-0.0001489713069671076,0.0,-0.0017872407247560209,0.1,0.02,0,-0.3561616508806476,-0.0014939260458522042,-0.007123233017612952,-0.0,-0.008617159063465156,0.07519088627688256,0.0,-0.07519088627688256,-0.06101446001031261,0.0,0.06101446001031261,-0.8191347088944566,0.0,0.8191347088944566,-0.01493926045852204,0,0.01493926045852204,-0.0023325806767723117,-0.00562111210374359,0.008617159063465156,0.4,0.03350067138671875,2.6746137142181396,STABILIZE
