Mode,Time,Freq,North-Vision,East-Vision,Down-Vision,Yaw-Vision,North-Desired,East-Desired,Down-Desired,Roll-UAV,Pitch-UAV,Yaw-UAV,Roll-Control,Pitch-Control,Yaw-Control,Thrust-Control,northVraw,eastVraw,downVraw,N-Velocity,E-Velocity,D-Velocity,N-Acceleration,E-Acceleration,D-Acceleration,yawVraw,yawRate,Landing-State,Q-Size
GUIDED_NOGPS,0.023296833038330078,45.744898515634375,-20.305829402295018,36.64874613959873,74.16342390193884,-4.106829139285684,-20.439561849955034,37.247358495097444,74.88024740010852,-0.3071537136971792,0.0016244110836994387,170.29429253798986,0.901890101471171,0.32769699179259587,-10.0,0.5014348555340032,-18.66556462099981,36.58241673064938,71.24969403323969,-1.817064918577671,-25.84947943687439,-19.83782649040222,-17.991869151592255,-40.147605538368225,-43.64609122276306,-3.8612405242398227,-3.3319284941250076,False,2
GUIDED_NOGPS,0.04134178161621094,51.39385622036245,-19.883432533660187,35.25736979166539,72.47444706361948,-4.0970072184545065,-20.489135104727293,36.47868437962252,74.25322533127958,-0.23981434506149457,-0.007725477559813328,170.33476823901137,1.105047109106026,1.4164226307180883,-2.2579704347477803,0.5035615571707684,-18.615888703109434,35.055273377563125,69.95934888066279,-0.40586087852716446,-26.954621076583862,-18.251344561576843,19.797173142433167,-53.21654677391052,172.9281187057495,-4.026611606351874,-1.798683360372314,False,1
GUIDED_NOGPS,0.050357818603515625,110.97803884214426,-19.849517324146944,34.81322360310044,72.0712170378322,-4.126178320014823,-20.538444640964936,35.71127992308416,73.62622844539982,-0.23981434506149457,-0.007725477559813328,170.33476823901137,-1.4167096067027996,0.9405021165866373,-4.300637530585096,0.5031148188587548,-18.82351321902116,34.70771649523884,69.57892275478667,-0.40586087852716446,-26.954621076583862,-18.251344561576843,19.797173142433167,-53.21654677391052,172.9281187057495,-4.0724744615620185,-1.798683360372314,False,1
GUIDED_NOGPS,0.08954930305480957,25.5186965356956,-19.91108007761401,34.54069923442366,71.89469381926234,-4.183408336367374,-20.587236231047733,34.946372621191216,72.99928277116942,-0.24732808675703752,-0.11862768600013349,170.3997643191532,-0.33602947722359355,0.06039937461389373,-3.061576017978894,0.5022176417386216,-18.783561748876345,34.40172891443231,69.27420040883058,-3.900256007909775,-28.926020860671997,-17.546404898166656,-10.16930341720581,-51.87986493110657,69.76090669631958,-4.110707728852167,-3.774497431585154,False,1
GUIDED_NOGPS,0.10294270515441895,74.69820124666073,-19.866724161481265,33.78760883302467,71.2326066656889,-4.203586086941367,-20.63526587508974,34.1851445084754,72.37241524456938,-0.25566267845259844,-0.0770026989290775,170.44323164303117,0.03246166726673959,0.4675645590865384,-3.1148930721361014,0.502289322614493,-18.569207645460377,33.95962650216032,69.0401248675876,-5.387574806809425,-28.723561763763428,-14.086699485778809,-22.22074568271637,-25.193625688552856,90.19018411636353,-4.15326109930785,-1.256017573738808,False,0
GUIDED_NOGPS,0.12540054321289062,44.542069771146394,-19.814162543876392,33.382489979001086,71.01486471898072,-4.255815272086006,-20.68229966234981,33.428732746869784,71.745653691969,-0.21379319195359717,-0.23713797812390738,170.5026952699453,-0.43934928777312726,0.3682785014651418,-3.4801407999297744,0.5014726014734419,-18.258263077705408,30.705624689196767,68.10569838966035,0.7578851655125618,-29.423192143440247,-16.46506041288376,-23.676946759223938,-34.583860635757446,103.99612188339233,-4.365285364205336,-3.3313103620051217,False,0
GUIDED_NOGPS,0.15352106094360352,35.5642382309049,-19.72706003940902,32.79599775661316,70.5980928343913,-4.307943598987719,-20.72811363264209,32.67823021428725,71.11902681323352,-0.19875898509504708,-0.23916931907175148,170.54250161242814,-0.15151526347827385,0.37596679430422775,-3.3252918112911267,0.5010540649398891,-18.258263077705408,30.705624689196767,68.10569838966035,0.7578851655125618,-29.423192143440247,-16.46506041288376,-23.676946759223938,-34.583860635757446,103.99612188339233,-4.365285364205336,-3.3313103620051217,False,0
GUIDED_NOGPS,0.18588471412658691,30.90500751569454,-19.59714377350912,32.0975742775704,70.09300569454648,-4.372504411751348,-20.772493637746475,31.93468609319892,70.49256416483173,-0.17898974959438563,-0.21265516504399667,170.61360388168796,-0.01629556722861157,0.4205896813600723,-3.423111905039116,0.5008123462597804,-17.91854557203264,30.069455739730017,67.55522652573589,2.1055709570646286,-30.512040853500366,-16.16336554288864,37.79112100601196,-22.190669178962708,53.965312242507935,-4.283682205065588,-4.367164898698208,False,0
GUIDED_NOGPS,0.21799397468566895,31.149445603820247,-19.457006313925877,31.32965351712198,69.53525379215765,-4.441628367694658,-20.815235202819135,31.199106459212683,69.86629614294353,-0.1793949719112378,-0.32815291685697184,170.78564268650226,0.05987706486040193,0.447127241110093,-3.525223988323736,0.5006761652351973,-17.798660562253744,29.61094731858202,67.3140064119226,2.1055709570646286,-30.512040853500366,-16.16336554288864,37.79112100601196,-22.190669178962708,53.965312242507935,-4.321069506396986,-4.367164898698208,False,0
GUIDED_NOGPS,0.2594010829925537,24.153641499329115,-19.32604525788141,30.553717660183406,68.98324632144514,-4.512567466199028,-20.856143387802987,30.472454869651592,69.24025396656748,-0.27073311733026134,-0.19120677022456992,170.93007386669134,0.06203952408237578,0.3696623627717293,-3.396805369859092,0.5005289422626041,-17.904640585176743,29.063408735747913,67.02417881135261,2.1055709570646286,-30.512040853500366,-16.16336554288864,37.79112100601196,-22.190669178962708,53.965312242507935,-4.350734300849451,-4.367164898698208,False,0
GUIDED_NOGPS,0.28522300720214844,38.73357590085514,-19.28820992461681,29.60221948187003,68.41134761572131,-4.564970839056609,-20.895032648838182,29.75565295213235,68.61446966062849,-0.4069206860779687,-0.021806125977206176,171.03988964816682,0.2999737239369894,0.2828570643520655,-3.54358646755936,0.5004215943971104,-17.904640585176743,29.063408735747913,67.02417881135261,-5.607854574918747,-32.126107811927795,-9.266553819179535,-32.519105076789856,-33.10907185077667,-30.032935738563538,-4.350734300849451,-2.3321335142681807,False,0
GUIDED_NOGPS,0.32103538513183594,27.926838849716024,-19.307083773577908,28.917614559633478,68.28491407641248,-4.637695682908112,-20.93172669967259,29.04958099314377,67.98897603908532,-0.38791344355658686,0.17857097362089921,171.25262272005602,0.0004522028022078406,0.16098079208647362,-3.5938892612987274,0.49942262531187565,-17.83330537366526,28.593659545783183,66.77779820640602,-6.734629720449448,-33.873653411865234,4.462262988090515,-78.32677364349365,-47.35257923603058,218.70815753936768,-4.384051397141956,-4.915857046613781,False,0
GUIDED_NOGPS,0.3527843952178955,31.501539663226833,-19.272244424885162,28.075963857178838,67.9977366363023,-4.665092632606329,-20.966058373072304,28.355078526625228,67.36380668803818,-0.3693875159282793,0.08958251999806584,171.28510709974861,0.17171010011317958,0.2540406574007577,-3.1445698489336573,0.4987450329662728,-17.83330537366526,28.593659545783183,66.77779820640602,-3.756043314933777,-35.35803258419037,-0.0920562888495624,77.4163007736206,-36.04122698307037,47.83222675323486,-4.384051397141956,-1.1500751498529749,False,0
GUIDED_NOGPS,0.38944363594055176,27.28286520873717,-19.23189303461686,27.123301203073105,67.75621786328466,-4.722793766638618,-20.997869482232122,27.672944922545135,66.73899594883638,-0.1362944505360475,0.1979930967735065,171.45064356447304,0.2641837547392501,0.23939990042392667,-3.4633525895686166,0.4979754661753014,-17.604788615328182,24.759815262478906,65.2221997058548,-3.4052565693855286,-36.74608767032623,3.749062493443489,25.65915584564209,-49.21461343765259,156.23570680618286,-4.738964846044553,-2.5214499229182437,False,0
GUIDED_NOGPS,0.4201681613922119,32.552340742580405,-19.245574239830447,25.991350080644825,67.46794835315805,-4.781619292317428,-21.027010682186024,27.003939975479376,66.11457890118584,-0.03590587757993391,0.13317476163264416,171.5259942113966,0.5073873206584807,0.13203987134980816,-3.6379428951459176,0.49729985809578003,-17.835085722970327,22.379256330747214,65.01903567885313,-6.470668315887451,-37.3451292514801,3.2816730439662933,-46.90565764904022,-24.553799629211426,44.7840690612793,-4.928336886747225,-1.7475574734440646,False,0
GUIDED_NOGPS,0.4538309574127197,29.71101508819154,-19.30753452738759,24.97899396614702,67.33113990229148,-4.8692628752119465,-21.05334133121768,26.348784493189804,65.49059134625672,0.06577493515063436,0.08862191792432701,171.62336538820432,0.37957106003516133,0.045082451304882455,-3.965998057005734,0.49632055753481713,-18.116946010919573,21.291631560280926,64.82927089377048,-8.159485459327698,-37.14781999588013,7.6907142996788025,-26.53256356716156,-23.079340159893036,76.34111046791077,-5.0562035048734035,-4.0218924328517165,False,0
GUIDED_NOGPS,0.4911198616027832,26.821744885756857,-19.406337971293873,23.875534271592656,67.18641338619501,-4.938561824507617,-21.07672935227093,25.70816088520266,64.86706978979102,0.06577493515063436,0.08862191792432701,171.62336538820432,0.44354651449990257,-0.023993330402158945,-3.702177408531665,0.49535600802536967,-18.177792992180244,20.128949583877613,64.8776874667941,-10.372009128332138,-37.03105449676514,8.148294687271118,-19.399739801883698,-27.093929052352905,190.36688804626465,-5.158946386294169,-2.290487289577674,False,0
GUIDED_NOGPS,0.5360546112060547,22.256617069598626,-19.511343020947052,22.684939589376608,66.98014488946839,-5.036035133756636,-21.097051094360268,25.082713751387065,64.24405142521013,0.15092199433471737,0.02003027679300286,171.7414866797105,0.4734298399798492,-0.026454084843864197,-3.88935469136806,0.49451267315755293,-18.20995751421453,19.365620670567722,65.04152839387551,-10.338541865348816,-36.868008971214294,4.489155858755112,1.1269569396972656,-17.90584772825241,34.090593457221985,-5.193494631099634,-3.807125672137128,False,0
GUIDED_NOGPS,0.5761716365814209,24.931665794854723,-19.55144559818825,21.571168923101915,66.96889450511986,-5.100775304603957,-21.114191193981334,24.473050470533458,63.621574116722435,0.23031227126553747,0.0019218444777123378,171.81859951543996,0.5014272165103406,0.0477285729443658,-3.708087536268264,0.4932795115334159,-16.687739167054918,17.973756869337507,66.61778201580626,-10.102540254592896,-38.75002562999725,8.420106023550034,-32.249516248703,-24.96471405029297,13.647972047328949,-4.9916707396177475,-2.907631166468292,False,0
GUIDED_NOGPS,0.5983297824859619,45.13741484885335,-19.595700093922677,20.522756288125926,66.99573115572477,-5.13142635727753,-21.12804243652141,23.87974178893208,62.99967638243094,0.23031227126553747,0.0019218444777123378,171.81859951543996,0.7513571658014928,-0.02529755731902255,-3.6313617035857506,0.4919749487847037,-16.927130840941167,16.9053709946107,66.80915365399258,-9.69279631972313,-39.312419295310974,8.000484108924866,-33.573126792907715,-16.734926402568817,-39.38165605068207,-4.987645561783207,-1.1523096889286268,False,0
GUIDED_NOGPS,0.6355009078979492,26.906744160684617,-19.700991208490052,19.75949571581933,67.22689512560765,-5.133739470709375,-21.138505617669907,23.303322408951406,62.378397377440784,0.42561331301070693,-0.26701717425665705,171.9238663909282,0.28920347020629067,-0.06219187437740179,-3.1050912033969014,0.49025561938166856,-17.459736810612096,14.204537709280146,67.51852470695488,-13.578709959983826,-39.463916420936584,13.584774732589722,-87.70029544830322,-26.97930634021759,-7.302391529083252,-5.377634388740538,0.2810260523269119,False,0
GUIDED_NOGPS,0.6674463748931885,31.307084263247074,-19.784180588479366,18.740698878314717,67.40325088850415,-5.156926519445524,-21.145489404828837,22.74429157761663,61.757776876966915,0.4121852678241676,-0.5459870728391307,171.92737710816158,0.588342075639806,-0.08569250875732785,-3.384603681534195,0.48864724477761134,-17.459736810612096,14.204537709280146,67.51852470695488,-11.254439502954483,-39.732640981674194,15.699268877506256,15.836887061595917,-12.043055146932602,85.0249707698822,-5.377634388740538,0.04848564528806935,False,0
GUIDED_NOGPS,0.7001111507415771,30.619380648552365,-19.83643867711628,17.670924201238723,67.55194526930464,-5.1821621328641125,-21.148910198523332,22.203113675188096,61.137855259441594,0.6040676931680399,-0.7791377145916316,171.96834458280333,0.6681161676223057,-0.04345231789724048,-3.418749567969309,0.48709327471804625,-16.963833151301547,14.199561269380148,67.79251814175385,-10.075680911540985,-40.16881883144379,14.0047088265419,-18.164795637130737,-26.98439657688141,-119.80853080749512,-5.3432200329817405,0.01633381710081031,False,0
GUIDED_NOGPS,0.7321653366088867,31.20204725346664,-19.934175619001824,16.41081184471693,67.76909122323842,-5.202262743318502,-21.148691993812097,21.6802188037398,60.51867348962204,0.7264182591526535,-0.9452598680373892,171.9304916744231,0.8911264781325329,-0.1655623469252258,-3.372009697636796,0.4854020133573255,-18.005271421877076,10.61713337049513,68.65196660584928,-9.900521486997604,-41.32829308509827,16.773156821727753,-41.09266400337219,-24.919413030147552,193.79185438156128,-5.435623289603971,0.7516119455147744,False,0
GUIDED_NOGPS,0.7648038864135742,30.64219754529515,-20.054481218622858,15.172933882875983,68.0577478679783,-5.195404361624286,-21.144766241697937,21.17600337573781,59.90027310169802,0.7264182591526535,-0.9452598680373892,171.9304916744231,0.899348490949541,-0.2209659141153275,-3.0333671560318236,0.4835665544743438,-18.3180601507484,9.696624725038923,68.831083551029,-10.667061805725098,-40.626007318496704,20.816299319267273,-34.69317555427551,-7.476111501455307,47.76725769042969,-5.452166612225735,2.5214804453260973,False,0
GUIDED_NOGPS,0.7993893623352051,28.922644085561792,-20.190400323346346,13.900225291911402,68.41956337890412,-5.150110554048486,-21.137071710538216,20.690830702618744,59.282696182399384,1.0791000928664336,-0.7492444311937188,171.80723408066106,0.9396658167755879,-0.2570920025682563,-2.5653541022159114,0.48158253103284787,-18.58576690206739,9.076996038150675,69.02635732852457,-10.704758018255234,-40.67230522632599,25.232523679733276,-90.27860164642334,-13.283002376556396,182.52707719802856,-5.5039950186585,5.346348502074052,False,0
GUIDED_NOGPS,0.8337950706481934,29.06796587499047,-20.268435430874668,12.534027990069658,68.823205388723,-5.1526215649136,-21.125554347455356,20.225031583368242,58.665985354103725,1.191163860352479,-0.7035010534965566,171.62736787905794,1.0835440215371241,-0.18333350042261717,-3.1207392167537327,0.47951384247580137,-17.485804323216918,6.423533393788972,70.45324371980084,-9.57622155547142,-40.56980013847351,23.60144853591919,-85.13010740280151,-21.83215022087097,41.43003225326538,-5.554450803257736,1.9692365990421175,False,0
GUIDED_NOGPS,0.8659844398498535,31.071220090377064,-20.347639367114017,11.143223195383765,69.2444000751669,-5.126786123336826,-21.110167139747332,19.778904893099394,58.05018375794391,1.336868443934953,-0.516134236967709,171.46739118831792,1.2176174521230376,-0.22332444449347016,-2.7540482241102526,0.4774111108833701,-17.759238698981136,3.7242004912219544,71.7995173305975,-9.164861589670181,-40.29581844806671,20.718054473400116,-16.959773004055023,5.385754257440567,-16.429269313812256,-5.489190365074532,3.5441177122015626,False,0
GUIDED_NOGPS,0.8999588489532471,29.476737975430805,-20.47231302185806,9.822880788408254,69.66412607362452,-5.091896641082976,-21.09086997629815,19.352718171631224,57.4353350369157,1.5058375056041364,-0.3463928303137851,171.32163495142984,1.1538140476630256,-0.30640815150064826,-2.643896789527641,0.4753087619542367,-18.97505250838819,3.667746887531374,71.80828743236265,-9.164861589670181,-40.29581844806671,20.718054473400116,-16.959773004055023,5.385754257440567,-16.429269313812256,-5.323684311417218,3.5441177122015626,False,0
GUIDED_NOGPS,0.9351568222045898,28.38035307093221,-20.588484984029694,8.496742814730045,70.1167808590901,-5.026796468821073,-21.067629508988347,18.946708212067154,56.82148331898533,1.6608620957525044,-0.24382035773141283,171.0685901030592,1.1821772181675898,-0.30059698277326535,-2.279866082706043,0.47313812820138035,-18.97505250838819,3.667746887531374,71.80828743236265,-8.339902013540268,-40.43965041637421,22.84812480211258,-16.382688283920288,-2.7908047661185265,58.0430269241333,-5.323684311417218,5.571594907409556,False,0
GUIDED_NOGPS,0.9674468040466309,30.976905635852024,-20.68898796648757,7.105543281121747,70.51214208487387,-4.938812873242377,-21.040419014105467,18.561081649373445,56.208673200197076,1.819457807619731,-0.07285015735712132,170.87289152296,1.3806118376639114,-0.3282157840989885,-1.8675605738812697,0.47108503269481017,-18.52012592229337,2.233959228504468,72.71394096603436,-8.283738046884537,-40.420666337013245,15.992099046707153,-8.095201849937439,-5.928140878677368,-83.31989049911499,-5.356173992925548,7.088984183890888,False,0
GUIDED_NOGPS,0.9997553825378418,30.954044619596903,-20.801135849392935,5.847025839872952,70.9097479620791,-4.837890493910111,-21.009218253754568,18.196015548957668,55.59694972778091,2.0310052013577162,-0.02939852156991004,170.5704097653768,1.3020363615754633,-0.35730725281079667,-1.6579564944204073,0.46902664567702834,-19.214570242377178,1.2944956299064703,73.2551029332768,-8.283738046884537,-40.420666337013245,15.992099046707153,-8.095201849937439,-5.928140878677368,-83.31989049911499,-5.064612258967861,7.088984183890888,False,0
GUIDED_NOGPS,1.0430891513824463,23.080500756637775,-20.902474300662075,4.549516568429937,71.39912090013406,-4.699708468835592,-20.974013337268687,17.851657995247166,54.98635838325998,2.1468857639293293,0.03321435616012575,170.2276845332039,1.181484676776272,-0.27877773939935574,-1.5439956376864632,0.466769833050503,-18.2633928043328,-0.03737055462278416,74.32923861248007,-9.99760776758194,-39.19596076011658,19.298359751701355,-0.16136616468429565,18.3751180768013,-39.92079794406891,-4.936140560017089,9.208127213515507,False,0
GUIDED_NOGPS,1.0702300071716309,36.85615367041001,-21.020478908082968,2.9165869972632708,71.95514768332472,-4.573934207979028,-20.93479658261935,17.528128680267503,54.37694506555833,2.1394799178783317,-0.011095215419862588,169.97300043943247,2.0089422387062745,-0.514585868224585,-0.8871845259571702,0.46440085827169897,-18.077137644603035,-0.629516114075876,74.72067198380262,-8.68285447359085,-38.28267455101013,18.655377626419067,17.077738046646118,10.706712305545807,-66.4691686630249,-4.848335605696706,7.219580815916117,False,0
GUIDED_NOGPS,1.1062860488891602,27.738454721610488,-21.100728091676018,2.0189502187964763,72.37242901628488,-4.42883660662333,-20.891566377827047,17.225519492220954,53.76875607410838,2.266158582640912,0.0990158650154997,169.8712716019343,1.0933894436617901,-0.3053265465528469,-1.0468667965841827,0.4622962804768457,-18.1641710798297,-1.0046211544147805,75.63912461771076,-11.82023510336876,-37.320709228515625,15.740202367305756,-66.20668768882751,19.816456735134125,-104.88479137420654,-4.670742034326371,9.673088072395894,False,0
GUIDED_NOGPS,1.1352148056030273,34.57423359409132,-21.318374061307775,0.6708695934094051,72.90337791445755,-4.317296038961767,-20.844327042371738,16.9438951040649,53.16183809195854,2.3594553381652896,0.07970105053805566,169.44498583545547,1.7181620112796885,-0.7160181432231179,-1.0491397538514091,0.4599748279837069,-20.595135151880413,-3.6356565025165732,76.55169827643385,-10.919653624296188,-36.352935433387756,16.422152519226074,43.526095151901245,27.473312616348267,5.834989994764328,-3.9288976759891887,4.2773274205450305,False,0
GUIDED_NOGPS,1.1680233478546143,30.48451899874989,-21.46472487926486,-0.4601407499356769,73.3759683034397,-4.134053687455179,-20.793088688603312,16.683293562090384,52.55623816888085,2.443778292337328,0.11607943847033694,169.13627494534924,1.4625604331389315,-0.5207403637053505,-0.23941363759578582,0.45776397132658536,-20.77588531217144,-5.732003134553526,76.8591035679236,-8.188477158546448,-35.61304807662964,16.056711971759796,-113.27859163284302,23.702996969223022,-74.77723956108093,-3.639072705266049,9.370106003456005,False,0
GUIDED_NOGPS,1.2025821208953857,28.943600643144507,-21.66095726882074,-1.689368071204122,73.89493083342684,-3.964427177433012,-20.737867083152114,16.44372687450048,51.95200370447852,2.586384531357555,0.1779262677962735,168.92874647760758,1.5578743970355753,-0.616857755162611,-0.41779241060699857,0.45545683509608037,-20.77588531217144,-5.732003134553526,76.8591035679236,-10.29612049460411,-34.11296308040619,17.54429340362549,26.762324571609497,32.695913314819336,48.7699419260025,-3.639072705266049,7.975996091964703,False,0
GUIDED_NOGPS,1.2383108139038086,27.99244512370109,-21.873986832977682,-2.989145425716371,74.3995676200793,-3.7848138838788343,-20.6786835083394,16.225181599988804,51.34918243129353,2.586384531357555,0.1779262677962735,168.92874647760758,1.6911610624485733,-0.6846563419173228,-0.16818091608146712,0.45317891212231404,-20.684562495677405,-8.50726819353579,77.7175733388912,-11.723951250314713,-32.58246183395386,14.525611698627472,-28.799957036972046,29.59553897380829,-70.25784254074097,-3.194139743229649,7.42808514693545,False,0
GUIDED_NOGPS,1.2729918956756592,28.836344636031132,-22.10949695639452,-4.183533187862694,74.84091217282797,-3.6069780410321997,-20.615564623587847,16.027619436317963,50.74782239791419,2.669908353396702,0.09872109966413133,168.6161970211878,1.6048462667101506,-0.7122835397100922,-0.2093620898213846,0.4510233648577676,-20.684562495677405,-8.50726819353579,77.7175733388912,-13.784031569957733,-30.538085103034973,11.59408763051033,-29.512518644332886,26.9694983959198,6.450565159320831,-3.194139743229649,7.63605245433129,False,0
GUIDED_NOGPS,1.305422067642212,30.839336789088637,-22.34293202034356,-5.263876337656313,75.30841260637473,-3.460415125646866,-20.54854232683203,15.850977808898008,50.147971952082806,2.7292682468128135,0.10609258132586759,168.2599206937016,1.6534611939082269,-0.799150838519434,-0.26741004537505075,0.44882342633711514,-20.795465727378307,-8.477175237023406,78.95230133632873,-14.085902273654938,-28.94270122051239,11.593414843082428,-46.50837481021881,31.420165300369263,21.008652448654175,-2.652407650274516,4.485113301041042,False,0
GUIDED_NOGPS,1.336198329925537,32.498365126838266,-22.6118832550635,-6.285230433059231,75.67998667127,-3.2992927987412672,-20.47765361592892,15.695170459364906,49.549679723803195,2.59619908630804,0.0089487217514803,168.0675689062957,1.6941587519767778,-0.9330646865495531,0.12241736973451878,0.44681959952004197,-21.85877499806879,-11.160058080377059,79.39910926050086,-15.086601674556732,-27.277693152427673,6.791238486766815,-67.63801574707031,34.29596126079559,-85.8088493347168,-2.0927024166024784,4.8372159560575465,False,0
GUIDED_NOGPS,1.3701019287109375,29.52861829599696,-22.879375155004677,-7.295266020489064,76.05709509026707,-3.1060128222422727,-20.402940450068364,15.560088034158987,48.95299460844829,2.5748380965656485,-0.003123744328223019,167.84734994707614,1.661671123769785,-0.892439923152418,0.4128018836220597,0.4447983711529403,-21.813359121616976,-11.649662430474137,80.00559845104064,-15.147949755191803,-25.71089267730713,5.84958977997303,-32.12311565876007,39.19316530227661,-39.07718062400818,-1.9184894199208573,6.689247362715892,False,0
GUIDED_NOGPS,1.4036765098571777,29.786129220105956,-23.22713039009658,-8.422310394562802,76.43498763954732,-2.893051371520852,-20.324449611183585,15.445598673103419,48.35796574986776,2.4929319621427366,-0.0845431210510658,167.63882427171563,1.8281044594848255,-1.0853531963387084,0.7985004711906447,0.44277702978401884,-23.43494698947883,-13.205869063129857,79.74612526389888,-15.147949755191803,-25.71089267730713,5.84958977997303,-32.12311565876007,39.19316530227661,-39.07718062400818,-1.5547567345790223,6.689247362715892,False,0
GUIDED_NOGPS,1.4366405010223389,30.341618681096097,-23.57642394991165,-9.52958319444262,76.75823773099009,-2.730696116387159,-20.24223256536166,15.351548597982642,47.76464252349555,2.52944551311539,-0.10053494177559284,167.50196094112692,1.8895695813053541,-1.1429675979346936,0.333328816912124,0.44086748772812484,-22.956450566335818,-14.223132394241393,80.02598921471422,-17.166414856910706,-25.054702162742615,2.493748255074024,-63.79944086074829,13.153116405010223,-61.0149085521698,-1.5965086306318912,3.756152824134969,False,0
GUIDED_NOGPS,1.4702208042144775,29.78274515373145,-23.834996029947806,-10.57511257596872,77.11903033821186,-2.528061304701242,-20.156345324254012,15.277762701120864,47.17307451945752,2.4541183449670814,-0.12813755048061265,167.385096404428,1.8850324408213677,-0.9924122493856422,0.8947913090107584,0.43888224870916864,-22.959893647418447,-14.234154065879084,80.74868195915477,-11.692437529563904,-24.907732009887695,4.314454644918442,24.717608094215393,22.54970073699951,25.750422477722168,-1.2497661887236253,5.987138920758077,False,0
GUIDED_NOGPS,1.504255771636963,29.387723071964576,-24.10402064914236,-11.591421566797088,77.44587296994807,-2.367478395648187,-20.066848306486907,15.224045133960502,46.583311525678994,2.523116489075727,-0.12677759578383965,167.28655043508306,1.9129747323498163,-1.0386378936560072,0.4798283619406247,0.4369655818397836,-23.51576524437131,-14.556201771843135,80.62136696573722,-11.01217046380043,-23.577894270420074,3.0145706608891487,22.310680150985718,24.26086515188217,3.9243318140506744,-1.155142351439213,3.083269267531758,False,0
GUIDED_NOGPS,1.5374839305877686,30.09841194663911,-24.409798980997703,-12.51599693475125,77.71235634713733,-2.2145086504249774,-19.973806199071923,15.190179895640636,45.99540351099236,2.586075892184435,-0.25226215138043123,167.18166605018834,1.892687593587573,-1.1431838669392878,0.49872503309962846,0.4351718406853958,-23.51576524437131,-14.556201771843135,80.62136696573722,-14.245298504829407,-21.230465173721313,0.20239180885255337,-86.44577860832214,22.4467933177948,25.34555494785309,-1.155142351439213,3.0723798115606424,False,0
GUIDED_NOGPS,1.5732414722442627,27.969858226970217,-24.717134144097535,-13.420536804937024,77.98260812310225,-2.037352251443432,-19.877287818816466,15.175931421575477,45.40940060824468,2.6569642911458815,-0.17502775962810221,167.13328099010798,1.883028878213223,-1.13259875473935,0.7596440467502688,0.4333661665915492,-24.300073754582762,-15.7381559576078,80.75982640181107,-12.901386618614197,-20.321902632713318,1.2959415093064308,-10.884203016757965,21.569544076919556,83.69379043579102,-0.8380602464952788,4.303296226656242,False,0
GUIDED_NOGPS,1.6049339771270752,31.561274399145184,-25.007943579932064,-14.332352553882293,78.26224246795216,-1.8586773193969925,-19.777365973734238,15.18104517203281,44.82535309740524,2.6500606774422915,-0.2631574770453652,167.0588455885332,2.0450337881375944,-1.2273614721248003,1.1456488227282267,0.43155424254002084,-24.138716023626152,-17.004268070961427,81.34228837038194,-12.901386618614197,-20.321902632713318,1.2959415093064308,-10.884203016757965,21.569544076919556,83.69379043579102,-0.6509449470234183,4.303296226656242,False,0
GUIDED_NOGPS,1.6461389064788818,24.27118800995313,-25.36200715695996,-15.177468472348675,78.42426711172648,-1.7073477180889078,-19.674117324455732,15.205248220712512,44.24331138867318,2.7370896671861242,-0.3398288050779913,167.03036369969422,1.848899432991741,-1.176650937280627,0.44310660465271856,0.4299533185747499,-25.0957292986161,-18.43894701494709,80.7344649605052,-16.26446694135666,-18.954046070575714,-2.8364844620227814,-104.02132272720337,43.260619044303894,-6.783206760883331,-0.6246780484628884,3.3628634880930535,False,0
GUIDED_NOGPS,1.6723434925079346,38.16681529473857,-25.781579753044262,-16.266074238594694,78.66854044965079,-1.5186031267583984,-19.56762224563872,15.248249843324935,43.663326005585034,2.7307341761634274,-0.2980063828512396,167.01742732140622,2.5496493185388687,-1.7732364673066714,1.975393316725115,0.42823155623612347,-24.74096453312361,-18.07518091164785,81.24843444692846,-16.26446694135666,-18.954046070575714,-2.8364844620227814,-104.02132272720337,43.260619044303894,-6.783206760883331,-0.5336931226674616,3.3628634880930535,False,0
GUIDED_NOGPS,1.7137477397918701,24.15447608626796,-25.995880009863527,-16.80954129552731,78.71403050931652,-1.4534338551600732,-19.45796468737875,15.309742106169413,43.085447568122376,2.806543299535045,-0.2763623671451155,167.03830037950976,1.7361875648232958,-1.0374113261216864,-0.24396022568048092,0.42686652528993746,-24.52869170166852,-18.495682194788436,81.35453036465432,-13.693314790725708,-16.610246896743774,-7.713449001312256,-23.34253191947937,25.95689296722412,-89.5098865032196,-0.49039233658194803,-0.30894098210390114,False,0
GUIDED_NOGPS,1.740309238433838,37.660647744924624,-26.404783257270495,-17.842859989707776,78.83316278825039,-1.3328504557416299,-19.345232036619624,15.3894004547127,42.50972677581936,2.8127886537573756,-0.4007933660622326,167.00506467900848,2.591831219333333,-1.8108435781040557,1.0238134939807921,0.4253999569145289,-25.70047185168854,-19.567147400158998,80.84297382323777,-13.693314790725708,-16.610246896743774,-7.713449001312256,-23.34253191947937,25.95689296722412,-89.5098865032196,-0.5151912611754115,-0.30894098210390114,False,0
GUIDED_NOGPS,1.7766914367675781,27.487770991165753,-26.655695914616203,-18.36102790971549,78.86354495655043,-1.2769230796727333,-19.229514978563888,15.486884302167454,41.93621439087032,2.7775585380184498,-0.4958985208910769,167.03533607741,1.8785242206933963,-1.2435945725977662,-0.15114164423333443,0.42408470984518565,-25.70047185168854,-19.567147400158998,80.84297382323777,-13.745041191577911,-14.871816337108612,-6.617408245801926,-35.5157196521759,22.7299764752388,-50.72680711746216,-0.5151912611754115,-0.4241325493429893,False,0
GUIDED_NOGPS,1.8081393241882324,31.80346066938627,-26.993072718763205,-19.03290295933251,78.87222072224951,-1.2194283077248111,-19.110907358083328,15.601837618070675,41.3649612212374,2.803232365334882,-0.5275123716295982,167.09600181761803,2.1484046981528744,-1.5480657536993128,-0.001727201932630651,0.4228303126308201,-26.074969735437897,-20.21790847777763,80.99076304491331,-14.716941118240356,-12.594044208526611,-10.440583527088165,-18.50011944770813,29.070109128952026,-96.20655179023743,-0.465011442856442,-1.7352083847029758,False,0
GUIDED_NOGPS,1.8430585861206055,28.64120511052082,-27.27991156415338,-19.59975402199923,78.94953991622728,-1.1651177880027244,-18.989506041129456,15.733889516862174,40.79601810375807,2.833968216599939,-0.49007493084999476,167.1747538987483,2.034156838197013,-1.4098378779443033,-0.07708403813853348,0.4214311805673786,-26.074969735437897,-20.21790847777763,80.99076304491331,-13.551746308803558,-12.102577835321426,-4.537712037563324,-50.00477433204651,31.171777844429016,62.61411905288696,-0.465011442856442,-1.1149805706803915,False,0
GUIDED_NOGPS,1.8742280006408691,32.08813268865904,-27.69264152377932,-20.1174945360237,78.9047741195419,-1.0836833504581702,-18.865410776143992,15.882654846463058,40.22943588725278,2.7749639199074916,-0.6048184803682124,167.1949302775565,2.1011491906014546,-1.7871602068768426,0.39823804746657376,0.4202914207517182,-26.074969735437897,-20.21790847777763,80.99076304491331,-21.782252192497253,-8.718495815992355,-12.530499696731567,-49.307817220687866,31.222015619277954,-33.1231951713562,-0.465011442856442,0.740598692364952,False,0
GUIDED_NOGPS,1.9081859588623047,29.4593470809687,-28.046629229676583,-20.653838821746632,78.77370916989007,-1.049394301420008,-18.738724055469365,16.047734776854114,39.6652654156325,2.71801038751334,-0.704976587800691,167.24354756406865,2.1125993126055618,-1.639179998448981,-0.22504630034264766,0.41931914753790356,-26.962988307569276,-22.401358894415424,79.63278387101067,-17.115196585655212,-8.547822386026382,-13.654470443725586,-31.364676356315613,35.97542941570282,-82.45362639427185,-0.4953396261192128,-1.743562453109842,False,0
GUIDED_NOGPS,1.9485361576080322,24.786686838124055,-28.462940444325188,-21.25920231102727,78.64775759619768,-1.0158084968022183,-18.609550976759195,16.228717388654346,39.10355751100634,2.6644019402652024,-0.7612687657841146,167.35621836461718,2.111996757640893,-1.6429095427535714,-0.27646521734324553,0.41832001498500637,-28.08182235819512,-23.37310131791251,79.7229478528343,-17.115196585655212,-8.547822386026382,-13.654470443725586,-31.364676356315613,35.97542941570282,-82.45362639427185,-0.5710994523713319,-1.743562453109842,False,0
GUIDED_NOGPS,1.9947760105133057,21.62736999510145,-28.90937408545359,-21.83746160191287,78.48662526976541,-0.982045965380885,-18.477999104388772,16.425178261699436,38.544362956789136,2.6354773697906677,-0.9317249944233627,167.3786760266082,2.06491066389531,-1.6256571681285013,-0.2975752697811592,0.41737592783904687,-29.10221672487416,-23.592132848362496,79.04171809145885,-17.115196585655212,-8.547822386026382,-13.654470443725586,-31.364676356315613,35.97542941570282,-82.45362639427185,-0.45975232836977575,-1.743562453109842,False,0
GUIDED_NOGPS,2.0172884464263916,44.42836260407177,-29.181110970664097,-22.23753391338158,78.41327078624698,-0.9735533599759291,-18.344178330865567,16.636681063620138,37.987732480809036,2.5971589413298384,-0.9416661213169046,167.39797814120266,2.3946906535574812,-1.9911607528410038,-0.43389764727856417,0.4163362489076191,-28.771855261811346,-23.352751541752426,79.21062616243111,-10.864987224340439,-6.7022718489170074,-7.732626050710678,84.76519584655762,20.169416069984436,-18.24479252099991,-0.51012894961052,-2.3362632173950995,False,0
GUIDED_NOGPS,2.049527645111084,31.022958579881657,-29.360529215230738,-22.437441851744374,78.3488185140731,-0.9534499790130535,-18.208200738239704,16.86277813842078,37.43371673841506,2.4914224903361637,-1.0355521941006074,167.47390252401652,2.008482820386914,-1.5217416258124314,-0.3221561143921893,0.4152518016030768,-28.771855261811346,-23.352751541752426,79.21062616243111,-11.048099398612976,-5.571692064404488,-6.91685751080513,11.614899337291718,18.621623516082764,93.70027780532837,-0.51012894961052,-0.400743366943074,False,0
GUIDED_NOGPS,2.0773630142211914,35.93721296867503,-29.62156317053949,-22.898530232043868,78.27017078043468,-0.9815784954033665,-18.07018045951446,17.10301109505774,36.88236629558471,2.476116249849577,-1.1393960423639542,167.5535561901172,2.392088435987179,-1.8347638112492393,-0.9935304800766704,0.4142143170663739,-29.315162510089138,-25.2100624804946,78.158627728803,-8.206842094659805,-4.825080186128616,-5.256935954093933,-59.417057037353516,20.4592302441597,6.732529401779175,-0.923019455024265,-3.8227091756153353,False,0
GUIDED_NOGPS,2.111617088317871,29.196249451826894,-29.860750627999856,-23.230804846482545,78.17051182654673,-1.0105671932802196,-17.930233540056733,17.356911396017882,36.3337316120316,2.4100115446280777,-1.2126128955021405,167.6292893276343,2.175965553481416,-1.6648370661804381,-0.9440385681700676,0.41320144229676914,-30.084635830924995,-24.573729583121818,77.63058257307162,-8.206842094659805,-4.825080186128616,-5.256935954093933,-59.417057037353516,20.4592302441597,6.732529401779175,-0.754371928674993,-3.8227091756153353,False,0
GUIDED_NOGPS,2.1446638107299805,30.266956277015666,-30.087504954310948,-23.669133268509693,78.08520139302577,-0.9985212926779723,-17.788477799007566,17.624000945897002,35.787863024312976,2.373540042007502,-1.3048102040135576,167.67059831173452,2.3368760280453316,-1.7062273200460776,-0.4528333880082127,0.4121688659573538,-29.614130500645118,-25.05979462471048,77.74768227981923,-5.057448893785477,-4.272463917732239,-4.582325369119644,73.83586764335632,6.97985514998436,68.95418763160706,-0.9139777167252943,-0.9596601479635974,False,0
GUIDED_NOGPS,2.1819708347320557,26.808544364477736,-30.330665442345783,-24.062195486178815,77.9765885351367,-1.0092482051642362,-17.64503269069259,17.903792679978352,35.244810728937324,2.3701514144055293,-1.333304686013793,167.69886163452006,2.2650447176255013,-1.6872326124660288,-0.72045690220398,0.4111723357093141,-29.614130500645118,-25.05979462471048,77.74768227981923,-7.40402489900589,-3.5289715975522995,-6.212636083364487,27.757972478866577,15.329471230506897,25.47706961631775,-0.9139777167252943,-2.367036207813769,False,0
GUIDED_NOGPS,2.2175002098083496,28.149124514271524,-30.601476272385803,-24.457646221005277,77.85899810515801,-0.991198943983974,-17.500019166032573,18.19579115281101,34.704624765472005,2.3854087763508685,-1.3288437187121285,167.72073190024244,2.3334490672012467,-1.802255548531447,-0.39170899956907246,0.4102043679281977,-30.089034336188217,-25.855913696223844,76.97644008441891,-8.560226112604141,-2.785288728773594,-4.607397690415382,17.230698466300964,-4.465390369296074,86.42392158508301,-0.998394050836291,0.005292596193966521,False,0
GUIDED_NOGPS,2.2452991008758545,35.97790358552067,-30.897179324041623,-24.835178663671197,77.73420974326035,-0.9719353358345688,-17.353559533953838,18.49949312678838,34.16735499965078,2.353908797672416,-1.2702923489390172,167.7419191470478,2.513344428257684,-2.092534276105888,-0.3062490460566299,0.40928242073865895,-30.539079975713044,-25.293663532924885,76.82814053560314,-8.560226112604141,-2.785288728773594,-4.607397690415382,17.230698466300964,-4.465390369296074,86.42392158508301,-0.9771421949422914,0.005292596193966521,False,0
GUIDED_NOGPS,2.279005289077759,29.672130451699623,-31.096551600518794,-25.090142811645066,77.58619771518826,-0.9100471214511209,-17.20577732279881,18.814388160726708,33.633051106481425,2.3261086470899945,-1.264366306060385,167.70599235201354,2.3192842456402283,-1.7802793374158143,0.188830914756129,0.4083913846331109,-30.73539091314558,-26.387817567082415,76.255739411583,-7.742752134799957,-2.2005511447787285,-5.380881950259209,11.925389617681503,4.702194035053253,82.6514184474945,-1.0227454093837351,3.7808490806264428,False,0
GUIDED_NOGPS,2.312596321105957,29.775556565197636,-31.34732547997246,-25.427606935202885,77.432855796212,-0.8421758187835783,-17.056797141736478,19.139959198443435,33.10176255335332,2.240243991156237,-1.4004302910727973,167.5749893237327,2.4354003102920365,-1.910014707524826,0.30531841334699006,0.40751671632134034,-30.73539091314558,-26.387817567082415,76.255739411583,-7.742752134799957,-2.2005511447787285,-5.380881950259209,11.925389617681503,4.702194035053253,82.6514184474945,-1.0227454093837351,3.7808490806264428,False,0
GUIDED_NOGPS,2.3534750938415527,24.465142323845075,-31.58312795235487,-25.705289976007855,77.23251190426639,-0.7663708616886303,-16.906744542172888,19.47568315733578,32.573538583145066,2.24527015661172,-1.3550014222425733,167.49599135579234,2.325654760388837,-1.7896694703561797,0.28475829001034797,0.4067154623664435,-31.469384160852123,-26.33419701263626,75.62848846472846,-5.904426798224449,-0.5727722309529781,-7.072673738002777,51.355016231536865,8.265289664268494,72.68763780593872,-0.9368889133451408,4.195509438251094,False,0
GUIDED_NOGPS,2.3807270526885986,36.706813109876165,-31.775565441301282,-26.064618422709273,77.04094744978063,-0.6867613000180711,-16.75574587916163,19.82103151695906,32.048428197332,2.1789914950097975,-1.3876847311947305,167.31693111651128,2.6749283216797295,-2.0014581122972728,0.7485807164587323,0.40594961554205006,-31.469384160852123,-26.33419701263626,75.62848846472846,0.2566270064562559,-1.3673595152795315,-5.6903548538684845,13.448978960514069,4.350805282592773,20.98786234855652,-0.9368889133451408,3.864240140863598,False,0
GUIDED_NOGPS,2.41459584236145,29.53090522491569,-31.861742998167266,-26.220031764784142,76.84712383079943,-0.6357755624301281,-16.603928172814335,20.175470907605273,31.52648013909387,2.137342495554941,-1.3488109229770144,167.15039744416802,2.3839804731442396,-1.685683412779974,0.21959057504103696,0.4051703454857174,-32.091127364296185,-26.42172815100607,74.79808322806338,0.2566270064562559,-1.3673595152795315,-5.6903548538684845,13.448978960514069,4.350805282592773,20.98786234855652,-1.1289465308610214,3.864240140863598,False,0
GUIDED_NOGPS,2.4477760791778564,30.141238187632496,-32.09525235729921,-26.402844029933867,76.57703465754146,-0.5413279869984527,-16.45141896971116,20.5384636988815,31.007742876422363,2.0464747260541487,-1.4440329380736894,166.9796017337827,2.4518657154877146,-1.992042262562123,0.8147042603786375,0.40455218492364103,-32.74846041750341,-25.918652071325553,74.68443996272826,-4.594233259558678,0.6419550161808729,-9.842503070831299,2.163577824831009,22.545291483402252,-16.338279843330383,-0.8914181757618889,5.5139523796828795,False,0
GUIDED_NOGPS,2.4820353984832764,29.196859163557388,-32.30898692991185,-26.555423418088303,76.31368766769701,-0.4495874663833334,-16.29834620431127,20.909468588288334,30.492264585228718,1.9945539758612392,-1.3552293798061223,166.92808844706246,2.4447073263684542,-1.9632144954957331,0.8029234631559917,0.4039225183724671,-32.74846041750341,-25.918652071325553,74.68443996272826,-4.594233259558678,0.6419550161808729,-9.842503070831299,2.163577824831009,22.545291483402252,-16.338279843330383,-0.8914181757618889,5.5139523796828795,False,0
GUIDED_NOGPS,2.520312786102295,26.127363221269146,-32.49839435176304,-26.69476584241369,76.00483021882789,-0.33901215127442036,-16.144838060363327,21.28794118979844,29.9800931324513,1.913414530172661,-1.525616986388553,166.6584462390087,2.419627798524984,-1.8806629930462324,0.9509652565268603,0.40337481425003024,-32.49456918195747,-25.92773552913139,74.26015439992227,-3.919752687215805,1.1692402884364128,-11.831127852201462,45.18520534038544,-15.249711275100708,-126.92621946334839,-0.5969301139923058,5.925990798439892,False,0
GUIDED_NOGPS,2.5482776165008545,35.76956992640224,-32.7187890798461,-26.864306477983536,75.75079969656356,-0.19338750004969968,-15.991022832315988,21.67333462243497,29.471276059163195,1.7633798200998108,-1.4557518351421388,166.48174924518045,2.6427276921461442,-2.1781813784454984,1.9829522149324679,0.40276249525274294,-32.93398442309253,-25.744381681619252,74.1581595441644,-3.0647791922092438,0.8896426297724247,-6.877713650465012,-30.990678071975708,9.741019457578659,-5.760775506496429,-0.40857783758045585,7.131106814276003,False,0
GUIDED_NOGPS,2.5821456909179688,29.53319250809745,-32.85506336291465,-26.92078071143047,75.51286815851336,-0.07504129101231531,-15.83702878672841,22.065100098849875,28.965860563679833,1.7560333113172273,-1.491114072352822,166.30622704388946,2.4644615702614434,-1.900054090529045,1.3473356659234272,0.40210092421459265,-33.23877294421296,-26.23107672772425,73.3320058465124,-3.0647791922092438,0.8896426297724247,-6.877713650465012,-30.990678071975708,9.741019457578659,-5.760775506496429,-0.39437568494615755,7.131106814276003,False,0
GUIDED_NOGPS,2.6157584190368652,29.752534173210474,-32.992615518959234,-27.05292580850729,75.22786106518431,0.051946891145593005,-15.682984023680685,22.46268751390265,28.463893484666514,1.763651747006142,-1.4812899124488164,166.14489797569377,2.5687203869267914,-1.9252861555412777,1.536668019159372,0.40154077967061974,-32.62965928626946,-26.678353212637848,73.17318731334134,-2.4955544620752335,0.37065991200506687,-8.491533994674683,26.114237308502197,-17.39579439163208,-50.847142934799194,-0.19332137509174604,6.3367498373879965,False,0
GUIDED_NOGPS,2.648986577987671,30.100787989263825,-33.210139929790586,-27.16113615612894,74.92299662864285,0.13759409571643497,-15.52901633818439,22.865546033238594,27.965421284246034,1.764230818981712,-1.321524530686225,165.92455607306917,2.5864985919472665,-2.1049823889976977,1.1142348397397426,0.4010288187530384,-32.53130034289997,-26.975731483970605,72.85219884432607,-9.010633081197739,1.626855507493019,-9.54265147447586,-57.078731060028076,11.170066893100739,-27.81844139099121,-0.21174557771474217,3.8622000487358794,False,0
GUIDED_NOGPS,2.6839725971221924,28.644530342971876,-33.41601444309666,-27.25972567720232,74.61147763637473,0.22491745765257998,-15.375253081593032,23.27312468186725,27.47049003110628,1.7311212635366637,-1.355175378622997,165.79561576191765,2.590705574453901,-2.083707272038842,1.1448512832115627,0.4005315573570978,-32.45728495228872,-27.06239713938598,72.50307712786912,-9.010633081197739,1.626855507493019,-9.54265147447586,-57.078731060028076,11.170066893100739,-27.81844139099121,-0.09689975823204505,3.8622000487358794,False,0
GUIDED_NOGPS,2.7165884971618652,30.6001692590539,-33.53133238899706,-27.274605545337998,74.32163091449931,0.3207711879323828,-15.22182102301256,23.684872932741058,26.9791453836078,1.695200658361332,-1.3954532176019736,165.69387326404114,2.562429807959897,-1.9665518789535243,1.3532445299182436,0.4000034608877193,-33.888466077614325,-25.225714050916473,72.35490991774549,0.5620921961963177,1.3063060119748116,-8.210531622171402,16.727030277252197,-4.268205538392067,-21.621814370155334,0.5218164664990781,2.896680665681469,False,0
GUIDED_NOGPS,2.749189853668213,30.678057343475718,-33.627657847568265,-27.284623770156898,74.03240911052758,0.41290513119171957,-15.06884621071184,24.100241295333582,26.491432572891384,1.6918769175564745,-1.3625400300955632,165.5924995963798,2.590193974684265,-1.9544349254786875,1.379150221776645,0.3994825938473645,-33.75394932393978,-25.404359063022426,72.10344907630716,0.5620921961963177,1.3063060119748116,-8.210531622171402,16.727030277252197,-4.268205538392067,-21.621814370155334,0.555292506628198,2.896680665681469,False,0
GUIDED_NOGPS,2.7833967208862305,29.241029287711154,-33.707120308685646,-27.295574675591748,73.85266468987238,0.52396374270936,-14.916453833533176,24.518681904218084,26.00739638598568,1.7669748474807647,-1.4949833745176342,165.4865223812179,2.599773748367689,-1.917276250066022,1.615024860141965,0.3987432783172564,-33.85853103320566,-25.54826089620918,71.68755617559667,1.370952744036913,1.1192460544407368,-0.31247357837855816,16.75005406141281,1.7287399619817734,112.68894672393799,0.7320808245712699,3.9194746000210214,False,0
GUIDED_NOGPS,2.8216965198516846,26.112723582550444,-33.77681309864307,-27.302780968016016,73.66636643467898,0.6412459377541857,-14.764768082302734,24.939649107646076,25.527081148914768,1.7133557280620488,-1.439708147668602,165.44647015192496,2.5819936512853103,-1.8702525347408216,1.6074564425925906,0.39800748375697464,-33.65807518629875,-25.443855698927447,71.45696652856888,1.370952744036913,1.1192460544407368,-0.31247357837855816,16.75005406141281,1.7287399619817734,112.68894672393799,0.8813021194054997,3.9194746000210214,False,0
GUIDED_NOGPS,2.852579355239868,32.38919820536383,-33.8665905920889,-27.258744308063434,73.40900945458375,0.7152420915884867,-14.613912011241105,25.362600056125643,25.05053070980575,1.7126374909821398,-1.5641016872669897,165.41227822493985,2.640172395371062,-2.0108824084709487,1.393505175134628,0.39745035805331297,-33.56920484273864,-24.832275115069216,71.70137235329503,-0.8881504647433758,2.2050462663173676,-6.47587925195694,-3.6768123507499695,4.28740456700325,25.09259581565857,1.1432572486810741,0.6050023618672739,False,0
GUIDED_NOGPS,2.884395122528076,31.433312099524112,-33.8433268671772,-27.178228010259765,73.13697760379891,0.7215702883089856,-14.464007399373743,25.786995290999812,24.577788421996317,1.6870187320658914,-1.671233631285463,165.42291965966675,2.6074408183121425,-1.7898920661747895,0.5122092447645606,0.39692488381088953,-33.43747672362134,-25.015676232625196,71.00216076209259,3.981858864426613,2.9073920100927353,-8.014770597219467,58.031708002090454,-5.533440411090851,-74.83072280883789,1.1962433171123579,-2.810018798605524,False,0
GUIDED_NOGPS,2.930675506591797,21.611657288897135,-33.845242422715366,-27.111499520495347,72.82656426138567,0.7969529292270787,-14.31517461194148,26.212299333025342,24.1088971271424,1.6590345932627029,-1.7229518236807995,165.45242607688118,2.5378706158683952,-1.7586569995351407,1.1291651222341925,0.396427405443834,-33.63474361951546,-24.995111079076366,70.39460144291036,3.685741499066353,2.9601898044347763,-8.317634463310242,-56.328511238098145,4.483650252223015,7.0049189031124115,1.2818100069092249,1.2279161477809657,False,0
GUIDED_NOGPS,2.957885503768921,36.75763975917341,-33.849841466655526,-27.029504351311232,72.51036494345823,0.8777422043824418,-14.167532461811003,26.63798127095086,23.643899138325693,1.7336200455558304,-1.6392316337030144,165.53915581896203,2.7059156825787376,-1.906132691488107,1.7139222797298657,0.39602340296844096,-33.69897111147306,-24.57543836416037,70.2103707166053,3.685741499066353,2.9601898044347763,-8.317634463310242,-56.328511238098145,4.483650252223015,7.0049189031124115,1.42051088948873,1.2279161477809657,False,0
GUIDED_NOGPS,2.9844894409179688,37.59381190115534,-33.8312505641198,-26.918381694003667,72.23164586409997,0.8830200089012857,-14.021198070885326,27.06351535009547,23.182836223161246,1.7023083239663763,-1.6971789586214026,165.54343151738246,2.6961167188115107,-1.8693216723900044,0.6090315612468151,0.39555414716540455,-33.69897111147306,-24.57543836416037,70.2103707166053,3.065389208495617,2.9413217678666115,-9.362902492284775,-36.182576417922974,-12.219364941120148,-22.56188988685608,1.42051088948873,-2.514020171205151,False,0
GUIDED_NOGPS,3.0216054916381836,26.94719529197104,-33.778343970652585,-26.808096251698736,71.9800629921682,0.9168176677850278,-13.876286731514336,27.488381560927238,22.72574958690509,1.7465244073321002,-1.6452979089030435,165.67338269653112,2.6124519365586805,-1.7392406171404973,0.914860154278219,0.3949971028446771,-33.63638726955206,-24.360539323426757,70.09930061046086,5.38131520152092,2.657198905944824,-7.700350135564804,68.22850108146667,-0.7200783118605614,79.10197377204895,1.5577442999770146,-0.925293730989561,False,0
GUIDED_NOGPS,3.0666847229003906,22.188327902154132,-33.78185778722361,-26.695858635753826,71.67900937259063,0.9245904605091562,-13.732911767905218,27.91206622764149,22.272679855561833,1.7431176370401447,-1.7017716205080016,165.78493334605577,2.5865021335562273,-1.8021050199860325,0.6246747198600868,0.39451731651475946,-33.64740520662487,-24.025795825260012,69.42171981282254,3.534836694598198,4.03427891433239,-5.454572290182114,33.20508599281311,-4.71983328461647,115.19966125488281,1.407622616081766,-3.5248333134102663,False,0
GUIDED_NOGPS,3.094409227371216,36.073207651025186,-33.74617566108236,-26.602513679664515,71.31416087151298,0.9222918661411524,-13.591184397532965,28.33406259673957,21.823667058992186,1.8473736445312194,-1.7530652739577395,165.89800029757615,2.741981490562033,-1.8362590580461915,0.5208431780872981,0.3942370894611457,-33.65670846080968,-24.16562463724583,68.94222204606072,6.984657049179077,3.9397213608026505,-5.848120898008347,10.418011248111725,3.073939122259617,-63.46519589424133,1.4042848070231513,-4.62975579020758,False,0
GUIDED_NOGPS,3.1205012798309326,38.33320233601726,-33.59581913415727,-26.476153301973795,71.01776975929072,0.8728961265623276,-13.45121359255089,28.75387142560693,21.37875061402061,1.8742719966997874,-1.6682213044180758,166.03894808128854,2.7401603562393535,-1.589777623976783,-0.2343955333404374,0.3938365443265425,-32.65793198243536,-24.38349121225739,67.98513307650643,8.39436873793602,3.575185313820839,-7.17594251036644,13.097938895225525,-9.689853340387344,32.740575075149536,1.1555120543227475,-4.8258838184508495,False,0
GUIDED_NOGPS,3.155735492706299,28.386307340380892,-33.43178767262999,-26.356961170109976,70.79251751796949,0.8534228081321437,-13.313105941201082,29.17100157109185,20.937969307542886,2.0984706083279288,-1.791855305636417,166.23853986921463,2.6710665538610847,-1.5708301985180981,0.2909509260425156,0.39326497835307433,-32.65793198243536,-24.38349121225739,67.98513307650643,9.593366086483002,3.326881304383278,-3.4200049936771393,21.315917372703552,8.422990143299103,74.35340285301208,1.1555120543227475,-2.7925915709382365,False,0
GUIDED_NOGPS,3.186452627182007,32.559163490424694,-33.282497531140514,-26.235904403091883,70.53661096127705,0.8425882095459235,-13.176965509224932,29.584970578083812,20.50136127963369,2.135714349211539,-1.8036356744073965,166.34483127307837,2.7182658494249052,-1.5893146284334547,0.3646042956695459,0.3927804980948298,-32.7793990155548,-24.036118897583528,67.9672080256113,9.593366086483002,3.326881304383278,-3.4200049936771393,21.315917372703552,8.422990143299103,74.35340285301208,1.2266409240340534,-2.7925915709382365,False,0
GUIDED_NOGPS,3.220211982727051,29.626649337439606,-33.14996374027772,-26.07133584213987,70.25377435966946,0.8180801307146827,-13.042893701273572,29.99530526809204,20.0689640066542,2.2934722956883813,-1.9183034515145094,166.48083399983167,2.664175696986709,-1.621116550217528,0.20055266093192997,0.39234579808686354,-32.555600606823006,-23.240724927948563,67.90714235450245,7.670089602470398,3.9843272417783737,-6.609095633029938,2.301831543445587,5.28646782040596,111.05965375900269,1.1701409485930172,-3.3561265736938934,False,0
GUIDED_NOGPS,3.254406452178955,29.247962065478887,-32.962773703612974,-25.924937756280507,69.88961920331214,0.7433595242678156,-12.910989122318405,30.40154232782372,19.640814284359664,2.5513665783697226,-2.0263514946554104,166.7127189221536,2.6841133765193335,-1.5217198862565258,-0.4261231997284607,0.3920800466378992,-32.09932627154053,-23.49688720864871,67.19037574140617,10.155649483203888,3.7616077810525894,-9.578707814216614,41.99456572532654,2.713814377784729,12.086199969053268,0.9064372243712,-6.082399142225422,False,0
GUIDED_NOGPS,3.3009564876556396,21.484901726760953,-32.758903138234366,-25.78398913962603,69.5050977747579,0.6476491044770194,-12.781347439061586,30.803228897762878,19.216948211007036,2.7290232137763395,-2.1117561800372497,166.91459199326252,2.638090975133723,-1.5235617224663953,-0.43527569535532784,0.39181441025451574,-32.06810134490848,-23.850901784882154,66.68209428332543,11.095812171697617,4.43795807659626,-9.985410422086716,-61.61182522773743,24.007423222064972,-144.98039484024048,0.656686393561378,-6.664119950533061,False,0
GUIDED_NOGPS,3.32698130607605,38.43154933707175,-32.54292540016837,-25.597901876379506,69.05388949046302,0.5534519551721331,-12.654061241346493,31.199923160748398,18.7974011704625,2.85454245392731,-2.284490383486403,167.12381434791834,2.7230861183130086,-1.4099420636816862,-1.1327089480118526,0.39177431204992863,-32.01251723808335,-23.166009330337403,66.88959135640185,11.826735734939575,5.586835741996765,-16.69982373714447,11.94421797990799,12.753242254257202,-186.80899143218994,0.7544022668503965,-6.732834641791151,False,0
GUIDED_NOGPS,3.3589084148406982,31.327661799305375,-32.34087925053377,-25.4067558411223,68.74478774041758,0.44578793048913795,-12.52921990356821,31.591194930552803,18.382207815309094,2.949742484352594,-2.3099029560670816,167.348336326315,2.6737353270364195,-1.4732610464493896,-1.0725043913834045,0.3914326403498658,-31.80213429045014,-23.064055053259487,66.79993242438438,11.962831020355225,6.2446970492601395,-14.345802366733551,1.8099436536431313,17.074334621429443,-71.46283388137817,0.6345391072759026,-7.794592244024687,False,0
GUIDED_NOGPS,3.398954391479492,24.97442004477683,-32.035571613024636,-25.182843718729387,68.36817251298373,0.2884909720195277,-12.406909446084114,31.97662624046039,17.971402049954314,3.014618182410314,-2.4228508061638205,167.51044403607608,2.6138721236471265,-1.3385304919003447,-1.3936756134135182,0.3912023514975783,-30.267301145251572,-22.56603008753926,65.92168615638717,14.492152631282806,7.506898045539856,-13.151878118515015,66.94790124893188,19.897201657295227,-42.9647296667099,-0.006875470594986888,-9.462313557251177,False,0
GUIDED_NOGPS,3.422366142272949,42.72490577569522,-31.70922467393536,-24.95196839342777,67.85568936586749,0.18592993462058927,-12.287212396624174,32.355811931846134,17.565017013737666,3.110084163326405,-2.3638144929596385,167.7532845818267,2.6888032057119386,-1.0705294522954265,-1.6427610115531959,0.3913204646959951,-30.36979242805894,-22.91149615083336,65.1511622793704,14.157980680465698,8.29283893108368,-14.111971855163574,-72.77694344520569,14.811520278453827,-71.56044244766235,-0.247540069153774,-4.005009485883915,False,0
GUIDED_NOGPS,3.455246686935425,30.41753268886294,-31.435611743524575,-24.735191822219004,67.5027397296004,0.1070423735969813,-12.17020765170162,32.72836024275374,17.16308506403827,3.069207188691171,-2.3881431998964007,167.88087251552255,2.649792344951855,-1.3071449776305402,-0.8965760589571803,0.3910902380724829,-30.26317823558853,-22.626762721078272,65.15642851004003,14.157980680465698,8.29283893108368,-14.111971855163574,-72.77694344520569,14.811520278453827,-71.56044244766235,-0.21489267367024995,-4.005009485883915,False,0
GUIDED_NOGPS,3.4887754917144775,29.831040810230295,-31.111247639621826,-24.48825078814803,67.02518289148362,-0.014836352360411281,-12.055970338023334,33.093893396474414,16.765637759382443,2.8592143033195985,-2.3883796951964125,168.09501260638078,2.619427273281861,-1.2074398509798239,-1.4624754973346406,0.39111560452037925,-29.776682409262726,-22.707390261948433,64.94931909554415,14.41068947315216,9.933952987194061,-17.244502902030945,-53.935009241104126,33.45879018306732,-225.6589412689209,-0.4092565779568126,-5.74732286814929,False,0
GUIDED_NOGPS,3.5222840309143066,29.851210259987045,-30.695709973885094,-24.227351436287556,66.53094452168463,-0.13271939081052841,-11.944571673900398,33.452048190125026,16.372705842551333,2.694131192401329,-2.4092608641496107,168.20526551996315,2.606517918237045,-1.0185510117840124,-1.4932688874893696,0.39118437136494405,-28.812856992430532,-22.50317499601562,63.5303975019048,18.12165230512619,10.373245924711227,-14.660005271434784,38.268887996673584,9.04877707362175,-3.101217746734619,-0.8680359794948505,-4.155598508496594,False,0
GUIDED_NOGPS,3.5577168464660645,28.225654277619633,-30.251234932719147,-23.947722273458947,65.99770296331941,-0.21194794600434327,-11.836078830658524,33.80247658322669,15.984319223688416,2.6472722527136336,-2.337917830721535,168.33793511440146,2.584233923038988,-0.9790421325144427,-1.014686016620803,0.3913312112091074,-28.537564698556714,-21.886275116420514,63.07680231834635,19.647392630577087,10.110694169998169,-17.051030695438385,14.915400743484497,2.7930408716201782,-121.33129835128784,-1.0808657437167513,-0.9924021538539346,False,0
GUIDED_NOGPS,3.592024564743042,29.15667273763677,-29.75932578775481,-23.65112846268731,65.49148880773107,-0.3181191891275744,-11.730554794048548,34.14484628628351,15.600506963407163,2.5300642855655107,-2.2424172719727706,168.44432214091358,2.5696795385935314,-0.8405319432697069,-1.4330578066813981,0.3914395591372275,-28.384640080433922,-21.621326730241364,62.95331269758945,22.012437880039215,10.347063094377518,-14.415356516838074,72.88506031036377,3.8142837584018707,1.817561686038971,-1.0426282481812303,-2.963826547864572,False,0
GUIDED_NOGPS,3.62918758392334,26.911405399856278,-29.27623358372469,-23.333133904252346,65.0288594894001,-0.4091412875744937,-11.628058225656993,34.47884134936058,15.221297255898634,2.4368411680181223,-2.1170717747588124,168.48817195538507,2.5457676087755963,-0.8795700405781771,-1.2241863333794103,0.3914581664070066,-27.48261382304859,-20.976069264362366,62.469987962310675,20.594973862171173,11.043224483728409,-13.304339349269867,57.231712341308594,0.6639651954174042,37.49208152294159,-1.2688005797300668,-1.8520309797715218,False,0
GUIDED_NOGPS,3.6565661430358887,36.52970327210653,-28.679390660464474,-23.00305961565503,64.60180012244805,-0.4824974288020243,-11.528643324316477,34.8041627506626,14.846717412038963,2.2199470168204867,-2.0556180014752687,168.51867558021834,2.5338429136602545,-0.36619909177834375,-1.36260336568477,0.39145428715876524,-26.7158490436152,-20.07331141853618,61.63411370210004,27.610760927200317,10.152513533830643,-10.523724555969238,79.83969449996948,-8.212380856275558,35.59242486953735,-1.3429260544990298,-0.81023631293464,False,0
