Mode,Time,Freq,North-Vision,East-Vision,Down-Vision,Yaw-Vision,North-Desired,East-Desired,Down-Desired,Roll-UAV,Pitch-UAV,Yaw-UAV,Roll-Control,Pitch-Control,Yaw-Control,Thrust-Control,northVraw,eastVraw,downVraw,yawVraw,zGyro
GUIDED_NOGPS,0.0037517547607421875,268.1951531427841,266.6846125020968,-106.72159883770857,28.176039286725093,18.096391066862193,274.86333864045116,-95.24933117020792,18.77821248514888,1.451560019982455,0.02720635101145329,120.55368579418213,-2.0,2.0,-3.6196578476216428,0.4953010865992119,266.6846125020968,-106.72159883770857,28.176039286725093,25.11085964342925,0.8594366926962349
GUIDED_NOGPS,0.009149551391601562,185.5394143147837,269.6502100259572,-109.02545756933152,29.707652842302153,20.114416326413384,274.86326423268815,-95.24904612040977,18.778224106668237,1.451560019982455,0.02720635101145329,120.55368579418213,-0.7338019919193488,-0.26281009066357663,-4.024528519671171,0.494535285632183,272.6158075498177,-111.32931630095447,31.239266397879216,12.742383437456922,0.8594366926962349
GUIDED_NOGPS,0.026669740676879883,57.10653940937002,269.4269249086263,-109.82013088152489,30.814828460363874,20.260705692413463,274.8627493829429,-95.24707377491767,18.778304990421052,1.4987483028541921,0.0026160691738206653,120.5624147759414,-0.502970178001258,0.23023760306190322,-4.057311277941704,0.4939817382650286,268.9803546739644,-111.40947750591164,33.02917969648732,26.561726089953424,0.11459155902616465
GUIDED_NOGPS,0.06941652297973633,23.398271755077904,269.98014276987885,-112.77490103670455,33.99913274709331,20.232989795649605,274.86137005218035,-95.24178967632996,18.778523118946406,1.6170834646587786,-0.4621143241829311,120.47613582634581,-0.6163495541656698,0.18230014216682122,-4.060433789694991,0.49238969518592657,271.63979635363654,-115.58590930324759,37.72895214691341,19.381495800281684,-2.0053522829578814
GUIDED_NOGPS,0.11206340789794922,23.455190077283557,270.31207348663037,-114.19376537080227,36.16236133010471,20.167686147478577,274.85871987389044,-95.23163706918224,18.77894508730463,1.818108631815242,-0.9444040666787278,120.32827589119337,-0.6336610050095054,0.1740010443220258,-4.055952697051015,0.4913082918786,271.63979635363654,-115.58590930324759,37.72895214691341,19.381495800281684,-3.20856365273261
GUIDED_NOGPS,0.1504523754119873,26.053195850673955,269.63026048715153,-114.99504291730368,37.87807826684653,20.08578997770398,274.8544099103292,-95.21512596612746,18.779636112483953,1.7922670379773218,-0.9844509598863934,120.28846954871054,-0.6499288819322768,0.22654122319955805,-4.047316275616468,0.4904507789228187,263.2755475047025,-113.81331014541585,38.176330506712794,20.87419725458986,-3.552338329811104
GUIDED_NOGPS,0.19635224342346191,21.789497745360848,267.71509152310796,-114.40212955902363,38.17812069493774,20.08367696792346,274.84806840875973,-95.19083221411616,18.780660042807124,1.8133272859528216,-1.40976854705038,119.97937616801079,-0.6048452907895191,0.3269294089404335,-4.0561068356098104,0.49030126967393467,263.03996272959984,-113.8071692284075,38.62907943118704,26.431131710678855,-4.984732817638163
GUIDED_NOGPS,0.23220396041870117,27.94507332218454,266.9559363659818,-114.40413759241882,38.60681464939481,19.883852921466875,274.83934055769345,-95.15739656057663,18.782079367338056,1.5779427454549033,-1.3426430487130814,119.7855627201225,-0.6166931949530082,0.3364419086043948,-4.023211849750537,0.4900876323589716,265.1845788883339,-115.59193340343319,39.01503401028463,20.74250553357554,-6.531718864491385
GUIDED_NOGPS,0.27338361740112305,24.257291407619036,265.35348826318847,-114.64670108622272,39.046349102842036,19.70901357945214,274.8278882431308,-95.11352371959507,18.78395522528846,1.2709694981622006,-1.236057199663092,119.45858790417566,-0.6306021074497418,0.4174435505227296,-3.9963955159566265,0.4898688030612232,263.62755583966964,-114.54100062682754,39.49493386705444,22.42600887852774,-8.021409131831525
GUIDED_NOGPS,0.310957670211792,26.61985364584325,264.5512018114099,-115.41880835995887,39.65548871566799,19.63889000237216,274.8133898048025,-95.0579814380958,18.786347415424473,0.9584906915116443,-0.9186931002086841,119.14775965542671,-0.6691405004118283,0.43142085570432265,-3.98976153948665,0.48956542934987823,267.62836409474363,-116.12349104961598,40.456498269664905,32.343165432879516,-9.85487407625016
GUIDED_NOGPS,0.3561069965362549,22.153404109227274,266.3373903496634,-116.3636718318938,40.89482077519404,19.356064117592915,274.79553979241064,-94.9895995620214,18.78931440547331,0.6276717063616932,-0.6826492330124482,118.57966550140007,-0.7019517129728651,0.29830711719134134,-3.9419220197345375,0.4889472468151396,272.20649019597,-118.42652381923794,42.7330301888628,23.853277519336515,-12.146705256773453
GUIDED_NOGPS,0.3987264633178711,23.470021095747835,266.5787691558856,-116.38120662297781,42.49548089035623,18.811772567901276,274.7740487218694,-94.9072691025129,18.792913341529882,0.4616878108857755,-0.49547174078965683,118.12164667603736,-0.6890398559660305,0.3216456231505317,-3.8410841471070367,0.4881487162255868,264.24685676071084,-114.59360500007962,44.296914212541004,17.459534991539485,-14.152057539731334
GUIDED_NOGPS,0.44661951065063477,20.880377153723995,266.2472341852857,-115.4013932839675,44.27259526533076,18.263144234166464,274.7486428315464,-94.80994130208997,18.797200057463442,0.3248991321302541,-0.21253211491723067,117.32016495807137,-0.6442331433542273,0.34642762951640993,-3.7401336029891623,0.4872623023960663,263.52690403533455,-113.18405103258506,45.78784139458851,19.06333346299482,-15.126085791453734
GUIDED_NOGPS,0.5011696815490723,18.33655678936784,267.2864893547645,-113.52859527659426,46.74229336530673,17.605981501063454,274.7190638385037,-94.69662670083108,18.802229084324225,0.25713357036253126,-0.043300037604148724,116.45902836789452,-0.5763362430839623,0.2773424487779555,-3.6181285986002383,0.48602996785950875,268.82383168706366,-112.80812979711826,50.1421244887907,20.354177677687105,-16.902254956359286
GUIDED_NOGPS,0.5423696041107178,24.277369389810495,267.9860806730004,-112.6491441986686,49.30159525040458,16.879689905538292,274.6850686947386,-94.56639420255368,18.808053659750062,0.26621494719429795,-0.049286084761856655,115.73263774966365,-0.5643803472741197,0.25049706552380496,-3.47996132812057,0.48475322920467273,271.1263206859231,-111.95525176630261,51.97481986783456,23.595956516475056,-17.876283208081684
GUIDED_NOGPS,0.5926878452301025,19.877087559001385,266.7512364094638,-110.85067037580343,51.539769183289785,16.208743139448796,274.64642934342487,-94.41837014099438,18.814725737373045,0.24626252388566264,-0.18938254942722116,114.88156885832339,-0.4990774454281064,0.3400479678568298,-3.353770645611811,0.4836374782770416,266.0322688782869,-107.78862956398956,52.50236319324413,18.375637660766245,-18.04817054662093
GUIDED_NOGPS,0.6393954753875732,21.41502517129757,267.3329211900808,-108.5194337804348,52.76504036216367,15.422590405960035,274.60293247515375,-94.25173734598914,18.822295996226135,0.18376157054456513,-0.32498402924720327,114.07613929101714,-0.4202304573625893,0.2776822925530537,-3.203890155130389,0.48302862781703126,267.1552806637957,-105.81442001101229,53.81793802541237,19.587306174418117,-18.50653678272559
GUIDED_NOGPS,0.6834025382995605,22.728181118661336,268.3358845575691,-104.94280351299942,53.80703273019705,14.669943135232495,274.55437928417507,-94.06573420965339,18.830813850149816,0.052797602408036576,-0.31073259942013365,113.26336727035314,-0.28643535773533024,0.2248482391875093,-3.0598172465828255,0.4825118905599764,268.54172087277624,-101.2253609639964,55.100796971934706,17.603929309280502,-18.162762105647097
GUIDED_NOGPS,0.7191283702850342,27.993939757990777,269.5123115688779,-101.69601736855026,55.27227648531848,13.97815637286017,274.50058522463803,-93.85965375256228,18.84032745719873,-0.09732796785707351,-0.20109840492705577,112.65108862258569,-0.1829899933090824,0.16525577645722805,-2.9264770020075392,0.4817840254859401,274.70596674360763,-98.04827113064206,56.89809445860839,18.31648581531377,-17.704395869542438
GUIDED_NOGPS,0.7614903450012207,23.612853829351227,270.05727106982795,-98.10775971259564,56.36945548438425,13.423436945658157,274.4413797668324,-93.63284268993081,18.850883729048295,-0.17529537764556244,-0.21326041051790973,112.19740696734593,-0.07934386159435163,0.16101857592933772,-2.821186329413697,0.48124071412233205,273.8511181906732,-95.04964704314844,57.10947502260968,17.303540181193426,-17.76169164905552
GUIDED_NOGPS,0.7941827774047852,30.59525858924794,271.6210409323052,-96.0491884056463,57.03901483460924,12.955762047712017,274.37660615342975,-93.38470049779401,18.86252834040136,-0.30921872534319733,-0.109960576149784,111.5665570352252,-0.04110675042285244,0.060571831330082225,-2.7319008344879316,0.48091175675289605,273.8511181906732,-95.04964704314844,57.10947502260968,17.303540181193426,-17.47521275149011
GUIDED_NOGPS,0.8467798233032227,19.013939825287522,273.9002463422504,-93.71564349496907,57.411038446565875,12.464494548329974,274.3061211557241,-93.11467847918718,18.875305738394843,-0.5071180670981749,0.026043031057582603,110.42129823595415,0.012075932248427838,-0.02832552451636077,-2.64021990270809,0.4807321336459145,278.5513077135215,-91.04763639861041,58.01416529447832,14.749662606806595,-15.98552248414997
GUIDED_NOGPS,0.8912172317504883,22.50972184207843,275.04134199361175,-90.94951846198065,57.66173247395838,11.746908977556428,274.2297948298731,-92.82227883032591,18.889259152006336,-0.5574949277343972,0.16793460817504396,109.72255622348351,0.10455893931597295,-0.05991758293095071,-2.501911523729837,0.48061376333902395,274.2471991295831,-86.75127194418313,57.861557104787174,19.295175646389154,-15.870930925123805
GUIDED_NOGPS,0.9296538829803467,26.021838395870557,275.6528485042048,-86.9030023343433,58.44081938267747,10.94862113416313,274.14751027313923,-92.50705370678646,18.904430601460774,-0.603040710193305,0.3413534313667851,109.22575558401346,0.25714182168428407,-0.0782988895790617,-2.346454067960802,0.48023180560939166,277.76349929657323,-82.91009866023643,59.446735748766955,3.062930596144966,-15.01149423242757
GUIDED_NOGPS,0.9688811302185059,25.496668774011574,276.06146116281406,-83.1307379484337,59.11749398059397,10.638231461309092,274.0591633801306,-92.16860428968577,18.92086090763706,-0.6981493868384401,0.48361005007887187,108.64106407030368,0.35924558559419734,-0.09276149211933077,-2.2885489397483663,0.4799016834635215,275.8941814837192,-79.73084324088158,60.04418908822781,25.892686928496147,-13.922874421679005
GUIDED_NOGPS,1.0104315280914307,24.07765831032325,277.35661446327885,-80.32764486133654,60.32722017918744,10.200864157428823,273.96466259904213,-91.80657985186174,18.93858970147469,-0.8070508300996225,0.6319628260686067,108.07354365216733,0.4153352227853519,-0.16984155662137165,-2.205224843047733,0.4793056847611436,280.326884692997,-78.34199268289164,61.49073570056759,15.97781304181521,-13.120733508495853
GUIDED_NOGPS,1.0490775108337402,25.87702824426539,278.7239917720434,-77.61344750966329,61.813401675249224,9.769197163902469,273.86392868789653,-91.42067682405333,18.95765543338041,-0.9040105413706839,0.5990322429241538,107.63788686614724,0.48877613583843127,-0.2314039580791514,-2.122767582680604,0.4785721268790656,285.3881942573441,-74.76750660521668,63.90528023695228,14.676115517257614,-12.08940947726037
GUIDED_NOGPS,1.0930938720703125,22.72362511444964,280.95219079759556,-75.95900196444165,63.10043205815739,9.395024980444115,273.75689447078537,-91.0106378610808,18.978095382634827,-0.9963217219421698,0.7833498068754138,107.11213988497467,0.5042953915511453,-0.3409263125594974,-2.052063767831243,0.4779388316622387,285.3881942573441,-74.76750660521668,63.90528023695228,14.676115517257614,-10.943493886998723
GUIDED_NOGPS,1.1328997611999512,25.12597420491101,281.52984066392605,-72.8643256195373,63.821560142745504,9.140804310159163,273.64350459411,-90.57625090802586,18.99994566679906,-1.0448441328578808,0.8222833792483675,106.8375116388268,0.620221245421682,-0.3328053672544301,-2.0048599556735724,0.47758919276202677,280.65174862822556,-69.0579636481786,63.65411995433195,23.32276938155411,-9.339212060632418
GUIDED_NOGPS,1.1806244850158691,20.95548905087608,283.32439586523776,-70.58804625905242,64.05638515533614,8.95935093263053,273.5237152828228,-90.11734826641181,19.023241251121373,-1.1281679584203936,0.8422502633481361,106.43047334542906,0.6553925537806,-0.4321270207664164,-1.9728464300230881,0.4774834280478926,284.8669574902775,-67.93866852376205,64.6097552747242,20.38540311346894,-7.333859777674538
GUIDED_NOGPS,1.224320411682129,22.888675456212347,284.32695045620886,-67.73557099916559,64.38904463811193,8.592624301500086,273.39749409666797,-89.6338056603838,19.048015957943807,-1.183921618676444,0.8257235534342324,106.15949925048714,0.7441062224023876,-0.463005698367793,-1.9032564681213497,0.47732948565991595,285.3396576478526,-66.21008082555622,64.90325868527962,8.2346548938703,-6.130648407899809
GUIDED_NOGPS,1.2670228481292725,23.421529045840103,284.2495986159904,-65.49444691875495,64.75923156699069,8.38835994989676,273.26481968642264,-89.12554130288895,19.074302476108823,-1.2048362982452578,0.8012097910596451,105.92292881839458,0.788690311147082,-0.4406879463717637,-1.8659821719795584,0.4771575354545591,285.00143505625203,-62.33459140694667,64.76468074096826,13.143872508986604,-5.156620156177409
GUIDED_NOGPS,1.3175160884857178,19.80884012864895,284.31605340539323,-63.19848227640191,64.76268341634322,8.164844573089281,273.12568155013815,-88.5925149618565,19.10213237036593,-1.2134959108957761,0.7163135278841485,105.7249011437884,0.8406181527645948,-0.4516978831098656,-1.825390364373816,0.47716972447701134,285.72046820435827,-61.050774596702894,64.62011082278175,7.546381838937606,-4.1252961249419275
GUIDED_NOGPS,1.3560898303985596,25.92917903066271,285.8846483658377,-60.7482639745279,64.75538021083214,7.96909014026664,272.9800797893806,-88.03472702637804,19.13153609077832,-1.137064386536041,0.7228667742276584,105.57762860490459,0.9124846173557764,-0.5607011864588648,-1.7893080011326414,0.4771880779399731,288.4947234304477,-58.85942591993418,64.88134906874642,9.521110581510158,-3.495042550298022
GUIDED_NOGPS,1.3977129459381104,24.032545294110907,286.7546039256343,-59.12924611684389,64.74251188575342,7.885973165606917,272.8280248654724,-87.45221757288769,19.162542982129505,-1.0843776946607377,0.7392110967463815,105.486609504025,0.9262274731260461,-0.5815808454035647,-1.7759718447421293,0.47721001554818804,289.21673528926044,-57.47753783389462,64.72607576573208,11.880723779547623,-3.2658594322456924
GUIDED_NOGPS,1.443023920059204,22.074587118301526,287.04683690059665,-57.394928188454806,64.46939237223664,7.767606603121383,272.66953735573287,-86.84506543134222,19.195181293329966,-0.9591991101946217,0.7931731130057731,105.35638511730953,0.9622887323841364,-0.585030936364399,-1.7558210550501407,0.47736289446054664,286.8008225226645,-55.847820811535655,63.80075228223144,8.445427653055845,-2.5783100780887045
GUIDED_NOGPS,1.4824821949005127,25.349506524274897,286.74065407510636,-55.763184742397435,63.79901259250615,7.64348310657279,272.5046477097196,-86.21338725140127,19.229478186823766,-0.8613144418995524,0.7982605367203748,105.28634835756023,0.9953670546803333,-0.5657385134643134,-1.7339138261585503,0.47771523279715883,283.47052092880034,-53.96419558176205,62.870209729554915,7.568912129153546,-2.4064227395494577
GUIDED_NOGPS,1.5241751670837402,23.989521788616955,286.85285670339607,-54.354268965245666,63.32769628000472,7.550720387573225,272.3333960054693,-85.55733656860754,19.265459747995198,-0.8333934823461865,0.8054353302783558,105.21286918246923,1.012519499290557,-0.5873772337027265,-1.718604724395238,0.4779688817339952,286.28148134580687,-53.250790502439315,63.312126828227804,6.683576317866894,-1.8334649444186344
GUIDED_NOGPS,1.5683481693267822,22.643028353019933,287.0298593404062,-52.81996502980076,63.29128617141214,7.407398037593776,272.1558317057389,-84.87710287056692,19.303150994575425,-0.8375200905436379,0.7527612315643348,121.38675030687025,1.0414892038966344,-0.6030880707622489,-1.6931719876602118,0.4780059324115816,289.3797366154981,-51.244909005200945,63.69152195645366,2.287955449172415,-1.3750987083139758
GUIDED_NOGPS,1.6114873886108398,23.186657305700056,287.1335586938843,-51.56477365038402,63.519085249895134,7.281943707083403,271.9720134142464,-84.17291066312866,19.3425758860491,-0.7703183929084113,0.7841684690804633,121.34505883217649,1.0535603348315856,-0.6130496476738428,-1.6712592321702917,0.477911745318077,289.73523205665134,-50.19862144351182,63.55360696500388,2.0873244268567674,-1.0313240312354819
GUIDED_NOGPS,1.6471457481384277,28.049541235320866,287.9524362379583,-50.12688278292501,63.67553458349977,7.203075751059702,271.78200863191245,-83.44501853656564,19.38375733306102,-0.7466314035885129,0.7932588105355156,121.33839256754656,1.0822314982310783,-0.6753272352672289,-1.6580345790306024,0.4778541113747806,290.8952102430345,-48.937117900062276,63.78147482904172,4.614316493654556,-0.8021409131831525
GUIDED_NOGPS,1.680495023727417,29.990804630576392,289.03455420613983,-48.84460970026944,63.467644900334825,7.16462940526021,271.5858935131006,-82.69371823175445,19.426717206822744,-0.7871084919921836,0.8173607338474923,121.33388464269436,1.0957312104615438,-0.7357409076072885,-1.6527684326096703,0.47797953615324396,288.881110769708,-47.39808975723422,63.06785290695884,5.967183011292519,-0.4583662361046586
GUIDED_NOGPS,1.727846622467041,21.132017674235822,290.1313871693894,-47.28022987958004,63.34977567625648,7.082012624984071,271.38375262185895,-81.91933370635556,19.471476348519246,-0.47563943276087856,0.86711044437969,121.33087935945954,1.1218982069574737,-0.7775434442650807,-1.6395735838556853,0.4780608503361314,291.7656461620551,-45.505481981443644,63.19999929276883,1.2963079974943952,-0.057295779513082325
GUIDED_NOGPS,1.7607765197753906,30.36138578026146,290.554542983503,-45.647441443919206,63.16506605782565,7.206202033482984,271.17567868816093,-81.12222020099361,19.51805457871554,-0.3359168142308665,0.839694491938082,121.34459437931294,1.1553997385294614,-0.794233678352402,-1.666795628085848,0.47817649426044495,291.49551568606574,-44.03875259307978,63.22734597374924,18.094833489343884,0.2864788975654116
GUIDED_NOGPS,1.8058607578277588,22.185159130218608,291.91131060715264,-44.353124420651454,63.52131192662168,7.312797030484282,270.9617723641463,-80.30276330543744,19.566470706763305,-0.01030132599076761,0.7010653440055066,121.36330909763876,1.1587963098313114,-0.872744438191006,-1.691418729555128,0.4780225793900708,296.51907017489975,-43.515138687430955,64.13659051334692,16.240871752093852,0.057295779513082325
GUIDED_NOGPS,1.841357946395874,28.176733374984046,293.59719269767555,-43.474442530052755,64.09844932581859,7.2981832262951425,270.7421419803625,-79.46137802478039,19.616742540207554,0.16253583722403814,0.6113066264711956,121.3628036636402,1.1524239654777888,-0.967976956147761,-1.6910820771205253,0.4777591466071945,299.32462069564906,-42.86943630964755,64.93141149035958,6.0159919429641775,0.0
GUIDED_NOGPS,1.8816277980804443,24.838649311271926,294.9756694203663,-42.50616880362418,64.16176737694084,7.179227007828041,270.5169033020051,-78.59850784562036,19.66888689419323,0.3382266454699473,0.4416494766039861,121.35713460662907,1.1570467998714156,-1.0181369394818958,-1.6701846532696307,0.4777535597586262,295.7734943831614,-41.13393141379405,63.417300127116,-2.823310932901009,-0.17188733853924698
GUIDED_NOGPS,1.9267427921295166,22.172141460062377,295.41215143966235,-40.55248944770319,63.26551821593432,7.164257951275354,270.28617928515945,-77.71462380224014,19.722919600871865,0.47308142019500304,0.1704077769848233,121.34944381362364,1.208196477430388,-1.0198575750987302,-1.6704165228380292,0.47822870069246876,293.94805625853553,-37.65410061966799,61.447843030327334,6.455036226120498,-0.2864788975654116
GUIDED_NOGPS,1.9741277694702148,21.106177411887845,296.1741823201315,-38.329782805447415,61.88620202029541,7.248656308811601,270.05009983304126,-76.81022354278741,19.778855518808218,0.5137181642705227,0.003727095491858442,121.3264943780124,1.2536210920058974,-1.066017727054131,-1.6907325066054744,0.4789463267492564,295.3056700884114,-36.201316382880215,60.79346290344285,16.099758773247956,-0.6302535746439055
GUIDED_NOGPS,2.0200207233428955,21.79391331909609,297.4573955602472,-36.113562072642914,60.63577553254706,7.094932135074734,269.8088015522379,-75.88583039545506,19.836708542386898,0.5597165001227968,-0.28870590635750365,121.28110094078849,1.2952424418739965,-1.1391786756524835,-1.6632421726359652,0.47960046650491994,302.93513637547863,-34.485269215380555,59.66602066387093,-3.9531008021888,-0.9740282517223995
GUIDED_NOGPS,2.0593721866607666,25.417097425144984,298.60927999885763,-34.58133066867877,59.84826504858392,7.0484276010858125,269.56242750894944,-74.94199243466124,19.896491611219002,0.6060831859425755,-0.4112090843813847,121.26884758141749,1.3035188798706603,-1.197453875148932,-1.656711244997464,0.48002411328131755,305.08404288870105,-33.05740640777553,59.08531157843791,5.4903137595361216,-0.5156620156177409
GUIDED_NOGPS,2.094423294067383,28.535980351469217,299.9670010730305,-32.94230413723084,58.515909301726026,6.898530647232255,269.31112698522935,-73.9792815472297,19.958216719548755,0.6715849135264093,-0.5051551347637366,121.24436818343217,1.3285642447682835,-1.2719760116483636,-1.6291585333819925,0.4807211537089114,302.56209975402595,-31.284236788536422,56.79639566286919,-4.404383381635952,-0.7448451336700702
GUIDED_NOGPS,2.140022039413452,21.936392211419278,300.33565645646513,-31.139421100371706,56.75956730862387,6.702850507323354,269.055055235226,-72.99829249856978,20.021894925660142,0.8480279630557322,-0.6379017289127856,121.17528765016665,1.3539651077658676,-1.2649831422941884,-1.5930659127294502,0.4816311638085181,295.79133317570864,-29.07662010480316,54.39699468456447,-8.473117286018464,-1.088619810748564
GUIDED_NOGPS,2.179659128189087,25.233753263786113,301.7353074212748,-29.402331342879275,55.14699522701457,6.6620117717120575,268.79437324142333,-71.99964199885675,20.087536361283554,0.9952614417952311,-0.7023350655000414,121.15732425264952,1.378226385023122,-1.3601115596325615,-1.587502372321951,0.4824702705671345,302.3039249124597,-27.846137135298235,54.24759533361,6.155905369178413,-0.6875493541569879
GUIDED_NOGPS,2.2250709533691406,22.02532150752766,301.7253465718037,-27.720150484997816,54.06878697386787,6.631541283458888,268.52924747088207,-70.98396776921184,20.155150241002403,1.1089126946547756,-0.7275302993268962,121.13255798671905,1.3960157558762876,-1.3333825013054978,-1.584463479730152,0.48304318163356724,302.88533212812337,-26.237694214892045,53.56177090342908,5.98056974068929,-0.4583662361046586
GUIDED_NOGPS,2.265552520751953,24.72021736183555,302.05255596939656,-25.70228599292038,53.45356858909443,6.601988139761996,268.25984963148073,-69.95192760788255,20.224744871659777,1.1939896376781602,-0.7125798690073845,121.09466409720383,1.4357239759336617,-1.3666377755680126,-1.581191109529243,0.4833855881412827,306.72008987666516,-23.023026628570847,52.551339530244135,6.5079374365273,-0.6875493541569879
GUIDED_NOGPS,2.3094568252563477,22.772852644152458,303.7095156356095,-23.69859793021301,52.86874643497421,6.531855616460946,267.9863564281566,-68.90419845642276,20.29632766176507,1.2445424290463634,-0.7396587943021348,121.06275345340153,1.4637591527190883,-1.4722925843149886,-1.5700722690778015,0.4837137906133954,310.8468980850906,-21.835072947176112,52.49312887124934,1.672360419355428,-0.34377467707849396
GUIDED_NOGPS,2.3466193675994873,26.91624098364864,305.55185201573624,-21.44502434876762,52.10757253542414,6.592894547258289,267.70894931914694,-67.84147546587286,20.3699051309006,1.3316504995741805,-0.6915596416715529,121.05790401909081,1.5104057609241235,-1.5709424010959314,-1.584722157372799,0.4841311662977382,305.0030150763424,-19.476973470555894,51.27824920477885,13.864642293086732,-0.11459155902616465
GUIDED_NOGPS,2.384219169616699,26.606344715591558,306.65313283723225,-19.360704430877338,51.47035433719981,6.564228199938214,267.4278142722297,-66.76447106294003,20.44548291912828,1.436586217609377,-0.6181695792048832,121.04357428221213,1.538369891249477,-1.6058084806794861,-1.5814550684234683,0.48448756429096423,307.81032901993996,-16.77006687489999,50.639684935571154,4.949785364834526,-0.40107045659157625
GUIDED_NOGPS,2.422428846359253,26.179711881756674,307.6381322155956,-17.67236907345196,50.85253969197375,6.525798841339806,267.1431415209648,-65.67391401617839,20.52306579639623,1.6382321849283712,-0.5580278959330698,121.01358975175577,1.5485656537935464,-1.6530299446636734,-1.5762625899936307,0.48483526305221125,307.81032901993996,-16.77006687489999,50.639684935571154,4.949785364834526,-0.9740282517223995
GUIDED_NOGPS,2.4644713401794434,23.78991072340136,308.30148586173175,-16.210781214018226,50.67338817129977,6.4890584530085205,266.8551253209351,-64.57054850216903,20.6026576719454,1.8540770483147637,-0.463435752343917,120.97814106996341,1.5543350911538618,-1.6805036119556989,-1.5716402144182355,0.4849646347503228,310.0368581073458,-15.09220989225469,50.74079464275693,6.080621359239387,-1.1459155902616465
GUIDED_NOGPS,2.506298542022705,23.913202620341284,308.2508537174183,-14.621722703845224,50.73512403105832,6.490107299301015,266.5639637059876,-63.45513317170046,20.684261603716244,2.015216578760997,-0.42754964495997905,120.91106861231388,1.5717170924926207,-1.6732191129951486,-1.5745679407853026,0.48497456878632894,310.59373736352325,-12.00289134438098,50.82489251484679,11.298385493991603,-1.4896902673401404
GUIDED_NOGPS,2.5491793155670166,23.32579220750331,309.66595434792225,-12.432609539599598,50.968186573382376,6.433324573107692,266.269858244474,-62.32844021594852,20.767879807755314,2.087023851609222,-0.5290644253967779,120.79823388722528,1.6164657000368203,-1.7756595092397258,-1.565973091859928,0.4848998466171865,312.078518228862,-10.202727382163108,51.33887256254332,7.833846301831713,-2.4064227395494577
GUIDED_NOGPS,2.591736078262329,23.499607807982787,310.7402293577979,-10.309316520703138,51.187173064954266,6.3183544707975114,265.97301379549236,-61.19125443265675,20.853513667621925,2.117215422174794,-0.6495266575192944,120.68075463350105,1.6467252723545538,-1.822848130336598,-1.5456728995512299,0.4848331703013338,313.18170406931813,-8.72233083556531,51.39775411747261,3.9733578807195045,-2.6929016371148693
GUIDED_NOGPS,2.631197690963745,25.34797454508095,311.9229515315484,-7.938257421162425,51.095648449105,6.259381731621095,265.67363826512764,-60.044372292316396,20.941163743794785,2.1185473090629467,-0.7906585361741506,120.57791930535734,1.6922754835894982,-1.8876246707462387,-1.5363422263513824,0.4849227576473449,313.7239398886923,-4.889714045758842,50.55031866729899,10.41344109763196,-2.521014298575622
GUIDED_NOGPS,2.672001361846924,24.514617695535787,313.5539716479785,-5.586258287629215,50.72023819202959,6.171654582697812,265.37194236269295,-58.88860100434677,21.030829783078616,2.1308540292868403,-1.053904378791903,120.42907582296442,1.7291666011589468,-1.974724743660632,-1.5213109528811417,0.4851552957955245,318.1919586894965,-3.1467299815634786,50.21264179131708,7.6809237469243214,-3.20856365273261
GUIDED_NOGPS,2.7113912105560303,25.3918623587173,315.857351276304,-3.156723976763855,50.16385011009124,5.959993111846388,265.06813935697045,-57.72475758327528,21.122510728010806,2.1839167017316115,-1.2066021155891178,120.32666396654925,1.7718960823027377,-2.0,-1.4813250973632914,0.4854793303089598,322.1106355051507,-1.4337279029692307,49.72858987165755,-5.269511608807122,-2.46371851906254
GUIDED_NOGPS,2.753890037536621,23.536399090934598,316.93500283618744,-1.2941334512856468,49.295446801970456,5.883127244893944,264.76244483245273,-56.55366791491766,21.216204726268032,2.1329944398179927,-1.391698427827465,120.22744863866565,1.7813167661503015,-2.0,-1.4684531799209135,0.4859603789621488,317.46677602827907,0.6980575306757828,47.94510874293664,7.266353560855251,-2.0626480624709638
GUIDED_NOGPS,2.794095277786255,24.876067565002845,317.25374864137905,1.296879541509609,47.50675093779057,5.858649266522079,264.45507644558336,-55.37616582255818,21.311909140072906,2.0433102140343173,-1.468511375563663,120.15328644465765,1.841638692542172,-2.0,-1.4659151355395628,0.48690257910114115,314.77543309527607,4.6263089968222895,44.84655419877741,12.205311595195695,-1.6615776058793874
GUIDED_NOGPS,2.834947109222412,24.499153047277485,317.4640472826958,3.316891841440116,45.87940571349719,5.843453843703431,264.14625368099826,-54.19309213312975,21.40962055560061,1.9899771087870959,-1.4995563996103694,120.09079021375203,1.8567241625417006,-2.0,-1.4652610355168911,0.4877651074210517,314.77543309527607,4.6263089968222895,44.84655419877741,12.205311595195695,-1.8334649444186344
GUIDED_NOGPS,2.875434160232544,24.695764812557776,317.6542211055864,5.722836422403501,44.27058293012028,5.8132317170529975,263.83619760776656,-53.00529374339415,21.509334792385523,1.9274689250504318,-1.479430180003869,120.00421073583296,1.9033459361321339,-2.0,-1.461572572447583,0.48861937593113264,319.1428278039494,7.91589127356594,43.11864039280589,10.04494607859894,-1.5469860468532228
GUIDED_NOGPS,2.9129652976989746,26.652161756856366,318.02943064443014,7.347669120244284,43.56198549293024,5.643959879609578,263.5251306356318,-51.81362268612216,21.61104691272786,1.8930345263498125,-1.4639163657995369,119.97828333774358,1.9026130681215092,-2.0,-1.4297874530974384,0.4890245307098988,323.9866831993692,9.500807090344637,42.7207618872073,-6.467399623136714,-1.3750987083139758
GUIDED_NOGPS,2.9557437896728516,23.38222767309622,319.77624009914246,9.433443591855607,42.80871339170526,5.456769875120499,263.2132762712528,-50.61893519627384,21.714751231100315,1.814250428707831,-1.3827101123231398,119.89891653958803,1.93801505253942,-2.0,-1.3947302476155186,0.4894530189196975,326.2008233018409,10.883632411656256,42.58673789510249,-10.187007914428179,-1.2032113697747289
GUIDED_NOGPS,2.993298292160034,26.75877380458707,322.71211634999173,11.624773153446958,42.744353824831116,5.432635331837646,262.9008588744448,-49.42209077717855,21.82044132355468,1.7645347623997776,-1.2569863933838918,119.84121510147976,1.9750385637724093,-2.0,-1.3919100043351826,0.4895380437493618,329.45481434952217,14.48987995833999,42.92556169218346,8.983092981321406,-1.260507149287811
GUIDED_NOGPS,3.0385570526123047,22.01792173022914,325.4422071040443,13.685001967656712,42.66812821453991,5.392205957986593,262.5881034144204,-48.223951266715275,21.928110037128505,1.7374678966577806,-1.237785771131634,119.77203894556588,1.9961203459424168,-2.0,-1.386297782244387,0.4896299909112943,328.4258868655391,15.681493532973905,42.49208505633367,5.853356568074446,-1.2032113697747289
GUIDED_NOGPS,3.074702024459839,27.674214832409607,327.7371811912665,15.892856702395223,42.80209897324883,5.3488913349581555,262.27523522603076,-47.02537990349272,22.037749499251706,1.6889133625086294,-1.1434658746139297,119.74754588720221,2.0,-2.0,-1.3795463801966452,0.48961782526300146,330.61769824005995,17.50719661587179,42.98865017122923,5.7693737328262955,-0.7448451336700702
GUIDED_NOGPS,3.1170809268951416,23.602356688256513,329.0686938380585,17.382382266700798,42.82322452160604,5.329720291774677,261.96247976600637,-45.82724039302947,22.149351127153228,1.68312360324828,-1.185622442501483,119.71006180903719,2.0,-2.0,-1.377992615687802,0.4896630633027736,330.64424643332944,18.958456651256718,42.988938337255085,5.690769833639948,-0.40107045659157625
GUIDED_NOGPS,3.1614456176757812,22.547960670261322,329.2737135193799,19.29464580470301,43.03802805267333,5.38996009650065,261.6500623691984,-44.63039597393414,22.26290563726765,1.682734922795824,-1.2024296170581803,119.73751916950063,2.0,-2.0,-1.3924016938012576,0.48961243879229716,327.2259217084479,21.418284146980536,43.13649564953556,13.065627310101945,0.5729577951308232
GUIDED_NOGPS,3.2001168727874756,25.85963808995345,328.2689554482793,20.98315775126944,42.94828461867996,5.492513462685804,261.33820800481936,-43.43570848408582,22.378403054641854,1.6883743111727272,-1.1410899292781174,119.82023276034948,2.0,-2.0,-1.4150725597980838,0.4897150592179809,324.43102399401914,22.572732455571085,42.71941986924913,13.607681985214455,1.8334649444186344
GUIDED_NOGPS,3.2398815155029297,25.154605046149417,328.8746066302409,22.709820215382837,42.9304676313478,5.509815294443779,261.0271410326846,-42.24403742681385,22.495832722341635,1.7385416237396478,-1.1315721673914103,119.88345299130712,2.0,-2.0,-1.4207120485983697,0.4897826825454969,331.4541427753469,24.13844404359691,42.93548737525862,0.3767755112000657,2.2345354010102105
GUIDED_NOGPS,3.2850420475006104,22.148724718804456,328.88212499340887,24.00281648528315,42.81776094350076,5.599189452740122,260.7170849594529,-41.05623903707823,22.61518331085835,1.8004807673410852,-1.155005585938372,120.04273300275182,2.0,-2.0,-1.4410964676037392,0.4898987111836788,330.6552900558996,25.297272956681486,42.79837558599443,5.434703201532386,3.151267873219528
GUIDED_NOGPS,3.3271071910858154,23.776020497820404,330.142221330385,25.579020972839036,43.02585268328961,5.684510117147821,260.4082621948678,-39.87316534764982,22.73644282751554,1.831183748320762,-1.1507317017869423,120.20936229774345,2.0,-2.0,-1.4605805435889914,0.48985529507211295,336.9447281182102,27.301345918238745,43.343695088615675,-0.25722125229764004,4.239887683968092
GUIDED_NOGPS,3.3642585277557373,26.92401609931764,331.6466298159767,26.874366885269065,42.998473898005365,5.885375578336807,260.10089380799843,-38.69566325529034,22.85959862587558,1.8171957343439875,-1.0777376835704275,120.38711114070387,2.0,-2.0,-1.5029347432999156,0.4899305623639351,334.7479641364066,28.024481780886983,42.8533510194059,9.58651810528336,4.984732817638163
GUIDED_NOGPS,3.4049124717712402,24.60594043142339,333.50334826964774,27.965389853807366,42.93560813006849,6.074169173569969,259.7951992834807,-37.5245735869327,22.984637415146317,1.8756794425556331,-1.0866112732410378,120.57242783326465,2.0,-2.0,-1.543132714748332,0.49002451464253893,333.7146162623745,28.57034186229638,42.60977828218379,8.577706238511851,5.099324376664327
GUIDED_NOGPS,3.447026491165161,23.74896098748655,334.26403492036013,28.439053416757456,42.73696276020962,6.135472935547154,259.49139627775827,-36.36073016586121,23.111545269587687,1.9474997354519634,-1.089670450937263,120.88481336514435,2.0,-2.0,-1.5580068955545825,0.490187291254689,335.25757602890883,28.72233660708901,42.747758979039084,-12.09511933646283,6.760901982543714
GUIDED_NOGPS,3.4903032779693604,23.111150294240815,335.15885166475834,28.744169304648068,42.69247286598522,6.206388870475369,259.1897003753235,-35.204958877891585,23.240307637918367,2.055150560403946,-1.1460281560480365,121.18394833003423,2.0,-2.0,-1.5748779614482498,0.4902739173859666,335.1293737778908,28.939829444558818,42.719881336732705,-18.804625948820146,7.792226013779196
GUIDED_NOGPS,3.5315403938293457,24.25616914473418,335.9918351394918,29.119901763018714,43.028807957134035,6.478467046647023,258.8903248449588,-34.05807673755122,23.370909352722396,2.2055912398455892,-1.230282808328375,121.55042896014044,2.0,-2.0,-1.6319553215176916,0.4901710506977942,341.10964549187725,29.697539237408304,43.61878355563022,0.16502605524075875,8.823550045014677
GUIDED_NOGPS,3.568079710006714,27.374211106832615,337.1782965365292,29.35261965721941,43.22650673933589,6.810702503899823,258.59348039597717,-32.92089095425948,23.503334639855833,2.387074061847882,-1.34158106101885,121.89049041853703,1.9729515251401404,-2.0,-1.7008912244217733,0.49013841395026,340.6802711215937,29.420490289691102,43.340855325644625,5.394646294958193,9.568395178684748
GUIDED_NOGPS,3.6029841899871826,28.678217347901597,338.1117958345337,29.3367777011451,43.20343297964803,7.182966102565837,258.2993749344636,-31.7941979985075,23.637567127853366,2.5045808497721933,-1.485263481720177,122.20041708231552,1.9299762006053196,-2.0,-1.7778483981616606,0.4902170670741027,338.382112752397,28.892303576335888,42.650660057669114,10.686282615672312,10.657014989433312
GUIDED_NOGPS,3.641421318054199,26.019094174353757,339.40138488849226,28.970321213363622,42.79958118075394,7.553269600887476,258.0082133195161,-30.67878266803895,23.773589857334972,2.6910315671786127,-1.7740504965740747,122.69413047628073,1.8780030562209047,-2.0,-1.8548193630025733,0.4904870043382905,341.7055212987013,28.59816977406387,42.407228158947966,8.332005337937545,12.08940947726037
GUIDED_NOGPS,3.684293746948242,23.328776190131876,340.7711483060124,28.480002566464336,42.185140413786975,7.979408024756989,257.72019711948644,-29.575417154029637,23.911385290412532,2.8650562494940752,-2.0031179658633773,123.19866288989124,1.8275713691288202,-2.0,-1.9434154684394687,0.49086312243831276,341.9781908654915,27.949534348993236,41.49753302474373,5.981507100965942,13.06343772898277
GUIDED_NOGPS,3.7242138385772705,25.056477532050135,339.88673676187125,27.726040762848456,41.257307240754976,8.489834072625777,257.4355243682215,-28.48486010726792,24.050935320096478,2.9915878517460888,-2.2354995710040173,123.75603364692095,1.7622491449214077,-2.0,-2.0489329618534704,0.4913968140396707,336.68758777117154,26.63041816548826,39.86716053857311,10.215981779874582,13.120733508495853
GUIDED_NOGPS,3.761791944503784,26.616812940646398,339.62586663773925,26.305607315547547,39.62677318066351,8.999508720371402,257.1543893213042,-27.407855704335148,24.19222127970243,3.0440165972585183,-2.2918089311820715,124.23313602082469,1.6658527926761173,-2.0,-2.154261859245364,0.49228272404951945,339.37592050093355,24.336869432161137,37.51562597867356,10.386434670460986,13.464508185574346
GUIDED_NOGPS,3.802936315536499,24.319599225354562,340.4217828768434,24.569373335650578,37.988326158464865,9.45738921526189,256.87698221229454,-26.345132713785276,24.335223952257827,3.0860090271625795,-2.467972316481394,124.78110843755647,1.574237147244883,-2.0,-2.24968636764804,0.49317344889689646,342.3616939479179,22.740832409302325,36.582191958147796,6.198358862676642,13.407212406061264
GUIDED_NOGPS,3.8422861099243164,25.413863305865245,341.5133112594431,22.846818956883833,36.7466928057403,9.969571028926078,256.6034890089704,-25.297403562325414,24.479923579908558,3.0503332415803106,-2.6235431083199514,125.32102123106763,1.4851339990372545,-2.0,-2.3561051355867724,0.49386661538708415,347.1631632117,21.462755029188035,36.1422604803994,8.872139440273116,13.178029288008934
GUIDED_NOGPS,3.875394344329834,30.21332199995678,343.5046684863955,20.73844851140177,35.89947193824832,10.478196016286912,256.3340911695691,-24.265363400996122,24.6262998733256,2.981227521992237,-2.7345776516754405,125.6957800504479,1.3638414459766817,-2.0,-2.461281166832089,0.49436341396753863,351.9349770002534,18.011758095714956,34.9739633761976,11.24211319675483,12.776958831417359
GUIDED_NOGPS,3.9282326698303223,18.928304202825952,346.5541463322119,19.162090406872647,35.36339574426491,10.863098406799395,256.06896539902783,-23.24968917135125,24.774332021111675,3.0056849353061716,-3.0062104329854398,126.30383081111911,1.317993037085943,-2.0,-2.544010433708044,0.49470546813842337,351.9349770002534,18.011758095714956,34.9739633761976,11.24211319675483,11.688339020668794
GUIDED_NOGPS,3.979034662246704,19.686115113653965,347.8782813939866,16.73855697360705,34.275111329005064,11.465606182634199,255.80828340522515,-22.251038671638227,24.92399869920785,3.25102810505738,-3.4034977775693402,126.88606345672768,1.1938739619803278,-2.0,-2.670347297006642,0.49532444368510137,345.9965958098072,14.192154729391252,32.877407234619845,9.97578938405465,10.886198107485642
GUIDED_NOGPS,4.0255818367004395,21.488424040289157,350.65342582161094,14.489504252441336,33.158787980734594,11.993251645187218,255.5522116552218,-21.270049622978306,25.075278080300187,3.5182473035030815,-3.659635420973519,127.39058220995985,1.0884857898738487,-2.0,-2.7814283421473753,0.4959582450497828,356.2374160860396,11.264599932217804,31.62499333138619,6.737881152773596,11.172677005051053
GUIDED_NOGPS,4.075394153594971,20.0802577593512,351.06164128829977,11.697209772990348,31.478052627997126,12.475662270495002,255.30091113150172,-20.307338735546793,25.228147843226395,3.7189931799555147,-3.875457019028051,127.853600733795,0.9638133958068705,-2.0,-2.8841222363913945,0.49687504760761464,349.2042405451441,9.634874657361994,29.931757317985188,10.691438236927254,10.771606548459477
GUIDED_NOGPS,4.112414121627808,27.016624905796494,351.72818134498715,9.697472578085847,30.358939086820584,12.920890407238483,255.05453708821324,-19.36350077475298,25.382585182382442,3.8879558383223514,-4.008504835191668,128.1559185668381,0.8665496693573003,-2.0,-2.977966945809706,0.4975118230477809,355.26767728369015,8.192943144677747,29.520066611090236,3.965885917346128,10.427831871380983
GUIDED_NOGPS,4.160984516143799,20.593222502626748,352.2099769204858,7.776108463953825,28.901713401248344,13.261286255938158,254.8132388074099,-18.439107627420512,25.538566817129205,4.017418232058535,-4.103383846725961,128.67613309478295,0.7920291117233447,-2.0,-3.0524891664963714,0.4983184267079404,354.34395487774674,5.500507589821738,27.253316274669473,11.365264166379333,9.224620501606255
GUIDED_NOGPS,4.203726530075073,23.399838210270858,353.7292490658967,5.715974069443007,27.817253625453144,13.49588076013025,254.57715935529174,-17.53470736796787,25.696069001199096,4.083595934926788,-4.284710855037814,129.04147991348694,0.6871822073193463,-2.0,-3.10503921282207,0.498939407687873,353.5929565368619,3.4544714738295386,26.678377990599593,-14.502883996269233,8.307888029396937
GUIDED_NOGPS,4.237137794494629,29.93771636176758,353.058612287745,3.7151313683710914,26.66530297764128,13.810036483078552,254.34643533844607,-16.650823324587677,25.85506753210271,4.023974786774924,-4.265718233390124,129.2683924580931,0.5846103682847635,-2.0,-3.1726200532202995,0.4995948822772307,352.88423219528096,2.190415041462,26.064214667654657,12.474384950972535,7.219268218648373
GUIDED_NOGPS,4.28124475479126,22.676939213555436,352.60308381518485,2.2281933562105176,26.061581746502743,14.045285024456092,254.1211966600887,-15.787953145427608,26.015537760535437,3.886488628311268,-4.269285299684163,129.56726787579453,0.5339034191586789,-2.0,-3.225865714382163,0.49997697800701635,346.92659818234335,1.039693553340018,25.44215258125387,16.46219581189642,5.443099053742821
GUIDED_NOGPS,4.321849584579468,24.644542634201372,351.245567790209,0.6344692147753915,25.7868920944171,14.319970276574342,253.90156627630483,-14.946567864770586,26.177454599784138,3.7797566772460636,-4.277768394633319,129.73947060514888,0.4503056947356515,-2.0,-3.286579945311589,0.5001952812526835,348.4800971588109,-1.3267009504758402,25.85430903434266,20.394594987676953,3.6096341093241864
GUIDED_NOGPS,4.3602294921875,26.059184979466057,351.4526091102442,-0.8233435587872302,25.796024132203968,14.45084802637597,253.6876599522903,-14.1271109692144,26.340792535133737,3.611129978809027,-4.114785993771652,129.842442537076,0.37838492538798285,-2.0,-3.318317221470955,0.5002723842014649,355.3791614779225,-2.1830232792258655,26.091610781015245,13.402326028250926,2.0053522829578814
GUIDED_NOGPS,4.391482353210449,32.00854720422476,351.69827434446995,-2.082713123082019,26.02124195288066,14.550403660266479,253.47958601859227,-13.32999746385245,26.50552563327388,3.588624505493835,-4.145320781343017,129.84856238657233,0.3073549484450272,-2.0,-3.3427829466924694,0.5002421418401967,354.821282707991,-2.7384151395443483,26.11780604328395,17.5427449186315,0.7448451336700702
GUIDED_NOGPS,4.433080434799194,24.079317055807838,352.24940413262635,-2.857900605040497,26.306371475586797,14.357332547575044,253.27744512735057,-12.555612938453564,26.671627551705562,3.4412352130638952,-4.065629549201893,129.80633815712332,0.280097314288304,-2.0,-3.310056412684903,0.5001826280380594,355.6398811360629,-3.6522633963512754,26.709697602461063,-13.340795912615505,-1.432394487827058
GUIDED_NOGPS,4.4797937870025635,21.39110655507785,353.47564041403103,-3.2749150928543305,26.490771431685847,14.300593518198298,253.0813300085387,-11.804312633642311,26.839071548147782,3.232653828972988,-3.868299407664701,129.69426841322175,0.25314715928267995,-2.0,-3.305461345879604,0.500174150058231,353.05777958936653,-3.434066742667365,26.644810649312404,13.124893017631805,-3.323155211758775
GUIDED_NOGPS,4.516850471496582,26.992457590032693,355.3695288764119,-3.4654000592314724,26.979657783975203,14.052620526609747,252.89132522620474,-11.076420507079305,27.007830489944148,3.1360384552856306,-3.912870660867265,129.49404824789198,0.223778769760149,-2.0,-3.2610880199896117,0.5000140863529845,357.9495394707151,-3.3098700386757756,27.58446510015202,-2.830144834180672,-5.099324376664327
GUIDED_NOGPS,4.554692268371582,26.432967600849526,354.53898897599555,-3.026181905473587,27.52658798652799,13.87095340976981,252.70750693471228,-10.372228299641094,27.177876863469535,2.98428296442876,-3.832617218780085,129.26258679729858,0.22947155040088946,-2.0,-3.2300034162099953,0.4998256444384708,351.2264619758411,-2.334608935077618,28.350488210119423,15.950542642054856,-7.333859777674538
GUIDED_NOGPS,4.5981125831604,23.034868330724663,352.95405336545247,-2.341866433317044,28.082562871542425,13.572661370660155,252.52994263498186,-9.691994601600456,27.349182783536705,2.6373575928031254,-3.6047706458049222,128.8290473699212,0.23527933724253774,-2.0,-3.1762358736994463,0.49963330995599714,346.8966046552754,-1.381120326197737,28.312735304355716,11.320150715152963,-10.026761414789407
GUIDED_NOGPS,4.6321446895599365,29.391429872814548,351.49669683596636,-1.2761015235788313,28.483018550219583,13.185599617591105,252.35869093073157,-9.035943918806694,27.521720002802965,2.4132778691552246,-3.5675533719043457,128.4711317970342,0.2579327880223022,-2.0,-3.1033171163238435,0.49951935072629167,348.3530984886323,-0.11257530946113756,28.785832136183483,15.909151740057396,-12.08940947726037
GUIDED_NOGPS,4.676930904388428,22.33483854477294,350.6979208107731,-0.03526608964034613,28.850128010863617,12.596808508224512,252.1938012847183,-8.404265738865703,27.695459921176777,1.9573655168212238,-3.484093582888667,127.7850666156631,0.27870637622206057,-2.0,-2.99119160833039,0.49942266595515655,349.06389946340005,1.3878973667378376,29.45181659205152,-15.196847186654708,-13.980170201192088
GUIDED_NOGPS,4.713663101196289,27.228314355825034,348.5124184072441,1.5615376661170026,29.336543079699396,12.038624075165295,252.0353137749788,-7.797113597320262,27.870373595224407,1.574270771724081,-3.2912867341293164,127.27472854125809,0.3210268020071881,-2.0,-2.883977576471656,0.4992669152577625,347.0220274530703,3.409290941074309,29.771980510863045,14.821238931255053,-15.183381570966816
GUIDED_NOGPS,4.75567102432251,23.811384809278614,346.42593485192657,3.6012087149928997,29.701876073124527,11.557412671180519,251.88325885107054,-7.214604143829931,28.046431747576563,1.1043894018769347,-3.087080299645214,126.5672029055148,0.373851983679388,-2.0,-2.792591068690505,0.499172277837226,340.79404419925316,6.006437837166555,29.881831116458883,20.19043872178115,-16.73036761782004
GUIDED_NOGPS,4.7978339195251465,23.721560509914372,346.0225649682451,7.044610412368744,30.44858324717696,10.912767265824863,251.73765709031306,-6.656816208351572,28.22360477633503,0.7282343424199363,-2.803889130712261,125.82846330526456,0.4931012533148033,-2.0,-2.668271217863479,0.49888751076457905,344.87975523686845,11.718102458865372,31.691938114208828,14.594211728447675,-17.818987428568605
GUIDED_NOGPS,4.840071678161621,23.68151406164426,344.42874441376,10.741620887681533,31.159277394042032,10.272447351995954,251.59851895402852,-6.123789867319019,28.401862764479283,0.33158604741025527,-2.4343208282143878,125.11270046138225,0.600212622955841,-2.0,-2.5445036184887835,0.4986212926852186,340.38399571620687,14.500322367012677,31.90406295145826,20.395562788974033,-18.105466326134014
GUIDED_NOGPS,4.881023168563843,24.424681465607602,345.1467633295923,14.955862122064929,32.66458497502965,9.592037823683548,251.46584454378325,-5.615525509824167,28.581175489273157,0.09314805883769099,-2.304246705660665,124.41797460014357,0.7306809629542612,-2.0,-2.412349841013446,0.49795829525712176,352.65399404256186,18.649161540316747,34.397753859421734,14.097327782632078,-18.105466326134014
GUIDED_NOGPS,4.923054218292236,23.79409445468728,343.39651340687817,19.4592132886134,34.12267876849362,8.94392368615506,251.33962335762837,-5.131982903796072,28.761512431671466,-0.2456891081604989,-1.908233618243795,123.5932838993779,0.8628211238988979,-2.0,-2.286516369297707,0.4973194168315889,338.2707778394995,25.22815595851079,36.066219494600766,16.298169044131527,-17.417916971977025
GUIDED_NOGPS,4.973285675048828,19.911340666226756,342.89186013492747,23.035157819112772,35.51006428287446,8.290171209699473,251.21983404634116,-4.673080262182154,28.94284278572664,-0.374418270417111,-1.727421115275515,122.77030074590472,0.9362554072918585,-2.0,-2.15993443684476,0.4967163892514261,338.2707778394995,25.22815595851079,36.066219494600766,16.298169044131527,-16.673071838306956
GUIDED_NOGPS,5.010616302490234,26.790393459376595,342.83206311939006,27.881879979530208,37.16809823233974,7.489538504869671,251.1064441696658,-4.238693309127072,29.12513546799535,-0.4008354677751634,-1.4749317533834752,122.08424922491196,1.1221130477903163,-2.0,-2.0026127515336785,0.4959785186178278,344.5807701591816,33.189328021569054,39.37185570781757,9.669045131614027,-15.98552248414997
GUIDED_NOGPS,5.0583176612854,20.96617362572544,341.6471037093409,32.731414186794126,38.737241441470765,6.913458344050917,250.99940995255463,-3.8286543461546074,29.308359126945156,-0.3115438711470578,-1.2419922071650098,121.41845604499746,1.24441834548701,-2.0,-1.8906927033302021,0.4952855588427372,334.45919866596074,39.77675858030254,40.77364912199385,7.059231221998118,-15.29797312999298
GUIDED_NOGPS,5.0967042446136475,26.058375476832467,337.72563039187827,38.668279177388804,40.616683706704805,6.193040345231973,250.898676041409,-3.442751318346083,29.492482152361163,-0.22865210841040123,-1.044213621020124,120.80103426478497,1.463739973377642,-2.0,-1.7489761382347255,0.49443789922282816,333.0466274552486,43.03875093029483,41.7045462903029,4.4468957153830075,-14.381240657783664
GUIDED_NOGPS,5.142747402191162,21.723140667081,336.5911244474488,43.210124236360805,41.73866892489321,5.684836912897901,250.80417526032056,-3.0807268805220787,29.677472684752594,-0.08298553109539877,-0.8270389518188417,120.25031611200686,1.5539519444158323,-2.0,-1.6499521982855425,0.4939694018799297,332.59824811735245,46.81486319848506,42.737811362382786,8.185766966881431,-13.407212406061264
GUIDED_NOGPS,5.186508417129517,22.85848820099188,333.51683049812425,47.5670897076515,42.58813868303637,5.120183689850031,250.71582836731196,-2.742277463421587,29.863298624759505,0.1566238949507822,-0.6298045930125884,119.62885085980572,1.6833538858923796,-2.0,-1.5392624665896775,0.49363757997086155,322.89930809287665,52.8476549941746,43.32205839642334,10.286293661207978,-12.261296815799618
GUIDED_NOGPS,5.22998046875,23.006691971827895,328.9700204768996,51.9073208010783,43.33847723338065,4.623821351083696,250.6335438105781,-2.4270523398820245,30.049927642559343,0.39886938715040465,-0.5362842021537457,119.18232041262698,1.812544237817463,-2.0,-1.4420062312844757,0.49335572520458937,321.84672005305833,56.05944421057524,43.955561941335745,6.827881710235772,-10.714310768946394
GUIDED_NOGPS,5.271462678909302,24.11046090525517,326.37588695441906,56.0670940705136,43.902716553366304,4.164571106735364,250.55721748472706,-2.1346526910207757,30.237327187273657,0.6521022791666239,-0.4878160592254246,118.79474815836377,1.9373521668770248,-2.0,-1.3518765300187654,0.4931673053169537,321.4885310535578,59.29418300679094,44.430529322339744,4.472799673291206,-10.026761414789407
GUIDED_NOGPS,5.31573748588562,22.591074102401137,323.79415467717297,59.15109569397117,44.351876379148564,3.772893966683546,250.48673248702138,-1.8646306724138952,30.425464496374666,0.8902640919749457,-0.4054673765690634,118.26335944093678,2.0,-2.0,-1.2752117054446153,0.49303679405861306,320.13796606901826,62.09965986454732,44.6695378737701,6.36311050453962,-10.084057194302488
GUIDED_NOGPS,5.35158109664917,27.90918527587767,321.0094799567455,63.2275913634172,44.63755480106437,3.351116474511935,250.42195887361873,-1.6164884802770842,30.614306605091937,0.9889179036035818,-0.3875926914698607,118.01143474359003,2.0,-2.0,-1.1920554026933168,0.4929883759020138,318.67487451521487,68.2889312189133,44.812597207083144,6.134291566548129,-9.969465635276325
GUIDED_NOGPS,5.39274787902832,24.297058380545224,320.16459324121314,66.225840767458,44.764910762645506,3.0469644072376467,250.3627534158132,-1.3896774176456432,30.803820355819013,1.0405776125041502,-0.4028211585133595,117.57673418405373,2.0,-2.0,-1.1324806776475966,0.49301945479658676,318.67487451521487,68.2889312189133,44.812597207083144,6.134291566548129,-9.625690958197831
GUIDED_NOGPS,5.4292216300964355,27.421279043920553,318.61165368260595,69.835751402415,44.67179172559304,2.6992378905632815,250.3089593562761,-1.1835969605545955,30.993972407520026,1.0922090401526863,-0.38146019545139415,117.21075898794612,2.0,-2.0,-1.0639213034282813,0.4931610903409635,314.08202226002226,72.92939176941836,44.390180762612715,8.208026029694878,-9.281916281119337
GUIDED_NOGPS,5.46882176399231,25.278464839324027,316.8131906903205,72.31988423914447,44.40195506957388,2.3788356642274415,250.26040616529735,-0.9975938242188107,31.184729245136374,1.0485774715695275,-0.35638854535983433,116.82535873383898,2.0,-2.0,-1.0007798856718022,0.49339138708778124,312.49621609213045,75.74132972910171,44.00308723902566,4.692920334433751,-9.453803619658583
GUIDED_NOGPS,5.509660959243774,24.481135599551738,314.9152210030287,75.63234677688779,44.01528084795084,2.024617259448599,250.21690929702626,-0.8309610292135261,31.37605718899331,1.0054011777832323,-0.20353584864582475,116.41399010050745,2.0,-2.0,-0.9307649825913229,0.49368038817052123,310.6481176325596,78.22631883214326,43.65257454221405,4.390987863316795,-9.85487407625016
GUIDED_NOGPS,5.548444032669067,25.79189649553256,313.01391239533064,79.10473819402921,43.66333133114574,1.6436503621997685,250.17826994571257,-0.6829369676541859,31.56792240420662,0.998179213231296,-0.1411696848191292,116.02827565769849,2.0,-2.0,-0.8552056676154354,0.4939522955365304,309.1683314767244,83.34656602084267,43.33433221219741,3.2107665780962833,-10.141352973815572
GUIDED_NOGPS,5.584367990493774,27.84304405839048,311.11260378763257,81.63981695794286,43.44041298886966,1.3123212540648959,250.14427480194743,-0.5527044693768488,31.760290910089214,1.0368312537443982,0.10514494593938122,115.70050853980791,2.0,-2.0,-0.7894142060380156,0.4941599389606098,309.1683314767244,83.34656602084267,43.33433221219741,3.2107665780962833,-9.281916281119337
GUIDED_NOGPS,5.6248109340667725,24.732461804265657,310.67254423800097,85.50317325676406,43.771100846532164,0.964862949894983,250.11469580890474,-0.4393898681180275,31.953128589557824,1.0887706802358197,0.2837839012868632,115.30342866222006,2.0,-2.0,-0.7203101578150132,0.49409101387151283,311.88172451186426,89.81638772860686,44.64463811520156,-3.0511393662424666,-9.052733163067007
GUIDED_NOGPS,5.662963390350342,26.216857830421603,310.53994983412184,88.63890551918031,44.48847264666782,0.6043974809585618,250.08928991858176,-0.3420620676949824,32.14640119853956,1.0805854455674997,0.34442674968902637,115.10180147792128,2.0,-2.0,-0.6484491897320536,0.49382896427593587,311.83324407273494,92.75376280809141,45.48644761260438,-1.1237428593377672,-8.766254265501596
GUIDED_NOGPS,5.701251983642578,26.12410854982467,310.1014227533537,92.48908748270786,45.35133521643653,0.2896431962077066,250.06779884804052,-0.25973160818647045,32.34007437537862,1.0073332675446998,0.597802061821611,114.6731114848546,2.0,-2.0,-0.5856091971779911,0.49349436957947107,308.4554822287189,94.8971119114253,45.922919921503535,-1.1799795089938954,-7.62033867523995
GUIDED_NOGPS,5.739951848983765,25.845456113973036,308.6815629142196,94.58969444524284,45.61945133641799,0.021206392467998693,250.04994883564865,-0.1913497321122435,32.53411365024287,0.9093659432885028,0.6137482056560636,114.42164441018224,2.0,-2.0,-0.5319300351352216,0.4934573311569124,302.06903228105426,96.11820861621183,45.44898647514591,1.3278424040004353,-6.589014644004467
GUIDED_NOGPS,5.777857780456543,26.387900445428695,306.8357213149119,97.25891501064045,46.125842490682466,-0.20018130943535553,250.03545039732035,-0.13580745061288724,32.728484454530516,0.7989872581758936,0.5953757438406697,114.17965763807786,2.0,-2.0,-0.48757659793741415,0.49330132098192403,299.93912348018586,100.76142450428428,47.00562107539784,2.3176310973905316,-5.156620156177409
GUIDED_NOGPS,5.819164752960205,24.21346018404129,303.85783644335805,99.75660110072336,46.52338548568989,-0.38221958844154125,250.0239980827577,-0.09193460963125233,32.923152130276726,0.6560885483209726,0.5921771875966939,114.0085477389907,2.0,-2.0,-0.45101106699741844,0.4931998833222934,296.99230015409495,102.3901701816741,47.1155489065258,1.166634340735726,-4.239887683968092
GUIDED_NOGPS,5.8557517528533936,27.338347824953395,300.88964765963004,101.84725495587743,47.07890629614986,-0.5502639168298348,250.0152702316914,-0.058498956091611376,33.11808193956027,0.5623081300259934,0.547623756918995,113.84532670839491,2.0,-1.9541046954151222,-0.4172008316554289,0.4930195878217052,296.99230015409495,102.3901701816741,47.1155489065258,1.166634340735726,-3.7815214478634336
GUIDED_NOGPS,5.893313646316528,26.630501587301588,298.9340177776975,104.03973950302144,47.305238210708715,-0.6974622763693081,250.00892873012197,-0.03420520408052141,33.31323907391012,0.5255955964329105,0.5139166666432763,113.78145077927694,2.0,-1.9051871266621843,-0.38749878061922305,0.4930040004316007,298.67733281905606,107.33887814571625,47.684616819074385,-3.1138242172958854,-3.0939720937064457
GUIDED_NOGPS,5.933946847915649,24.614748999401403,297.01086094286507,105.66281212198494,47.13925192495625,-0.7782654506990827,250.00461876656078,-0.01769410102575364,33.508588663712175,0.4942936932403883,0.293440454751939,113.66617084646546,2.0,-1.8329819688676494,-0.37102220661288854,0.49318466836937797,292.4532481068921,107.25938803856465,46.61759004926842,1.430147948225894,-1.5469860468532228
GUIDED_NOGPS,5.973009824752808,25.606564182712855,295.57722231751427,107.89912624270424,46.93748861455979,-0.8258179619884362,250.0019685882708,-0.007541493878065353,33.704095787615756,0.5209215058848004,0.16918933526991647,113.66266695942126,2.0,-1.7864357782375184,-0.36118859942310505,0.493383303586528,292.77093035343194,109.09911254383196,46.51025897533646,1.0490585273904003,-0.057295779513082325
GUIDED_NOGPS,6.009503364562988,27.40730285684414,295.1738728089146,109.3011494641945,46.6335493639154,-0.8476169895781932,250.00058925750824,-0.0022573952902433803,33.899725481940436,0.5899822422738868,0.0375909599533701,113.68432548927936,2.0,-1.7959057060834414,-0.35651977159308157,0.4936330880590125,294.97555261109665,111.54494781018704,46.77279906714122,-2.8976079215509856,0.8594366926962349
GUIDED_NOGPS,6.045961856842041,27.436525743591087,293.8024227332622,110.80199625236594,46.16746611126619,-0.8060963009596233,250.000074407763,-0.00028504979819388154,34.09544275008244,0.7799786816331894,-0.04803648030886167,113.76139734387378,2.0,-1.7145842681096066,-0.36452929036535997,0.49396398831940813,290.13504977583267,111.76192840307898,45.21934029132076,-0.040077694072394365,2.2345354010102105
