Mode,Time,Freq,North-Vision,East-Vision,Down-Vision,Yaw-Vision,North-Desired,East-Desired,Down-Desired,Roll-UAV,Pitch-UAV,Yaw-UAV,Roll-Control,Pitch-Control,Yaw-Control,Thrust-Control,zGyro
GUIDED_NOGPS,0.04051828384399414,24.69242090638283,289.06747984980336,4.925340213064131,6.511859155824644,-0.002255630119165039,300,0,50,-1.3089193098512608,0.13993707579777992,98.47182764150348,0.04246677590664819,0.24800873389921785,0.0004511260238330079,0.5054994417335273,-9.797578296737077
GUIDED_NOGPS,0.0735483169555664,30.284439374138067,290.37518530811826,5.569081463474485,6.873219834341468,-0.3680935249410865,300,0,50,-1.543268649803099,0.21579886633120082,98.14162214607921,0.0362649788955975,0.19156598813250006,0.0736187049882173,0.5043963731022731,-9.85487407625016
GUIDED_NOGPS,0.11537957191467285,23.90924948411296,290.1325459264178,6.156016766792384,7.268605509805167,-0.6907316359557493,300,0,50,-1.8638822117551401,0.33700964449806853,97.66430803631121,0.03987532820529351,0.202579964630881,0.13814632719114986,0.504411369616371,-10.313240312354818
GUIDED_NOGPS,0.15251374244689941,26.94875353379594,289.5354125195732,7.356436183437439,8.087395975385,-1.095774818934608,300,0,50,-2.007831009834098,0.5221568629900736,97.26998755514803,0.04953783025972264,0.21709992898941,0.2191549637869216,0.5043640248415185,-10.542423430407148
GUIDED_NOGPS,0.1863110065460205,29.582141975526326,289.71474656408884,8.99202603160446,9.311941457089008,-1.4652167018803215,300,0,50,-2.1490660883784445,0.8167715233098729,96.83545775034099,0.0616747385905482,0.2127874346702598,0.29304334037606433,0.5042690893403851,-10.026761414789407
GUIDED_NOGPS,0.2271709442138672,24.47984965302299,290.1877526074015,10.813503803229745,10.829383280862567,-1.7816182572958195,300,0,50,-2.2788061719930712,1.1879728813496138,96.36061616905255,0.07332576517877652,0.20429344971184013,0.3563236514591639,0.5041639853375939,-9.511099399171666
GUIDED_NOGPS,0.26569056510925293,25.96513470681458,288.90742614681494,12.504774824522327,12.477379395067551,-2.1585566668685607,300,0,50,-2.45273886019815,1.5132319324326158,95.94203485595747,0.08454894461425089,0.2360921793054851,0.43171133337371215,0.5040370558698803,-9.281916281119337
GUIDED_NOGPS,0.3027007579803467,27.02445813252236,289.1081035261244,13.895081543767182,14.243619665787511,-2.4967148152291956,300,0,50,-2.584119683317461,1.7908320579213846,95.56944803673328,0.09349092717711176,0.22983028784111542,0.49934296304583914,0.5038952731112728,-8.59436692696235
GUIDED_NOGPS,0.3376467227935791,28.62713032795277,289.46830696044105,15.231612614494397,16.24290859869298,-2.7911013045923867,300,0,50,-2.703555359352066,1.9723477502090583,95.25842854268758,0.10286845527057278,0.22360131203590258,0.5582202609184773,0.5037208946994658,-7.62033867523995
GUIDED_NOGPS,0.37126636505126953,29.751267919335504,289.3504061171394,16.72836574993849,18.557188222315578,-3.0588134492738264,300,0,50,-2.7127447385500836,2.059642690443699,95.15962302615418,0.11384345451894062,0.22876610427641034,0.6117626898547653,0.5035087907993784,-7.563042895726867
GUIDED_NOGPS,0.39994263648986816,34.87725658786452,288.47574862775684,18.032063693767654,20.844166969202277,-3.2939360915081286,300,0,50,-2.7373626613095134,2.1394402174037808,95.04647411236375,0.12290888622673157,0.2502511913090898,0.6587872183016258,0.5032965145134299,-7.047380880109126
GUIDED_NOGPS,0.4378979206085205,26.35357984354874,289.0678078115261,19.263416610211568,22.845274622040176,-3.477823092553057,300,0,50,-2.7397188631297564,2.260733278005806,94.65927068831573,0.13082485408851835,0.2354940444396682,0.6955646185106115,0.503152815646898,-6.130648407899809
GUIDED_NOGPS,0.47736096382141113,25.34506429469206,288.2763692736218,20.35622362623882,24.709186429081797,-3.685647135776216,300,0,50,-2.5540544712515345,2.2918255797681737,94.30291922874865,0.13882305063766182,0.256744932319789,0.7371294271552432,0.503001983796121,-4.5263665815335035
GUIDED_NOGPS,0.5086405277252197,31.974385753600096,288.29743660187773,21.453342155407473,26.460538890910954,-3.86683778515501,300,0,50,-2.47169050071082,2.28763653937284,94.20878556160753,0.14773984460089357,0.2557228061529979,0.7733675570310021,0.5028407237080154,-3.896113006889598
GUIDED_NOGPS,0.5409834384918213,30.927568077748365,287.89439368730154,22.457824047183294,28.091917093665945,-3.967922205103612,300,0,50,-2.326751111758799,2.2446866023245073,94.09269966647399,0.15513887761549894,0.26666099389541403,0.7935844410207225,0.5027036052515962,-2.5783100780887045
GUIDED_NOGPS,0.5772402286529541,27.588841602588978,288.02392526477627,23.438475292033853,29.393530006667948,-4.028492807373023,300,0,50,-2.1857410025702397,2.213128993924933,93.99269886683584,0.16264159968811792,0.26419954646562677,0.8056985614746046,0.5026107920595322,-0.9740282517223995
GUIDED_NOGPS,0.6110513210296631,29.613053086411036,288.1334174182534,24.38530375778821,30.302186135761726,-4.074377819410106,300,0,50,-2.166911238245572,2.1070518872464037,93.94678633523502,0.17041775470373408,0.26361078846545377,0.8148755638820213,0.5025479783554672,-0.057295779513082325
GUIDED_NOGPS,0.64992356300354,25.717884100092586,288.8481224019739,25.21535735135045,31.07105052196357,-4.079302309595521,300,0,50,-2.156022849491514,2.0638513676328962,93.94759912774624,0.17703233196562473,0.24955708659585507,0.8158604619191042,0.5025009554300934,0.8021409131831525
GUIDED_NOGPS,0.6801748275756836,33.06585098583333,288.39406749240743,25.858121035953584,31.813536127019006,-4.062593626207897,300,0,50,-2.0988819137820105,1.9959165986006566,93.96645728004465,0.18276131635239284,0.2633733195766597,0.8125187252415794,0.5024389844448868,1.4896902673401404
GUIDED_NOGPS,0.720250129699707,24.958964105493667,288.69982836754446,26.337503868256302,32.52320324834104,-3.9942081075191638,300,0,50,-2.0475148357986948,1.91509283571778,94.06564528717158,0.1872741047518604,0.25682812987669906,0.7988416215038328,0.5023954964471045,3.0366763141933633
GUIDED_NOGPS,0.7549338340759277,28.838525587695354,288.834402225298,26.58822672108792,32.99851672169613,-3.9027232426659864,300,0,50,-2.000079385456368,1.7819503574011348,94.17506491767519,0.19051818731808406,0.2560604774300642,0.7805446485331973,0.5023696563112677,3.6096341093241864
GUIDED_NOGPS,0.7989506721496582,22.722394075486623,288.2505072176851,26.58840643463643,33.37808771108188,-3.794750841296118,300,0,50,-1.9034751108264116,1.6736809734424432,94.30821945554457,0.1926101349858679,0.2715228709074679,0.7589501682592237,0.5023587810160086,3.896113006889598
GUIDED_NOGPS,0.8352227210998535,27.575056704250354,288.02869035622723,26.34439962671858,33.80416209022433,-3.6401456837029227,300,0,50,-1.835344187298946,1.5945464017186755,94.44599803148208,0.19276412687832645,0.2769824520136321,0.7280291367405846,0.5023306379961798,4.870141258611998
GUIDED_NOGPS,0.8732130527496338,26.327112952327152,289.1447313671914,26.16063347833564,34.44216250635554,-3.487703709278251,300,0,50,-1.7390750188251434,1.4687727370211219,94.5719945311013,0.19421550045885141,0.2527282049158034,0.6975407418556503,0.5022792804913578,4.92743703812508
GUIDED_NOGPS,0.9148688316345215,24.01094554135205,290.0814864667351,25.979535279702663,34.94685045407407,-3.297009003932802,300,0,50,-1.6364627390465147,1.3239512755539895,94.81061401994486,0.19577079583035703,0.23634589435039424,0.6594018007865605,0.5022523431492966,6.0733526283867265
GUIDED_NOGPS,0.9528119564056396,26.362358738419378,290.8040552544859,25.618469709047144,35.17117557862307,-3.0915690754758116,300,0,50,-1.5475476565964061,1.1922172035885419,95.026236261853,0.19544550594684723,0.22366449553885162,0.6183138150951624,0.5022531912528707,5.844169510334397
GUIDED_NOGPS,0.9938504695892334,24.373584993375328,292.0596362960123,24.86844774474606,35.11952427423541,-2.9070012248389894,300,0,50,-1.4602527163617656,1.0142092403264928,95.23855952239202,0.19250904422128123,0.19868451360750364,0.5814002449677979,0.5022837933893305,5.271211715203574
GUIDED_NOGPS,1.0280559062957764,29.238379388227422,293.5967053680358,24.20249627319129,35.14189210693689,-2.709937695366934,300,0,50,-1.3657360250186004,0.9134342814345975,95.37400217363337,0.19040023494204733,0.16741186987032491,0.5419875390733868,0.502294963674913,5.099324376664327
GUIDED_NOGPS,1.065704345703125,26.56707795991791,294.86514149835966,23.652742443587695,35.362047342581576,-2.5500461830206023,300,0,50,-1.221337394949774,0.7355383759636188,95.54512573309887,0.1897009471348197,0.1439021432064578,0.5100092366041205,0.5022841869501821,4.8128454790989155
GUIDED_NOGPS,1.1033167839050293,26.591163548528208,295.59628721011103,23.209012649416763,35.47727454073571,-2.3827345927593293,300,0,50,-1.0680315578730164,0.685237874707883,95.67118370442063,0.18942921193186646,0.13138865876039468,0.4765469185518659,0.5022919126795147,4.469070802020421
GUIDED_NOGPS,1.1457178592681885,23.589215212085083,296.550857756877,22.67174297553673,35.36109663844001,-2.246037537095179,300,0,50,-0.9408480994420899,0.49501486516720644,95.77617054215288,0.188418143819692,0.11256644015533956,0.4492075074190358,0.5023279288836486,3.2658594322456924
GUIDED_NOGPS,1.1787331104278564,30.29931589479083,297.9637042819062,22.173150495564013,35.16205218067422,-2.0921182662687126,300,0,50,-0.8559366284235194,0.42534874990207466,95.83848235795092,0.18682902680362282,0.08239318931639397,0.41842365325374253,0.5023655280344034,3.4377467707849396
GUIDED_NOGPS,1.2150611877441406,27.532700096495315,299.32186009975965,21.961394753022073,35.18806600409193,-2.0058729612414683,300,0,50,-0.6558424480674406,0.1607530911495987,95.94417953535687,0.1885019831301063,0.05609314373215364,0.40117459224829366,0.5023724394770063,2.7501974166279517
GUIDED_NOGPS,1.2520115375518799,27.069456455797503,299.751679945652,21.797906957308697,35.28221765388171,-1.8945026851173719,300,0,50,-0.3909281716623541,-0.1356748776731333,96.04381150477984,0.18960965391340134,0.05005067658462992,0.37890053702347437,0.502377701687346,2.864788975654116
GUIDED_NOGPS,1.2829792499542236,32.30214253808358,300.2749660256691,21.680443729277982,34.87122535084526,-1.7913756848024351,300,0,50,-0.20929074992902327,-0.37004129309789646,96.09852132003164,0.19056911365436247,0.03900712237155945,0.3582751369604871,0.502448645834768,2.6929016371148693
GUIDED_NOGPS,1.3227627277374268,25.14344633276384,300.9842972890347,21.5047848174807,34.38326681983242,-1.7059594913644929,300,0,50,-0.020692044750340408,-0.5784531497591698,96.17979374096562,0.19145029098393992,0.02453734542873579,0.3411918982728986,0.5025148994554236,2.979380534680281
GUIDED_NOGPS,1.356929063796997,29.272865587683118,302.1958244359715,21.621741834127793,33.576416151787846,-1.5951394490308086,300,0,50,0.2079417475473061,-0.8657068405052524,96.24825955720583,0.1947608959410674,-0.0016235594072839172,0.31902788980616176,0.5026233058140339,2.864788975654116
GUIDED_NOGPS,1.3964779376983643,25.291421197667617,302.5228818856492,21.78453368751165,33.194377220448835,-1.4940958413333396,300,0,50,0.4026505905470943,-1.0857422383908595,96.30917801441318,0.19786317238557563,-0.005950380381342126,0.29881916826666793,0.5026680289954265,2.9220847551671985
GUIDED_NOGPS,1.431734561920166,28.37209805725418,303.47581391313435,21.977238904704894,31.990189209336933,-1.3810643631580377,300,0,50,0.7087173970317423,-1.4969829123971554,96.4246970038456,0.20102726972055035,-0.027333659171224767,0.27621287263160754,0.5028316599730688,3.2658594322456924
GUIDED_NOGPS,1.469512701034546,26.47635039168776,305.14750875623633,22.102748709988077,30.869276720291253,-1.2558598985650895,300,0,50,1.0124016947956724,-1.7034831165036186,96.54638365409855,0.2035629225819586,-0.06333757777273921,0.2511719797130179,0.5029614964950133,3.7815214478634336
GUIDED_NOGPS,1.5011024475097656,31.663727503321656,306.9751098858564,22.234127736201373,29.477386814942992,-1.090447189678831,300,0,50,1.2061533508163067,-1.8970111905506408,96.66946366294218,0.20612082681962002,-0.10207974375290113,0.2180894379357662,0.5031342000273479,5.213915935690491
GUIDED_NOGPS,1.5372469425201416,27.67348446860732,308.638602013511,22.43533819073205,28.57539073842956,-0.9305794183131241,300,0,50,1.3344714744231017,-2.058519978098878,96.83404390118281,0.20942417476956854,-0.13541086164358002,0.18611588366262483,0.5032286272425283,5.67228217179515
GUIDED_NOGPS,1.5751051902770996,26.420313316913695,310.0368226807911,22.4004307637996,27.487410203920675,-0.7329680381832764,300,0,50,1.367050196103593,-2.0567524532077255,97.03302097208362,0.21060707092127048,-0.16400980243135113,0.14659360763665527,0.5033669162460012,6.474423084978302
GUIDED_NOGPS,1.6138460636138916,25.819045860264698,311.6722932827926,22.302710193429686,26.404350747580185,-0.5165155296788873,300,0,50,1.2375058400973693,-1.9719607773038947,97.26804778142376,0.2119301049209101,-0.19906531050018303,0.10330310593577746,0.5035019018235303,6.531718864491385
GUIDED_NOGPS,1.6529972553253174,25.548229905221355,313.0009362827419,21.91350010445814,25.51895777578702,-0.28715197071089427,300,0,50,1.0743869421740075,-1.8663011659383826,97.48802768402236,0.21091202512285775,-0.22683888708070812,0.057430394142178855,0.5036138023069178,6.531718864491385
GUIDED_NOGPS,1.7002067565917969,21.186670640352784,314.6101296441452,21.4524076555807,25.07210115365721,-0.03988950384220777,300,0,50,0.8691437596790911,-1.6427316787658228,97.79495589475522,0.21059550109540262,-0.26179585689654905,0.007977900768441555,0.5036806543221892,6.990085100596044
GUIDED_NOGPS,1.7369437217712402,27.2288446432397,316.08046655442115,20.55633532869921,25.401847675697713,0.2714035937462289,300,0,50,0.7758775799234199,-1.4449803066559113,98.05073281879386,0.20556910930649874,-0.2941609067444939,-0.05428071874924578,0.5036563585040089,7.219268218648373
GUIDED_NOGPS,1.7775464057922363,24.634555182925038,318.42821570343904,19.57520684240943,26.404780285210332,0.506546198718961,300,0,50,0.795153280895695,-1.295343455102214,98.27703064637471,0.20160507663740765,-0.3458939671269761,-0.1013092397437922,0.5035689906998102,6.703606203030632
GUIDED_NOGPS,1.8108923435211182,29.99337819380582,320.413080242444,18.39628923587073,27.758850203254028,0.7626388865907588,300,0,50,0.8432016873551778,-1.1466572805036181,98.48490062357489,0.19489953908040433,-0.3884676210165423,-0.15252777731815179,0.5034401029711562,6.589014644004467
GUIDED_NOGPS,1.8489623069763184,26.27335083092689,321.9185129870734,17.336494336435834,29.049186555977244,0.9610507243420598,300,0,50,0.8359898613652905,-0.9779837312377434,98.68800312873438,0.19086708337328182,-0.41992901114367415,-0.19221014486841198,0.5033416003582762,6.130648407899809
GUIDED_NOGPS,1.8874354362487793,25.997161221542484,323.24588105260136,16.15445220606611,30.073714627846844,1.1922923459224464,300,0,50,0.9366373945404828,-0.8464885558106877,98.87881812357703,0.1849871089087572,-0.4495481239374727,-0.2384584691844893,0.5032695122321538,6.302535746439056
GUIDED_NOGPS,1.9287159442901611,24.228146282571903,323.87650874998184,15.01972230019703,31.102120178182293,1.4202106603281486,300,0,50,1.0354945643794855,-0.7736430408477679,99.09538293159062,0.17997679807609132,-0.46418229111426723,-0.2840421320656297,0.5031916527295826,6.245239966925974
GUIDED_NOGPS,1.9652228355407715,27.397456414812105,323.0492974424569,13.50040987551406,32.22624819658305,1.6478933647222302,300,0,50,1.1749192159069557,-0.8296868240609853,99.27274245376834,0.17064353687145412,-0.44721520438017415,-0.3295786729444461,0.5030929433620961,5.729577951308232
GUIDED_NOGPS,2.0011229515075684,27.86246479247489,322.4623037881919,12.13913217052417,33.373214821228096,1.8475695358155653,300,0,50,1.3034149244321709,-0.8485042620286348,99.47334510969162,0.16388316189696447,-0.43932588131491607,-0.36951390716311305,0.5029949264640708,5.500394833255903
GUIDED_NOGPS,2.036821126937866,28.018998630548783,322.6484661501148,10.774550816492022,34.36020752272776,2.0253297952679326,300,0,50,1.3508257220604625,-0.9421831879814158,99.6012199113326,0.1565796221528535,-0.4484346038638502,-0.40506595905358656,0.5029171959857234,4.870141258611998
GUIDED_NOGPS,2.070012092590332,30.136690233948382,322.9599537319664,9.861736183059294,34.95575627024473,2.1784137743711725,300,0,50,1.3535231131740886,-0.9951504512212185,99.70850169262599,0.15296728065282378,-0.4581272713851147,-0.4356827548742345,0.5028823701036446,4.411775022507339
GUIDED_NOGPS,2.1081628799438477,26.2194800242547,322.4551338466316,8.83969958008173,35.05884736950335,2.3038903349332696,300,0,50,1.3046217334811476,-1.1541795599356235,99.83754445661505,0.14771564484541028,-0.44919328366793626,-0.4607780669866539,0.5029044034065254,3.7815214478634336
GUIDED_NOGPS,2.14284086227417,28.844475314797368,323.2961688441119,7.880633026102838,34.88995340468825,2.4432693118002238,300,0,50,1.2822833863572094,-1.1992633974910563,99.89674170615154,0.1425366732945638,-0.4729957180673362,-0.48865386236004477,0.5029446021806633,3.2658594322456924
GUIDED_NOGPS,2.1823794841766357,25.302559028992675,325.2320801429604,7.0050799799509775,34.71131356775568,2.5378122170658104,300,0,50,1.1964521343173613,-1.3552287394758877,99.98985767510632,0.13848726346941145,-0.5181816065303771,-0.5075624434131621,0.5029802184296386,2.521014298575622
GUIDED_NOGPS,2.221094846725464,25.830653356078756,325.513794546638,6.077651887476448,34.36222755941529,2.6280599590057134,300,0,50,1.0574375075835034,-1.4234407714997472,100.02104431885661,0.133332124249881,-0.5236064396943445,-0.5256119918011427,0.503037837337609,1.776169164905552
GUIDED_NOGPS,2.264845609664917,22.86197686714415,325.547216875625,5.022568778407694,33.84198675882613,2.694837203837372,300,0,50,0.958923021141765,-1.529887348723692,100.05033217001763,0.127487252091066,-0.5280847109730827,-0.5389674407674744,0.5031139725186242,1.1459155902616465
GUIDED_NOGPS,2.300889253616333,27.748180687501655,326.8130243199053,3.9019779080839556,33.034243987582734,2.7630082277771213,300,0,50,0.8502220012440401,-1.5884531259270835,100.05499035903156,0.12041109439353176,-0.5607017641546757,-0.5526016455554242,0.5032235724664561,1.088619810748564
GUIDED_NOGPS,2.3413591384887695,24.71555600077783,327.0246163490754,3.0467674624475696,32.37829153861248,2.7894708356800204,300,0,50,0.744769376626891,-1.647574709774185,100.05272273622712,0.1165720817731043,-0.5663182615687645,-0.5578941671360041,0.5033043550679295,0.4583662361046586
GUIDED_NOGPS,2.3796842098236084,26.09891231301491,326.8041161605771,2.4977327144582024,32.09355526229789,2.8209311616397867,300,0,50,0.7199933990211986,-1.7163740313449598,100.03078416861304,0.11417443378006159,-0.5648800616316184,-0.5641862323279574,0.5033445276249928,0.5156620156177409
GUIDED_NOGPS,2.4194324016571045,25.16124465347307,327.7400313707041,2.1272128058511814,31.73104995292915,2.8461722982996354,300,0,50,0.6727484469236915,-1.7191542385022724,100.02449356438746,0.11267822548764383,-0.5909649476474852,-0.5692344596599271,0.5034043218734016,0.5156620156177409
GUIDED_NOGPS,2.459028720855713,25.2618696283269,327.71557065319763,1.7386856585593966,31.452435509901704,2.8623545420792103,300,0,50,0.7027957831038999,-1.759361747877139,100.01531379014297,0.11045076581412577,-0.5924613315836644,-0.572470908415842,0.5034521854675846,0.2864788975654116
GUIDED_NOGPS,2.496605396270752,26.617826431857846,328.2368948135637,1.2026307551983473,31.152811292961676,2.8914198367898534,300,0,50,0.7734695113541672,-1.7774776507118344,99.99935846824181,0.10690051823806018,-0.6085820329668468,-0.5782839673579707,0.5035043165240404,0.8021409131831525
GUIDED_NOGPS,2.54201078414917,22.026825195097103,328.7551635224206,0.6785635095607573,30.860890300001717,2.918719825133829,300,0,50,0.9178710229090496,-1.852387857155655,99.99416069428344,0.10410196783333947,-0.6239240596539503,-0.5837439650267658,0.5035580351998105,0.8021409131831525
GUIDED_NOGPS,2.583051919937134,24.370327761218313,327.9613713941032,0.20984210211399215,30.609763298527515,2.952414480330434,300,0,50,1.0497756361603359,-1.8773197551734941,99.98784959949035,0.10132181565816181,-0.6095588870383173,-0.5904828960660868,0.5036067002837854,0.7448451336700702
GUIDED_NOGPS,2.6249825954437256,23.85553489059896,327.91240214554176,-0.15004644762136435,30.370722737716616,2.9803934406236916,300,0,50,1.141787462347105,-1.8904516476264899,99.97768627800536,0.0994248959808638,-0.6150402704445938,-0.5960786881247383,0.5036547195363157,0.6875493541569879
GUIDED_NOGPS,2.6622731685638428,26.819858301148425,328.3109029596229,-0.6870898699299607,30.227080573352225,3.0066266041273693,300,0,50,1.2949374857334215,-2.042661559506578,99.96881386227352,0.09555882870275308,-0.6284024828955764,-0.6013253208254739,0.503689208947783,0.6875493541569879
GUIDED_NOGPS,2.700690507888794,26.03702278229561,327.7558048901403,-1.1247419034395552,30.17423940208177,3.027205623229746,300,0,50,1.3305374989045857,-2.089919211487073,99.9600029182442,0.09314409634364121,-0.6190799266866581,-0.6054411246459492,0.5037149716068985,0.5729577951308232
GUIDED_NOGPS,2.73795223236084,27.089912096571055,328.6173972367616,-1.6443521035425148,30.179993734810896,3.045285320062524,300,0,50,1.3133503950753065,-2.152584489574647,99.94430714353152,0.08959887316692264,-0.6442977578035176,-0.6090570640125048,0.5037347036670435,0.4583662361046586
GUIDED_NOGPS,2.7802751064300537,23.508564254326966,329.353349944852,-2.0439312419082722,30.106074117357593,3.0671046350955344,300,0,50,1.2110539048240851,-2.2417077860727357,99.92520993461216,0.08747947697656834,-0.6634448661376027,-0.6134209270191069,0.5037697374893072,0.7448451336700702
GUIDED_NOGPS,2.8152878284454346,28.56629911392319,329.46698523183574,-2.5554382773049262,29.901609238066154,3.0932657826264696,300,0,50,1.0457711175942985,-2.3554748319830527,99.92542850066559,0.08366162802990097,-0.6684695985703227,-0.618653156525294,0.5038154422303959,0.6875493541569879
GUIDED_NOGPS,2.850907325744629,28.078270707395284,329.7713161134121,-3.0103246315359278,29.424546189067673,3.1181398843240786,300,0,50,0.9113198042779496,-2.3340907903522123,99.92539434971975,0.0808578956414023,-0.6793312832069939,-0.6236279768648157,0.503892703859529,0.8594366926962349
GUIDED_NOGPS,2.8969011306762695,21.74679317675118,330.26076023626786,-3.4848618834647898,29.051640487898794,3.1495929096858513,300,0,50,0.6773153888791971,-2.3537399639338696,99.93786627514419,0.07786869058313298,-0.694887659993179,-0.6299185819371703,0.5039535783969339,1.0313240312354819
GUIDED_NOGPS,2.9395437240600586,23.45387850049208,329.8320552059393,-4.1944197210220056,28.606609911034578,3.2016133369945434,300,0,50,0.5031233135682165,-2.229130633046392,99.95784457846648,0.07255657527930802,-0.6893517170399085,-0.6403226673989088,0.5040278198086419,1.5469860468532228
GUIDED_NOGPS,2.980984687805176,24.134323033546234,329.86633783478305,-4.956764691492254,28.30677263457247,3.2610187888450723,300,0,50,0.33756953324702443,-2.159195899247808,99.98832088254308,0.06730626106306467,-0.6960663699064812,-0.6522037577690145,0.5040815836798234,1.776169164905552
GUIDED_NOGPS,3.0192458629608154,26.14234516114958,329.3034803675847,-5.756956967817255,28.13843884983437,3.3344189071635046,300,0,50,0.313193788718439,-1.9934758731894349,100.03939703715643,0.06172369603569489,-0.6877273374770408,-0.666883781432701,0.5041206214221459,2.177239621497128
GUIDED_NOGPS,3.0640268325805664,22.334719611487117,328.5497888046645,-6.699417941101873,28.361377539460335,3.4168364734160157,300,0,50,0.29980624441924375,-1.8302085253733311,100.13150213811404,0.055341220263742656,-0.6775637654404124,-0.6833672946832032,0.5041180358277816,2.521014298575622
GUIDED_NOGPS,3.0970687866210938,30.27176211612717,328.63331914692566,-7.756901141564019,28.795849142750086,3.512344313375896,300,0,50,0.35066321932935046,-1.6907962535637315,100.16475832918285,0.04726685436666171,-0.6849304433701967,-0.7024688626751793,0.5040872105925998,2.46371851906254
GUIDED_NOGPS,3.132296323776245,28.392264108795278,328.1715434056438,-8.83753376677952,29.47289873347414,3.5869447475533947,300,0,50,0.43002983072191353,-1.4634029276730225,100.22867523943582,0.04020451616007448,-0.6781333697409327,-0.717388949510679,0.5040354785595547,2.521014298575622
GUIDED_NOGPS,3.1756627559661865,23.064762522752392,327.7005845242982,-9.73834018274451,30.15617754437957,3.6464555276231567,300,0,50,0.4974411297872948,-1.2895226398254824,100.26722482711138,0.034756927476087024,-0.6737364273988778,-0.7292911055246314,0.5039963123455233,1.6615776058793874
GUIDED_NOGPS,3.210635185241699,28.598827219419064,327.71075443970966,-10.511935233248856,30.98575929241797,3.708440153385324,300,0,50,0.5059407666008467,-1.1381496395621327,100.30631399973136,0.029097256493200583,-0.6789291241641564,-0.7416880306770648,0.5039253125830149,1.2032113697747289
GUIDED_NOGPS,3.246410608291626,27.95960350102991,327.8249240970956,-11.370450424175218,31.828892243408863,3.7418779898206527,300,0,50,0.4533396121727274,-1.0132743581838473,100.29578867822036,0.02277688288744508,-0.6854677768572212,-0.7483755979641306,0.5038604728684254,0.8021409131831525
GUIDED_NOGPS,3.29067325592041,22.597037922990307,326.4095870972061,-12.135427688749758,32.71557967837405,3.7449093813918735,300,0,50,0.37521737586957604,-0.8679830010461591,100.26714286484133,0.017580683753396262,-0.6583266301024218,-0.7489818762783748,0.5037984411264332,-0.2864788975654116
GUIDED_NOGPS,3.3304243087768555,25.159282586527503,326.0004904634453,-13.162995862180287,33.97290959159236,3.72135913001083,300,0,50,0.284481567757983,-0.7749208198310892,100.18666957604025,0.00930516417233023,-0.656460325836744,-0.7442718260021661,0.5036803622595648,-1.4896902673401404
GUIDED_NOGPS,3.3681910037994385,26.490731442358097,324.61871929166773,-13.973351236267765,34.92145959565844,3.6661946426331258,300,0,50,0.13994263866669376,-0.6383559898534443,100.07166285079558,0.0036041666053165822,-0.6298816983726925,-0.7332389285266252,0.5036088374498727,-2.177239621497128
GUIDED_NOGPS,3.405993700027466,26.45664364335951,322.78712165121107,-14.60550693244567,35.6234769397336,3.582784581123831,300,0,50,0.05691149738228666,-0.5169650654472177,99.9470665399562,-0.0010308458190528796,-0.5955476766991948,-0.7165569162247662,0.5035616871875381,-3.0366763141933633
GUIDED_NOGPS,3.4403092861175537,29.145326940448893,321.69458872712414,-14.826096664888498,35.95978058642431,3.4814944485508157,300,0,50,-0.002980043551388298,-0.4234246909489674,99.75661354513956,-0.0025523865345301253,-0.5783385233029095,-0.6962988897101632,0.5035512914851044,-3.323155211758775
GUIDED_NOGPS,3.47501802444458,28.820691124227828,320.37322823789447,-14.926713751044707,36.28441632320264,3.355632940219981,300,0,50,-0.10782476799219307,-0.37531953522243533,99.64425693329285,-0.0040441556527466786,-0.5540794904760792,-0.6711265880439963,0.5035334285338461,-4.239887683968092
GUIDED_NOGPS,3.510033130645752,28.56474273844792,318.81047502580157,-14.937271325652427,36.803159743433454,3.2246592327628867,300,0,50,-0.10468981788486299,-0.29702480996231473,99.42167472862047,-0.005103539393580632,-0.5248296249528914,-0.6449318465525774,0.5034900368427028,-4.469070802020421
GUIDED_NOGPS,3.549276113510132,25.490160806096775,318.0241719700671,-14.75008747551295,37.04865424414774,3.0717326787270167,300,0,50,-0.15432037363255574,-0.15218605957884576,99.21932354426968,-0.004851889120116908,-0.5143582178754966,-0.6143465357454034,0.5034891498354943,-5.042028597151244
GUIDED_NOGPS,3.5886895656585693,25.377574481473413,317.10729064139963,-14.443764480315656,37.32149520348088,2.889245267096434,300,0,50,-0.22638208436757692,-0.07514277972114485,98.94892318521805,-0.004093365413064141,-0.4984313701560138,-0.5778490534192868,0.503476334624425,-5.443099053742821
GUIDED_NOGPS,3.6253373622894287,27.293695053783033,316.6521588035382,-13.865002411790373,37.88149195038607,2.7037060026680084,300,0,50,-0.33523640999565685,0.038784482149976936,98.76773192691594,-0.001034230039119367,-0.4928424891557919,-0.5407412005336018,0.5034252645949486,-5.156620156177409
GUIDED_NOGPS,3.6628270149230957,26.67877747034316,316.3321049507225,-13.102459996253899,38.36730229600564,2.5280415681094857,300,0,50,-0.47742184532998744,0.1260684834097748,98.48619835951719,0.0028177494205124374,-0.4892778325593066,-0.5056083136218972,0.5033920818282593,-5.099324376664327
GUIDED_NOGPS,3.7003676891326904,26.64403506543006,315.4631940323578,-12.19754621270107,38.85809958844677,2.3544853402094152,300,0,50,-0.5885159927581556,0.2602510714709661,98.26949011753102,0.0075256736859121,-0.4727589593258242,-0.4708970680418831,0.5033554277474126,-4.870141258611998
GUIDED_NOGPS,3.737582206726074,26.877260435490278,315.21771716805654,-11.390179298910802,39.05307088045149,2.1864470299231105,300,0,50,-0.7126861104654899,0.377557649475231,98.08038266998088,0.011107125229235723,-0.4717737853222983,-0.4372894059846221,0.5033560110821033,-4.583662361046586
GUIDED_NOGPS,3.783573865890503,21.746229423201555,315.3299804680045,-10.57216405588389,39.3374237899992,2.0328760686108938,300,0,50,-0.7887776194706054,0.4475390740200941,97.86971231522101,0.014456437931595071,-0.4777451218257184,-0.40657521372217875,0.5033413613891954,-4.239887683968092
GUIDED_NOGPS,3.8232791423797607,25.19010726340192,313.50886598901485,-9.78328066804585,39.52278215130598,1.8665767009760523,300,0,50,-0.8567466461704006,0.5730835004936291,97.68358966033816,0.018472201052496345,-0.4386274381115726,-0.3733153401952105,0.5033367864280717,-3.2658594322456924
GUIDED_NOGPS,3.860074758529663,27.183315294529383,313.6780233374708,-8.803951347670727,40.0629968795811,1.7395208227520251,300,0,50,-0.9263645765853721,0.6508243934615968,97.52006810141889,0.024243236215149233,-0.44907677379277566,-0.34790416455040507,0.5032837212486615,-3.0366763141933633
GUIDED_NOGPS,3.900716781616211,24.611282580887444,314.23506913917606,-8.136443190119948,40.49932771542475,1.6358900269180705,300,0,50,-0.9570233747788552,0.5701298705644217,97.40780028203139,0.0264404923949424,-0.46344043107417343,-0.32717800538361413,0.5032555693316195,-2.521014298575622
GUIDED_NOGPS,3.9513745307922363,19.742174776657535,313.49965549394454,-7.454430598092183,40.95502250161905,1.5238322570186225,300,0,50,-0.9415048648194689,0.5241592823556509,97.23882823215445,0.02932082581831996,-0.4486522929352509,-0.3047664514037245,0.5032255669201331,-2.521014298575622
GUIDED_NOGPS,3.9894235134124756,26.287182636925987,312.3399961458921,-6.743000128524337,40.84820537863313,1.3913108463020243,300,0,50,-0.8605810503374223,0.4421633416173238,97.10269573180692,0.03350484675906658,-0.42572877569505657,-0.27826216926040487,0.5032584624492525,-2.4064227395494577
GUIDED_NOGPS,4.022761106491089,30.003676865079083,312.00149155011263,-5.6573480169176955,40.39798919339625,1.3016445533239707,300,0,50,-0.7661399179619502,0.40081892591076723,96.99851485639671,0.04094293870179898,-0.42260161706868865,-0.26032891066479413,0.5033237727798316,-2.2345354010102105
GUIDED_NOGPS,4.06259560585022,25.114088976707983,309.9074449650483,-4.592059030838411,39.77066113505296,1.2227153143344194,300,0,50,-0.689450073713371,0.3040447503252069,96.87668477217119,0.046322346782070534,-0.3780491105470099,-0.24454306286688388,0.503401001190827,-2.291831180523293
GUIDED_NOGPS,4.100043535232544,26.707316917865352,308.3506188191751,-3.8100609501160663,39.07692792346002,1.1276046609545345,300,0,50,-0.5195608574969398,0.2650397277702326,96.7588571787993,0.05008176196169132,-0.34927138481477304,-0.2255209321909069,0.5034854033365955,-2.291831180523293
GUIDED_NOGPS,4.143561124801636,22.98588832320398,307.6761867511082,-3.402284511432518,38.72659377411804,1.040032148785402,300,0,50,-0.4437667818858372,0.22788339196365745,96.62004041410796,0.05102492136771023,-0.33971997289326106,-0.20800642975708042,0.503524680597,-2.291831180523293
GUIDED_NOGPS,4.17923378944397,28.039602901360432,307.1745155369584,-2.696757846513251,38.10588568042075,0.945497172602844,300,0,50,-0.4066348319890331,0.22853503469915898,96.49690576375097,0.05606713112153279,-0.3308553930293067,-0.18909943452056882,0.5036088195469991,-2.177239621497128
GUIDED_NOGPS,4.22047233581543,24.253223698666574,306.5994591069404,-1.936223653860824,37.383648270168784,0.867371805669102,300,0,50,-0.38017798751728293,0.1356368313850222,96.3980251151367,0.06030663472517373,-0.32045268186328485,-0.17347436113382042,0.5036967628893462,-2.119943841984046
GUIDED_NOGPS,4.252973556518555,30.77529936604837,305.30568752036595,-0.9323942509449507,36.303541192514096,0.7789813646807625,300,0,50,-0.40466026698866475,0.15117716593324082,96.33610945031053,0.06753082145998515,-0.29263586897682053,-0.1557962729361525,0.5038340289807159,-2.177239621497128
GUIDED_NOGPS,4.293161630630493,24.888909987479305,304.76234759410033,-0.2231844714675133,35.879062606690155,0.7164741677788126,300,0,50,-0.3824633794857398,0.15406681619983223,96.18252581663363,0.07039055422783183,-0.28522601348879095,-0.14329483355576253,0.5038705740404993,-1.948056503444799
GUIDED_NOGPS,4.332077741622925,25.699762260728903,303.8171344485264,0.5305406248650363,35.56817964936854,0.6245778450605937,300,0,50,-0.31704964394832275,0.2073145440824285,96.04781399563346,0.0751541662488874,-0.26582372060080217,-0.12491556901211874,0.5039160509724101,-2.46371851906254
GUIDED_NOGPS,4.362311363220215,33.08645715006942,303.1891941592761,1.537562247247288,35.318250368399795,0.5371365343171183,300,0,50,-0.2565905703235153,0.291131690729916,95.96042172520315,0.08272173948027614,-0.25398749534442205,-0.10742730686342367,0.5039546055645046,-2.2345354010102105
GUIDED_NOGPS,4.406134843826294,22.82241810860812,302.5512913433838,2.566348244722251,34.8688562348009,0.4608547498259291,300,0,50,-0.14169548932330117,0.2873714581484124,95.8054583933139,0.08816792314096533,-0.24230399593868762,-0.09217094996518582,0.5040213383606376,-2.5783100780887045
GUIDED_NOGPS,4.442355394363403,27.615180005793896,303.4994623742034,3.67212161634178,34.678291826486934,0.35534140295677424,300,0,50,-0.03582632988848706,0.39707598224560026,95.65360279749702,0.09580010429990315,-0.2658391551680113,-0.07106828059135485,0.5040520888565629,-2.5783100780887045
GUIDED_NOGPS,4.47660231590271,29.205601164240004,302.97499214828815,4.672216824093074,34.578744677317495,0.25897546223069867,300,0,50,-0.025342162935289382,0.44463955199571786,95.53592546828686,0.10206812153832108,-0.2516288883080315,-0.05179509244613974,0.5040755903325898,-3.0366763141933633
GUIDED_NOGPS,4.5148186683654785,26.173993896921626,303.5516027076887,5.71678409708305,34.74487299224041,0.1502048396976193,300,0,50,-0.03344403461118066,0.5986733378276108,95.3805318344799,0.10868134576107848,-0.26674314596185045,-0.030040967939523863,0.5040691846021994,-3.6096341093241864
GUIDED_NOGPS,4.556160926818848,24.192789986733576,304.24705450949784,6.646811069258461,34.80233566267202,0.018070109435553084,300,0,50,-0.1896912819818337,0.6810240748768083,95.17212910252448,0.11443201521954602,-0.2815249092576473,-0.003614021887110617,0.50408526446543,-3.9534087864026803
GUIDED_NOGPS,4.593524217605591,26.7702166226273,304.98852180448944,7.912604995444483,35.239566639873864,-0.1380191968038507,300,0,50,-0.24929971691049688,0.7910512720514263,94.96151338927795,0.1238767428455822,-0.2974035385987311,0.02760383936077014,0.5040477652615641,-4.297183463481175
GUIDED_NOGPS,4.631937503814697,26.04898892035574,304.0453121119434,9.14598298764446,35.284785768017734,-0.28004060950790793,300,0,50,-0.298027193583867,0.8446723124608461,94.80685058571218,0.13194209310796395,-0.2747206660290703,0.05600812190158159,0.5040707306451567,-3.896113006889598
GUIDED_NOGPS,4.665437459945679,29.847174188406417,303.16864122788684,10.502126367673196,35.40169661251533,-0.417322941337372,300,0,50,-0.29458477824218054,0.9354875748823934,94.67329989687093,0.14176126807509917,-0.25744984759720285,0.08346458826747441,0.5040713961108463,-3.6096341093241864
GUIDED_NOGPS,4.709026575088501,22.943013117157328,301.9889205735133,11.581332930910525,35.44598860042162,-0.5261929105094776,300,0,50,-0.2321350780002846,1.0015458561618775,94.45664629639813,0.14787030255277264,-0.23412511770636896,0.10523858210189552,0.5040885529675317,-3.151267873219528
GUIDED_NOGPS,4.750394821166992,24.179261761603073,300.87242216863746,12.867784117380817,35.80661212836948,-0.6679264696009461,300,0,50,-0.15180032731351192,1.005606510345156,94.28543394447341,0.15754474111267863,-0.21188356820382528,0.13358529392018922,0.5040619173049955,-3.151267873219528
GUIDED_NOGPS,4.790120363235474,25.177254473530983,300.74009961238954,14.31871152231106,36.16935839666716,-0.7815810269064711,300,0,50,-0.05284545375286633,0.9806023617325028,94.16449861502917,0.1680652747496776,-0.2117776495246787,0.15631620538129423,0.5040422744172655,-2.635605857601787
GUIDED_NOGPS,4.826155185699463,27.757729775518847,301.47512165443817,16.019674447037854,36.298227607765796,-0.8899603704169687,300,0,50,-0.035146432581379894,0.9496642728349896,94.02948626570553,0.1807790645888458,-0.22905731044607552,0.17799207408339376,0.5040496242223249,-2.521014298575622
GUIDED_NOGPS,4.867576599121094,24.147661980264143,302.11471465748843,17.58601376722397,36.24558256371757,-0.9705016614889589,300,0,50,-0.07535965156750597,0.9754210229168134,93.91215727614305,0.19099123551726557,-0.24170625450674973,0.19410033229779178,0.5040768105995012,-1.948056503444799
GUIDED_NOGPS,4.906668186187744,25.58610129995303,301.7315997491148,18.98268178251193,35.86564007159986,-1.0479797995532563,300,0,50,-0.10427931284357465,0.948886698486666,93.81477926914617,0.20094065955615525,-0.2317885923723463,0.20959595991065127,0.5041398252473592,-1.5469860468532228
GUIDED_NOGPS,4.940246343612671,29.78697535686386,301.3621045656614,19.99071791943798,35.44620773253519,-1.108338917844181,300,0,50,-0.12301043963167349,0.9337071366648415,93.75403839685725,0.20802833322910264,-0.2244610796762813,0.2216677835688362,0.5041991961896469,-1.2032113697747289
GUIDED_NOGPS,4.9799275398254395,25.204942070092784,300.1582531700475,20.921892874288375,35.040547497901095,-1.14040500253161,300,0,50,-0.11922502072760549,0.8746925946886389,93.68782654304316,0.2149516329151215,-0.19847146930906695,0.228081000506322,0.5042552846030388,-0.6302535746439055
GUIDED_NOGPS,5.011502265930176,31.680229615922052,299.3988788925998,21.89626571604876,34.684259054060036,-1.1714172228468351,300,0,50,-0.10004902450895668,0.8046352376501122,93.6501648799597,0.22318883580545976,-0.1838480478207833,0.23428344456936703,0.5043064750874579,-0.40107045659157625
GUIDED_NOGPS,5.051540374755859,24.97754327876467,298.5939451845992,22.788296005740904,34.326270331999666,-1.183853568494233,300,0,50,-0.08326999780215923,0.6806542841662755,93.60266774447143,0.22988121301999542,-0.16791763773266483,0.2367707136988466,0.5043588192537332,-0.11459155902616465
GUIDED_NOGPS,5.08347749710083,31.321813158091256,297.540151304008,23.722172508150166,33.51493218823439,-1.2004417329592718,300,0,50,-0.03130998736173513,0.6098997142238788,93.57958170507679,0.23801047932097685,-0.14521951476377257,0.24008834659185438,0.5044722791529996,0.11459155902616465
GUIDED_NOGPS,5.125798463821411,23.667616537916793,296.46107342133064,24.26943965061345,32.842244696178795,-1.196457115058104,300,0,50,0.00881916160066162,0.48727423312517215,93.58148732785523,0.24211540005454762,-0.12380206507151947,0.23929142301162082,0.5045517130555537,0.5729577951308232
GUIDED_NOGPS,5.158410549163818,30.626087972428294,296.15337307128846,25.20871454109715,31.985342812855105,-1.1892221450462475,300,0,50,0.011966411384583004,0.44035953134620576,93.56764936459678,0.25133054157151546,-0.11874385890342107,0.23784442900924951,0.5046655923764417,0.40107045659157625
GUIDED_NOGPS,5.199103355407715,24.57580800149999,295.71736055491675,25.829527088148087,31.627311957495323,-1.1404606630308722,300,0,50,0.19339999465987126,0.2982017902945254,93.63042563325837,0.2561832659063587,-0.10922524437170668,0.22809213260617445,0.5047060675227614,1.948056503444799
GUIDED_NOGPS,5.236531734466553,26.724163417182762,295.30570802060504,26.718934377925297,30.832823237805183,-1.0757881578649027,300,0,50,0.3163049932462327,0.2794846707303104,93.67236982495142,0.26479975838327763,-0.10023906769397924,0.21515763157298054,0.5048196350684387,2.46371851906254
GUIDED_NOGPS,5.276947259902954,24.748660577308883,295.56527173743046,27.082867992101697,30.120251082373482,-1.0031511166803098,300,0,50,0.4527547238641922,0.2872836261845543,93.75415451007315,0.26812149493866505,-0.10646309566980854,0.20063022333606195,0.504911308911482,2.635605857601787
GUIDED_NOGPS,5.317012548446655,24.964906433027,296.634607311801,27.702834004131134,29.39992926435566,-0.9127035768805994,300,0,50,0.5158839212067986,0.30238928322512504,93.8436299882003,0.27515174164792033,-0.12932894437984438,0.1825407153761199,0.5050084132884449,2.864788975654116
GUIDED_NOGPS,5.347530364990234,32.771072288027,297.0217854666829,28.107488517586816,28.777446896326182,-0.8171988745066374,300,0,50,0.5436243609948351,0.3563241921712481,93.90626282288933,0.2794229259065137,-0.13530764458306668,0.1634397749013275,0.5050925428550657,2.864788975654116
GUIDED_NOGPS,5.380392551422119,30.43717798000029,297.4089636215649,28.41680415959237,28.43107881939805,-0.7382623152150599,300,0,50,0.5720902415779211,0.4258409504091387,93.92768912631566,0.28313905062686506,-0.1426267866185474,0.147652463043012,0.5051386541909085,2.9220847551671985
GUIDED_NOGPS,5.421231508255005,24.490570003853744,297.73211631365575,28.462835743285424,28.057160596873263,-0.6285750980346257,300,0,50,0.6623265387456041,0.5746778160562982,94.08617000562747,0.2853741674444356,-0.14833166914885093,0.12571501960692516,0.5052015256573493,3.724225668350351
GUIDED_NOGPS,5.460602760314941,25.404627498485766,298.55961134277953,28.481564548066913,28.110155440700144,-0.511120885416157,300,0,50,0.6050030555583614,0.5945826948450078,94.18730461666784,0.28811097852709344,-0.16596628400204344,0.1022241770832314,0.5052115583333003,3.2658594322456924
GUIDED_NOGPS,5.498166084289551,26.62779654130374,298.848025259004,28.547052760635097,28.296393487492566,-0.38545865120310635,300,0,50,0.615403886199557,0.6669453474501195,94.2840952273961,0.2911982698901666,-0.17022856031942313,0.07709173024062127,0.5052137081613958,3.666929888837269
GUIDED_NOGPS,5.5365447998046875,26.062909339464362,299.19679442117206,28.559623935775935,28.692086596309434,-0.2669761829985682,300,0,50,0.5170973470015338,0.6319005005924303,94.39667040529625,0.29376269359407076,-0.17721951218041188,0.05339523659971364,0.5051933376762744,3.323155211758775
GUIDED_NOGPS,5.58394193649292,21.100443711074668,299.31783425425795,28.452353475905124,29.07425501467615,-0.13980613157858815,300,0,50,0.38333825734930965,0.4951056853388265,94.50388388469794,0.29610303858336595,-0.17885702086141608,0.02796122631571763,0.5051871918203406,3.666929888837269
GUIDED_NOGPS,5.611134052276611,36.78794523431539,299.89282643143605,28.234657089937887,29.29526255672729,-0.01734739110752003,300,0,50,0.32561864987063266,0.4379442590618129,94.59921966513298,0.29605721182994144,-0.19221098010799237,0.0034694782215040063,0.5051818298172688,3.896113006889598
GUIDED_NOGPS,5.655533313751221,22.52894603972628,300.6048142862628,28.031469678479198,29.389982339650476,0.07711865378177425,300,0,50,0.22022049334407173,0.283412403029038,94.71067469200923,0.2981753897997762,-0.20603892055653034,-0.01542373075635485,0.505205871090786,3.896113006889598
GUIDED_NOGPS,5.693153142929077,26.587455231212957,301.15894823760544,27.839311238259413,29.207873920467474,0.23663455453913573,300,0,50,0.14664525537765802,0.16500488390793164,94.8330648517467,0.2994726842391651,-0.2171718141351571,-0.04732691090782715,0.5052544605421334,3.9534087864026803
GUIDED_NOGPS,5.7256693840026855,30.763787324243246,302.37868253351974,27.572582366495652,28.712682108283715,0.3796396799873919,300,0,50,0.12323584921449714,0.13609376036832546,94.93491663264993,0.2997209612014918,-0.2441438602857946,-0.07592793599747838,0.5053351273433425,4.239887683968092
GUIDED_NOGPS,5.764938116073608,25.46849155362326,303.70399762518025,27.21151267778144,28.020446317210645,0.516427726083514,300,0,50,0.09855191908004128,0.06653287270509421,95.08850709651601,0.3000231839562407,-0.270858179050906,-0.1032855452167028,0.5054326789135734,4.640958140559668
GUIDED_NOGPS,5.799767971038818,28.71847119802258,305.61246943335726,26.861180448480088,27.42494822505097,0.689236081455571,300,0,50,0.122188722517796,0.07504371529775322,95.24424906997064,0.3000763638964217,-0.3119222256230783,-0.1378472162911142,0.5055153045442303,4.92743703812508
GUIDED_NOGPS,5.834951877593994,28.430176913170204,306.75270167722783,26.468750968645647,26.90506145634281,0.8609338756333565,300,0,50,0.11784518911313069,0.06570145725620383,95.37966440045531,0.2998451552905568,-0.3334361867060728,-0.17218677512667133,0.5055893269133984,5.500394833255903
GUIDED_NOGPS,5.872226715087891,26.83392832009008,308.1688395000282,26.129674724133622,26.58121092591635,1.0491562466734328,300,0,50,0.08838955142030773,0.06661542194451615,95.56096494178414,0.30035448353965805,-0.36353279694964713,-0.20983124933468655,0.5056417962369225,6.016056848873644
GUIDED_NOGPS,5.913321018218994,24.34020427112349,308.8526281583268,25.638079476071397,26.319921831767687,1.2726048681910171,300,0,50,0.14829537305223756,0.07075147501292911,95.8407636411337,0.29964608269693305,-0.37652803011366115,-0.2545209736382034,0.5056947816833448,6.818197762056797
GUIDED_NOGPS,5.952139139175415,25.765595532812817,309.9961817856783,25.121166302594943,26.326513776337553,1.5398153001033597,300,0,50,0.12731864815172514,-0.030656930563631998,96.07328377104845,0.2987559130329912,-0.4022305177968599,-0.307963060020672,0.5057152068942228,7.448451336700702
GUIDED_NOGPS,5.991796493530273,25.219187801387736,310.00749358478663,24.326819811581927,26.242938694984826,1.8100943260005415,300,0,50,0.15817344075787595,-0.1562053591011338,96.36111477286195,0.2956394437676219,-0.40113445944460424,-0.36201886520010834,0.5057541529774007,7.792226013779196
GUIDED_NOGPS,6.03944730758667,20.991356832206435,311.10717162861306,23.27151525917004,26.155011798737217,2.1056451386718713,300,0,50,0.19489123039496867,-0.33443869192536696,96.70179094828384,0.2917083858973446,-0.42752636160894675,-0.4211290277343743,0.5057964758272485,8.193296470370772
GUIDED_NOGPS,6.075912237167358,27.427913759392105,311.80839111287247,21.972259878185053,25.9889346890044,2.4667797316198,300,0,50,0.31966032367600145,-0.45950604569363246,96.99314632770908,0.2845496225954336,-0.44286534414355455,-0.49335594632396007,0.505842207706673,8.59436692696235
GUIDED_NOGPS,6.111406564712524,28.18165570344888,313.0604011351978,20.710403070055953,25.646785598050084,2.7729653665812863,300,0,50,0.3851811010843173,-0.6239677694799894,97.27955665017522,0.27872491338999333,-0.471378333420523,-0.5545930733162573,0.5059074776270263,9.052733163067007
GUIDED_NOGPS,6.149853944778442,26.01312345724953,314.6106493559824,19.494061126296003,25.15601695144829,3.066904081923633,300,0,50,0.4884314699418133,-0.7184008977275279,97.52436429040682,0.27362425907894405,-0.5051329520923044,-0.6133808163847266,0.5059883627423557,8.88084582452776
GUIDED_NOGPS,6.193881034851074,22.72091700478329,316.11048081905903,18.236173797411528,24.345164689361468,3.406535342560438,300,0,50,0.6971421473792747,-0.8452478092592726,97.92318586623304,0.26828900455061055,-0.5373496788605542,-0.6813070685120877,0.5061089533888767,9.453803619658583
GUIDED_NOGPS,6.234922409057617,24.365797407908726,315.7261023466371,16.18700244105614,23.15718365210519,3.797326392406676,300,0,50,0.8864337432327437,-0.973588611228546,98.35191001024558,0.2554984053079,-0.5279082654295759,-0.7594652784813353,0.5062712905917012,9.85487407625016
GUIDED_NOGPS,6.265180587768555,33.05464575616676,316.2661528908551,14.15569576054554,22.076036018130054,4.185664447597189,300,0,50,0.9250289544375172,-1.0531519907661435,98.57907527185102,0.24259207989229592,-0.5433942882276276,-0.8371328895194378,0.5064116948403123,9.969465635276325
GUIDED_NOGPS,6.304882049560547,25.19373866243798,317.58467158995825,12.11795027430272,21.295051739721746,4.4782310024827074,300,0,50,1.0227606371673488,-1.1830833196775308,98.97881209302602,0.23309210990411366,-0.5740944055395506,-0.8956462004965415,0.5065079103800241,10.255944532841736
GUIDED_NOGPS,6.340979099273682,27.71096532085968,317.667996394371,10.609183223721347,20.873919623458836,4.846938798218176,300,0,50,1.1199691700954395,-1.2858802280071615,99.28672385099937,0.22590490188625514,-0.5752117622786203,-0.9693877596436352,0.5065734854685409,10.255944532841736
GUIDED_NOGPS,6.380244016647339,25.470038135490295,318.25727739477657,8.904494033356428,20.37681855389013,5.209343635596566,300,0,50,1.1968173359945455,-1.3973702596029258,99.6754504072323,0.21637973373248012,-0.5911382051685102,-1.0418687271193132,0.5066591187017601,10.657014989433312
GUIDED_NOGPS,6.419531583786011,25.459834164936687,319.0611329714437,7.029151953098427,19.707243674725405,5.604941845797836,300,0,50,1.327441929106689,-1.556411107704967,100.02579130032976,0.2053388307767935,-0.6107591686526913,-1.1209883691595672,0.5067661747688144,10.427831871380983
GUIDED_NOGPS,6.451658487319946,31.134878334842703,320.76642412935576,4.409654758468428,19.159760876572715,5.991356846850121,300,0,50,1.415939302800369,-1.6314552498895434,100.31257045301109,0.18657678376398967,-0.6507963045272916,-1.1982713693700242,0.5068506062195373,10.370536091867901
GUIDED_NOGPS,6.482206106185913,32.745231830992516,321.1321709975428,2.408271967476053,18.777144104342536,6.311413055505222,300,0,50,1.5180012187422829,-1.6841030950639422,100.61475168227079,0.17624073365026924,-0.6565524116883837,-1.2622826111010443,0.5069126717340242,10.771606548459477
GUIDED_NOGPS,6.515711545944214,29.851210259987045,322.10204678550645,0.4582369775330119,18.327337444667965,6.613753440770688,300,0,50,1.6214958735843128,-1.7546964085089032,100.9072750240441,0.16548050227559863,-0.6805895948635569,-1.3227506881541378,0.5069903544816661,10.542423430407148
GUIDED_NOGPS,6.560727596282959,22.21841759545705,321.5433758652809,-0.905532580582222,17.710960027910037,6.923747456014729,300,0,50,1.7345097844169304,-1.8949053578521613,101.4015143425754,0.15993951909473042,-0.6691988226060713,-1.3847494912029459,0.507096060234083,9.740282517223996
GUIDED_NOGPS,6.591709852218628,32.28274991533512,323.62284447492857,-3.6973308510645126,17.051978458634974,7.334729628086354,300,0,50,1.7795698230319739,-1.9198131367644937,101.54644412657389,0.1369729562600384,-0.7216457585644946,-1.4669459256172708,0.5072002395731835,9.224620501606255
GUIDED_NOGPS,6.631635904312134,25.051987767584098,323.88616462616716,-5.872236887472187,16.728239763984458,7.586463956595279,300,0,50,1.821519030645194,-1.9777073142734027,101.94672053269332,0.1268681441119965,-0.7247055749318188,-1.517292791319056,0.5072593676806858,8.193296470370772
GUIDED_NOGPS,6.673696041107178,23.780199344589462,322.21822684517736,-8.60630593439096,16.282267791908023,7.8992279219579995,300,0,50,1.831080655152977,-1.993022732826687,102.20796160806796,0.10854128832804244,-0.6904457457121842,-1.5798455843916,0.5073489383131471,7.219268218648373
GUIDED_NOGPS,6.7118213176727295,26.23341922894098,322.10159171367366,-10.759492760751504,16.05598675709783,8.190699997780737,300,0,50,1.8616856656067464,-2.0416054415061646,102.45089777646699,0.09551290274788886,-0.6951590735084981,-1.6381399995561474,0.5074057867069928,6.302535746439056
GUIDED_NOGPS,6.750231504440308,26.04171090456411,323.89401140860366,-13.573229885398229,15.883342753239107,8.409776093451,300,0,50,1.8574402761507605,-2.0157574443658977,102.60399646671281,0.075668579592924,-0.7396533482014527,-1.6819552186902003,0.5074608313424264,5.328507494716656
GUIDED_NOGPS,6.788033485412598,26.45864637938974,322.4933855797347,-15.654983754229065,15.985064390000659,8.595030595675706,300,0,50,1.8430847126192744,-1.9999920871010386,102.74345526918614,0.06357307999491481,-0.7066113783416728,-1.7190061191351411,0.5074817766026848,4.239887683968092
GUIDED_NOGPS,6.824878215789795,27.14654447076489,322.18910519395246,-18.018480470401556,16.001728513022332,8.737565543589895,300,0,50,1.8060561226945198,-2.042978309529337,102.82748025635563,0.04692930496896776,-0.7067017017080364,-1.7475131087179792,0.5075199742509406,3.0366763141933633
GUIDED_NOGPS,6.861248731613159,27.502370382998812,323.8160827403986,-19.721426888287862,15.964755605092535,8.821732462522487,300,0,50,1.7291671891038052,-1.9554411110225727,102.87180818406901,0.03673325449109874,-0.7479994548785639,-1.7643464925044974,0.507562466108564,1.2032113697747289
GUIDED_NOGPS,6.893695116043091,30.829136346931275,323.1774521907506,-21.66837066950865,16.077125068548813,8.876322130707724,300,0,50,1.718145504939226,-1.9387927383640782,102.86021052285834,0.022025120639389405,-0.7318208689111876,-1.775264426141545,0.5075798054724538,0.6302535746439055
GUIDED_NOGPS,6.933377265930176,25.204790606277303,321.9139065364729,-22.802860729260924,16.180498627042226,8.86666797830154,300,0,50,1.6465121884714249,-1.817719951362786,102.77028425224594,0.016182695446097232,-0.7088075267644011,-1.7733335956603082,0.5076105634676791,-1.2032113697747289
GUIDED_NOGPS,6.970328092575073,27.067185513587464,322.05842679947943,-24.249013081945122,16.4467687018871,8.82271857148561,300,0,50,1.5555178470275763,-1.7856836961127815,102.66587798059314,0.004306514412627447,-0.7185425541316725,-1.7645437142971219,0.5076166469834215,-2.635605857601787
GUIDED_NOGPS,7.007980823516846,26.56236700780221,320.55959708712265,-25.027718459591,16.834754145422593,8.748576605950444,300,0,50,1.476736630871651,-1.7227334710707707,102.55353502912476,-0.0007922112708551371,-0.6873005616074518,-1.7497153211900889,0.5076122541921712,-3.0939720937064457
GUIDED_NOGPS,7.043721675872803,27.985907974805166,319.0355959946372,-25.705832708306716,17.262728089455862,8.624330849264956,300,0,50,1.3539400748785766,-1.6222468742278968,102.3547082223857,-0.00689703034940083,-0.6592389339127298,-1.7248661698529912,0.5076027769236604,-4.5263665815335035
GUIDED_NOGPS,7.0773162841796875,29.773654284355413,318.4328406221245,-26.06969994859678,17.805377703224327,8.467513666825,300,0,50,1.2118330799979955,-1.5725491371664146,102.12655941353975,-0.010362772079835507,-0.6521345167806687,-1.6935027333650003,0.507576747930759,-5.614986392282068
GUIDED_NOGPS,7.109649896621704,30.933498536038528,317.68800935452344,-26.34018379323157,18.35525077474526,8.282213330758896,300,0,50,1.116502955813364,-1.5368473114879349,101.90892909601564,-0.01377174411821899,-0.6389795517839016,-1.6564426661517793,0.5075512199081595,-6.589014644004467
GUIDED_NOGPS,7.145070791244507,28.236485303819794,316.24294746165407,-26.275638083449,18.743937252657954,8.072399732554674,300,0,50,0.984373053041173,-1.4636216004481686,101.65787183269347,-0.01461663371196662,-0.6106869826535861,-1.6144799465109347,0.5075521859667715,-7.448451336700702
GUIDED_NOGPS,7.188370227813721,23.09944045468564,315.34489010106125,-26.213677089160154,18.855051544483988,7.810202051502768,300,0,50,0.7340132160662961,-1.27517027794517,101.20688810217588,-0.01700034495627478,-0.5973386836482454,-1.5620404103005536,0.5075897401676799,-8.708958485988513
GUIDED_NOGPS,7.226947546005249,25.925332542154973,315.47087791031606,-25.736716143066698,19.244398536587024,7.483177433658734,300,0,50,0.538151405118098,-1.1099603816404322,100.80236331839271,-0.015435576496073777,-0.6046547428888018,-1.4966354867317468,0.507578968412648,-9.167324722093172
GUIDED_NOGPS,7.266936779022217,25.011055588021325,315.38513578694375,-25.378940262638796,19.671910255754174,7.153171693488408,300,0,50,0.39941628253168165,-0.96769757306941,100.39243585497604,-0.016057112527300684,-0.604855047872375,-1.4306343386976819,0.5075718872322257,-10.084057194302488
GUIDED_NOGPS,7.311532497406006,22.427274380006203,315.9378273855458,-24.542295635263894,20.647835631822332,6.79614368058062,300,0,50,0.19653549171594348,-0.8127160984901779,99.8806702710345,-0.012684732377740041,-0.6202062070992853,-1.3592287361161242,0.5075023967214815,-9.85487407625016
GUIDED_NOGPS,7.3495192527771,26.331575511024056,317.85617000695464,-23.75089404656804,21.524350428259396,6.3823546887595315,300,0,50,0.1508686601622531,-0.6557086724092436,99.50001699840053,-0.00988801436656658,-0.665100451469438,-1.2764709377519063,0.5074459231295918,-10.198648753328653
GUIDED_NOGPS,7.384814977645874,28.33855155499402,318.9616857840311,-22.467744074500697,22.60179134869503,6.016066792933792,300,0,50,0.06357945621929838,-0.6532188016525095,99.10721964942226,-0.0025517105116349254,-0.6879618772823032,-1.2032133585867584,0.5073598621538741,-10.198648753328653
GUIDED_NOGPS,7.426381826400757,24.06412043810278,318.70418587240704,-21.208347672227088,23.2761142419466,5.6762811429183335,300,0,50,0.04789574105936238,-0.6351368363202528,98.60543297185811,0.0023048750607073424,-0.6821632287649282,-1.1352562285836667,0.5073398573070743,-10.026761414789407
GUIDED_NOGPS,7.462836742401123,27.437243653062428,319.43660841876243,-19.494567636235814,24.200831595080626,5.2733477759343526,300,0,50,0.03316287627729943,-0.609634457424159,98.20335339579779,0.012515591897212176,-0.7022801370011627,-1.0546695551868706,0.5072667438005116,-10.255944532841736
GUIDED_NOGPS,7.5042948722839355,24.123634732295375,319.27293671336827,-17.731685651025657,24.846725848814145,4.913312013990615,300,0,50,0.014648607995348499,-0.6267571013431462,97.72334819149681,0.020901398124622224,-0.6998070530523749,-0.9826624027981231,0.5072431055460115,-10.427831871380983
GUIDED_NOGPS,7.540313482284546,27.770778571570453,317.67338732559864,-16.00414282233356,25.286191281714576,4.492139223570157,300,0,50,0.05215201612933814,-0.6039712167460135,97.34547480585502,0.030431347051986257,-0.6663108034359653,-0.8984278447140315,0.5072292142076568,-10.542423430407148
GUIDED_NOGPS,7.578064918518066,26.494245467753142,318.2470902818244,-14.70266239081576,25.362447203595252,4.12672359080641,300,0,50,0.03779166346130534,-0.5172430754907783,96.90631413279071,0.03559872846679045,-0.6864934023397664,-0.8253447181612821,0.5072594139288702,-10.657014989433312
GUIDED_NOGPS,7.6092846393585205,32.03935498162874,319.1988714208852,-13.47539765374814,25.552347100944463,3.750926871699962,300,0,50,0.03307118899181994,-0.4073040304451357,96.56482516485758,0.042390583817115406,-0.7094398969267403,-0.7501853743399924,0.507259361653967,-10.542423430407148
GUIDED_NOGPS,7.650014162063599,24.720071667688245,318.59810803139976,-12.131920956579611,25.783430302939706,3.4340285553318908,300,0,50,-0.017461898881453282,-0.3550865672297271,96.16633143811153,0.048706774491655544,-0.6958775998233193,-0.6868057110663782,0.5072657485871966,-10.657014989433312
GUIDED_NOGPS,7.682622194290161,30.430994703620403,319.0719531678484,-10.719017058564868,25.939334071656067,3.031639652258342,300,0,50,-0.1129602698352493,-0.22231606741858304,95.68316385622482,0.05722623486151972,-0.7108133583276931,-0.6063279304516684,0.5072752642211524,-10.370536091867901
GUIDED_NOGPS,7.71970009803772,26.976138717021907,319.97518521833564,-9.285009351245963,26.1010736730656,2.7066537366721426,300,0,50,-0.22747619529524835,-0.05038115618488011,95.28741586552512,0.06462120808636317,-0.7328543718456773,-0.5413307473344285,0.5072860413558741,-9.969465635276325
GUIDED_NOGPS,7.755527019500732,27.927954562100904,320.3215391005966,-7.857224783049763,26.635326410818333,2.3571323972745555,300,0,50,-0.35499657415132685,-0.05838109529153688,94.97321350332619,0.07265132110090042,-0.7412217254872467,-0.4714264794549111,0.5072470400203035,-9.568395178684748
GUIDED_NOGPS,7.798486948013306,23.277247778721232,320.7634006880712,-6.4373687741856145,27.13289721867163,2.036629276666724,300,0,50,-0.6219460868465185,-0.03003767786583514,94.48231414729904,0.07979878692405451,-0.7536949407862311,-0.40732585533334487,0.5072302847178907,-9.511099399171666
GUIDED_NOGPS,7.830626010894775,31.12586732762907,321.14920408760435,-4.449365366503938,27.84017674218678,1.6397520445082097,300,0,50,-0.72560690738445,-0.023478188302537034,94.1743545780015,0.09429893641760775,-0.7643003106204698,-0.32795040890164195,0.5071703054717455,-9.339212060632418
