Mode,Time,Freq,North-Vision,East-Vision,Down-Vision,Yaw-Vision,North-Desired,East-Desired,Down-Desired,Roll-UAV,Pitch-UAV,Yaw-UAV,Roll-Control,Pitch-Control,Yaw-Control,Thrust-Control,northVraw,eastVraw,downVraw,N-Velocity,E-Velocity,D-Velocity,yawVraw,yawRate,Q-Size
GUIDED_NOGPS,0.009488821029663086,105.58880245701482,-22.701724519854228,36.307939342577164,102.75683796832497,-5.7821975206836775,-27.902868729154115,44.53954920374028,104.18703124140436,-0.6396714949597594,0.0987090267711648,27.40779548819177,0.3973577877502225,0.2472884472324866,-2.8910987603418388,0.502145289909619,-33.02419521205745,53.86674657492108,109.58375127285339,-12.99535185098648,19.89201456308365,24.70305562019348,-5.637395958347531,-4.485945730346137,3
GUIDED_NOGPS,0.01653456687927246,142.04978494259493,-30.28218712075575,49.99575486192592,114.73009798225856,-6.235126562102387,-27.90285834301819,44.53954937513142,104.18699246042169,-0.5989565238739019,0.1005817926044309,27.485545239061317,-0.2582897202139221,-0.10342232810880024,-3.1175632810511935,0.4841853417172447,-33.09120173415434,54.76621083025802,110.64479148275822,-12.99535185098648,19.89201456308365,24.70305562019348,-5.761381073422883,-4.485945730346137,2
GUIDED_NOGPS,0.0218355655670166,188.75406147338103,-31.101822905824818,50.91933223223699,114.22475710836542,-6.249727992946284,-27.902786057319105,44.53955056798396,104.18672255152947,-0.5989565238739019,0.1005817926044309,27.485545239061317,-0.30453792897075094,-0.14364809268005332,-3.124863996473142,0.4849429481647461,-34.575384877245355,55.30005644145385,110.8000476393805,-20.40542960166931,17.671996355056763,31.20952546596527,-6.01278139201928,-6.270511943477682,1
GUIDED_NOGPS,0.03646516799926758,68.38241815573235,-31.63947725336237,51.56272120551225,113.82429285555509,-6.248221726537556,-27.902591116154827,44.53955378488668,104.18599465715523,-0.6649677408811363,0.058416086670819975,27.489848258238425,-0.33653408202803464,-0.169911026254029,-3.124110863268778,0.4855425527024002,-34.575384877245355,55.30005644145385,110.8000476393805,-20.40542960166931,17.671996355056763,31.20952546596527,-6.01278139201928,-6.270511943477682,1
GUIDED_NOGPS,0.04886579513549805,80.6752067705328,-32.29966795280208,53.15884401461707,114.16239100740286,-6.241308688305437,-27.902214003611164,44.5395600079662,104.18458654973985,-0.49536123046332015,-0.05833283707020383,27.706771651183445,-0.41186289461983067,-0.1982589588551234,-3.1206543441527184,0.4850332933135055,-36.69884650059623,62.86352299382085,113.9075696661209,-15.291523933410645,15.649159252643585,30.996888875961304,-5.696550490170347,-5.997124230437812,0
GUIDED_NOGPS,0.07024669647216797,46.78688634310127,-32.891510365412095,54.39966937439102,114.4189825111404,-6.2464380778059665,-27.901596435355085,44.53957019902569,104.18228060034754,-0.5102375959190195,-0.10177772270952443,27.844048208216947,-0.47093127403609997,-0.2245386150273092,-3.1232190389029832,0.48464494713381073,-36.69884650059623,62.86352299382085,113.9075696661209,-12.943829596042633,15.276306867599487,29.35071587562561,-5.696550490170347,-7.226136089972036,0
GUIDED_NOGPS,0.10565400123596191,28.24675394644685,-33.92750068760115,55.891877170851444,114.94844104191199,-6.338914113633832,-27.90068135022802,44.5395852996836,104.17886374727598,-0.22364638016157526,-0.2798922409246898,28.12336367168274,-0.5443278295384878,-0.2730455208818268,-3.169457056816916,0.483845634058046,-40.619057529246845,66.15320284624542,115.14841439951041,-15.609441697597504,15.208089351654053,21.527548134326935,-6.038502846841805,-7.461766517280075,0
GUIDED_NOGPS,0.14157605171203613,27.84304405839048,-35.154713371186574,57.39884671370357,115.90496772842329,-6.574674829324357,-27.899412901839156,44.53960623151238,104.17412746466643,-0.19928085423631836,-0.3026346097462902,28.4132778811931,-0.6205496904670852,-0.3301611033834484,-3.2873374146621783,0.4824037396043647,-41.91578850479101,66.43699246476994,115.79902668776231,-18.302656710147858,14.353956282138824,30.378133058547974,-6.536102295534159,-9.831342701691442,0
GUIDED_NOGPS,0.17304182052612305,31.787070860174307,-36.288444788048125,58.71624616608085,116.66155531215011,-6.825843884319282,-27.89773645015875,44.53963389617721,104.1678677311137,0.000668718208426561,-0.49002060950175197,28.77228457680002,-0.688274593479548,-0.38239668167241536,-3.412921942159641,0.4812594686284454,-43.00718936448392,66.85155429636805,115.35083189267229,-14.079676568508148,12.936343252658844,23.011378943920135,-6.584942912883122,-11.073750696622177,0
GUIDED_NOGPS,0.20977139472961426,27.23043562942284,-37.32102309016087,59.70039003382667,117.36368592993917,-6.987773390798411,-27.89559855311142,44.53966917557473,104.15988499827633,-0.0014003755428377315,-0.6758355857068316,29.092821939454133,-0.7402319745848425,-0.4315490388274243,-3.4938866953992056,0.48019429860250573,-43.99071023567238,65.64639650886852,115.69843994580104,-14.477823674678802,11.889631301164627,28.616490960121155,-6.928302971268359,-3.829773725651244,0
GUIDED_NOGPS,0.24168992042541504,31.336790042287404,-38.05311863260032,60.02685098739028,118.18528339042739,-7.22894365256517,-27.892946958169457,44.539712931971756,104.14998415948662,0.015861593563047227,-0.8303808886745349,29.266223367007832,-0.7616990165229515,-0.4666709517689234,-3.614471826282585,0.4789470511535889,-41.16482966732673,58.21446119439045,117.2368174463058,-14.477823674678802,11.889631301164627,28.616490960121155,-8.031984318501554,-3.829773725651244,0
GUIDED_NOGPS,0.27912425994873047,26.721269072723217,-38.76269924658962,60.267321202706384,118.85987103684512,-7.491609342539828,-27.889730593946126,44.539766008144035,104.13797451836074,-0.08187241036388503,-0.9558728080688255,29.44635936108316,-0.7796682592783244,-0.5006327678318772,-3.745804671269914,0.4779171552222734,-41.9871992029847,58.09853424984969,117.45934134425484,-17.640772461891174,11.916164308786392,26.419082283973694,-8.37996825389161,-6.698751570945964,0
GUIDED_NOGPS,0.3076472282409668,35.061809305669335,-39.73800305864195,61.24009916895828,119.68928779290336,-7.739778986447855,-27.885899561788968,44.53982922751493,104.12366975740878,-0.2718627132251051,-1.0027557601403219,29.5503728968587,-0.8324552941579453,-0.544717882668024,-3.8698894932239276,0.47665157294675814,-46.04798436395681,67.73383878139754,118.36602809186311,-17.640772461891174,11.916164308786392,26.419082283973694,-8.030865744048493,-6.698751570945964,0
GUIDED_NOGPS,0.34320783615112305,28.125152551465163,-40.485761936161126,62.041090359811,120.10467484330033,-7.883918510217827,-27.881405127373096,44.539903394294186,104.10688790664481,-0.266760348471694,-1.217117938868293,29.741461099268147,-0.8751987330953774,-0.5786611560974623,-3.9419592551089133,0.47600331959501674,-46.04798436395681,67.73383878139754,118.36602809186311,-9.1960608959198,11.575793474912643,10.404941439628601,-8.030865744048493,-2.787834771068146,0
GUIDED_NOGPS,0.37723755836486816,29.389782290330945,-41.51115141562228,62.91138142795274,120.71691110746279,-8.077757347454714,-27.87619971229451,44.539989293616614,104.08745131219708,-0.3498079248987915,-1.0949723852804853,29.872935410601723,-0.9238869893317524,-0.6263147384737868,-4.038878673727357,0.4750558103071014,-50.051461169679335,68.86849121395187,118.10479440520044,-10.516858100891113,10.962869971990585,20.231492817401886,-8.291508794444837,-4.133677443242261,0
GUIDED_NOGPS,0.41103172302246094,29.598842666102115,-42.24900619886493,63.68366360679121,121.3407306875906,-8.270383969628519,-27.870236885663388,44.540087691680874,104.06518660491791,-0.3360402912444556,-1.2122247486582134,29.942091075948102,-0.9662589944466098,-0.6586912871880932,-4.135191984814259,0.47408668387599096,-47.251196952425104,68.8841544297149,119.64460036044724,-10.516858100891113,10.962869971990585,20.231492817401886,-8.674703715370383,-4.133677443242261,0
GUIDED_NOGPS,0.45168423652648926,24.603053748555542,-42.777472515272756,64.41868579845266,121.87160777384173,-8.508464107574595,-27.8634713556974,44.540199335888154,104.03992466899392,-0.4777074859755115,-1.1613222302601645,29.928177980608787,-1.0060501666314687,-0.678891260390583,-4.254232053787297,0.4732524753427283,-45.62720971665735,69.09666336319863,120.96913820525162,-6.87660351395607,12.002494186162949,12.010528147220612,-8.93906797480205,-7.00445376272281,0
GUIDED_NOGPS,0.4784550666809082,37.35941355138106,-43.737433755521984,65.0788491999923,122.3444069886051,-8.630120697522626,-27.855858961314997,44.540324954980896,104.01150061055607,-0.7102072854053042,-1.2042872150690123,29.82940319992665,-1.0448402152647045,-0.7249106976904768,-4.315060348761313,0.47250064043292644,-51.03672474539367,69.91573973244246,118.58801489639055,-18.93128752708435,7.699413597583771,20.95540314912796,-8.722243980746423,0.00908599254554169,0
GUIDED_NOGPS,0.512321949005127,29.532984558621614,-44.51651423191994,65.58235726410578,122.47794910215629,-8.694949564186393,-27.847356663728725,44.54046525918157,103.97975372628969,-0.7155022828376508,-1.1646550424100133,29.738022099021048,-1.0745993845636521,-0.7631229218928417,-4.3474747820931965,0.4722527069362001,-52.73635124704617,69.05587750091863,117.46734167949087,-8.77024382352829,8.515053242444992,11.517629027366638,-8.634171070583541,-0.2394890573022727,0
GUIDED_NOGPS,0.5518763065338135,25.28517000241138,-45.19567232180805,66.07281301169489,122.86008175839355,-8.765102251237707,-27.83792253803853,44.54062094033136,103.94452747204463,-0.6964182006881063,-1.0684464918650947,29.597251900227082,-1.1031099448047192,-0.7958747655635359,-4.382551125618853,0.47162666857047664,-50.961321668554575,68.35592478230882,118.75914153158864,-6.894577294588089,7.559037953615189,16.6623055934906,-8.791561315071796,0.7139572727030528,0
GUIDED_NOGPS,0.5796160697937012,36.05615205412329,-45.87264228843988,66.53751137096035,123.13608208672024,-8.763480616806316,-27.827515764825044,44.540792672028886,103.90566943144528,-0.5909051715854848,-1.0496817210592482,29.484663061948595,-1.1295070063850612,-0.8300855491731148,-4.381740308403158,0.47115438101708756,-52.75043322166209,68.73897407683641,118.39575190728402,-4.038219898939133,7.129950821399689,12.926679849624634,-8.899532781834882,4.9983507907487255,0
GUIDED_NOGPS,0.6133131980895996,29.856097491529283,-46.42075159389019,66.91034664938866,123.28226237357374,-8.749774224156104,-27.816096621742908,44.54098110976896,103.8630312845007,-0.5458984404624792,-1.088177734438498,29.28165276434289,-1.1505636854744539,-0.8582207393133604,-4.374887112078052,0.47087115336639046,-52.876281442138925,69.45098503712151,118.5526821050632,-3.7893880158662796,6.106748059391975,12.92726993560791,-8.868217324340145,3.691201140222733,0
GUIDED_NOGPS,0.6493558883666992,27.745243828222158,-47.09879932491868,67.3272954323947,123.5164574792965,-8.624702861599634,-27.803626475114054,44.54118689108128,103.81646877621469,-0.6739010947069841,-1.1689498440157762,28.98858300743598,-1.1729242125693722,-0.895466986179319,-4.312351430799817,0.4704500169453773,-52.93732601134828,69.90757166410758,118.98137391037402,-9.682833403348923,3.937644883990288,10.302629321813583,-8.780098304770624,11.405643248771437,0
GUIDED_NOGPS,0.679976224899292,32.663120760682496,-47.84576050794946,67.77154491308087,123.63635697153069,-8.557675848439844,-27.79006777152103,44.5414106356692,103.76584168519578,-0.7133566429429148,-0.9840129740058664,28.691425382310822,-1.197858854850038,-0.9352281128723129,-4.278837924219922,0.47019422707049763,-55.44884461243169,70.62706490757502,117.60318181273409,-5.851194262504578,3.233013302087784,6.17232508957386,-8.234795520189735,5.624153639959627,0
GUIDED_NOGPS,0.7151987552642822,28.395147313691506,-48.32910732322005,68.17980719243037,123.6356215882631,-8.396970059584355,-27.77538402940029,44.54165294554842,103.71101379226748,-0.6847259840461023,-1.0298534684552896,28.416097041773025,-1.2173950738903048,-0.9630010265410265,-4.198485029792177,0.47011308830600657,-54.898842062565976,71.39267365941458,118.38490494869798,2.281467616558075,4.717651382088661,2.5868309661746025,-8.076461452801546,10.083298988663104,0
GUIDED_NOGPS,0.7497358322143555,28.959387989008107,-48.832332385640406,68.57366547682277,123.76657841891213,-8.182850568997205,-27.759539830635486,44.541914405185715,103.65185284907821,-0.7173278643367483,-0.8623423320087864,28.036668080547766,-1.2353827185820314,-0.9932809809448807,-4.0914252844986025,0.4698279116452491,-53.893580187505265,71.30789084921147,119.20091815709074,-2.0125264301896095,3.1898178160190582,5.469439923763275,-7.9909565120669495,13.26488135877779,0
GUIDED_NOGPS,0.7863559722900391,27.31289030703611,-49.472915864675024,68.85699466885758,123.81202181025469,-7.977461677818333,-27.742500812150798,44.54219558163767,103.58823054671142,-0.8848339848630797,-0.818427844183601,27.66634205393885,-1.249447757179303,-1.0317545911084844,-3.9887308389091665,0.4696643131046851,-55.69167910030775,70.19951239769415,117.34546419064016,-8.507957309484482,1.8748905509710312,8.322753757238388,-7.494416610296384,10.80479236125906,0
GUIDED_NOGPS,0.8186295032501221,30.99018050434821,-49.902984026006585,69.08950196502775,123.81822065936144,-7.751518388534036,-27.724233657504218,44.542497024689425,103.52002248429572,-0.8739715294835265,-0.7230472939929877,27.273245884184394,-1.2590490184554304,-1.0596974504167076,-3.875759194267018,0.4695527027374014,-55.69167910030775,70.19951239769415,117.34546419064016,2.0356830209493637,1.284871157258749,7.86832869052887,-7.494416610296384,12.140462320438088,0
GUIDED_NOGPS,0.8482904434204102,33.719793869134236,-50.20382652536747,69.35937647946648,123.72975813204197,-7.50894011088932,-27.704706088480844,44.54281926699337,103.4471081376149,-0.8848395343917804,-0.7514575192065086,26.750762025887806,-1.26887968758128,-1.0809025958947274,-3.75447005544466,0.46957602500835943,-53.34762694709731,71.71524050453101,119.45073934275959,-0.7222020532935858,1.770293340086937,-2.4885522201657295,-7.1623423579852545,12.523296984738241,0
GUIDED_NOGPS,0.8830838203430176,28.746223647778052,-50.53823835216085,69.58573015094548,123.6516947271821,-7.161925774668159,-27.68388685668621,44.543162824207876,103.36937082771806,-0.9927568968039521,-0.4558462382372692,26.32272943852874,-1.2748368682648492,-1.106685028267744,-3.5809628873340795,0.4695765141508039,-54.37768137748732,71.3080343200383,118.36745088358046,0.05804216489195824,0.388621399179101,0.9353090077638626,-6.80756935793924,18.216549940983594,0
GUIDED_NOGPS,0.9157729148864746,30.596151321068525,-50.92953232898389,69.83573503870421,123.56997853775435,-6.821588486368592,-27.661745735139572,44.54352819513605,103.28669768952962,-1.1717080665016977,-0.4079874228881072,25.837649403674437,-1.2820958398467917,-1.1354816294917014,-3.410794243184296,0.4695750787276629,-54.619455717920076,72.3018402072207,118.3861910578866,-2.5053314864635468,-1.9457634538412094,-1.2848738580942154,-6.334348317126848,16.009481886173404,0
GUIDED_NOGPS,0.9492526054382324,29.874385675009616,-51.29872289330987,70.03413722145531,123.4529536620485,-6.465993889513675,-27.6382535098672,44.54391586186442,103.19897964045944,-1.0366254942956514,-0.3733111661217607,25.288520977425627,-1.2863102047904071,-1.163873485916135,-3.2329969447568376,0.4696190389676164,-54.941180515570714,71.92765527673501,118.16177680247898,-2.5053314864635468,-1.9457634538412094,-1.2848738580942154,-5.840696424054437,16.009481886173404,0
GUIDED_NOGPS,0.9844541549682617,28.412843788104592,-51.50318617289825,70.24976145497696,123.34242428397278,-6.142471478859332,-27.61338197149571,44.54432628990172,103.10611134901293,-1.1216511041785553,-0.22329601280149475,24.78066396923662,-1.2906965561252295,-1.1826228189695471,-3.071235739429666,0.46964553059756026,-53.41608106308268,72.23732151171654,119.1753683283626,3.1693201512098312,-1.1253869161009789,-4.059918969869614,-5.445629703485406,12.980304088330149,0
GUIDED_NOGPS,1.015871286392212,31.834357970156503,-51.75494569525654,70.44954429865463,123.22258208508146,-5.7280731417645345,-27.587103906845332,44.54475992831753,103.0079912034011,-1.028944519687149,-0.21966091142001992,24.17430880302686,-1.2925615974500428,-1.2062472856853708,-2.8640365708822673,0.46967811367747947,-54.77591661686138,72.61621357356444,118.13816921359916,2.931884489953518,-2.294715493917465,-1.8788300454616547,-4.86277756084449,16.732720372102296,0
GUIDED_NOGPS,1.0516548156738281,27.94991503681738,-52.03985446976562,70.56360240934323,123.03830665452911,-5.289014171062156,-27.55939309052324,44.5452172098811,102.9045212801506,-1.0706018434350568,-0.15088634928498637,23.484601423280854,-1.2899554511369682,-1.2327663496470602,-2.644507085531078,0.46979932193843227,-54.8065090443034,72.52441673540187,117.95835452919178,-1.7373530194163322,-5.664258450269699,-3.2036103308200836,-4.672968541930718,19.510454147161642,0
GUIDED_NOGPS,1.0846667289733887,30.29756495734522,-52.348336114732206,70.64734230531994,122.76782509020997,-4.85014208324572,-27.53022427651685,44.545698551200005,102.79560731271387,-0.9493839149139017,-0.16067702525380298,22.883225464976032,-1.2857783796864197,-1.2607983420652429,-2.42507104162286,0.47004167333375585,-55.97637348019568,72.14326949563873,116.7870015909701,0.39529050700366497,-6.781546771526337,-6.366349011659622,-4.343666453802474,17.626435257072835,0
GUIDED_NOGPS,1.1172478199005127,30.698490071653893,-52.666867774116625,70.70080842925816,122.4716824560073,-4.357413261142583,-27.49957318978711,44.54620435285889,102.68115866007916,-1.0534072690863727,-0.019302654873091553,22.253994287688606,-1.2787239157728758,-1.2907774118248823,-2.1787066305712917,0.4703142143061078,-56.444111177731564,72.22992871019426,116.0140552417368,-1.4305554330348969,-6.9865018129348755,-4.473856836557388,-3.1071104902089592,19.019390866594403,0
GUIDED_NOGPS,1.151979923248291,28.795957598725764,-52.914751124225965,70.7646482677266,122.19009875897149,-3.926636834492058,-27.467416517861807,44.546734999558225,102.56108827538068,-1.0196014612328061,-0.10531725480347197,21.72374108921113,-1.2728801535192893,-1.3155258371174323,-1.963318417246029,0.4705564842746138,-55.34073853285511,72.5069232639978,116.55648908616133,-0.9142657741904259,-6.524607539176941,-5.481540039181709,-2.5633664253154107,14.433683820117883,0
GUIDED_NOGPS,1.18721604347229,28.386307340380892,-53.07938069718902,70.84588923948155,121.81822328798773,-3.3936632816310093,-27.433731902428885,44.54729086025299,102.43531267450858,-1.0037351452342782,-0.1989590882933873,21.185776607160708,-1.2648581793963167,-1.33798248688879,-1.6968316408155046,0.4709256340797813,-55.24519785382239,72.99894388232693,116.62876835381192,3.930908814072609,-6.379513442516327,-11.846280843019485,-1.959757664290942,18.82209914487129,0
GUIDED_NOGPS,1.2274863719940186,24.834384307038267,-53.14171411636033,70.82304210677547,121.5437690797866,-2.884193983854057,-27.39849793092972,44.54787228829144,102.30375190471912,-0.9694078951262635,-0.19976208908811335,20.328463215371755,-1.2521281678955372,-1.3545889158952853,-1.4420969919270286,0.4711399742373988,-52.85881406037072,71.28416253789798,117.80543581996392,2.2549619898200035,-7.1446627378463745,-9.003635495901108,-1.2889138003666223,16.046703002055388,0
GUIDED_NOGPS,1.259521722793579,31.220627642470077,-53.28107499228208,70.80758981283276,121.22820437377037,-2.2896865390027545,-27.36169412815246,44.54847962155378,102.16632951324469,-0.9827327404233122,-0.1736589203493229,19.840562312390233,-1.2376706398949147,-1.3772181801252261,-1.1448432695013773,0.4714071877092115,-53.229787279871374,71.5683704691313,117.56610199098003,0.7392083294689655,-8.557437360286713,-11.606892943382263,-0.9600809456794839,18.093256488728404,0
GUIDED_NOGPS,1.3036000728607178,22.689329106665657,-53.287651226461335,70.39782897887355,121.01370205704393,-1.847622030181954,-27.323300947825285,44.54911318259097,102.02297251590394,-1.0585284168600013,-0.2217026043733248,19.19811301151154,-1.2086296030524357,-1.389793777967483,-0.923811015090977,0.47151390568829005,-51.15622062263624,64.0229783876457,118.23400730670956,-1.406097412109375,-9.242821484804153,-6.065640598535538,-1.2592131444367909,15.717795242573423,0
GUIDED_NOGPS,1.3351671695709229,31.685734143172272,-53.462730103439995,70.02140478516186,120.75414091867641,-1.3917874679116211,-27.283299764209737,44.549773278763375,101.87361136571184,-1.1479281225760636,-0.28774834585237963,18.72554417566941,-1.1808580651494518,-1.4116033920471203,-0.6958937339558106,0.47167920567055316,-52.69733676832668,64.54822690213607,116.82372051425612,-7.836207747459412,-9.326650947332382,-5.071820691227913,-0.4161009666950793,14.641809929411927,0
GUIDED_NOGPS,1.3619287014007568,37.37639237911922,-53.53316617047822,69.61712327827075,120.48711932106274,-0.9478326262144187,-27.241672863694024,44.55046020237952,101.71817992148969,-1.1893280335696266,-0.3237615054270503,18.418622795125714,-1.1517658247452702,-1.427174848020698,-0.47391631310720933,0.47184659090064046,-52.80273361488977,64.00544892497989,116.37652080246306,-1.676267571747303,-9.901192039251328,-4.586658626794815,0.33578263693696,13.975622306072855,0
GUIDED_NOGPS,1.3935420513153076,31.63626215313134,-53.62206368326882,69.62051173753125,120.1779796305485,-0.5352003245480736,-27.19840343638631,44.55117423083484,101.55661541647532,-1.2265538452066653,-0.3450131054210161,17.83305530965489,-1.1416460729387845,-1.4427002842993695,-0.2676001622740368,0.4720679536788902,-54.5662783515616,73.16047577974476,115.65088872455769,0.1211344264447689,-10.472611337900162,-5.823864787817001,1.658365267526726,12.166619383638299,0
GUIDED_NOGPS,1.4444324970245361,19.65253979186873,-53.769021469091584,69.55541807427777,119.86905007698707,-0.07310086807084108,-27.15347556770802,44.55191562675036,101.3888584269331,-1.2312696639417362,-0.3541415198446059,17.104190455397195,-1.127024354522817,-1.4624183002623483,-0.03655043403542054,0.47227971252491907,-55.45471754967151,72.30265625044977,115.13350146204426,0.14346730895340443,-12.319699674844742,-4.8738084733486176,1.9284402773061544,12.419505430110728,0
GUIDED_NOGPS,1.4606080055236816,61.84555950397381,-54.089554493465705,69.48132076533547,119.76325138751069,0.6310061918130173,-27.10687422998715,44.55268463811147,101.21485284076401,-1.1562372611447957,-0.37757784655805016,16.882608873438226,-1.10537691092113,-1.4963115765331088,0.31550309590650866,0.47217740217987997,-54.40452629749976,72.5391055249383,116.27168704378983,-8.084994554519653,-12.567876279354095,5.473967269062996,2.24527382945827,14.35359814455219,0
GUIDED_NOGPS,1.4948804378509521,29.183248331860593,-54.06444998636565,69.43491362712332,119.49164552276615,0.8967471714961529,-27.058585274051563,44.553481498406626,101.03454582611576,-1.1235031526606865,-0.2949421625544162,16.481085957795273,-1.096281194681091,-1.5026640070756996,0.44837358574807645,0.4723143504550244,-54.03810059180513,73.16960174239773,116.12208075146748,0.5219721235334873,-14.034855365753174,-7.034555822610855,2.9639755989797756,10.880269366682287,0
GUIDED_NOGPS,1.527602195739746,30.564045762588357,-54.119452265489976,69.32182550745,119.21309113750945,1.3601880252115701,-27.008595420822292,44.55430642676606,100.84788779999283,-1.002656615675651,-0.2576661917156601,16.152514585129932,-1.0788293474371595,-1.5171333601549981,0.6800940126057851,0.4724521949937251,-53.76809539656118,72.26383494837162,115.38031588777773,0.9772583842277527,-14.208492636680603,-4.805862903594971,3.697111319177664,9.302117446684052,0
GUIDED_NOGPS,1.5632977485656738,28.02161931040012,-54.17541997532625,69.20689809444885,118.95750740780582,1.7786517041153633,-26.956892252906854,44.55515962810055,100.6548323968666,-0.9894914260504513,-0.28162772262368124,15.855606261909477,-1.0623287610930785,-1.5307294626513828,0.8893258520576817,0.47254598748359117,-53.76809539656118,72.26383494837162,115.38031588777773,-0.11110934428870678,-14.220279455184937,-3.893858566880226,3.697111319177664,8.663747476287151,0
GUIDED_NOGPS,1.5946824550628662,31.866525858335677,-54.21164696486871,69.08564856548286,118.76657028197289,2.2111206749994365,-26.90346420619253,44.556041293240106,100.45533643728534,-0.9196828373081013,-0.2870485983079971,15.552164862747906,-1.0450625924017054,-1.5434195614058175,1.1055603374997183,0.4725331492329687,-53.02374817331024,72.41967936038142,116.24762433916251,-1.2132611125707626,-14.765559136867523,-2.609585039317608,4.274365392670191,8.498808653115097,0
GUIDED_NOGPS,1.6284477710723877,29.622255337481374,-54.21071907162841,68.97697218601436,118.58144523423084,2.613823186872479,-26.84830056143969,44.55695159907273,100.24935989648439,-0.7703070804075984,-0.27809702175088713,15.2809380508067,-1.0291266627695974,-1.5534815566639362,1.3069115934362394,0.47250187199338034,-53.44649944411439,72.75593795806716,116.33391883688398,2.0284298807382584,-14.87007737159729,-3.019970655441284,4.631803375102365,7.8377283037279035,0
GUIDED_NOGPS,1.6628425121307373,29.077437155969662,-54.10012645260453,68.79753989727335,118.39754119779862,3.033677894972453,-26.791391435875084,44.55789070868311,100.03686587299622,-0.7221390922767876,-0.2704500646861025,15.090293810693304,-1.0097663805381552,-1.5576030485889376,1.5168389474862265,0.4724589870127964,-51.66620141241377,71.57432619192778,116.96725635970296,4.1840024292469025,-15.743400156497955,-4.981662333011627,5.266485630765672,7.518788351565926,0
GUIDED_NOGPS,1.6953885555267334,30.72975309546487,-54.10986404334487,68.64130096897082,118.3073721856156,3.385550964964054,-26.732727774785147,44.558858771491366,99.8178205572604,-0.6013842825978711,-0.2174464093446284,14.91852650589853,-0.992897487196029,-1.5671126907223714,1.692775482482027,0.4722656725574672,-51.66620141241377,71.57432619192778,116.96725635970296,-4.202123358845711,-14.126333594322205,0.695630582049489,5.266485630765672,4.365965346725225,0
GUIDED_NOGPS,1.728985071182251,29.770273051835133,-54.10308887636617,68.54581051173047,118.2546469914351,3.7074767904402517,-26.672301343109304,44.55985592339178,99.59219320023385,-0.7119156864714536,-0.2696326831415224,14.779644854410076,-0.9795531158016011,-1.575330567052617,1.8537383952201258,0.47200631931319814,-51.82013609326308,73.11639077424395,117.82900090695503,-2.95895803719759,-14.946062862873077,0.027549592778086662,5.908511532055079,3.1069986253688517,0
GUIDED_NOGPS,1.7657790184020996,27.182434446734327,-54.074196340314714,68.44393878135426,118.1571183497441,4.00568861023721,-26.610104717033266,44.56088228689151,99.35995608200079,-0.713332630559114,-0.2887512630824608,14.732212605718923,-0.9665935801012561,-1.5819113533708749,2.002844305118605,0.47180425659838504,-51.82013609326308,73.11639077424395,117.82900090695503,-1.38125941157341,-15.088948607444763,-2.953435853123665,5.908511532055079,2.3355146713507486,0
GUIDED_NOGPS,1.7966012954711914,32.45260128129739,-54.0311894002049,68.26368841367707,118.06681758259124,4.274789303762779,-26.546131275582344,44.56193797124933,99.12108448038288,-0.6580327509960462,-0.2719619910919083,14.751579607110495,-0.950931163081453,-1.5869754775503526,2.1373946518813893,0.47158140034668744,-50.95848102311393,71.11300910986466,117.41533089613009,-2.974020689725876,-14.357815682888031,-1.5307003632187843,5.990982397413132,1.576803597967392,0
GUIDED_NOGPS,1.8318700790405273,28.35675266374601,-53.9825989001889,68.10423434375411,117.93365595277997,4.460335208569111,-26.480375192214737,44.56302307261433,98.87555663954927,-0.8107521522995347,-0.2775742988359696,14.760779871922502,-0.9385111395290988,-1.5904260584132592,2.2301676042845555,0.47141285103015396,-51.26955800480138,71.1413423099842,118.19369682643966,-2.2975796833634377,-14.354099333286285,-7.1267567574977875,6.271009669529449,-1.6900701190775944,0
GUIDED_NOGPS,1.864396333694458,30.75431328410849,-53.94480830511621,67.92600826200143,117.7945929096648,4.660825264272991,-26.412831426414854,44.56413767416469,98.62335373862669,-0.8508864505842354,-0.33915520435152524,14.819277027069075,-0.9247635531718356,-1.594675605477179,2.3304126321364955,0.47124314124344285,-51.26955800480138,71.1413423099842,118.19369682643966,-2.2975796833634377,-14.354099333286285,-7.1267567574977875,6.271009669529449,-1.6900701190775944,0
GUIDED_NOGPS,1.8972117900848389,30.478980910233773,-53.93229355435489,67.74191688646319,117.90749620015062,4.831679892041822,-26.343495715286597,44.56528184624635,98.36445986030955,-0.9753956231508375,-0.26569627970420007,14.927600412210893,-0.9114349580901295,-1.5998380836230914,2.415839946020911,0.4706854454902384,-51.01800154172262,70.34549732612695,118.20375359943617,-5.252162367105484,-13.859076797962189,8.15335065126419,6.28975138280307,-1.1331966851968156,0
GUIDED_NOGPS,1.930534839630127,30.013123528612013,-53.8649184628337,67.61134539458362,117.90919381092496,4.946405036608495,-26.27236456514667,44.56645564651179,98.09886195946997,-1.0403349273452032,-0.26858219471108913,15.051460770167196,-0.9023054554885817,-1.6013545026445097,2.4732025183042476,0.47028450222281754,-51.31990975215041,72.04541036089289,118.09573046939369,-0.3805474378168583,-14.751636981964111,1.4759455807507038,6.485589038318832,-5.037561626113299,0
GUIDED_NOGPS,1.9704933166503906,25.029413695360287,-53.79550212508292,67.50366974675079,117.93142694401344,5.081705013523587,-26.199435243117893,44.567659120058714,97.82654983176793,-1.1091753367727037,-0.4233374192740646,15.245212746352948,-0.8936240401050031,-1.6032392370491926,2.5408525067617935,0.46984268433163173,-51.832284204858695,72.67846849478443,118.46823366912258,1.260661520063877,-15.056091547012329,1.57250314950943,6.5216047167955296,-3.0156668298913223,0
GUIDED_NOGPS,2.0008039474487305,32.99951220279775,-53.7071524981958,67.26808331637197,117.94281193532558,5.2313741318184555,-26.12470576872249,44.5688922995688,97.5475160822613,-1.0928262117772205,-0.2930652212344114,15.513934586416052,-0.8788887937631726,-1.6038504458318081,2.6156870659092277,0.4694070562204036,-51.185899864066286,70.57902440547872,118.35485078297062,1.260661520063877,-15.056091547012329,1.57250314950943,6.33974061754618,-3.0156668298913223,0
GUIDED_NOGPS,2.038713216781616,26.38192522517989,-53.66899580802612,67.07119876006556,117.98841386018071,5.215287004220643,-26.048174905475395,44.570155205446426,97.26175609401587,-1.0752717718366414,-0.3214408419348327,15.749991046773571,-0.8702675069574736,-1.6048949492504323,2.6076435021103217,0.4689100133507527,-51.185899864066286,70.57902440547872,118.35485078297062,-3.1142383813858032,-16.48177206516266,2.8059691190719604,6.33974061754618,-8.974120663682639,0
GUIDED_NOGPS,2.0685408115386963,33.53136242265322,-53.44893901531481,66.41642060519203,117.90836610608017,5.158834732991625,-25.96984215247756,44.57144784595738,96.96926799671556,-0.9825863182429799,-0.38245911061750854,16.06211361637023,-0.84314564435577,-1.593618829984165,2.5794173664958127,0.4685913528359531,-50.50466095783974,61.29195195441,116.64502479955124,7.406751811504364,-18.583033978939056,0.20358082838356495,5.0915602674381555,-9.360842559394175,0
GUIDED_NOGPS,2.1027228832244873,29.26040852773747,-53.129073077141925,66.19400735332655,117.90433510993229,5.122281161464205,-25.88970773600926,44.5727702173676,96.67005263527241,-0.8781365574950591,-0.5198231794497505,16.306934916980165,-0.8353114737985148,-1.5790491214238143,2.5611405807321024,0.4681485762880102,-51.17358157682722,70.34882394519198,118.39148534256205,15.805767476558685,-19.57148015499115,-0.8030190132558346,6.161247202492364,-8.312622818982428,0
GUIDED_NOGPS,2.1357481479644775,30.284876710350556,-53.01650447722465,65.53924488842381,117.90555996781205,4.994439973881449,-25.80777260112338,44.57412230408191,96.36411353843665,-0.724587288207414,-0.580801347451479,16.71746172949649,-0.8095662727608934,-1.5729325278789803,2.4972199869407246,0.4676878303559369,-49.493304850650624,60.5732798286642,117.66577920599028,-2.4905476719141006,-18.036584556102753,1.8078481778502464,4.566997450898426,-9.918551410787812,0
GUIDED_NOGPS,2.1721227169036865,27.496240355052084,-52.87754945092863,64.90986007198674,117.91895453650824,4.839785528063259,-25.72403840323873,44.57550407878273,96.05145688740684,-0.5944472116395183,-0.6420464798002198,17.07779860444427,-0.7857819751741195,-1.5653204851902054,2.4198927640316295,0.4671987535263479,-49.493304850650624,60.5732798286642,117.66577920599028,-0.4632139578461647,-18.002206087112427,2.388693578541279,4.566997450898426,-11.00000941302178,0
GUIDED_NOGPS,2.2075650691986084,28.220146944048228,-52.70160116895892,64.60271882723848,118.01074218162303,4.70873420416747,-25.638507499733354,44.576915502568795,95.73209148443989,-0.4417374686504029,-0.7372142269095049,17.427857752238467,-0.7759304633424009,-1.557423104504833,2.354367102083735,0.4665820239542253,-49.62392933178212,67.6315468241927,119.68698985719645,2.6304883882403374,-17.947480082511902,1.4769443310797215,4.983405527858922,-10.537721719427807,0
GUIDED_NOGPS,2.238377809524536,32.45812632523874,-52.61115967878298,64.3620903762184,118.10031428985938,4.534286448682676,-25.551182941537817,44.578356525093916,95.40602872146118,-0.3290986312527541,-0.8250206842799558,17.868451057481188,-0.7698232460709573,-1.5540213655888357,2.267143224341338,0.4659585716474027,-50.35337501131941,68.047121360463,119.4568129749251,-0.7074888795614243,-17.212121188640594,1.9906101748347282,4.79371076253702,-12.307553506972342,0
GUIDED_NOGPS,2.270853042602539,30.79721861209625,-52.47369003601345,63.69447025924699,118.27654469262865,4.297257118076611,-25.46206846472851,44.57982708470567,95.0732825486746,-0.1766280782867215,-0.9354774363203442,18.11633911302846,-0.7464203829652961,-1.5459152017801447,2.1486285590383054,0.46519510678406895,-47.494942820951884,58.329312474445835,119.04776046072158,-5.4276928305625916,-17.52312481403351,8.753806352615356,3.3524492211547123,-11.80306634336509,0
GUIDED_NOGPS,2.303725004196167,30.428124750622086,-52.3596299444118,63.3717800531795,118.5643672300083,4.112899883317487,-25.371168482120975,44.58132710858414,94.73386944317268,-0.0629531865693464,-1.0428372311806606,18.44903591995249,-0.7369310802842011,-1.5411886442908447,2.0564499416587436,0.46425425331974657,-48.18699560786627,66.29845106303841,121.73928178008327,-4.594681411981583,-18.32835078239441,8.231592178344727,4.053240894662453,-10.655091690125307,0
GUIDED_NOGPS,2.339592695236206,27.887288732862594,-52.149766368274854,62.620060730519164,118.66550475221104,3.864299745816893,-25.278488074863176,44.58285651288066,94.38780837754663,-0.09547886756206446,-1.2641800766837963,18.675697455106654,-0.7102264004604969,-1.5292618748141928,1.9321498729084465,0.4635834554380034,-47.27899216924553,56.26617047280379,119.21160530674399,-0.3530558664351702,-18.403320014476776,3.905179724097252,2.5449830649502583,-10.313309024057869,0
GUIDED_NOGPS,2.371974468231201,30.885891016200294,-51.79589846051191,61.455659433273844,118.74287790402691,3.5373956262196447,-25.184032984028814,44.584415202856505,94.03512078849646,0.06747761326531126,-1.4511602404725976,19.29019420680707,-0.6674521613393981,-1.5077069626270103,1.7686978131098223,0.4629383643267043,-44.420137573236744,46.96971368218871,118.99527991809433,1.4956604689359665,-18.11051070690155,2.9490988701581955,1.1284627415495558,-10.941881088090387,0
GUIDED_NOGPS,2.406646728515625,28.846260711682095,-51.42271919471899,60.40361376353982,118.83761738609003,3.2440508304500986,-25.087809602210644,44.58600307302165,93.67583054544096,0.015342392464420478,-1.5385079012298941,19.519085798725243,-0.6286870532929052,-1.4863787207344892,1.6220254152250493,0.4622573197390264,-44.48926499617902,47.81741244684071,119.89938041924697,3.7173904478549957,-18.14318597316742,1.7782632261514664,1.1560784999022156,-9.602105331446536,0
GUIDED_NOGPS,2.439505100250244,30.4387241917341,-51.15336835627467,59.28405096455379,118.92705852585863,2.9272125496115375,-24.98982496511376,44.58762000727348,93.30996391912794,-0.025209401133297258,-1.6181919830167306,19.882438202191583,-0.5869909405216988,-1.470890108741889,1.4636062748057688,0.461574358089904,-45.61298997083954,45.553817543691906,119.66901952860132,0.478899572044611,-16.777493059635162,2.163916453719139,0.5467654871286536,-9.376307815222377,0
GUIDED_NOGPS,2.478501558303833,25.649313560617642,-50.976919734426,58.56060818449317,119.08374668597946,2.644921877336685,-24.890086743148895,44.589265879035516,92.93754955024414,-0.059019477855095065,-1.739033290638183,20.21801393385077,-0.5618311823367723,-1.4622599400463083,1.3224609386683426,0.460780704296397,-47.56979182397626,53.27283669627761,121.25500611665146,0.478899572044611,-16.777493059635162,2.163916453719139,1.0415572334253234,-9.376307815222377,0
GUIDED_NOGPS,2.5089807510375977,32.81260463442492,-50.83444512186288,57.855870738133696,119.30766553033033,2.403914097904018,-24.788603233025746,44.590940551396166,92.55861841802545,-0.28153260690340354,-1.6761745260980268,20.37889220956125,-0.5363110063049541,-1.4562978732536318,1.201957048952009,0.45987642933154266,-47.56979182397626,53.27283669627761,121.25500611665146,-1.495840959250927,-16.023801267147064,6.549587845802307,1.0415572334253234,-6.967959635100609,0
GUIDED_NOGPS,2.5496699810028076,24.579264433557583,-50.65041812431634,57.267473010276085,119.54663605625433,2.1316192302779084,-24.685383349346253,44.592643877247404,92.1732038088669,-0.4285278294347454,-1.7546111378659837,20.645418143806197,-0.5168550327269279,-1.4483036328596401,1.0658096151389542,0.45893985162891887,-47.3847151414479,54.651682765595496,120.72474216039018,1.382666453719139,-16.400565207004547,9.57038551568985,0.6161153359526977,-8.66796597187328,0
GUIDED_NOGPS,2.576356887817383,37.48093472141549,-50.33709606571285,56.660877870261196,119.7181598081676,1.9214303666764283,-24.580436616197915,44.59437569942354,91.78134128493276,-0.4801572293708718,-1.736237608833532,20.893707472967208,-0.4951895692177835,-1.4340257694080516,0.9607151833382142,0.45809477221514777,-47.3847151414479,54.651682765595496,120.72474216039018,10.16756072640419,-16.97312444448471,5.288898199796677,0.6161153359526977,-4.761653146382873,0
GUIDED_NOGPS,2.61358642578125,26.864349352138294,-50.08117549284438,56.00530082341863,119.97929441963797,1.6706149965616053,-24.47377315874709,44.596135850839936,91.38306865276665,-0.6111171420825806,-1.7064197776816068,21.084134854574454,-0.4721340551541202,-1.4227762965763626,0.8353074982808026,0.45710566134969305,-45.80152988496081,50.95686943554864,122.6593028158774,3.3710770308971405,-18.553897738456726,6.997213512659073,0.004793660164931657,-7.9859425549435334,0
GUIDED_NOGPS,2.645726203918457,31.118939332111616,-49.80971505008957,55.246503546647624,120.26036924902024,1.44887783981096,-24.36540369483229,44.59792415463171,90.9784259319016,-0.5354473972587134,-1.7430251093212323,21.314148305063807,-0.44364810997977805,-1.4111059181587364,0.72443891990548,0.45607708502432204,-45.80152988496081,50.95686943554864,122.6593028158774,3.576136752963066,-17.949898540973663,7.198086380958557,0.004793660164931657,-4.348377182725619,0
GUIDED_NOGPS,2.6790730953216553,29.991233527110996,-49.39551890183132,54.15903648254346,120.36341277564631,1.1878620623371274,-24.255339526557492,44.5997404242925,90.56745532347007,-0.5691980299903909,-1.625767943466744,21.539985094875693,-0.40141144715486504,-1.3913303735699183,0.5939310311685637,0.45530606382173566,-43.49791572778344,41.810869727313175,121.37441097694952,7.468132674694061,-17.157307267189026,0.333658792078495,-1.4373435352668031,-3.6710576316998957,0
GUIDED_NOGPS,2.7133686542510986,29.164173915462012,-49.044089986123716,53.42467289567286,120.4650276166767,0.925610967675963,-24.14359253188545,44.60158446381316,90.15020117881417,-0.5208334604775307,-1.6270607702105806,21.712565192181696,-0.3748634744339258,-1.3757625218282992,0.4628054838379815,0.4545277603432062,-45.78608190425817,49.221454521091026,122.90072296246342,10.47620102763176,-18.21240931749344,-3.556910902261734,-0.9074123121496978,-6.101011407713707,0
GUIDED_NOGPS,2.7460062503814697,30.64354077472712,-48.713212570631796,52.710706455653245,120.73079777541714,0.6565786052544917,-24.030175156230975,44.6034560678205,89.72670996809559,-0.498059261907181,-1.6334059092278166,21.877772100278673,-0.3492456705509225,-1.36165854142178,0.32828930262724587,0.45349386828901767,-44.88625059318552,49.30418147091045,124.1293457682547,7.022058963775635,-18.56917142868042,3.6991845816373825,-1.0536574543369917,-6.438897877746475,0
GUIDED_NOGPS,2.7800121307373047,29.410596583737693,-48.35203234303303,52.01284944490189,121.00056721154216,0.3956305116460201,-23.915100404054247,44.605355021716015,89.29703024890577,-0.5170228552508983,-1.5479312144069846,22.12689812761301,-0.3240487662846485,-1.3463009089742144,0.19781525582301004,0.4524446945560454,-43.89365906204176,48.72625455581014,124.4930057194093,7.022058963775635,-18.56917142868042,3.6991845816373825,-1.2248963111620232,-6.438897877746475,0
GUIDED_NOGPS,2.8223016262054443,23.650267554568163,-47.938488902377,50.88483015274398,121.06081268154618,0.06856525296282956,-23.798381830454133,44.60728110181459,88.86121263487594,-0.4789023955542935,-1.5462769212456664,22.28682017683969,-0.28090065381342333,-1.3280429906372797,0.03428262648141478,0.4517005999299946,-42.59862630680372,39.01892954413503,121.5171534405502,7.337693870067596,-19.922135770320892,-0.6983539089560509,-2.3516211387796058,-7.522436526356359,0
GUIDED_NOGPS,2.848586082458496,38.05047627687562,-47.50828325592172,49.63501279422024,121.1992028888411,-0.27410898802943773,-23.680033532761463,44.60923407548327,88.41930976428723,-0.4789023955542935,-1.5462769212456664,22.28682017683969,-0.2324272561187396,-1.3094567679367535,-0.13705449401471886,0.4508301603131692,-42.59862630680372,39.01892954413503,121.5171534405502,6.747180223464966,-21.038834750652313,3.181156888604164,-2.3516211387796058,-6.616848211287403,0
GUIDED_NOGPS,2.8901383876800537,24.07102561306651,-47.08676004062635,48.6397307851241,121.30720626288097,-0.539326181094608,-23.56007014213236,44.61121370127994,87.97137626868074,-0.2374981638809198,-1.3446762039299238,22.681678535400003,-0.19345520070766103,-1.292204221489534,-0.269663090547304,0.44999625500869966,-42.07418126868114,36.76645339053552,122.45636520874481,10.935362428426743,-20.406271517276764,1.6854837536811829,-2.7706778982986737,-6.352321814921979,0
GUIDED_NOGPS,2.9139363765716553,42.02835756585869,-46.69623177634103,47.862539139833046,121.59146600659926,-0.7596367186091063,-23.438506815141515,44.613219729092066,87.51746874146757,-0.3774257414468851,-1.1035833328331675,22.813052101443322,-0.16316553319519772,-1.2771239052381205,-0.37981835930455315,0.4488890041023025,-43.002519432063735,43.86477475987948,124.96048244098388,9.94376465678215,-20.278020203113556,4.97242696583271,-2.3185155623232014,-3.6812256489399293,0
GUIDED_NOGPS,2.9516568183898926,26.5156844647305,-46.39878112740836,47.029659628947535,121.73703739030144,-0.9387937491955762,-23.315359225375516,44.61525190027545,87.05764570653898,-0.3261982020938788,-1.021171017359734,22.90085076812925,-0.12943508889877461,-1.267637657427684,-0.4693968745977881,0.4479809124743563,-43.611995782224696,38.21363959222913,121.7579422726655,9.597128629684448,-20.624351501464844,7.692111283540726,-2.943596739997999,-2.8658637059200176,0
GUIDED_NOGPS,2.9814529418945312,33.567859143657465,-46.08884474968239,46.367953279999966,122.06092774824545,-1.1355844260083394,-23.19064355502613,44.617309947792926,86.5919675868764,-0.21776110497455145,-0.881954259715126,22.971082188269907,-0.10372277846356767,-1.2575924429180387,-0.5677922130041697,0.4467965597579464,-45.05206997508586,47.5020268439804,124.82726107835195,9.597128629684448,-20.624351501464844,7.692111283540726,-1.931488618471929,-2.8658637059200176,0
GUIDED_NOGPS,3.0165581703186035,28.49120328229652,-45.76533242501453,45.82493846583669,122.33852250058474,-1.232849176213371,-23.064376486483617,44.619393596353085,86.12049667316157,-0.2542219354245489,-0.9990305322783146,22.999779228067716,-0.0811003400139276,-1.247096340206944,-0.6164245881066855,0.44567296125886524,-43.44521954375834,45.96071284788031,125.34413179646026,9.84337404370308,-20.032285153865814,5.662015080451965,-2.0935894990337665,0.607907753585468,0
GUIDED_NOGPS,3.0576369762420654,24.348964924705964,-45.40648191930814,44.8487476944005,122.53222643083858,-1.468147204015151,-22.936575193930032,44.62150256254902,85.64329709238656,-0.33633863177296763,-1.0761501981969286,23.009751304255932,-0.04188650085319725,-1.235177167536172,-0.7340736020075755,0.444666605992322,-42.12128916048269,37.08371032409055,122.17522218498215,7.524752616882324,-19.58964765071869,8.648282289505005,-3.2318093429501626,-3.725418253530381,0
GUIDED_NOGPS,3.0897560119628906,31.14158221034265,-44.83170077130457,43.79914453026192,122.54102299083621,-1.6464502019449259,-22.807257334932522,44.623636554997034,85.16043477646392,-0.42905770270395027,-1.0340302358544582,23.00307137924766,0.002282449458665327,-1.2119103052877087,-0.8232251009724629,0.44392911767844156,-42.12128916048269,37.08371032409055,122.17522218498215,20.08184641599655,-19.27075982093811,-3.979024663567543,-3.2318093429501626,0.5914657807059548,0
GUIDED_NOGPS,3.1264095306396484,27.28552748846922,-44.45906186945598,42.78023601808195,122.61818875619946,-1.7668189927481197,-22.676441042036632,44.62579527447539,84.67197743083663,-0.33928911341185447,-1.2251921829626,22.997076180703683,0.046072679720683025,-1.2000351715393358,-0.8834094963740599,0.44308068301195574,-40.96785199822962,34.780419356628045,122.31451979943797,6.953795254230499,-21.509476006031036,1.8969304859638214,-3.4245599123789345,2.191931501835798,0
GUIDED_NOGPS,3.159426689147949,30.29100074385955,-43.98896829047813,41.70074407733664,122.61060258284881,-1.9405814760426925,-22.544144914359613,44.627978414063016,84.17799450308839,-0.28198921572158947,-1.2444028370552012,22.989300010333622,0.09170969329547429,-1.1832494713884314,-0.9702907380213462,0.4423510878803594,-39.995417242706644,34.179823192207465,122.5169739536407,10.007894784212112,-21.987341344356537,-4.172374680638313,-3.4334984444331957,-0.9730916082447217,0
GUIDED_NOGPS,3.1935462951660156,29.312553725303832,-43.51407262235908,40.71944270507032,122.64047399683085,-2.0554050879699424,-22.410388009183713,44.63018565927824,83.67855715155348,-0.11563579633940345,-1.3087689389678148,23.010700700550565,0.13424057084077035,-1.1662676743239087,-1.0277025439849712,0.4415571247320839,-39.34297338162174,33.950665225502206,122.7147125553267,11.12072840332985,-22.156232595443726,-1.245260238647461,-3.379824690166453,0.9001209620817732,0
GUIDED_NOGPS,3.2280991077423096,28.945797849581098,-43.03673885550411,39.78948077273678,122.76889986722766,-2.187002827132085,-22.27518983354949,44.63241668821752,83.17373821392697,-0.07430560130014227,-1.4313490633415642,22.974458009267185,0.17419774264148624,-1.1493699817928096,-1.0935014135660426,0.440607257520049,-40.654763994562856,34.41542170431828,122.22309775832278,15.678951144218445,-21.626389026641846,6.382864713668823,-3.3171501166811583,-0.5822177045697575,0
GUIDED_NOGPS,3.2599074840545654,31.442502024048697,-42.616310736699816,38.88459429563678,122.76641909938326,-2.3063257513166313,-22.13857033584911,44.63467117169416,82.66361217587476,0.1545515061668519,-1.7440539065649654,23.012182851600457,0.2132201484771847,-1.1357761765059775,-1.1531628756583157,0.43984578961473725,-40.95686756882208,33.929589223505,122.0203959327579,13.836589455604553,-21.472860872745514,-0.8913693018257618,-3.301926050324174,-0.3379509299430609,0
GUIDED_NOGPS,3.295036554336548,28.47128301553792,-42.21877476518084,37.92303495305712,122.86411618996374,-2.3917767717409952,-22.000549897419656,44.63694877337705,82.14825513964368,0.18584413791118432,-1.8338231895481487,23.058949156847536,0.25545655031749215,-1.1236420294173202,-1.1958883858704976,0.4389262084245199,-39.474343721994785,31.09072167530826,122.00382991765642,9.734892100095749,-21.09968215227127,5.835845321416855,-3.367420651354732,0.9058226759348529,0
GUIDED_NOGPS,3.3274905681610107,30.818036870219473,-41.719542721383974,36.967181075924614,122.75711561691071,-2.526359410291984,-21.861149324136417,44.63924914992938,81.6277447926715,0.15862590076974964,-1.8393885130612397,23.104153056321973,0.29676390336974884,-1.1063680301336951,-1.263179705145992,0.4383059437636412,-39.474343721994785,31.09072167530826,122.00382991765642,16.22176170349121,-20.08976936340332,-7.117097824811935,-3.367420651354732,-1.8967823792134455,0
GUIDED_NOGPS,3.362802505493164,28.32725946537355,-41.28003082699298,36.132743505469215,122.65745595294956,-2.648238267167415,-21.7203898380062,44.64157195114738,81.10216037619716,0.24248993826671483,-2.095179310921629,23.144198455425755,0.33278298053479344,-1.0923227410820022,-1.3241191335837075,0.4376670566348714,-39.52592243301359,31.854132142227172,121.91490494546194,14.533938467502594,-19.977106153964996,-5.826937407255173,-3.2555893249834202,-2.398448888136892,0
GUIDED_NOGPS,3.3967783451080322,29.43391883451814,-40.72148506492658,35.23342483336498,122.5503136723233,-2.784989069472543,-21.578293068760637,44.64391682009904,80.57158265387065,0.050363573783852617,-2.2461378040797237,23.128830529793227,0.3718147637387321,-1.0722077124875384,-1.3924945347362716,0.437031903472321,-37.40881856142273,30.850372422631324,122.378458617619,15.915162861347198,-20.470905303955078,-7.696676254272461,-3.2820151628437433,-3.056637506184232,0
GUIDED_NOGPS,3.428068161010742,31.96342076785905,-40.201802338140176,34.275348040222035,122.4636567224314,-2.8666561314052936,-21.434881045449476,44.64628339326281,80.03609388036324,0.1341896717144125,-2.3263963688087816,23.177890071054136,0.414486959804446,-1.054229104908742,-1.4333280657026468,0.43635865573689775,-36.29093262557043,27.416295847914583,121.87841435544078,13.253073394298553,-20.929360389709473,-4.61122952401638,-3.543529111633502,0.05701217597147823,0
GUIDED_NOGPS,3.4616732597351074,29.762668085861275,-39.71002048962317,33.43996784461036,122.42903094012482,-2.954436200425224,-21.290176188033897,44.6486713006664,79.49577776997752,0.16907058069180816,-2.4636063314978753,23.200704610429273,0.4515046901785181,-1.03774212393749,-1.477218100212612,0.43560012024477907,-36.400776099197,29.040928438840623,122.06767626121199,13.277378678321838,-20.84958404302597,-1.8408242613077164,-3.398924624045403,-1.2233803685635483,0
GUIDED_NOGPS,3.500671863555908,25.648215639752465,-39.15417650496284,32.58890206593636,122.35782638359638,-3.0236043151411067,-21.144201298979805,44.651080166025416,78.95071946525746,0.18653808246281497,-2.4005959154138035,23.252474029243384,0.4897935536938508,-1.0178008450786509,-1.5118021575705534,0.43488933962249166,-36.672471419683895,29.16204048328285,121.65961273125978,17.755869030952454,-21.281301975250244,-3.032943420112133,-3.3666246175731147,-0.14206729440603053,0
GUIDED_NOGPS,3.534052848815918,29.962310516765964,-38.47597507446377,31.592351395426086,122.17710889539185,-3.0841917088709208,-20.99697955485113,44.65350960688215,78.40100550559848,0.12500733614897663,-2.5432064233022618,23.289894928158592,0.5351772639213754,-0.9915753049617069,-1.5420958544354604,0.43433584491530997,-35.30123530735426,26.887441362923436,121.16683329956786,19.813187420368195,-20.01613974571228,-8.465645462274551,-3.4846097911283698,1.1848721889098395,0
GUIDED_NOGPS,3.570402145385742,27.514638642342184,-37.883367920581975,30.749291084689812,122.04139152881518,-3.149189383129646,-20.848534497903145,44.655959234744294,77.84672379585756,0.2429421448145373,-2.326588040992365,23.36210710315855,0.5733845718161118,-0.9698799638663202,-1.574594691564823,0.43370799840056357,-35.30123530735426,26.887441362923436,121.16683329956786,19.333919882774353,-20.05620002746582,-5.548872798681259,-3.4846097911283698,-0.340951090535989,0
GUIDED_NOGPS,3.6009180545806885,32.77952405142433,-37.11139233258389,29.915343290133503,121.89432343083999,-3.2546312241638695,-20.69889002767575,44.65842865522363,77.28796357496333,0.35447088970907387,-2.2630038890180124,23.362313716380942,0.6111200461623155,-0.9388974049484096,-1.6273156120819348,0.433090460216185,-34.803496021259065,27.808421941830577,121.39436203185056,27.78047025203705,-19.53272521495819,-6.828942149877548,-3.43245236414299,-2.650932593778526,0
GUIDED_NOGPS,3.6351892948150635,29.181217952731803,-36.45045402369614,29.217347928381233,121.7315420757663,-3.3083717638867323,-20.548070392586787,44.660917468174816,76.7248153845261,0.46872413303050514,-2.205776722170237,23.363051376811306,0.6433275320877806,-0.9132795428036726,-1.6541858819433661,0.4324899099631397,-35.41480632646787,26.78128291229436,120.57685036569995,28.907543420791626,-19.274213910102844,-5.821777507662773,-3.521397305129362,-0.5502729631824608,0
GUIDED_NOGPS,3.6714000701904297,27.629551068805377,-35.75968704062655,28.470583212609508,121.72571155108939,-3.3333157752286504,-20.39610018152534,44.663425267834064,76.15737103744794,0.5330196385347441,-2.229009824075447,23.31775185468849,0.6783131341965684,-0.8859363191188366,-1.6666578876143252,0.43164748922953783,-33.07587216877086,26.715160168451426,121.17264515545958,22.019335627555847,-18.676182627677917,2.2166984155774117,-3.5060192214745074,1.4768960731000884,0
GUIDED_NOGPS,3.7031657695770264,31.47648065319845,-34.942094634581096,27.685501117273034,121.59003434574296,-3.371550222710056,-20.243004315445038,44.665951642957886,75.58572358653291,0.599232346122494,-1.9654746589133214,23.310341099439025,0.7152521914710567,-0.8519891109886938,-1.685775111355028,0.4309935338611849,-29.902610118907084,24.52972426909031,121.52443069890299,23.829981684684753,-18.693159520626068,-6.994922459125519,-3.6175891229799486,0.6331593898338282,0
GUIDED_NOGPS,3.7375473976135254,29.090344148368036,-34.19819666838504,26.948143115176748,121.42317984102107,-3.365583954265526,-20.088808038957353,44.66849617696184,75.00996729309685,0.6802062130845521,-1.9691021296928328,23.25550492568758,0.7504831650593495,-0.8214916498194408,-1.682791977132763,0.43038018117811366,-30.523878191170848,24.655754014330146,121.09123948009676,22.52715826034546,-18.470607697963715,-7.785700261592865,-3.6018990711967795,2.943610468581803,0
GUIDED_NOGPS,3.7714736461639404,29.48274674370708,-33.34821449173372,26.187692471137854,121.1159997250062,-3.4241417633552973,-19.93353691192491,44.6710584480592,74.43019759557772,0.7350116509847344,-1.9371298007445916,23.158978984789666,0.7861995851642852,-0.7861681000155019,-1.7120708816776486,0.4299712968058573,-29.348742034687376,24.037286352673412,120.59576531902064,26.67776644229889,-18.812865018844604,-15.070796012878418,-3.5565579246733003,-1.1893800070403422,0
GUIDED_NOGPS,3.8148279190063477,23.067933826117564,-32.48001954084658,25.406195167857337,120.84094227329366,-3.416560425703013,-19.77721680105478,44.673638029399754,73.8465110781456,0.7620595202631023,-1.8743979283126095,23.136490586947396,0.823857677959489,-0.7490832506789281,-1.7082802128515064,0.42950835320727787,-27.332901695584212,22.289631552489922,120.05779295269679,23.876953125,-17.727130651474,-11.739026755094528,-3.559623310955927,2.557476609469122,0
GUIDED_NOGPS,3.839736223220825,40.155324933940946,-31.526641797292175,24.423526146482008,120.53204849767997,-3.4102073714120076,-19.619873871491798,44.67623448920847,73.25900543931269,0.6888949073998959,-1.7714432853018338,23.04600424082307,0.8708035020499203,-0.7079248558333324,-1.7051036857060038,0.42909043541244907,-28.63506276012323,21.384338642805023,118.95302874804317,25.31222701072693,-18.03997904062271,-9.09680649638176,-3.565960362880677,3.044264831946166,0
GUIDED_NOGPS,3.877656936645508,26.375289264513533,-30.93516811008568,23.87863738441778,120.1937150575208,-3.3863213146972306,-19.461534578411843,44.678847390924254,72.66777946054347,0.8616239348463186,-1.5867660692020904,22.877163672087647,0.8971002523518926,-0.6852362615810067,-1.6931606573486153,0.428711096604534,-28.989201904600456,21.22964690237392,118.55413826657184,25.25373101234436,-17.31528788805008,-13.96057903766632,-3.5169121488546358,2.269381791598923,0
GUIDED_NOGPS,3.9054622650146484,35.96957301019664,-30.022326107102348,23.236445584315444,119.94833707919081,-3.374499278948752,-19.30222565861517,44.68147629333869,72.07293297486481,0.8802103736818042,-1.5669469946648291,22.7663865414865,0.928647739122218,-0.6453866818547415,-1.687249639474376,0.428186893843511,-24.73617362022034,21.798253408008346,119.4609988283265,26.868894696235657,-16.45985096693039,-9.656424820423126,-3.332353693493964,1.5253525300016266,0
GUIDED_NOGPS,3.9396727085113525,29.24041772981414,-29.177724366158653,22.666283567696293,119.66830638311158,-3.3848365081052223,-19.141974122119684,44.684120750734714,71.47456683547595,1.103455160064524,-1.4022175594795192,22.721780283564442,0.9564849126943913,-0.6095025061779923,-1.6924182540526111,0.4277093906785465,-23.65356571890296,19.94710351563176,118.43780036774098,27.332031726837158,-14.969348907470703,-10.718239098787308,-3.2639649892795166,-0.3738085693119816,0
GUIDED_NOGPS,3.974287271499634,28.89534635389756,-27.924653131219827,21.9507513210945,119.27109518866199,-3.339161144654362,-18.980807243754263,44.6867803130254,70.87278288435866,1.1689352231420842,-1.307755082762891,22.630185739247278,0.99273222799617,-0.5506694786869211,-1.669580572327181,0.427402531543545,-21.054927362942124,18.40225689933981,118.11501405642412,41.55452251434326,-13.792522251605988,-15.982766449451447,-3.2210824255655544,3.2252883237267755,0
GUIDED_NOGPS,4.0072760581970215,30.31815126171906,-27.412472723485585,21.111151935787493,118.4443346680549,-3.3194448676818964,-18.818752554752052,44.68945452589265,70.26768392088724,1.1584064865365093,-1.031802633689682,22.554355271534504,1.0318754125631204,-0.5332978787774504,-1.6597224338409482,0.4277350238792485,-37.7595615399744,14.939890191712566,108.5684312303472,41.55452251434326,-13.792522251605988,-15.982766449451447,-3.8069156776558772,3.2252883237267755,0
GUIDED_NOGPS,4.042196989059448,28.68979103252505,-27.15219780526106,20.39542574740776,117.82550567717074,-3.307425181628223,-18.655837834343757,44.69214293092593,69.65937367043873,1.1618753688612298,-0.803528853726276,22.500494107287075,1.0645710124332393,-0.5296006556936104,-1.6537125908141115,0.427750801989902,-37.58201313687812,15.865448277421214,108.63646378892652,26.943030953407288,-12.716871500015259,-5.165208876132965,-3.668158341527278,2.1720208600749764,0
GUIDED_NOGPS,4.078081846237183,27.823465806948064,-26.126676111602595,19.87738289821288,117.54622546118046,-3.28324536748022,-18.492091101350965,44.69484506576101,69.04795675300285,1.1796242557497425,-0.5614414964141953,22.49371172944125,1.0909040396876961,-0.4831736031931162,-1.64162268374011,0.4272525969377336,-20.664891547257092,20.126459567074296,118.0140085748423,27.49108076095581,-11.595568060874939,-11.18537187576294,-2.9244259010251756,0.7443130346129695,0
GUIDED_NOGPS,4.1101014614105225,31.23760156698021,-25.390625035454825,19.37374673540678,117.19325689794815,-3.198319017328527,-18.327540605779447,44.69756046421865,68.43353865179213,1.1899128685173088,-0.4853794425998754,22.495105088031934,1.116123042007302,-0.45144378521745343,-1.5991595086642636,0.42686042263076596,-25.799354302590046,19.58073580145166,114.57636035912667,26.94670557975769,-12.421023100614548,-6.311239302158356,-2.6489394074479256,3.6361814051373416,0
GUIDED_NOGPS,4.142142057418823,31.213889695102438,-24.70898201446917,18.92205867785785,116.8387004393985,-3.106988993418889,-18.16221482041244,44.70028865644337,67.81622568185207,1.3562644736304967,-0.31544772446411673,22.578648546864947,1.1387990615864623,-0.4224167297883288,-1.5534944967094444,0.42646628786368035,-25.074740903157476,19.048286106749508,113.61200733067712,26.94670557975769,-12.421023100614548,-6.311239302158356,-2.5102669522898378,3.6361814051373416,0
