E-kp,E-ki,E-kd,E-I-Tot,E-P,E-I,E-D,E-PID,N-kp,N-ki,N-kd,N-I-Tot,N-P,N-I,N-D,N-PID,D-kp,D-ki,D-kd,D-I-Tot,D-P,D-I,D-D,D-PID,Y-kp,Y-ki,Y-kd,Y-I-Tot,Y-P,Y-I,Y-D,Y-PID,errorN,desiredN,actualN,errorE,desiredE,actualE,errorD,desiredD,actualD,errorY,desiredY,actualY,roll,pitch,yaw-rate,thrust,dt,Time,Mode
0.03,0.005,0.03,-0.0011245875068277764,-0.0010206196769286973,-5.622937534138882e-06,-0.03087545488485681,-0.03190169749931965,0.03,0.005,0.03,-0.0010935540361492288,-0.0009924552427467285,-5.467770180746144e-06,-0.030023433572118938,-0.031021356585046414,0.002,8e-05,0,-0.0012713451596101431,-7.692064146117063e-05,-1.0170761276881146e-07,-0.0,-7.702234907393944e-05,0.05,0.02,0.005,-0.0011190698971737096,-0.0016926869481471937,-2.238139794347419e-05,-0.005120661563078586,-0.006835729909169253,-0.03308184142489095,0.0,0.03308184142489095,-0.03402065589762324,0.0,0.03402065589762324,-0.038460320730585314,0.0,0.038460320730585314,-0.03385373896294387,0,0.03385373896294387,-0.03192002118379343,0.03100250175938836,0.006835729909169253,0.4,0.033056020736694336,0.03336024284362793,STABILIZE
0.03,0.005,0.03,-0.0030983067769099404,-0.0017723052250532081,-1.5491533884549703e-05,-0.026687353505701634,-0.02847515026463939,0.03,0.005,0.03,-0.0029795168918809365,-0.0016935041746491285,-1.4897584459404683e-05,-0.025503521977254594,-0.02721192373636313,0.002,8e-05,0,-0.00364050863702351,-0.00014182634358296707,-2.9124069096188084e-07,-0.0,-0.00014211758427392894,0.05,0.02,0.005,-0.003075227663362337,-0.0029275597283060697,-6.150455326724674e-05,-0.0044084249809239655,-0.007397489262497282,-0.05645013915497095,0.0,0.05645013915497095,-0.05907684083510694,0.0,0.05907684083510694,-0.07091317179148353,0.0,0.07091317179148353,-0.058551194566121394,0,0.058551194566121394,-0.028502943559097757,0.02718281045981676,0.007397489262497282,0.4,0.03340935707092285,0.06673789024353027,STABILIZE
0.03,0.005,0.03,-0.006347819008805818,-0.0029131869287290484,-3.173909504402909e-05,-0.029156015347988704,-0.03210094137176178,0.03,0.005,0.03,-0.006107750005893858,-0.002804460228925771,-3.053875002946929e-05,-0.02806870169083338,-0.030903700669788623,0.002,8e-05,0,-0.008161752773021167,-0.0002702196181793656,-6.529402218416935e-07,-0.0,-0.0002708725584012073,0.05,0.02,0.005,-0.006352614021586674,-0.004896960127050418,-0.00012705228043173347,-0.004900691076620949,-0.0099247034841031,-0.09348200763085904,0.0,0.09348200763085904,-0.09710623095763495,0.0,0.09710623095763495,-0.1351098090896828,0.0,0.1351098090896828,-0.09793920254100835,0,0.09793920254100835,-0.032153720045618325,0.030848783432563164,0.0099247034841031,0.4,0.033463478088378906,0.1002042293548584,STABILIZE
0.03,0.005,0.03,-0.0101100289499355,-0.003374743834637427,-5.0550144749677504e-05,-0.025317191828150443,-0.02874248580753755,0.03,0.005,0.03,-0.009679634820485474,-0.0032040200958212833,-4.8398174102427374e-05,-0.024038273017318264,-0.027290691287241976,0.002,8e-05,0,-0.01372419097427387,-0.0003326378966789332,-1.0979352779419098e-06,-0.0,-0.0003337358319568751,0.05,0.02,0.005,-0.010118586586033911,-0.005630198248792134,-0.00020237173172067823,-0.0042236205464399055,-0.010056190526952717,-0.10680066986070945,0.0,0.10680066986070945,-0.11249146115458089,0.0,0.11249146115458089,-0.1663189483394666,0.0,0.1663189483394666,-0.11260396497584267,0,0.11260396497584267,-0.028796064931765935,0.027234150726203353,0.010056190526952717,0.4,0.03344440460205078,0.13364768028259277,STABILIZE
0.03,0.005,0.03,-0.014196576396629048,-0.003666932916790485,-7.098288198314524e-05,-0.02200166377434239,-0.02573957957311602,0.03,0.005,0.03,-0.013495032791263106,-0.0034236255891315227,-6.747516395631552e-05,-0.020544324947518514,-0.024035425700606353,0.002,8e-05,0,-0.020173995205778044,-0.00038583506414432034,-1.6139196164622436e-06,-0.0,-0.00038744898376078256,0.05,0.02,0.005,-0.014165870751076982,-0.006052835440346013,-0.00028331741502153965,-0.003631723099884503,-0.009967875955252056,-0.11412085297105076,0.0,0.11412085297105076,-0.1222310972263495,0.0,0.1222310972263495,-0.19291753207216017,0.0,0.19291753207216017,-0.12105670880692025,0,0.12105670880692025,-0.025790305047897134,0.023980988527301197,0.009967875955252056,0.4,0.033432960510253906,0.16708111763000488,STABILIZE
0.03,0.005,0.03,-0.019203142718047125,-0.004012840609505595,-9.601571359023563e-05,-0.01767490869247929,-0.02178376501557512,0.03,0.005,0.03,-0.018083714098001573,-0.0036778992845826848,-9.041857049000787e-05,-0.01589833365497217,-0.019666651510044864,0.002,8e-05,0,-0.028611674556201054,-0.0004508620635865778,-2.2889339644960845e-06,-0.0,-0.0004531509975510739,0.05,0.02,0.005,-0.019066241366518452,-0.006546205171645343,-0.00038132482733036903,-0.0028712197851562438,-0.009798749784131956,-0.12259664281942283,0.0,0.12259664281942283,-0.1337613536501865,0.0,0.1337613536501865,-0.22543103179328888,0.0,0.22543103179328888,-0.13092410343290686,0,0.13092410343290686,-0.021828647518011536,0.01961682307117422,0.009798749784131956,0.4,0.037429094314575195,0.20450258255004883,STABILIZE
0.03,0.005,0.03,-0.023984202313001635,-0.0042913247223439945,-0.00011992101156500818,-0.014841447254058483,-0.019252692987967487,0.03,0.005,0.03,-0.02246021366584586,-0.00392820470437928,-0.0001123010683292293,-0.013199385331748,-0.01723989110445651,0.002,8e-05,0,-0.03723860368521163,-0.0005162168694195064,-2.9790882948169308e-06,-0.0,-0.0005191959577143234,0.05,0.02,0.005,-0.023664067758662047,-0.006878100859508754,-0.00047328135517324095,-0.0023305813408899317,-0.009681963555571927,-0.13094015681264268,0.0,0.13094015681264268,-0.14304415741146648,0.0,0.14304415741146648,-0.2581084347097532,0.0,0.2581084347097532,-0.13756201719017508,0,0.13756201719017508,-0.019294028887528628,0.0171936174747975,0.009681963555571927,0.4,0.033423662185668945,0.2379457950592041,STABILIZE
0.03,0.005,0.03,-0.02892952645628697,-0.00443405054272077,-0.00014464763228143486,-0.00887591328059127,-0.013454611455593474,0.03,0.005,0.03,-0.026946801419925597,-0.004022740732364931,-0.000134734007099628,-0.007124655751944544,-0.011282130491409102,0.002,8e-05,0,-0.046680199907406905,-0.0005643649589012033,-3.7344159925925527e-06,-0.0,-0.0005680993748937958,0.05,0.02,0.005,-0.028367576762510237,-0.007028725872136016,-0.0005673515352502047,-0.0012435717587519228,-0.008839649166138143,-0.1340913577454977,0.0,0.1340913577454977,-0.14780168475735903,0.0,0.14780168475735903,-0.28218247945060165,0.0,0.28218247945060165,-0.14057451744272031,0,0.14057451744272031,-0.013482251505860528,0.01124908583747549,0.008839649166138143,0.4,0.03345918655395508,0.2714071273803711,STABILIZE
0.03,0.005,0.03,-0.034153470216479305,-0.004689378455726083,-0.00017076735108239653,-0.007643770691706634,-0.012503916498515113,0.03,0.005,0.03,-0.03167777103162013,-0.004246850270638886,-0.00015838885515810067,-0.006076434660182156,-0.010481673785979143,0.002,8e-05,0,-0.05813203001344173,-0.0006853310811791471,-4.650562401075339e-06,-0.0,-0.0006899816435802224,0.05,0.02,0.005,-0.03333365353037712,-0.007429831583746917,-0.0006666730706075425,-0.001045130387715169,-0.009141635042069628,-0.14156167568796288,0.0,0.14156167568796288,-0.15631261519086945,0.0,0.15631261519086945,-0.34266554058957355,0.0,0.34266554058957355,-0.14859663167493833,0,0.14859663167493833,-0.012531058641858977,0.010449209657759398,0.009141635042069628,0.4,0.03341984748840332,0.3048248291015625,STABILIZE
0.03,0.005,0.03,-0.03954495128428337,-0.004835769862629612,-0.00019772475642141686,-0.006771210640476803,-0.011804705259527832,0.03,0.005,0.03,-0.036435190783710325,-0.004267062569952932,-0.00018217595391855162,-0.004883587962802068,-0.009332826486673551,0.002,8e-05,0,-0.07061868533966298,-0.0007466419802178514,-5.6494948271730385e-06,-0.0,-0.0007522914750450245,0.05,0.02,0.005,-0.038470270313678036,-0.007678624953013479,-0.0007694054062735607,-0.0009410702033077929,-0.009389100562594833,-0.1422354189984311,0.0,0.1422354189984311,-0.1611923287543204,0.0,0.1611923287543204,-0.37332099010892567,0.0,0.37332099010892567,-0.15357249906026957,0,0.15357249906026957,-0.011829678027404882,0.009301152308322532,0.009389100562594833,0.4,0.0334475040435791,0.3382759094238281,STABILIZE
0.03,0.005,0.03,-0.044914496624052294,-0.004815786147366495,-0.00022457248312026147,-0.004803389397233924,-0.00984374802772068,0.03,0.005,0.03,-0.04107061325587788,-0.004157373095133704,-0.00020535306627938942,-0.0028690442708249916,-0.007231770432238084,0.002,8e-05,0,-0.08392060235223536,-0.0007953396874296199,-6.713648188178829e-06,-0.0,-0.0008020533356177987,0.05,0.02,0.005,-0.043536751930355555,-0.007573295453519291,-0.0008707350386071111,-0.0006144632668828691,-0.009058493759009271,-0.13857910317112346,0.0,0.13857910317112346,-0.1605262049122165,0.0,0.1605262049122165,-0.39766984371480996,0.0,0.39766984371480996,-0.15146590907038582,0,0.15146590907038582,-0.0098628313640425,0.007205722469142656,0.009058493759009271,0.4,0.033449649810791016,0.3717527389526367,STABILIZE
0.03,0.005,0.03,-0.05030461976811466,-0.004836965403468863,-0.0002515230988405733,-0.0032637054055132592,-0.008352193907822695,0.03,0.005,0.03,-0.04561017915551628,-0.0040736960207497465,-0.0002280508957775814,-0.0008706720426184608,-0.005172418959145789,0.002,8e-05,0,-0.09823250871602009,-0.0008562104437950312,-7.858600697281608e-06,-0.0,-0.0008640690444923128,0.05,0.02,0.005,-0.048568153544123735,-0.007525095712504846,-0.0009713630708824747,-0.0003870285145914763,-0.008883487297978797,-0.13578986735832488,0.0,0.13578986735832488,-0.16123218011562876,0.0,0.16123218011562876,-0.42810522189751554,0.0,0.42810522189751554,-0.1505019142500969,0,0.1505019142500969,-0.008365751749680262,0.005150461981756878,0.008883487297978797,0.4,0.03343081474304199,0.40515971183776855,STABILIZE
0.03,0.005,0.03,-0.05573799093277529,-0.004872543419540894,-0.0002786899546638765,-0.0026232761381828613,-0.007774509512387631,0.03,0.005,0.03,-0.050204989270213794,-0.004120537896256109,-0.000251024946351069,-0.0005856353903338436,-0.004957198232941021,0.002,8e-05,0,-0.11355317417411864,-0.0009159519985969071,-9.084253933929492e-06,-0.0,-0.0009250362525308366,0.05,0.02,0.005,-0.05366598509124408,-0.007619396505435404,-0.0010733197018248817,-0.00035337154236132393,-0.009046087749621609,-0.13735126320853697,0.0,0.13735126320853697,-0.16241811398469647,0.0,0.16241811398469647,-0.45797599929845356,0.0,0.45797599929845356,-0.15238793010870808,0,0.15238793010870808,-0.007787666515980463,0.00493650308566257,0.009046087749621609,0.4,0.03345298767089844,0.4386281967163086,STABILIZE
0.03,0.005,0.03,-0.06122918668899871,-0.004925136535867073,-0.00030614593344499357,-0.0014097515505290068,-0.006641034019841074,0.03,0.005,0.03,-0.054677393492077966,-0.004011366998035895,-0.0002733869674603898,0.0014083211171124197,-0.0028764328483838653,0.002,8e-05,0,-0.12979841099197342,-0.0009713732422760637,-1.0383872879357875e-05,-0.0,-0.0009817571151554216,0.05,0.02,0.005,-0.05870048274324217,-0.007525861829969911,-0.0011740096548648433,-5.740267870579269e-05,-0.008757274163540548,-0.13371223326786316,0.0,0.13371223326786316,-0.16417121786223576,0.0,0.16417121786223576,-0.48568662113803185,0.0,0.48568662113803185,-0.15051723659939822,0,0.15051723659939822,-0.00664856754600624,0.002858976804757389,0.008757274163540548,0.4,0.033447980880737305,0.47205233573913574,STABILIZE
0.03,0.005,0.03,-0.06710929699370086,-0.005255416768312206,-0.0003355464849685043,-0.0025023465402678764,-0.008093309793548588,0.03,0.005,0.03,-0.059242926306391865,-0.004080497892945611,-0.0002962146315319593,0.001117270693791723,-0.0032594418306858474,0.002,8e-05,0,-0.14829354279162696,-0.0011020159005556516,-1.1863483423330158e-05,-0.0,-0.0011138793839789818,0.05,0.02,0.005,-0.06394135225365155,-0.007806813160040099,-0.001278827045073031,-7.603853974937821e-05,-0.009161678744862508,-0.1360165964315204,0.0,0.1360165964315204,-0.1751805589437402,0.0,0.1751805589437402,-0.5510079502778258,0.0,0.5510079502778258,-0.15613626320080198,0,0.15613626320080198,-0.008102162010054252,0.003237374742720992,0.009161678744862508,0.4,0.03356599807739258,0.5056397914886475,STABILIZE
0.03,0.005,0.03,-0.07418612645111394,-0.005346409432417922,-0.00037093063225556973,-0.0030801200154827488,-0.008797460080156241,0.03,0.005,0.03,-0.0645210399018593,-0.003987513968224933,-0.0003226051995092965,0.0009297396130789492,-0.0033803795546552802,0.002,8e-05,0,-0.1731552037689204,-0.0012521673211096133,-1.3852416301513634e-05,-0.0,-0.001266019737411127,0.05,0.02,0.005,-0.07005704155059815,-0.0077004773441026455,-0.001401140831011963,-8.546002688883999e-05,-0.00918707820200345,-0.13291713227416443,0.0,0.13291713227416443,-0.17821364774726406,0.0,0.17821364774726406,-0.6260836605548066,0.0,0.6260836605548066,-0.1540095468820529,0,0.1540095468820529,-0.008806514658764739,0.003356720030094238,0.00918707820200345,0.4,0.03970980644226074,0.5453546047210693,STABILIZE
0.03,0.005,0.03,-0.07990189968344015,-0.005127952456939693,-0.0003995094984172008,-0.0016468120013759596,-0.007174273956732854,0.03,0.005,0.03,-0.06868723736034682,-0.0037377379446266535,-0.0003434361868017341,0.0019230650825443963,-0.0021581090488839907,0.002,8e-05,0,-0.19449496264175348,-0.0012763425523783345,-1.5559597011340278e-05,-0.0,-0.0012919021493896748,0.05,0.02,0.005,-0.07505262131545132,-0.007469708380584613,-0.0015010524263090264,2.3728625025217885e-05,-0.008947032181868422,-0.12459126482088845,0.0,0.12459126482088845,-0.17093174856465645,0.0,0.17093174856465645,-0.6381712761891672,0.0,0.6381712761891672,-0.14939416761169225,0,0.14939416761169225,-0.0071798766596485215,0.0021393953878057763,0.008947032181868422,0.4,0.033438920974731445,0.5788044929504395,STABILIZE
0.03,0.005,0.03,-0.08541924894301826,-0.004949793607915227,-0.0004270962447150913,-0.0003685600860118381,-0.005745449938642156,0.03,0.005,0.03,-0.07256976671676205,-0.003483143460161667,-0.00036284883358381025,0.003725811067023748,-0.00012018122672172952,0.002,8e-05,0,-0.2165466173746572,-0.0013188838154649962,-1.7323729389972577e-05,-0.0,-0.0013362075448549687,0.05,0.02,0.005,-0.07979625286712538,-0.007092777113339352,-0.0015959250573425077,0.0003055449301152716,-0.00838315724056659,-0.11610478200538892,0.0,0.11610478200538892,-0.16499312026384091,0.0,0.16499312026384091,-0.6594419077324981,0.0,0.6594419077324981,-0.14185554226678704,0,0.14185554226678704,-0.005745729879317673,0.00010595602208280794,0.00838315724056659,0.4,0.03343987464904785,0.6122114658355713,STABILIZE
0.03,0.005,0.03,-0.09073110115878044,-0.00476659100061619,-0.0004536555057939022,0.0010418961509505624,-0.00417835035545953,0.03,0.005,0.03,-0.07616385973476007,-0.0032251596503628933,-0.0003808192986738004,0.004616376146295409,0.0010103971972587156,0.002,8e-05,0,-0.2392803224941315,-0.001360006137615535,-1.9142425799530523e-05,-0.0,-0.0013791485634150656,0.05,0.02,0.005,-0.08428161708795003,-0.006708236556364384,-0.0016856323417590005,0.0004796614858224903,-0.007914207412300893,-0.10750532167876312,0.0,0.10750532167876312,-0.15888636668720635,0.0,0.15888636668720635,-0.6800030688077675,0.0,0.6800030688077675,-0.13416473112728766,0,0.13416473112728766,-0.004175972939785985,-0.0010201785115224874,0.007914207412300893,0.4,0.0334317684173584,0.6456789970397949,STABILIZE
0.03,0.005,0.03,-0.09591950322613174,-0.004650937282474856,-0.00047959751613065873,0.003700995996444524,-0.001429538802160991,0.03,0.005,0.03,-0.07966634940115697,-0.0031396679670286673,-0.00039833174700578484,0.0055391906010633886,0.0020011908870289363,0.002,8e-05,0,-0.26254626319242674,-0.0013903886604633843,-2.100370105539414e-05,-0.0,-0.0014113923615187785,0.05,0.02,0.005,-0.08866094308407968,-0.006542788538459288,-0.0017732188616815937,0.0007459367016308898,-0.007570070698509993,-0.10465559890095558,0.0,0.10465559890095558,-0.15503124274916186,0.0,0.15503124274916186,-0.6951943302316921,0.0,0.6951943302316921,-0.13085577076918575,0,0.13085577076918575,-0.0014249646299593017,-0.002004450537323506,0.007570070698509993,0.4,0.03346681594848633,0.6791648864746094,STABILIZE
0.03,0.005,0.03,-0.10082370619201791,-0.0043987792418317285,-0.0005041185309600896,0.005667089520320818,0.0007641917475289996,0.03,0.005,0.03,-0.08271587591014751,-0.002735244442057727,-0.00041357937955073754,0.007489166209269627,0.004340342387661162,0.002,8e-05,0,-0.28641543688204185,-0.0014272822240556488,-2.291323495056335e-05,-0.0,-0.0014501954590062122,0.05,0.02,0.005,-0.09277691171246528,-0.006152966305471019,-0.0018555382342493058,0.0009254785346229759,-0.00708302600509735,-0.09117481473525757,0.0,0.09117481473525757,-0.1466259747277243,0.0,0.1466259747277243,-0.7136411120278244,0.0,0.7136411120278244,-0.12305932610942037,0,0.12305932610942037,0.0007735121235347492,-0.004338691054207984,0.00708302600509735,0.4,0.0334470272064209,0.7125940322875977,STABILIZE
0.03,0.005,0.03,-0.1055478407673912,-0.004236543794718829,-0.000527739203836956,0.005330424403281809,0.0005661414047260244,0.03,0.005,0.03,-0.08557496699404211,-0.0025639965154998848,-0.00042787483497021056,0.0070190620129158485,0.004027190662445753,0.002,8e-05,0,-0.31071281884146595,-0.001452638871391985,-2.485702550731728e-05,-0.0,-0.0014774958968993023,0.05,0.02,0.005,-0.09688739443602315,-0.006143714366425183,-0.001937747888720463,0.0007929857134042379,-0.007288476541741409,-0.08546655051666283,0.0,0.08546655051666283,-0.14121812649062762,0.0,0.14121812649062762,-0.7263194356959926,0.0,0.7263194356959926,-0.12287428732850367,0,0.12287428732850367,0.0005747766517749006,-0.004025967277861291,0.007288476541741409,0.4,0.033452749252319336,0.7460422515869141,STABILIZE
0.03,0.005,0.03,-0.11011105068423653,-0.004092257773586496,-0.0005505552534211827,0.00512750899088505,0.00048469596387737054,0.03,0.005,0.03,-0.08816778824964362,-0.002325225692464067,-0.00044083894124821813,0.006923883106315973,0.004157818472603688,0.002,8e-05,0,-0.3355421454411724,-0.0014844521969133364,-2.6843371635293794e-05,-0.0,-0.0015112955685486302,0.05,0.02,0.005,-0.10081457606284105,-0.005869786047355443,-0.002016291521256821,0.000731318962810568,-0.007154758605801695,-0.07750752308213557,0.0,0.07750752308213557,-0.13640859245288323,0.0,0.13640859245288323,-0.7422260984566682,0.0,0.7422260984566682,-0.11739572094710884,0,0.11739572094710884,0.0004932140688083246,-0.004156816631853396,0.007154758605801695,0.4,0.033452510833740234,0.7795088291168213,STABILIZE
0.03,0.005,0.03,-0.11460280575614819,-0.003968108653510959,-0.000573014028780741,0.004762702375488768,0.00022157969319706872,0.03,0.005,0.03,-0.0905440484008742,-0.002099237006054809,-0.000452720242004371,0.006711491463767319,0.004159534215708138,0.002,8e-05,0,-0.36101857699219403,-0.0015004268469631724,-2.8881486159375523e-05,-0.0,-0.0015293083331225478,0.05,0.02,0.005,-0.10474452848313733,-0.005786334427263975,-0.0020948905696627465,0.0005504225466472917,-0.007330802450279429,-0.06997456686849363,0.0,0.06997456686849363,-0.1322702884503653,0.0,0.1322702884503653,-0.7502134234815862,0.0,0.7502134234815862,-0.1157266885452795,0,0.1157266885452795,0.00022998071157529396,-0.0041590781820479575,0.007330802450279429,0.4,0.03395891189575195,0.8134517669677734,STABILIZE
0.03,0.005,0.03,-0.11895431797215766,-0.003901352016485612,-0.0005947715898607884,0.00447055258224961,-2.557102409679081e-05,0.03,0.005,0.03,-0.09285856909437012,-0.0020750855166043153,-0.0004642928454718506,0.006344940859404096,0.00380556249732793,0.002,8e-05,0,-0.3865707595711631,-0.0015272554165317684,-3.092566076569305e-05,-0.0,-0.0015581810772974615,0.05,0.02,0.005,-0.10861889189832913,-0.0057892730818368075,-0.0021723778379665825,0.0004497932346860556,-0.007511857685117335,-0.06916951722014385,0.0,0.06916951722014385,-0.13004506721618708,0.0,0.13004506721618708,-0.7636277082658842,0.0,0.7636277082658842,-0.11578546163673614,0,0.11578546163673614,-1.788055359479313e-05,-0.0038056064016323723,0.007511857685117335,0.4,0.033461570739746094,0.8469750881195068,STABILIZE
0.03,0.005,0.03,-0.1230103842666147,-0.003636625190557284,-0.0006150519213330736,0.00454508858702757,0.00029341147513721206,0.03,0.005,0.03,-0.09493601068026958,-0.0018626116672495296,-0.0004746800534013479,0.005196659770699534,0.0028593680500486563,0.002,8e-05,0,-0.41250249425921504,-0.00155000753201515,-3.300019954073721e-05,-0.0,-0.0015830077315558873,0.05,0.02,0.005,-0.11230273207963982,-0.005504818802579475,-0.0022460546415927966,0.00038672070471105813,-0.007364152739461214,-0.062087055574984326,0.0,0.062087055574984326,-0.1212208396852428,0.0,0.1212208396852428,-0.7750037660075749,0.0,0.7750037660075749,-0.11009637605158949,0,0.11009637605158949,0.0002989053323239651,-0.002858798968393816,0.007364152739461214,0.4,0.033460140228271484,0.8803727626800537,STABILIZE
0.03,0.005,0.03,-0.12692990001535112,-0.0035094692095668915,-0.0006346495000767557,0.004334173021397796,0.0001900543117541488,0.03,0.005,0.03,-0.09692624904688393,-0.0017820263305699234,-0.0004846312452344197,0.004653871823414572,0.002387214247610229,0.002,8e-05,0,-0.4387723379934673,-0.0015681054095388113,-3.510178703947739e-05,-0.0,-0.0016032071965782887,0.05,0.02,0.005,-0.1158596723839199,-0.005308041978639287,-0.002317193447678398,0.0004986498207053133,-0.007126585605612372,-0.059400877685664114,0.0,0.059400877685664114,-0.11698230698556306,0.0,0.11698230698556306,-0.7840527047694056,0.0,0.7840527047694056,-0.10616083957278573,0,0.10616083957278573,0.00019447714767686623,-0.0023868580067614173,0.007126585605612372,0.4,0.03350520133972168,0.9139342308044434,STABILIZE
0.03,0.005,0.03,-0.13076968520289983,-0.0034019855454668346,-0.0006538484260144991,0.004106399292408233,5.056532092689945e-05,0.03,0.005,0.03,-0.09874459025425902,-0.0016110199404581389,-0.0004937229512712952,0.004236409440726924,0.0021316665489974898,0.002,8e-05,0,-0.46570263192323724,-0.001590652709450786,-3.725621055385898e-05,-0.0,-0.001627908920004645,0.05,0.02,0.005,-0.11928843974356915,-0.005063051024364627,-0.002385768794871383,0.0004795836279351986,-0.006969236191300812,-0.05370066468193797,0.0,0.05370066468193797,-0.11339951818222782,0.0,0.11339951818222782,-0.795326354725393,0.0,0.795326354725393,-0.10126102048729255,0,0.10126102048729255,5.4332615741778854e-05,-0.0021315738539074746,0.006969236191300812,0.4,0.03386068344116211,0.9477548599243164,STABILIZE
0.03,0.005,0.03,-0.13462638075552838,-0.003337881705346163,-0.0006731319037776419,0.0037450961215421286,-0.0002659174875816765,0.03,0.005,0.03,-0.1005115528462316,-0.0015292656703888808,-0.000502557764231158,0.0033771654645301675,0.0013453420299101284,0.002,8e-05,0,-0.4933634361470175,-0.0015959861858215448,-3.94690748917614e-05,-0.0,-0.0016354552607133063,0.05,0.02,0.005,-0.12269022554065676,-0.004906946211101309,-0.0024538045108131352,0.0005205051395483584,-0.006840245582366086,-0.05097552234629603,0.0,0.05097552234629603,-0.11126272351153878,0.0,0.11126272351153878,-0.7979930929107724,0.0,0.7979930929107724,-0.09813892422202616,0,0.09813892422202616,-0.00026361273309454274,-0.001345795532239159,0.006840245582366086,0.4,0.03466296195983887,0.9824104309082031,STABILIZE
0.03,0.005,0.03,-0.13867109477595432,-0.0032864491759827153,-0.0006933554738797717,0.00362469427793486,-0.0003551103719276268,0.03,0.005,0.03,-0.10229340650830894,-0.001447808539709598,-0.0005114670325415447,0.0036740539799240456,0.001714778407672903,0.002,8e-05,0,-0.52312512030851,-0.0016121496170796359,-4.18500096246808e-05,-0.0,-0.0016539996267043167,0.05,0.02,0.005,-0.12621198836411468,-0.004769226563654124,-0.002524239767282294,0.0005968624194615752,-0.006696603911474842,-0.048260284656986605,0.0,0.048260284656986605,-0.10954830586609052,0.0,0.10954830586609052,-0.8060748085398179,0.0,0.8060748085398179,-0.09538453127308247,0,0.09538453127308247,-0.0003522551624317473,-0.0017153672097285693,0.006696603911474842,0.4,0.03692173957824707,1.0193209648132324,STABILIZE
0.03,0.005,0.03,-0.142100219589482,-0.003080134757622811,-0.0007105010979474099,0.003277801658087258,-0.0005128341974829625,0.03,0.005,0.03,-0.10360609785761232,-0.001179095679186052,-0.0005180304892880616,0.0040131444307736006,0.002316018262299487,0.002,8e-05,0,-0.5506453927390749,-0.001647964660802764,-4.405163141912599e-05,-0.0,-0.00169201629222189,0.05,0.02,0.005,-0.12888391169223712,-0.003999992398539931,-0.0025776782338447425,0.0008874682678726202,-0.005690202364512053,-0.03930318930620173,0.0,0.03930318930620173,-0.10267115858742704,0.0,0.10267115858742704,-0.823982330401382,0.0,0.823982330401382,-0.07999984797079862,0,0.07999984797079862,-0.0005095999332456063,-0.0023167320547376213,0.005690202364512053,0.4,0.033399105072021484,1.0527207851409912,STABILIZE
0.03,0.005,0.03,-0.14537910313706942,-0.0029380320833985274,-0.0007268955156853472,0.003367650001828196,-0.0002972775972556788,0.03,0.005,0.03,-0.10473796482864779,-0.0010142054229062658,-0.0005236898241432389,0.004517108195626681,0.0029792129485771766,0.002,8e-05,0,-0.5783888664845541,-0.0016572961453931024,-4.627110931876433e-05,-0.0,-0.0017035672547118668,0.05,0.02,0.005,-0.13139992898414954,-0.0037574474251879687,-0.0026279985796829907,0.0009148955185524136,-0.005470550486318546,-0.03380684743020886,0.0,0.03380684743020886,-0.09793440277995091,0.0,0.09793440277995091,-0.8286480726965512,0.0,0.8286480726965512,-0.07514894850375937,0,0.07514894850375937,-0.0002933698171580395,-0.002979600294197308,0.005470550486318546,0.4,0.03348040580749512,1.086228370666504,STABILIZE
0.03,0.005,0.03,-0.1484582592419023,-0.002763238619361348,-0.0007422912962095116,0.0037785243120334183,0.00027299439646255846,0.03,0.005,0.03,-0.10552572065498422,-0.0007069330842120072,-0.0005276286032749212,0.005345360085354642,0.004110798397867713,0.002,8e-05,0,-0.6062627013049032,-0.0016676009967882127,-4.850101610439226e-05,-0.0,-0.001716102012892605,0.05,0.02,0.005,-0.13378216859232858,-0.003563041442621602,-0.002675643371846572,0.0008864970406848709,-0.005352187773783303,-0.02356443614040024,0.0,0.02356443614040024,-0.0921079539787116,0.0,0.0921079539787116,-0.8338004983941063,0.0,0.8338004983941063,-0.07126082885243204,0,0.07126082885243204,0.00027810693233071157,-0.004110455685517278,0.005352187773783303,0.4,0.033429861068725586,1.1196227073669434,STABILIZE
0.03,0.005,0.03,-0.15151077291399198,-0.002738411751914366,-0.0007575538645699599,0.003557136251265833,6.117063478150745e-05,0.03,0.005,0.03,-0.10618118464843744,-0.0005880171214434737,-0.0005309059232421873,0.005584847610675237,0.004465924565989576,0.002,8e-05,0,-0.6346341697607727,-0.0016968040328859861,-5.077073358086182e-05,-0.0,-0.001747574766466848,0.05,0.02,0.005,-0.13609506587499706,-0.0034581691136179385,-0.0027219013174999414,0.0008591476300246757,-0.005320922801093204,-0.019600570714782457,0.0,0.019600570714782457,-0.09128039173047886,0.0,0.09128039173047886,-0.8484020164429931,0.0,0.8484020164429931,-0.06916338227235877,0,0.06916338227235877,6.656153480987358e-05,-0.0044658474713935884,0.005320922801093204,0.4,0.03344106674194336,1.1531116962432861,STABILIZE
0.03,0.005,0.03,-0.15451669300857526,-0.0026960359841739496,-0.0007725834650428764,0.003531914600702771,6.329515148594499e-05,0.03,0.005,0.03,-0.10662251205868611,-0.00039583040845856944,-0.0005331125602934305,0.006292765113039604,0.005363822144287604,0.002,8e-05,0,-0.6633097426183855,-0.001714624781726355,-5.306477940947084e-05,-0.0,-0.0017676895611358258,0.05,0.02,0.005,-0.1382312748951625,-0.003193307543593328,-0.0027646254979032496,0.0009429178891315729,-0.0050150151523650046,-0.013194346948618981,0.0,0.013194346948618981,-0.08986786613913166,0.0,0.08986786613913166,-0.8573123908631775,0.0,0.8573123908631775,-0.06386615087186656,0,0.06386615087186656,6.927402730015641e-05,-0.005363748258530905,0.0050150151523650046,0.4,0.033448219299316406,1.1865122318267822,STABILIZE
0.03,0.005,0.03,-0.15740779197339788,-0.0025910572548186587,-0.0007870389598669894,0.0029236918936912074,-0.00045440432099444093,0.03,0.005,0.03,-0.10696752021121665,-0.00030920279363065464,-0.0005348376010560833,0.005201244935328838,0.0043572045406421,0.002,8e-05,0,-0.692312522410484,-0.0017328557734062396,-5.5385001792838724e-05,-0.0,-0.0017882407751990783,0.05,0.02,0.005,-0.14039600477584507,-0.003233452705650463,-0.0028079200955169015,0.00045830038690416894,-0.0055830724142631955,-0.010306759787688488,0.0,0.010306759787688488,-0.08636857516062196,0.0,0.08636857516062196,-0.8664278867031198,0.0,0.8664278867031198,-0.06466905411300926,0,0.06466905411300926,-0.00044948610847443443,-0.004357714645799912,0.0055830724142631955,0.4,0.033473968505859375,1.2200040817260742,STABILIZE
0.03,0.005,0.03,-0.16021336378745507,-0.002507512341139163,-0.0008010668189372753,0.0025726161160504403,-0.0007359630440259978,0.03,0.005,0.03,-0.1070560989826629,-7.916830410525439e-05,-0.0005352804949133145,0.00558688931905833,0.004972440520039761,0.002,8e-05,0,-0.7214364425001015,-0.0017353227526538582,-5.7714915400008124e-05,-0.0,-0.0017930376680538663,0.05,0.02,0.005,-0.1425330915730171,-0.0031834101763406363,-0.002850661831460342,0.0003432300666272785,-0.0056908419411737,-0.0026389434701751466,0.0,0.0026389434701751466,-0.08358374470463877,0.0,0.08358374470463877,-0.8676613763269291,0.0,0.8676613763269291,-0.06366820352681272,0,0.06366820352681272,-0.000730437116513558,-0.004973255266555766,0.0056908419411737,0.4,0.03356599807739258,1.2535920143127441,STABILIZE
0.03,0.005,0.03,-0.1629226042897958,-0.0024312585459426205,-0.000814613021448979,0.0019830820317240424,-0.001262789535667557,0.03,0.005,0.03,-0.10687697876506952,0.0001607415655416205,-0.0005343848938253476,0.005183871311230003,0.004810227982946276,0.002,8e-05,0,-0.7506616664954469,-0.0017484377518196639,-6.0052933319635756e-05,-0.0,-0.0018084906851392995,0.05,0.02,0.005,-0.14463232285202032,-0.003139732323860419,-0.0028926464570404064,0.00025305413602419636,-0.005779324644876629,0.0053580521847206835,0.0,-0.0053580521847206835,-0.08104195153142069,0.0,0.08104195153142069,-0.8742188759098319,0.0,0.8742188759098319,-0.06279464647720838,0,0.06279464647720838,-0.0012575168967203338,-0.004811609077405785,0.005779324644876629,0.4,0.03343009948730469,1.2870330810546875,STABILIZE
0.03,0.005,0.03,-0.16552775697931496,-0.0023370839599308997,-0.0008276387848965748,0.002397827883582646,-0.0007668948612448287,0.03,0.005,0.03,-0.10672017563411854,0.000140668177986958,-0.0005336008781705927,0.004352621809557444,0.003959689109373809,0.002,8e-05,0,-0.7800125592262767,-0.001755380171172382,-6.240100473810214e-05,-0.0,-0.0018177811759104842,0.05,0.02,0.005,-0.14631023953361297,-0.002508766682804613,-0.0029262047906722594,0.0005676932090608776,-0.004867278264415995,0.004688939266231934,0.0,-0.004688939266231934,-0.07790279866436332,0.0,0.07790279866436332,-0.877690085586191,0.0,0.877690085586191,-0.05017533365609226,0,0.05017533365609226,-0.000763426969767877,-0.003960359179787651,0.004867278264415995,0.4,0.03344106674194336,1.320427417755127,STABILIZE
0.03,0.005,0.03,-0.1680339650002659,-0.002246126751709047,-0.0008401698250013295,0.002687900848685534,-0.0003983957280248424,0.03,0.005,0.03,-0.10636285833097184,0.00032023676675562053,-0.0005318142916548593,0.004276354814403264,0.004064777289504025,0.002,8e-05,0,-0.8095498636926273,-0.0017648050808400668,-6.476398909541019e-05,-0.0,-0.001829569069935477,0.05,0.02,0.005,-0.14787160020848952,-0.0023322179374772804,-0.0029574320041697907,0.0005148070604012991,-0.004774842881245772,0.010674558891854018,0.0,-0.010674558891854018,-0.07487089172363491,0.0,0.07487089172363491,-0.8824025404200334,0.0,0.8824025404200334,-0.04664435874954561,0,0.04664435874954561,-0.0003950864707819965,-0.004065100275513651,0.004774842881245772,0.4,0.03347373008728027,1.3539142608642578,STABILIZE
0.03,0.005,0.03,-0.17040157274238843,-0.0021257099544514753,-0.0008520078637119421,0.0027814337636168224,-0.00019628405454659523,0.03,0.005,0.03,-0.10587302923607184,0.0004397834001317501,-0.0005293651461803592,0.004474323425400504,0.004384741679351895,0.002,8e-05,0,-0.8391667376773229,-0.0017727284445230023,-6.713333901418583e-05,-0.0,-0.0018398617835371882,0.05,0.02,0.005,-0.1493508175918068,-0.002213476962824009,-0.002987016351836136,0.0006098657892331836,-0.004590627525426962,0.014659446671058339,0.0,-0.014659446671058339,-0.07085699848171584,0.0,0.07085699848171584,-0.8863642222615011,0.0,0.8863642222615011,-0.04426953925648018,0,0.04426953925648018,-0.00019289612906289713,-0.004384892029241709,0.004590627525426962,0.4,0.03341388702392578,1.3873252868652344,STABILIZE
0.03,0.005,0.03,-0.17276245360081763,-0.0021180683676828398,-0.0008638122680040881,0.002329343280300517,-0.0006525373553864107,0.03,0.005,0.03,-0.10534714812460591,0.00047179515365251644,-0.0005267357406230296,0.0032951461449666096,0.0032402055579960963,0.002,8e-05,0,-0.8688509350346649,-0.0017754152853065015,-6.95080748027732e-05,-0.0,-0.0018449233601092747,0.05,0.02,0.005,-0.1506573744007866,-0.0019536328554377413,-0.0030131474880157323,0.0007354614572084244,-0.004231318886245049,0.01572650512175055,0.0,-0.01572650512175055,-0.07060227892276133,0.0,0.07060227892276133,-0.8877076426532508,0.0,0.8877076426532508,-0.03907265710875483,0,0.03907265710875483,-0.00065032755694101,-0.003240649800105933,0.004231318886245049,0.4,0.03343915939331055,1.4207677841186523,STABILIZE
0.03,0.005,0.03,-0.17549839620266855,-0.002130355882878571,-0.0008774919810133428,0.0018093599303362358,-0.001198487933555678,0.03,0.005,0.03,-0.10469381644340997,0.0005087200987203138,-0.0005234690822170498,0.002051532224712368,0.002036783241215632,0.002,8e-05,0,-0.9033370383497683,-0.0017901855354515717,-7.226696306798147e-05,-0.0,-0.0018624524985195532,0.05,0.02,0.005,-0.15203026799727742,-0.001781684520642512,-0.0030406053599455487,0.0007985895777324562,-0.004023700302855604,0.016957336624010458,0.0,-0.016957336624010458,-0.07101186276261903,0.0,0.07101186276261903,-0.8950927677257858,0.0,0.8950927677257858,-0.035633690412850236,0,0.035633690412850236,-0.0011972209749850301,-0.0020375282171374485,0.004023700302855604,0.4,0.0385279655456543,1.4593207836151123,STABILIZE
0.03,0.005,0.03,-0.17784004165625933,-0.002098880824439766,-0.0008892002082812967,0.0014342124669941263,-0.0015538685657269366,0.03,0.005,0.03,-0.10383136856465988,0.0007730356070819911,-0.0005191568428232994,0.0037510059720302783,0.00400488473628897,0.002,8e-05,0,-0.9333174522881887,-0.0017914842980072013,-7.46653961830551e-05,-0.0,-0.0018661496941902564,0.05,0.02,0.005,-0.1531667515183595,-0.0016977687392378934,-0.0030633350303671905,0.00047137382638584775,-0.004289729943219236,0.0257678535693997,0.0,-0.0257678535693997,-0.06996269414799221,0.0,0.06996269414799221,-0.8957421490036006,0.0,0.8957421490036006,-0.033955374784757866,0,0.033955374784757866,-0.0015514948657843692,-0.004005804906876944,0.004289729943219236,0.4,0.03346991539001465,1.4927833080291748,STABILIZE
0.03,0.005,0.03,-0.18018660892105084,-0.0021051968824829115,-0.0009009330446052542,0.0008529823164362143,-0.002153147610651951,0.03,0.005,0.03,-0.10282517777979717,0.0009026929401336344,-0.0005141258888989859,0.003453584312664074,0.003842151363898722,0.002,8e-05,0,-0.963686476928469,-0.0018163489836417147,-7.709491815427752e-05,-0.0,-0.0018934439017959921,0.05,0.02,0.005,-0.15426990363158416,-0.0016494678734266617,-0.0030853980726316833,0.000394777263441118,-0.004340088682617227,0.03008976467112115,0.0,-0.03008976467112115,-0.07017322941609705,0.0,0.07017322941609705,-0.9081744918208573,0.0,0.9081744918208573,-0.03298935746853323,0,0.03298935746853323,-0.0021509350472185633,-0.0038433904510226245,0.004340088682617227,0.4,0.03343963623046875,1.5262227058410645,STABILIZE
0.03,0.005,0.03,-0.18252528751324404,-0.0020966098535770065,-0.0009126264375662202,0.00018354475669833025,-0.0028256915344448967,0.03,0.005,0.03,-0.1017470483500608,0.0009665358862744884,-0.0005087352417503041,0.003119598906086024,0.0035773995506102082,0.002,8e-05,0,-0.9943235995838702,-0.001831065156736604,-7.954588796670963e-05,-0.0,-0.0019106110447033135,0.05,0.02,0.005,-0.15528312499190264,-0.0015139103872515295,-0.003105662499838053,0.0004047220257934962,-0.004214850861296086,0.03221786287581628,0.0,-0.03221786287581628,-0.06988699511923355,0.0,0.06988699511923355,-0.9155325783683019,0.0,0.9155325783683019,-0.030278207745030587,0,0.030278207745030587,-0.0028238006473828244,-0.0035788923001928985,0.004214850861296086,0.4,0.03346371650695801,1.5597035884857178,STABILIZE
0.03,0.005,0.03,-0.18480720483225987,-0.0020462485883404728,-0.0009240360241612994,0.00043890782750916735,-0.002531376784992605,0.03,0.005,0.03,-0.10066883416022737,0.0009668598618756566,-0.0005033441708011369,0.0029300730137771427,0.0033935887048516626,0.002,8e-05,0,-1.0247081102444844,-0.001816433386333581,-8.197664881955875e-05,-0.0,-0.0018984100351531396,0.05,0.02,0.005,-0.15630776865232202,-0.001531369860345806,-0.0031261553730464403,0.00023887141888773896,-0.004418653814504508,0.03222866206252189,0.0,-0.03222866206252189,-0.06820828627801576,0.0,0.06820828627801576,-0.9082166931667904,0.0,0.9082166931667904,-0.030627397206916117,0,0.030627397206916117,-0.002529562384232128,-0.0033949413646739398,0.004418653814504508,0.4,0.03345513343811035,1.5931401252746582,STABILIZE
0.03,0.005,0.03,-0.1869471466608272,-0.0019183889908152365,-0.0009347357333041361,0.0012668395096536078,-0.0015862852144657646,0.03,0.005,0.03,-0.09959663667799233,0.0009611905419301047,-0.0004979831833899617,0.0027045119290815467,0.0031677192876216897,0.002,8e-05,0,-1.0549996688551866,-0.0018103605053697632,-8.439997350841493e-05,-0.0,-0.001894760478878178,0.05,0.02,0.005,-0.15728475680228135,-0.0014597307319437105,-0.003145695136045627,0.00019242722662762482,-0.0044129986413617124,0.03203968473100349,0.0,-0.03203968473100349,-0.06394629969384122,0.0,0.06394629969384122,-0.9051802526848816,0.0,0.9051802526848816,-0.029194614638874208,0,0.029194614638874208,-0.0015846709221152679,-0.0031685271555417526,0.0044129986413617124,0.4,0.033464670181274414,1.6266179084777832,STABILIZE
0.03,0.005,0.03,-0.18916396535586819,-0.0017979563731302954,-0.0009458198267793409,0.0017299409897375273,-0.0010138352101721091,0.03,0.005,0.03,-0.0982628341689648,0.001081783876583064,-0.0004913141708448239,0.0017771406784179331,0.002367610384156173,0.002,8e-05,0,-1.088598278582678,-0.0018166824565008597,-8.708786228661425e-05,-0.0,-0.001903770318787474,0.05,0.02,0.005,-0.15818616093336701,-0.0012184768093401297,-0.0031637232186673405,0.00027272962103495733,-0.0041094704069725135,0.0360594625527688,0.0,-0.0360594625527688,-0.05993187910434318,0.0,0.05993187910434318,-0.9083412282504298,0.0,0.9083412282504298,-0.02436953618680259,0,0.02436953618680259,-0.00101282810598545,-0.0023680413831423624,0.0041094704069725135,0.4,0.03698897361755371,1.6636121273040771,STABILIZE
0.03,0.005,0.03,-0.19111572080579922,-0.0017506213786124517,-0.0009555786040289961,0.0020507634392227525,-0.0006554365434186952,0.03,0.005,0.03,-0.0971901247104143,0.000962163631332317,-0.0004859506235520715,0.0002863828488025255,0.000762595856582771,0.002,8e-05,0,-1.1190091656866297,-0.0018184637871726805,-8.952073325493038e-05,-0.0,-0.0019079845204276109,0.05,0.02,0.005,-0.15895706129813245,-0.001152428069635272,-0.003179141225962649,0.0002833360458921332,-0.004048233249705788,0.03207212104441057,0.0,-0.03207212104441057,-0.05835404595374839,0.0,0.05835404595374839,-0.9092318935863403,0.0,0.9092318935863403,-0.02304856139270544,0,0.02304856139270544,-0.0006551297184546479,-0.0007628594594834562,0.004048233249705788,0.4,0.0334467887878418,1.697054386138916,STABILIZE
0.03,0.005,0.03,-0.19296107659657824,-0.0016555759608751785,-0.0009648053829828912,0.0025679138078459037,-5.246753601216613e-05,0.03,0.005,0.03,-0.09603038887253598,0.0010404664421630294,-0.0004801519443626799,0.00037315102089878634,0.0009334655186991358,0.002,8e-05,0,-1.1493986483302505,-0.0018176114394710865,-9.195189186642005e-05,0.0,-0.0019095633313375064,0.05,0.02,0.005,-0.15966141662490269,-0.001053196853006245,-0.0031932283324980536,0.00026166918298224396,-0.0039847560025220545,0.03468221473876765,0.0,-0.03468221473876765,-0.055185865362505956,0.0,0.055185865362505956,-0.9088057197355432,0.0,0.9088057197355432,-0.0210639370601249,0,0.0210639370601249,-5.212435782682676e-05,-0.0009334847445226813,0.0039847560025220545,0.4,0.033438920974731445,1.730508804321289,STABILIZE
0.03,0.005,0.03,-0.19483860565578703,-0.0016825450235000913,-0.0009741930282789352,0.002105724401259503,-0.0005510136505195236,0.03,0.005,0.03,-0.09494651402693297,0.0009713129171672026,-0.00047473257013466486,-4.193131625920982e-05,0.000454649030773328,0.002,8e-05,0,-1.1797261411422453,-0.0018118626661916882,-9.437809129137963e-05,0.0,-0.0019062407574830678,0.05,0.02,0.005,-0.16028723358167896,-0.0009347083081362884,-0.003205744671633579,0.0003428956231460642,-0.0037975573566238026,0.032377097238906756,0.0,-0.032377097238906756,-0.056084834116669716,0.0,0.056084834116669716,-0.9059313330958441,0.0,0.9059313330958441,-0.01869416616272577,0,0.01869416616272577,-0.0005508652806939582,-0.0004548287884115791,0.0037975573566238026,0.4,0.03347659111022949,1.7639687061309814,STABILIZE
0.03,0.005,0.03,-0.19674408576012653,-0.0017120560156131837,-0.0009837204288006326,0.0011648086360245983,-0.0015309678083892178,0.03,0.005,0.03,-0.09394637121188311,0.0008986189459962657,-0.00046973185605941555,-0.00044348124229132743,-1.4594152354477277e-05,0.002,8e-05,0,-1.2098688548550731,-0.001805529718255823,-9.678950838840586e-05,0.0,-0.001902319226644229,0.05,0.02,0.005,-0.1608344101849672,-0.0008193884165369207,-0.003216688203699344,0.0003691567354116175,-0.003666919884824647,0.029953964866542192,0.0,-0.029953964866542192,-0.05706853385377279,0.0,0.05706853385377279,-0.9027648591279115,0.0,0.9027648591279115,-0.016387768330738413,0,0.016387768330738413,-0.0015309719199936211,1.4156263563366176e-05,0.003666919884824647,0.4,0.03338932991027832,1.797356128692627,STABILIZE
0.03,0.005,0.03,-0.19865891951479672,-0.0017170639407679976,-0.0009932945975739836,0.000483689511223863,-0.002226669027118118,0.03,0.005,0.03,-0.09288756405081137,0.0009494503593688459,-0.0004644378202540569,-0.000791655479879861,-0.00030664294076507205,0.002,8e-05,0,-1.240143453211863,-0.001809849759642491,-9.921147625694905e-05,0.0,-0.00190906123589944,0.05,0.02,0.005,-0.161278961169011,-0.0006643940260895853,-0.00322557922338022,0.00033136773640054335,-0.003558605513069262,0.031648345312294865,0.0,-0.031648345312294865,-0.05723546469226659,0.0,0.05723546469226659,-0.9049248798212455,0.0,0.9049248798212455,-0.013287880521791704,0,0.013287880521791704,-0.002226740083028469,0.0003061265295307855,0.003558605513069262,0.4,0.03345537185668945,1.8308215141296387,STABILIZE
0.03,0.005,0.03,-0.20049046766997197,-0.0016438446800097443,-0.0010024523383498599,0.000638746234482791,-0.0020075507838768136,0.03,0.005,0.03,-0.09150395242901382,0.0012418142527483404,-0.00045751976214506915,0.0016729741740125112,0.0024572686646157824,0.002,8e-05,0,-1.2713925428383894,-0.0018697715588336236,-0.00010171140342707116,-0.0,-0.001971482962260695,0.05,0.02,0.005,-0.16143854869409274,-0.0002387207268345344,-0.003228770973881855,0.0005465721245906128,-0.0029209195761257765,0.04139380842494468,0.0,-0.04139380842494468,-0.054794822666991476,0.0,0.054794822666991476,-0.9348857794168117,0.0,0.9348857794168117,-0.004774414536690688,0,0.004774414536690688,-0.0020073460145435497,-0.002457435943792466,0.0029209195761257765,0.4,0.03342556953430176,1.8642263412475586,STABILIZE
0.03,0.005,0.03,-0.20226508463624857,-0.00159092101058474,-0.0010113254231812429,0.000386576974266242,-0.002215669459499741,0.03,0.005,0.03,-0.09007477994019918,0.001281234533092216,-0.0004503738997009959,0.0014402392701747591,0.0022710999035659794,0.002,8e-05,0,-1.3025687415038951,-0.001863270419463446,-0.00010420549932031162,-0.0,-0.0019674759187837576,0.05,0.02,0.005,-0.1615700235594961,-0.00019644250910555842,-0.003231400471189922,0.0005124893102978666,-0.0029153536699976137,0.04270781776974054,0.0,-0.04270781776974054,-0.05303070035282467,0.0,0.05303070035282467,-0.931635209731723,0.0,0.931635209731723,-0.003928850182111168,0,0.003928850182111168,-0.002215513721855597,-0.0022712518297200853,0.0029153536699976137,0.4,0.03346395492553711,1.8976976871490479,STABILIZE
0.03,0.005,0.03,-0.20408521212745964,-0.0016306982079012289,-0.0010204260606372982,0.0003101162502385168,-0.0023410080183000103,0.03,0.005,0.03,-0.08882671707767073,0.0011181710529074172,-0.00044413358538835366,0.0008794335509434072,0.0015534710184624708,0.002,8e-05,0,-1.3335760827019998,-0.0018520173620690573,-0.00010668608661615999,-0.0,-0.0019587034486852175,0.05,0.02,0.005,-0.16168400822029944,-0.00017020289604051766,-0.003233680164405989,0.00045737290338965106,-0.0029465101570568556,0.03727236843024724,0.0,-0.03727236843024724,-0.05435660693004096,0.0,0.05435660693004096,-0.9260086810345286,0.0,0.9260086810345286,-0.0034040579208103527,0,0.0034040579208103527,-0.0023409157193193175,-0.0015536100997327127,0.0029465101570568556,0.4,0.03348493576049805,1.9312000274658203,STABILIZE
0.03,0.005,0.03,-0.20597678706865283,-0.0016821576198594206,-0.001029883935343264,0.00018180317158803704,-0.0025302383836146476,0.03,0.005,0.03,-0.08773536227301185,0.0009705303028962298,-0.0004386768113650592,0.0004395634971823289,0.0009714169887134996,0.002,8e-05,0,-1.3649439551332117,-0.0018596745135443396,-0.00010919551641065694,-0.0,-0.0019688700299549966,0.05,0.02,0.005,-0.16176981490720332,-0.00012717830088473348,-0.0032353962981440665,0.0004138045542561645,-0.002948770044772635,0.032351010096541,0.0,-0.032351010096541,-0.05607192066198069,0.0,0.05607192066198069,-0.9298372567721698,0.0,0.9298372567721698,-0.0025435660176946697,0,0.0025435660176946697,-0.0025301952564224443,-0.0009715293141513687,0.002948770044772635,0.4,0.033734798431396484,1.9649126529693604,STABILIZE
0.03,0.005,0.03,-0.20784871605236163,-0.0016776699030803146,-0.0010392435802618082,0.0002385544804353062,-0.0024783590029068166,0.03,0.005,0.03,-0.08663716771015481,0.0009842296272272978,-0.00043318583855077406,0.0002175387508048446,0.0007685825394813683,0.002,8e-05,0,-1.3960763870547321,-0.0018601113076042062,-0.00011168611096437858,-0.0,-0.0019717974185685847,0.05,0.02,0.005,-0.1618726297569,-0.000153575429790158,-0.003237452595138,0.00030537530530402396,-0.003085652719624134,0.03280765424090993,0.0,-0.03280765424090993,-0.05592233010267716,0.0,0.05592233010267716,-0.9300556538021031,0.0,0.9300556538021031,-0.00307150859580316,0,0.00307150859580316,-0.002478317797220544,-0.0007687153980926939,0.003085652719624134,0.4,0.03347373008728027,1.9984135627746582,STABILIZE
0.03,0.005,0.03,-0.20966887472675622,-0.0016320043628109526,-0.0010483443736337811,7.341772030035374e-05,-0.00260693101614438,0.03,0.005,0.03,-0.08540780321083051,0.0011022820452999795,-0.00042703901605415257,-0.0008261437132189197,-0.00015090068397309272,0.002,8e-05,0,-1.4270591499518006,-0.0018519998624761348,-0.00011416473199614406,0.0,-0.001966164594472279,0.05,0.02,0.005,-0.1618586036511454,2.096032075554011e-05,-0.003237172073022908,0.0001550051387642657,-0.003061206613503102,0.03674273484333265,0.0,-0.03674273484333265,-0.054400145427031754,0.0,0.054400145427031754,-0.9259999312380673,0.0,0.9259999312380673,0.00041920641511080216,0,-0.00041920641511080216,-0.0026069299120048918,0.00015091975766374813,0.003061206613503102,0.4,0.033458709716796875,2.0318846702575684,STABILIZE
0.03,0.005,0.03,-0.2114278664196863,-0.001562971377789016,-0.0010571393320984316,0.000166048626247145,-0.0024540620836403025,0.03,0.005,0.03,-0.08405298499940539,0.0012038385940512475,-0.00042026492499702695,-0.0004601475931712601,0.00032342607588296043,0.002,8e-05,0,-1.4580682474414814,-0.0018368982647745016,-0.00011664545979531852,0.0,-0.0019535437245698202,0.05,0.02,0.005,-0.16197222191228414,-0.0001682612552670185,-0.003239444438245683,1.7647285168620328e-05,-0.003390058408344081,0.04012795313504158,0.0,-0.04012795313504158,-0.05209904592630053,0.0,0.05209904592630053,-0.9184491323872508,0.0,0.9184491323872508,-0.0033652251053403696,0,0.0033652251053403696,-0.002454043083216772,-0.0003235702128409726,0.003390058408344081,0.4,0.033762454986572266,2.0656139850616455,STABILIZE
0.03,0.005,0.03,-0.2131559810889668,-0.0015464777828761895,-0.0010657799054448341,0.000502031288499069,-0.002110226399821955,0.03,0.005,0.03,-0.08278747100876947,0.0011324996571276617,-0.00041393735504384737,8.819890096178083e-05,0.0008067612030455951,0.002,8e-05,0,-1.4889192109154448,-0.0018405541576965532,-0.00011911353687323559,0.0,-0.001959667694569789,0.05,0.02,0.005,-0.1621115837162155,-0.00020785651302792269,-0.0032422316743243103,-2.1647550004248598e-05,-0.0034717357373564815,0.03774998857092206,0.0,-0.03774998857092206,-0.051549259429206316,0.0,0.051549259429206316,-0.9202770788482766,0.0,0.9202770788482766,-0.0041571302605584535,0,0.0041571302605584535,-0.002110167859215957,-0.0008069143096866299,0.0034717357373564815,0.4,0.0335235595703125,2.099151372909546,STABILIZE
0.03,0.005,0.03,-0.21489337418083665,-0.001522269490805465,-0.0010744668709041832,0.000948518879937483,-0.0016482174817721651,0.03,0.005,0.03,-0.08147110787359645,0.001153371363609078,-0.0004073555393679822,0.0010854171449847037,0.0018314329692257995,0.002,8e-05,0,-1.5201651803712526,-0.0018251400613096874,-0.00012161321442970022,0.0,-0.0019467532757393876,0.05,0.02,0.005,-0.16228426696432685,-0.0002521694153951878,-0.003245685339286537,-7.30391549500097e-05,-0.003570893909631735,0.0384457121203026,0.0,-0.0384457121203026,-0.050742316360182164,0.0,0.050742316360182164,-0.9125700306548437,0.0,0.9125700306548437,-0.0050433883079037565,0,0.0050433883079037565,-0.0016480562658232184,-0.0018315780443834315,0.003570893909631735,0.4,0.03423953056335449,2.133376121520996,STABILIZE
0.03,0.005,0.03,-0.21653794305584542,-0.0014752174624074693,-0.001082689715279227,0.0012030841177345433,-0.001354823059952153,0.03,0.005,0.03,-0.08016371655086484,0.0011727611648270815,-0.0004008185827543242,0.0011195200392726387,0.001891462621345396,0.002,8e-05,0,-1.5505283575383002,-0.0018157662210310775,-0.00012404226860306401,0.0,-0.0019398084896341415,0.05,0.02,0.005,-0.16244912814203707,-0.00024647400698442573,-0.0032489825628407415,-5.386136240308993e-05,-0.003549317932228257,0.039092038827569384,0.0,-0.039092038827569384,-0.04917391541358231,0.0,0.04917391541358231,-0.9078831105155387,0.0,0.9078831105155387,-0.004929480139688514,0,0.004929480139688514,-0.0013546603217052464,-0.0018915791774394087,0.003549317932228257,0.4,0.03344392776489258,2.1668410301208496,STABILIZE
0.03,0.005,0.03,-0.21813680184324216,-0.0014344393963893387,-0.0010906840092162109,0.0011740151463727436,-0.0013511082592328062,0.03,0.005,0.03,-0.07882701903387809,0.0011992376028051456,-0.0003941350951693905,0.0005722178656383627,0.0013773203732741178,0.002,8e-05,0,-1.5808856899526502,-0.0018157014627219342,-0.00012647085519621202,0.0,-0.0019421723179181463,0.05,0.02,0.005,-0.16260952883441682,-0.00023984302029602438,-0.0032521905766883363,-0.00015422434342359992,-0.0036462579404079607,0.03997458676017152,0.0,-0.03997458676017152,-0.04781464654631129,0.0,0.04781464654631129,-0.9078507313609671,0.0,0.9078507313609671,-0.004796860405920487,0,0.004796860405920487,-0.0013509929438480705,-0.0013774334845921901,0.0036462579404079607,0.4,0.033438682556152344,2.2002768516540527,STABILIZE
0.03,0.005,0.03,-0.21976124007179026,-0.001456661341718088,-0.0010988062003589513,0.0006322363974829634,-0.0019232311445940757,0.03,0.005,0.03,-0.07751726639566292,0.0011744774296567494,-0.0003875863319783146,-0.00017739582696756108,0.0006094952707108737,0.002,8e-05,0,-1.6111222134690981,-0.001807573602587356,-0.00012888977707752787,0.0,-0.0019364633796648838,0.05,0.02,0.005,-0.16272679802129184,-0.00017526211840859568,-0.0032545359604258368,-3.527210224930147e-06,-0.0034333252890593625,0.03914924765522498,0.0,-0.03914924765522498,-0.0485553780572696,0.0,0.0485553780572696,-0.9037868012936779,0.0,0.9037868012936779,-0.0035052423681719135,0,0.0035052423681719135,-0.001923193853280904,-0.0006096129290444136,0.0034333252890593625,0.4,0.03345537185668945,2.233729600906372,STABILIZE
0.03,0.005,0.03,-0.22133711780360085,-0.0014109946291712514,-0.0011066855890180043,0.0008064272622518966,-0.0017112529559373591,0.03,0.005,0.03,-0.07616461972063657,0.0012111200984074332,-0.0003808230986031828,0.0004669340867344136,0.001297231086538664,0.002,8e-05,0,-1.6421842865656382,-0.0018541378528475255,-0.00013137474292525107,-0.0,-0.0019855125957727766,0.05,0.02,0.005,-0.16264102645293324,0.00012799557123691638,-0.003252820529058665,0.00020111382140713542,-0.002923711136414613,0.04037066994691444,0.0,-0.04037066994691444,-0.04703315430570838,0.0,0.04703315430570838,-0.9270689264237627,0.0,0.9270689264237627,0.0025599114247383276,0,-0.0025599114247383276,-0.0017113109130651731,-0.0012971546283734548,0.002923711136414613,0.4,0.03350567817687988,2.2672698497772217,STABILIZE
0.03,0.005,0.03,-0.2228688934871464,-0.0013759716891276546,-0.001114344467435732,0.0008747590464582674,-0.0016155571101051191,0.03,0.005,0.03,-0.07482324088992451,0.001204940981425408,-0.00037411620444962256,0.00030801417257675975,0.0011388389495525452,0.002,8e-05,0,-1.6730898281184092,-0.0018507997252504454,-0.00013384718624947275,-0.0,-0.001984646911499918,0.05,0.02,0.005,-0.16251242931680318,0.00019252821036247264,-0.0032502485863360638,0.0002656436980816417,-0.0027920766778919493,0.040164699380846935,0.0,-0.040164699380846935,-0.04586572297092182,0.0,0.04586572297092182,-0.9253998626252227,0.0,0.9253998626252227,0.0038505642072494523,0,-0.0038505642072494523,-0.0016156336421550574,-0.001138730373427324,0.0027920766778919493,0.4,0.03339695930480957,2.300635814666748,STABILIZE
0.03,0.005,0.03,-0.22429679090535554,-0.0012778972509301608,-0.0011214839545267777,0.0011785254420677584,-0.0012208557633891803,0.03,0.005,0.03,-0.07349071483432057,0.0011925446194760577,-0.00036745357417160285,0.00011809922764064029,0.0009431902729450951,0.002,8e-05,0,-1.7040339641098632,-0.0018462309599001346,-0.00013632271712878908,-0.0,-0.0019825536770289236,0.05,0.02,0.005,-0.1625037792759889,1.2902261320308284e-05,-0.0032500755855197783,0.00015506688637580208,-0.003082106437823668,0.03975148731586859,0.0,-0.03975148731586859,-0.04259657503100536,0.0,0.04259657503100536,-0.9231154799500673,0.0,0.9231154799500673,0.00025804522640616567,0,-0.00025804522640616567,-0.0012208600112594455,-0.0009431847745200346,0.003082106437823668,0.4,0.033521413803100586,2.3341591358184814,STABILIZE
0.03,0.005,0.03,-0.22587287704070014,-0.001413373705267521,-0.0011293643852035007,0.00012469389522296926,-0.0024180441952480524,0.03,0.005,0.03,-0.07211366089957022,0.00123488924777945,-0.0003605683044978511,0.00021289469689193726,0.0010872156401735362,0.002,8e-05,0,-1.734560226260437,-0.0018249855459957977,-0.00013876481810083498,-0.0,-0.001963750364096633,0.05,0.02,0.005,-0.16199526942681436,0.0007600202738239695,-0.0032399053885362873,0.0005977587156519731,-0.001882126399060345,0.04116297492598167,0.0,-0.04116297492598167,-0.0471124568422507,0.0,0.0471124568422507,-0.9124927729978989,0.0,0.9124927729978989,0.015200405476479389,0,-0.015200405476479389,-0.002418332545332234,-0.0010865741017517731,0.001882126399060345,0.4,0.03345370292663574,2.367623805999756,STABILIZE
0.03,0.005,0.03,-0.22726289336541017,-0.0012427404304637363,-0.0011363144668270508,0.0012745673963860471,-0.00110448750090474,0.03,0.005,0.03,-0.07026477297767353,0.001652993372157997,-0.00035132386488836764,0.002852946415476218,0.004154615922745847,0.002,8e-05,0,-1.764948207523681,-0.0018112196355624863,-0.0001411958566018945,-0.0,-0.0019524154921643807,0.05,0.02,0.005,-0.16311612537219058,-0.0016701638382259972,-0.0032623225074438116,-0.0008893149441537432,-0.005821801289823552,0.05509977907193324,0.0,-0.05509977907193324,-0.041424681015457876,0.0,0.041424681015457876,-0.9056098177812432,0.0,0.9056098177812432,-0.03340327676451994,0,0.03340327676451994,-0.0011020651840562938,-0.004155259129738973,0.005821801289823552,0.4,0.03355526924133301,2.401165723800659,STABILIZE
0.03,0.005,0.03,-0.2277337860789809,-0.0004223839161891662,-0.0011386689303949046,0.0059076289327661055,0.004346576086182035,0.03,0.005,0.03,-0.06856174997404509,0.001527586868308548,-0.00034280874987022543,0.0018843025524217182,0.0030690806708600408,0.002,8e-05,0,-1.794869825568134,-0.0017892837503610058,-0.00014358958604545073,0.0,-0.0019328733364064564,0.05,0.02,0.005,-0.164900339567918,-0.0026673569781851445,-0.00329800679135836,-0.0016666454588462054,-0.00763200922838971,0.0509195622769516,0.0,-0.0509195622769516,-0.014079463872972209,0.0,0.014079463872972209,-0.8946418751805029,0.0,0.8946418751805029,-0.053347139563702885,0,0.053347139563702885,0.004349431771261158,-0.0030650323170172745,0.00763200922838971,0.4,0.03344535827636719,2.434619903564453,STABILIZE
0.03,0.005,0.03,-0.22913229522135442,-0.0011944231936469741,-0.0011456614761067721,0.001302059952397763,-0.0010380247173559834,0.03,0.005,0.03,-0.06694432348964276,0.0013813936916495626,-0.00033472161744821377,0.0010889129644836677,0.0021355850386850167,0.002,8e-05,0,-1.8263114345275133,-0.0017902200683471798,-0.00014610491476220108,0.0,-0.001936324983109381,0.05,0.02,0.005,-0.16644832348480437,-0.0022034749216149653,-0.0033289664696960876,-0.0014411664444378169,-0.00697360783574887,0.04604645638831875,0.0,-0.04604645638831875,-0.03981410645489914,0.0,0.03981410645489914,-0.8951100341735899,0.0,0.8951100341735899,-0.044069498432299306,0,0.044069498432299306,-0.0010363818084771,-0.0021363828117533126,0.00697360783574887,0.4,0.0351259708404541,2.4697747230529785,STABILIZE
0.03,0.005,0.03,-0.22875057884862302,0.00034186763516673424,-0.0011437528942431152,0.009889661179054085,0.009087775919977704,0.03,0.005,0.03,-0.06498283311687038,0.0017567233764265232,-0.0003249141655843519,0.0034038583278371845,0.0048356675386793556,0.002,8e-05,0,-1.8559766564068203,-0.001771224216906737,-0.00014847813251254562,0.0,-0.0019197023494192827,0.05,0.02,0.005,-0.16811596461538217,-0.0024892501795592027,-0.0033623192923076433,-0.0015046236817812756,-0.007356193153648122,0.05855744588088411,0.0,-0.05855744588088411,0.011395587838891143,0.0,-0.011395587838891143,-0.8856121084533685,0.0,0.8856121084533685,-0.049785003591184054,0,0.049785003591184054,0.00909197425944368,-0.0048277692345406725,0.007356193153648122,0.4,0.033496856689453125,2.5032498836517334,STABILIZE
0.03,0.005,0.03,-0.22967076898502864,-0.000825238335197822,-0.0011483538449251433,0.0037217576490088753,0.00174816546888591,0.03,0.005,0.03,-0.06327435911169565,0.0015321814350959713,-0.0003163717955584783,0.0018082240680817408,0.003024033707619234,0.002,8e-05,0,-1.8854248396990905,-0.001760633938085801,-0.00015083398717592725,0.0,-0.0019114679252617284,0.05,0.02,0.005,-0.16826888388725816,-0.0002285666123951844,-0.0033653776777451635,-0.0005996748590812224,-0.00419361914922157,0.05107271450319904,0.0,-0.05107271450319904,-0.027507944506594068,0.0,0.027507944506594068,-0.8803169690429005,0.0,0.8803169690429005,-0.004571332247903688,0,0.004571332247903688,0.0017484067352428962,-0.003023894220964037,0.00419361914922157,0.4,0.03345179557800293,2.5367090702056885,STABILIZE
0.03,0.005,0.03,-0.23187971532455376,-0.0019813786188412254,-0.001159398576622769,-0.004208828073130608,-0.007349605268594602,0.03,0.005,0.03,-0.06180259823200017,0.001320138695493395,-0.00030901299116000086,-0.001951794519184959,-0.0009406688148515649,0.002,8e-05,0,-1.9148440375657585,-0.0017592269699953297,-0.0001531875230052607,0.0,-0.0019124144930005905,0.05,0.02,0.005,-0.1669223804629935,0.0020129756340512782,-0.0033384476092598704,0.002189202583143697,0.0008637306079351047,0.04400462318311317,0.0,-0.04400462318311317,-0.06604595396137418,0.0,0.06604595396137418,-0.8796134849976649,0.0,0.8796134849976649,0.04025951268102556,0,-0.04025951268102556,-0.007348942482940792,0.0009458328635735823,-0.0008637306079351047,0.4,0.03344559669494629,2.5701582431793213,STABILIZE
