Mode,Time,Freq,North-Vision,East-Vision,Down-Vision,Yaw-Vision,North-Desired,East-Desired,Down-Desired,Roll-UAV,Pitch-UAV,Yaw-UAV,Roll-Control,Pitch-Control,Yaw-Control,Thrust-Control,northVraw,eastVraw,downVraw,yawVraw,zGyro
GUIDED_NOGPS,0.010139226913452148,98.89893892949776,219.3674367728935,1.2434380510983865,-44.14105962630117,-0.00019316527407919643,220.84158615369643,5.585779083119636,50,-0.42547228027651673,-0.7816842545741356,120.69523463454148,-0.24332709186928483,0.10325665325643305,1.9316527407919644e-05,0.5094563799558249,219.3674367728935,1.2434380510983865,-44.14105962630117,-0.4831063504720703,0.34377467707849396
GUIDED_NOGPS,0.04867267608642578,25.95372725191359,219.184003874485,0.9895996655957703,-43.736127586362,-0.0017128953109697038,220.84152378171066,5.585762366727189,50,-0.5955570106579395,-0.2617642518568148,120.67970278436887,-0.2582556702692866,0.11641470816222232,0.0001712895310969704,0.5095980510750583,219.0005709760765,0.7357612800931541,-43.33119554642284,-2.866655811659271,-0.4583662361046586
GUIDED_NOGPS,0.09607982635498047,21.09757802872161,218.38018839451607,0.6632382530906763,-42.46763881980829,-0.010758167255315672,220.84109221113695,5.585646700968079,50,-0.5671326981792555,0.43565587888559415,120.61941953475434,-0.27745615755522995,0.17323321423649207,0.0010758167255315672,0.5096897486359402,216.77255743457826,0.01051542808048826,-39.93066128670087,-3.785141477084437,-0.4583662361046586
GUIDED_NOGPS,0.13470172882080078,25.900038285312025,218.90623312437117,0.13270778496552124,-40.73677802898879,-0.029031508815356946,220.83993599308684,5.585336821549487,50,-0.49114262815548526,0.7648557890371349,120.5770177203869,-0.3079891893396753,0.13670181743137577,0.002903150881535695,0.5096915334464074,220.48436731393647,-0.3481533532770787,-38.948477253842654,-3.949143126119779,-0.5729577951308232
GUIDED_NOGPS,0.17290282249450684,27.04763624404305,218.49358407408377,-0.3387780945863376,-38.256566538966865,-0.04756762446274161,220.83771449258964,5.584741434474868,50,-0.3782762067202575,1.0258825672265734,120.55272956769834,-0.3352198963076638,0.16585757379400146,0.004756762446274161,0.5096038365954537,216.84298787293423,-0.6786963585624224,-35.89056107635708,-2.5125965195629902,-0.5729577951308232
GUIDED_NOGPS,0.2000436782836914,35.28242399771194,218.69049683545046,-0.6937932994710754,-36.50010094969902,-0.07711558947637906,220.83410168426246,5.583773161281244,50,-0.3498743591606404,1.1539584325612444,120.52792232063285,-0.35577929118660434,0.15213355684067048,0.007711558947637906,0.5095544021489065,220.35200057972693,-1.054530186573725,-34.661264518897326,-3.1240001613753634,-1.0313240312354819
GUIDED_NOGPS,0.2394554615020752,25.379724316539797,218.5257413415349,-1.0901889209353168,-34.05262087967014,-0.11731321175817279,220.82878594798044,5.582348484276503,50,-0.3286841775083519,1.3717695366549545,120.44182095595566,-0.37895273309075106,0.16374953983410181,0.01173132117581728,0.509475785312261,218.17679350649888,-1.537340217669803,-31.60603704375603,-4.5875355699660645,-1.5469860468532228
GUIDED_NOGPS,0.2686951160430908,34.2079404952207,218.71775503141498,-1.4687312798971295,-31.94626019017566,-0.16772054737086214,220.8214698645467,5.580387691776681,50,-0.25568743788833975,1.4235481335357634,120.39481559408765,-0.40086609215500946,0.1501041405681796,0.016772054737086216,0.5093850021040333,217.7326258839784,-1.8143234354478612,-29.571479007873624,-3.2904376567560973,-1.5469860468532228
GUIDED_NOGPS,0.30303096771240234,29.130550134390866,218.4171573066429,-1.853867054630511,-29.818338078196007,-0.20991282992645105,220.81187001136254,5.577814823343266,50,-0.18907928636002996,1.464879315750803,120.34798781713803,-0.42331100906727936,0.17088539669771252,0.020991282992645105,0.5093093356230375,218.98137869007618,-2.2099375107738695,-28.277498182958364,-0.6002319708783261,-1.604281826366305
GUIDED_NOGPS,0.3428308963775635,25.133201104965753,218.34381834416226,-2.1985858564436067,-28.01123519017923,-0.25751633322538425,220.79971675809747,5.57455761502048,50,-0.056777748404516055,1.4926201290648098,120.26919475487277,-0.44364710062216695,0.1756479410400946,0.025751633322538426,0.5092809519693782,216.4762930605309,-2.5714966231090894,-26.184728379705707,-3.2323320352126643,-1.4896902673401404
GUIDED_NOGPS,0.3784792423248291,28.057046530918043,217.46842649095214,-2.5318728633215115,-26.471441952257546,-0.3100208686030588,220.78475406235938,5.570547444572581,50,0.09365084480394724,1.3579571866058961,120.22136977030434,-0.4632611026706588,0.23647888647802714,0.03100208686030588,0.5092655356376088,215.97504131367637,-2.8141844560815756,-24.952099294108567,-4.2203002857291665,-1.3750987083139758
GUIDED_NOGPS,0.4295461177825928,19.58499992995858,217.41888650188434,-2.8588589031569516,-24.969455084470884,-0.3394302722806777,220.7667392653646,5.565719276721151,50,0.27241635875427284,1.1451280651814757,120.16840848348005,-0.4830204328866119,0.23953929050211398,0.03394302722806777,0.5093064952052847,217.92909356115973,-3.1908956302801896,-23.771537579598387,-3.865887328480312,-0.5729577951308232
GUIDED_NOGPS,0.46550536155700684,27.81792979035264,217.58138717010007,-3.3304047836676407,-23.586585986338303,-0.3678201542213048,220.745442887608,5.560011608382389,50,0.4030720879240781,0.9604420979018582,120.15966584134244,-0.5103737816263625,0.2272368831834762,0.036782015422130485,0.509299235207236,218.545129225057,-3.9861342646411577,-22.03612108530795,-4.617364345267106,0.0
GUIDED_NOGPS,0.5026791095733643,26.90346499724186,217.157876715469,-3.8615972249135706,-22.33004065948438,-0.3690340082940237,220.7206484245331,5.553366413904405,50,0.5411017800352791,0.6183083174223991,120.16264380382057,-0.5411701320643655,0.25581949709020013,0.036903400829402376,0.5093101079581955,216.8638264169208,-4.407761779819366,-21.182463313546794,-2.4995969673950498,0.2291831180523293
GUIDED_NOGPS,0.5300898551940918,36.4950577753028,217.52107104056654,-4.4123771496003155,-21.398456341785216,-0.3539044354950564,220.69215214220216,5.545729090304512,50,0.638940664718568,0.4958021511907562,120.17616757837719,-0.5726722846095278,0.22883350626402355,0.03539044354950564,0.5093142956445029,218.2922646860187,-4.843235404340425,-20.9767846265009,-1.6567601177930698,0.8021409131831525
GUIDED_NOGPS,0.5734410285949707,23.07186745364233,218.18812783177685,-4.959591307322889,-21.04649353002326,-0.3219094844301199,220.6597628729663,5.537048402506517,50,0.8317232876507068,0.2320683235733183,120.20914373169002,-0.6046545599069748,0.18040926976411892,0.03219094844301199,0.5094334550620594,219.31032526972797,-5.627776737808881,-20.98023265002209,0.05536789638408379,1.3178029288008934
GUIDED_NOGPS,0.6095619201660156,27.692486465073287,218.3103804021651,-5.606394468285945,-20.88075026052658,-0.2549460383708805,220.62330181113555,5.527276428578021,50,1.0604581587439417,0.04636876689304141,120.2918026810255,-0.6419333075374976,0.16971609645764302,0.02549460383708805,0.5095446055520206,218.5403564131008,-6.348171262708533,-20.685233505056743,-1.7902764879374757,2.521014298575622
GUIDED_NOGPS,0.6481120586395264,25.94425544022862,218.80136477029743,-6.6942537485698566,-20.803857290666205,-0.16467978925812776,220.58260230864906,5.516368504967699,50,1.27272571055254,-0.09476028363661151,120.40008850012688,-0.7041290898076794,0.13284222066070508,0.01646797892581278,0.5096736536790364,221.0000510657188,-8.106813245192159,-20.74610571691979,-0.9556437733170071,3.2658594322456924
GUIDED_NOGPS,0.6896586418151855,24.07544700513733,219.50982588334995,-7.886060489836602,-20.56309586618839,-0.053808831394065386,220.53750967074504,5.504283171742605,50,1.4252597362530863,-0.19180187713643373,120.54113190648765,-0.7724121914309094,0.08030630969472005,0.005380883139406539,0.5097957262654966,220.40613198218352,-9.203196961609116,-20.257948376588644,-3.748129102995847,3.666929888837269
GUIDED_NOGPS,0.7297418117523193,24.955845515829807,219.7630769182186,-9.23397086872354,-20.28697261086037,0.06490051741130826,220.487880951631,5.490982117825459,50,1.5089687204517641,-0.258630395646969,120.6305664034798,-0.849509772434156,0.05924990100070404,-0.006490051741130826,0.5099088947089675,219.5585198603616,-10.391902399369352,-19.856863739072676,-5.161350147300666,3.4377467707849396
GUIDED_NOGPS,0.77400803565979,22.596185755845276,220.28545592303618,-10.473637426869855,-19.85915201993801,0.19099105218217122,220.4335847501538,5.47643012623194,50,1.4850441686147962,-0.25676479350820347,120.82709826665774,-0.9209397311273921,0.01891541448612727,-0.019099105218217123,0.5100206968833428,221.92222029381614,-11.8258129196311,-19.462643944152706,-3.758907158976129,3.6096341093241864
GUIDED_NOGPS,0.8072259426116943,30.10575729082178,221.0179906457463,-11.835416789121972,-19.388192943159748,0.3372739572281493,220.37450100546974,5.4605950193079815,50,1.4244255994006985,-0.36036905154207083,120.9419957088757,-0.9986255214815377,-0.03660544168043045,-0.03372739572281493,0.5100895878211903,222.20303002665153,-13.288535048365466,-18.84507114625386,-2.272647587055687,3.724225668350351
GUIDED_NOGPS,0.8442559242248535,27.012796980762666,220.84835335321222,-13.219111811581856,-18.751135651413545,0.4442771032665501,220.3105207927146,5.443447603967058,50,1.3069858327076183,-0.4236687634900896,121.06896892554624,-1.0779039368157155,-0.029308573736840926,-0.04442771032665502,0.5101525969543989,220.15186460304838,-14.542987466749008,-17.945691863834078,-6.574257502275174,3.4377467707849396
GUIDED_NOGPS,0.8888792991638184,22.414090889658414,221.1020777983402,-14.606954645441478,-18.09063167186385,0.561284314851694,220.24154611867397,5.424961616927484,50,1.170668810530798,-0.4615927218459242,121.18621595283868,-1.1581645377939476,-0.05208956763844081,-0.05612843148516941,0.5102385128894872,221.67475420782327,-15.989341421209966,-17.48113200550362,-1.9672469933843786,3.323155211758775
GUIDED_NOGPS,0.918703556060791,33.53833359987206,221.92793965273236,-16.157331117453243,-17.490634305279247,0.670361134113622,220.16748971745295,5.405113669949707,50,0.9727677078676751,-0.5739783086357536,121.2619217695991,-1.2464408569174223,-0.11534579316376209,-0.0670361134113622,0.5102789364111733,223.68782913232255,-17.939664464400757,-17.045079046500046,-3.9240714383321205,2.177239621497128
GUIDED_NOGPS,0.9519295692443848,30.104244721014023,221.50882511955152,-17.678447983177737,-16.92122637910976,0.7254286210559119,220.08827484614673,5.383883195073594,50,0.8594639408821549,-0.6258461782234487,121.29653716831272,-1.3335178270649484,-0.09179021848824641,-0.07254286210559119,0.5103338340394967,219.82664762791185,-19.106338063922507,-16.237468085325613,-6.314146435199504,1.8907607239317168
GUIDED_NOGPS,0.9940762519836426,23.7305527109371,221.32599689002672,-19.26144243015714,-16.435518907033018,0.7665755127235964,220.00383508051027,5.36125238985573,50,0.3392179300340983,-0.7960617494161596,121.35239445534509,-1.4250342456124283,-0.0851806425343726,-0.07665755127235964,0.5104247590583773,221.28888887902764,-20.73832476214816,-16.024009589273394,-5.282888841669717,0.9740282517223995
GUIDED_NOGPS,1.034393310546875,24.810145750520537,221.18925985162588,-21.15632223897351,-15.879622894561914,0.7947877879906382,219.91411411062867,5.33720616260671,50,-0.15466156292593902,-0.8608179191634042,121.33671234101074,-1.5340706356443254,-0.08214639659519175,-0.07947877879906383,0.5105018843437159,219.46817941104402,-23.62430389084986,-15.377391009086729,-3.6639841045855377,-0.17188733853924698
GUIDED_NOGPS,1.0641603469848633,33.60389693629022,221.08947254818705,-23.16870309012482,-15.60654916217772,0.7910480937690894,219.81906553658715,5.311732077628428,50,-0.4821143987331978,-0.9185384604570068,121.31168652789181,-1.6487267073646588,-0.0820036653287148,-0.07910480937690895,0.5105721701973538,221.17581769062923,-25.14348061737643,-15.418246888173028,-3.7746436271630444,-0.8594366926962349
GUIDED_NOGPS,1.1005127429962158,27.514097164823344,220.67398087800365,-25.153726278999546,-15.441075413951992,0.7743002448509427,219.7186526641412,5.284820300451374,50,-0.89798663468785,-0.8898394996684942,121.27183920427396,-1.7628130697649547,-0.060122029852404696,-0.07743002448509428,0.5106747328617219,221.61037078140572,-26.693394328772353,-15.527588344596218,-2.0267846231939757,-0.7448451336700702
GUIDED_NOGPS,1.1342825889587402,29.63460369946444,220.656620277489,-26.462533334579774,-15.438788403878435,0.7481719794955671,219.6128483003866,5.256463543071925,50,-1.2934042149864595,-0.8401370668519577,121.21807195512761,-1.838790648183338,-0.06648883068727901,-0.07481719794955671,0.5107846818941096,219.73984462533843,-27.550725057590533,-15.37052997886606,-1.8807229966699595,-1.1459155902616465
GUIDED_NOGPS,1.1645681858062744,33.01327834142732,220.9047001210541,-27.749081967867014,-15.528049107080355,0.7177655910240048,219.5016345494296,5.226657009189638,50,-1.5399438417811837,-0.793593596526552,121.17075240455777,-1.9131745384020904,-0.09185246120618533,-0.07177655910240048,0.5108931232334232,222.52928809685324,-29.003126517238137,-15.686028997778788,2.8620397310475454,-1.260507149287811
GUIDED_NOGPS,1.2035267353057861,25.67474887214363,220.8734676823738,-28.79053360687855,-15.44446808278959,0.670061603503695,219.38500260805705,5.195398339444541,50,-1.7603207491252912,-0.7457369689723585,121.10026485232324,-1.9750391815003325,-0.09812024084004238,-0.0670061603503695,0.5110121900370201,219.3120172176424,-29.81774924580697,-15.27684527172393,-4.689656991893159,-1.8334649444186344
GUIDED_NOGPS,1.2405426502227783,27.01853927517747,220.71813710105872,-29.951795037578524,-15.34311039757649,0.6071192356208804,219.26295256140642,5.162687556654429,50,-2.0077027303437482,-0.625845537893214,120.976638428346,-2.043453739546945,-0.09606078529835568,-0.060711923562088044,0.5111233758208282,220.39916478405382,-31.03450934969047,-15.066456923226761,-2.9946595887602996,-2.119943841984046
GUIDED_NOGPS,1.281770944595337,24.262342875984103,220.3574210263706,-30.99337800568451,-14.963154448845401,0.5458408353463821,219.13549317863587,5.1285270110521575,50,-2.1372586122941963,-0.5661279133193231,120.8969437811103,-2.10579237263832,-0.07998326915413109,-0.05458408353463821,0.5112185318750305,219.8067904079651,-32.12787542155609,-14.546161151585515,-5.54214156108813,-1.8907607239317168
GUIDED_NOGPS,1.3159968852996826,29.231247430080774,220.66330763047176,-32.4661363223446,-14.43246788378587,0.48261497000842535,219.0026417085945,5.092921325522926,50,-2.235065213661487,-0.5288710456659018,120.81705788857782,-2.191194859517219,-0.11096696251015456,-0.048261497000842535,0.5112710079029869,221.26927764584443,-34.23602419578724,-13.684785576545334,-1.3979156459488138,-1.776169164905552
GUIDED_NOGPS,1.3486685752868652,30.61245283294286,220.41130554027,-33.53330793771019,-13.971910768225397,0.43193795217401537,218.86442367549225,5.055877340841585,50,-2.3034260157432054,-0.463048992882165,120.76282618656792,-2.254168949266321,-0.10326699325896783,-0.04319379521740154,0.5113345087313582,221.26927764584443,-34.23602419578724,-13.684785576545334,-1.3979156459488138,-1.6615776058793874
GUIDED_NOGPS,1.3932499885559082,22.434831911422535,220.9737050220193,-34.82633838569935,-13.372781304310791,0.3790787182670849,218.72087267457022,5.017404060909917,50,-2.341940171812438,-0.4587041921572435,120.67627402940552,-2.331534517790007,-0.15318606722070194,-0.03790787182670849,0.5114159616909856,222.12401462638906,-36.00696676552358,-12.748772759841701,-0.7172314401419726,-1.6615776058793874
GUIDED_NOGPS,1.429807424545288,27.361175258000966,220.83007366251795,-35.66052140643894,-12.846860549564658,0.32382089314893997,218.5720301677706,4.977512597993934,50,-2.3742405632842516,-0.4344002446562225,120.62415968603833,-2.3819466378315277,-0.15396284599804327,-0.032382089314893996,0.5114780388423378,219.68100798654697,-36.73857325800599,-12.107023312306936,-4.263809068227147,-1.0313240312354819
GUIDED_NOGPS,1.4647889137268066,28.59609746785388,220.9060122714965,-36.81851665177103,-12.277389008942341,0.28384538018221567,218.41794527940684,4.936216117961173,50,-2.408893954925134,-0.47061593534803997,120.59447568390546,-2.450320118654816,-0.17049935785809942,-0.028384538018221567,0.5115299407839101,220.18648345285794,-37.71000993178353,-11.976370954678387,-2.6890336368449255,-0.9740282517223995
GUIDED_NOGPS,1.5010621547698975,27.572156375516858,220.6764083631906,-37.72959097190654,-11.857961643645302,0.26524037239874276,218.25867459183368,4.8935297855179805,50,-2.546428565043215,-0.46506315163537826,120.57342504088348,-2.5051468432541286,-0.16601542684107384,-0.026524037239874277,0.5116004175551994,220.12125810431488,-38.74018972593012,-11.490490663950577,-3.912612031949081,-0.2291831180523293
GUIDED_NOGPS,1.5329499244689941,31.4161248764119,220.46347556581753,-38.6584207236017,-11.611842487136103,0.24417506118276183,218.09428194111743,4.849470709446815,50,-2.589484370023683,-0.49426946741317596,120.55781122844083,-2.5602101612135417,-0.16299309016647442,-0.024417506118276186,0.5116734490720178,220.2046136589791,-39.52506251309149,-11.368665842779345,-2.663852255663798,-0.40107045659157625
GUIDED_NOGPS,1.5724945068359375,25.27328601212355,220.74654981637974,-39.799621537394025,-11.357737196688014,0.23973768247258553,217.92483821270585,4.804057887843534,50,-2.749806625647042,-0.504926910395923,120.53995711395041,-2.628658166860047,-0.19522952280039657,-0.023973768247258553,0.5117698476446568,223.53938587919995,-41.13361237316051,-11.214055083334118,0.025904173535138852,0.0
GUIDED_NOGPS,1.6084139347076416,27.84563192521925,220.49672504749802,-40.648044140776484,-11.199156407757707,0.2420871620607684,217.75042113709836,4.757312153354684,50,-2.8288827138760415,-0.510603598008997,120.54882269949309,-2.680017568114415,-0.19043980926990067,-0.02420871620607684,0.5118629202541636,218.43188414213833,-41.28545753607749,-11.014748297159663,-6.270563582372901,0.5156620156177409
GUIDED_NOGPS,1.6405677795410156,31.1080916709931,220.55158427651403,-41.570443251846946,-11.125363250626547,0.26495168438517863,217.57111508551617,4.709256118414803,50,-2.874043711224754,-0.5264709812245828,120.57281032385818,-2.7350009864033304,-0.20731601469233657,-0.026495168438517864,0.5119549331355601,220.4607795979379,-42.29225984630287,-11.14728637138586,-2.878711008652658,1.088619810748564
GUIDED_NOGPS,1.6770086288452148,27.448376056070728,220.4176370221839,-42.28194051907088,-11.05877673314231,0.29960667866066154,217.3870108655723,4.6599141204837045,50,-2.9521607982056017,-0.5248005197248388,120.61732949686831,-2.778846056386351,-0.2113728981513219,-0.029960667866066156,0.5120582574776904,219.45152183266418,-43.26810417483229,-11.014295530881405,-5.1385082108800475,1.4896902673401404
GUIDED_NOGPS,1.7102563381195068,30.087184821204403,220.42352812289496,-43.265666477740105,-11.089059831479554,0.33987202903155306,217.19820551694175,4.609312167283773,50,-2.9865757735557685,-0.5339005194942642,120.64287440436416,-2.8375349588565397,-0.22554346683678114,-0.03398720290315531,0.5121639084064663,220.23406916253435,-44.23663541208514,-11.105597592171398,-2.603387379573718,1.4896902673401404
GUIDED_NOGPS,1.7496848106384277,25.364529725872487,219.63932365394567,-44.55586124056669,-10.958024930109133,0.3911174075432346,217.0048021070315,4.557477882037256,50,-3.0601883507789926,-0.476627569034709,120.72666716510187,-2.9146545281495677,-0.184708480130071,-0.039111740754323464,0.5122713750454425,219.6183635344534,-46.162844134782645,-10.754181667274597,-2.9417619080206805,1.948056503444799
GUIDED_NOGPS,1.785987377166748,27.60282194377172,220.0861104904552,-45.90285382387041,-10.875578441567653,0.4745291319102727,216.8069095266508,4.50444044870356,50,-3.1377297808788547,-0.4174735684694764,120.81403894496468,-2.9944074548159603,-0.2304289617192852,-0.04745291319102727,0.512373201401352,220.66581832468623,-47.30908192474343,-10.766956065256966,-4.6594740134103745,2.864788975654116
GUIDED_NOGPS,1.830739974975586,22.317131440186017,220.12711823580486,-46.92700266142317,-10.762697932596176,0.5764432993743576,216.60464228568102,4.45023055721654,50,-3.2152588312608463,-0.3871583874881831,120.96773186166831,-3.0579277580267967,-0.24824698158920408,-0.05764432993743576,0.5124979762908742,220.66581832468623,-47.30908192474343,-10.766956065256966,-4.6594740134103745,3.552338329811104
GUIDED_NOGPS,1.866769790649414,27.758648303430203,219.89044247479333,-47.83382291211075,-10.562208357785645,0.7103192453077151,216.39812030874597,4.394880348721792,50,-3.3435231671279273,-0.33959663200706375,121.09635798411799,-3.113159009203627,-0.24676717462978992,-0.0710319245307715,0.5125873450891409,218.26814302760647,-48.88330488684539,-10.152712942843,-4.214201484160057,3.7815214478634336
GUIDED_NOGPS,1.8989579677581787,31.07697551216982,219.94833998868302,-48.903569940147825,-10.316187451000767,0.8301167289257835,216.18746873088185,4.338423360813946,50,-3.4270055811452313,-0.33672752566883524,121.21402848313897,-3.1767265168143446,-0.2661680824524536,-0.08301167289257835,0.5126593662950315,220.5235567319829,-50.518323008854644,-10.02889334490233,-2.81407190114075,3.8388172273765155
GUIDED_NOGPS,1.943103551864624,22.655625955394232,219.46573587384628,-50.09802577129302,-9.918032522505454,0.9263006431998497,215.97281769320745,4.280894472773967,50,-3.4449096413939504,-0.2823848330849213,121.34653415303721,-3.2499959008009918,-0.24818228083168187,-0.09263006431998498,0.5127517944866564,217.20534296026977,-50.892449418179005,-9.572491279771034,-3.1090012122575814,3.20856365273261
GUIDED_NOGPS,1.9824292659759521,25.432663505499704,218.99760141211618,-51.59069909229421,-9.600564287167908,1.0452901866762063,215.75430213859417,4.222329850806428,50,-3.4128854456966993,-0.28580062136101525,121.44445174497852,-3.339111298913367,-0.23134855392953071,-0.10452901866762064,0.512837583279865,218.32514601603563,-53.36132484984897,-9.20030823683036,-2.75198436316785,2.635605857601787
GUIDED_NOGPS,2.0181357860565186,28.012074907167474,218.2964332469707,-52.7814673254047,-9.246141969125402,1.1553963525636555,215.5320616073362,4.162766893276825,50,-3.3355514825928765,-0.27217257969784153,121.55031967711372,-3.4105697591648183,-0.19831580549648972,-0.11553963525636556,0.5129076265681844,217.1599774989588,-54.09062770818614,-8.965626390774814,-3.042228527596592,2.9220847551671985
GUIDED_NOGPS,2.0632166862487793,22.186450002115865,218.0748001412412,-53.847526755407074,-9.043853672793327,1.252037770814573,215.30624003282057,4.102244175948856,50,-3.258684960560376,-0.21979855574005155,121.66979334607558,-3.4773310185932895,-0.199233133331422,-0.1252037770814573,0.5130205042464255,217.1599774989588,-54.09062770818614,-8.965626390774814,-3.042228527596592,2.807493196141034
GUIDED_NOGPS,2.0988874435424805,28.03885312422705,217.50612534635746,-54.69722626697095,-8.796164954006985,1.3701345471177215,215.0769855371972,4.0408013972217205,50,-3.19870992323214,-0.165067449507946,121.75104527644206,-3.5298278193304435,-0.17590558897139433,-0.13701345471177215,0.5131002690330204,217.68018275756404,-55.91042338454059,-8.457242080471332,0.0395470657112611,2.5783100780887045
GUIDED_NOGPS,2.133638620376587,28.783310458413396,217.85828411949723,-55.67222460458827,-8.540394518328268,1.440366896704204,214.84445022704912,3.9784793233674036,50,-3.201478924610346,-0.10852959815781343,121.79766814771656,-3.5891496626863924,-0.21735280911076885,-0.1440366896704204,0.5131754309755954,218.96613682596853,-57.01562272103808,-8.198315083738663,0.4283515210525053,1.8334649444186344
GUIDED_NOGPS,2.1714906692504883,26.427971040974878,217.59164179182807,-56.76004456598675,-8.141650040227084,1.476113645580692,214.60878998906253,3.9153197337679804,50,-3.2318103006104915,-0.07623707741180138,121.83426430128948,-3.6558304003667272,-0.21575554264267066,-0.1476113645580692,0.5132469491858742,216.99193437768977,-57.35408759238158,-7.769392956471267,-1.3027113734653568,0.7448451336700702
GUIDED_NOGPS,2.2075388431549072,27.744876764523,217.78493125000819,-57.511890110034386,-7.785646966097835,1.4964942186310752,214.37016428569683,3.8513653661529004,50,-3.301285704187392,-0.06260375302419148,121.81669705474421,-3.7032232039640576,-0.246606668027602,-0.14964942186310753,0.5133157701970043,218.12642478985947,-58.1659600166835,-7.389232858083584,0.8363601077693943,-0.11459155902616465
GUIDED_NOGPS,2.2446107864379883,26.98186543496581,217.39093136186474,-57.841032350104484,-7.306457796539388,1.4667418209856804,214.12873595085478,3.7866598618362812,50,-3.350789634631175,-0.11753677672363552,121.76342157921812,-3.7271325623039164,-0.23652884227751866,-0.14667418209856806,0.5133736357878397,215.1899780582417,-58.00304944124838,-6.760747575063323,-1.6643331952308955,-1.6615776058793874
GUIDED_NOGPS,2.2796521186828613,28.545302344574132,217.05259524398093,-58.31656585193635,-6.759102533345215,1.4082048537875558,213.8846709855526,3.7212477109542066,50,-3.4231606115293376,-0.16964284915863476,121.68104949782776,-3.758448504048739,-0.23046279185582413,-0.14082048537875558,0.5134143843727149,215.98850216814512,-58.78068809787717,-6.1273271668887475,0.7923193242646249,-2.521014298575622
GUIDED_NOGPS,2.312061071395874,30.85839568572921,216.45706831241623,-58.521475212334245,-6.338467302946936,1.3131500782462113,213.63813835359,3.6551741977020127,50,-3.479023021203579,-0.2669044494549254,121.56661650847337,-3.774666092816097,-0.20651165847249148,-0.13131500782462113,0.5134679462500991,215.98850216814512,-58.78068809787717,-6.1273271668887475,0.7923193242646249,-3.724225668350351
GUIDED_NOGPS,2.3552069664001465,23.182940714783165,216.0449457877374,-58.633452207867386,-6.102237763658991,1.2018431077095577,213.38930977722043,3.5884853455715837,50,-3.6633933056774954,-0.4275099178050019,121.37915513651319,-3.787920360149151,-0.19565289519590529,-0.12018431077095577,0.5135651229639319,214.93132175429565,-58.33898042784782,-6.052058957199489,-1.0432601652184985,-4.068000345428845
GUIDED_NOGPS,2.391324281692505,27.69449781774723,215.38611609312247,-58.34498291673993,-6.192024508393665,1.0565438216613086,213.13835953282108,3.5212278625886446,50,-3.7942392396074296,-0.5404978952631148,121.21807195512761,-3.7769086344560696,-0.16750594072986175,-0.10565438216613086,0.5136752499994771,214.8322763167849,-57.91528022449481,-6.396687401092768,-2.2749505877723664,-4.354479242994256
GUIDED_NOGPS,2.434074878692627,23.395530963085264,215.2732964014048,-57.86561749611303,-6.321274361468579,0.9237518086807959,212.88546424656295,3.453449086550055,50,-3.8643793059679368,-0.6770183823720073,121.07802575638567,-3.756750757553264,-0.17782146780740718,-0.0923751808680796,0.513808523105808,214.62587959965327,-57.34259183599647,-6.515076726113492,-3.2602429858975057,-4.18259190445501
GUIDED_NOGPS,2.4716203212738037,26.642850336981585,215.39881842164527,-57.44292677850993,-6.694419560458044,0.7596129029378326,212.63080269008094,3.385196930261099,50,-4.016224656501075,-0.7071034446752095,120.90505804584427,-3.738412085240694,-0.2049550224694112,-0.07596129029378326,0.513952488130719,216.61611226934747,-57.070908275038505,-7.171494554167882,-0.6901833610927071,-4.469070802020421
GUIDED_NOGPS,2.5111825466156006,25.281055048912947,215.34507159554315,-56.85592956403605,-7.043368435593543,0.5957172264265848,212.3745555761441,3.31651982677278,50,-4.137932224208355,-0.6644077187300481,120.66684836835091,-3.7112069641619163,-0.21971705236966113,-0.059571722642658476,0.5141001075863874,215.71976803763442,-56.154288581073175,-7.443534026499266,-3.0474535331593984,-4.8128454790989155
GUIDED_NOGPS,2.541534423828125,32.9575056575308,215.66906019913895,-55.96946236221016,-7.501861916578435,0.4196195038295987,212.1169053543256,3.2474666746191163,50,-4.1923598672700715,-0.5925102660404379,120.50674873420581,-3.6648795237568277,-0.2609702670953072,-0.04196195038295987,0.514233128182422,216.5512647722746,-54.68319023051878,-7.89055716906817,-0.7199087517038123,-4.92743703812508
GUIDED_NOGPS,2.5718960762023926,32.950514961780485,216.01285789023692,-55.17355634737026,-7.741549454878531,0.2787371154372178,211.85803600667285,3.178086783054423,50,-4.196948473731851,-0.5286163543150544,120.34342525077247,-3.6235057259863375,-0.30378730481462835,-0.027873711543721782,0.5143446990005572,216.5512647722746,-54.68319023051878,-7.89055716906817,-0.7199087517038123,-4.984732817638163
GUIDED_NOGPS,2.614380121231079,23.539437204655915,216.67747885312673,-54.468956493130065,-7.885637053869982,0.1422248699314019,211.59813284337756,3.1084298172906193,50,-4.307108752873578,-0.4074558954324627,120.16491142662501,-3.5899322644372935,-0.3695829979109764,-0.014222486993140191,0.5144820740814164,217.94898441410234,-54.04048901835262,-7.875796823473616,-2.1157179596651616,-4.698253920072751
GUIDED_NOGPS,2.649256706237793,28.680962800875275,216.33779373402172,-53.6461444132057,-7.746466560302507,-0.03894923378593208,211.337382298446,3.0385457437345114,50,-4.330346337090431,-0.22059886181170663,119.94361329751659,-3.5478729934030504,-0.3649321928724738,0.0038949233785932087,0.5145691605902137,214.91768667382232,-52.21475399074569,-7.473045688365746,-5.571807419295681,-4.354479242994256
GUIDED_NOGPS,2.687525987625122,26.140227105587893,216.55556269246193,-52.19656219272401,-7.313972160347511,-0.18402096978402616,211.07597172536885,2.9684847752250896,50,-4.359163332085538,-0.07612240493893922,119.78381419169497,-3.4712042766585927,-0.39952162054417784,0.018402096978402616,0.5146354078844364,216.80861282983557,-50.33444356907372,-6.593073969203181,-3.1822338568255333,-4.18259190445501
GUIDED_NOGPS,2.7272708415985107,25.16803878741329,217.13685681960206,-50.805391393181566,-6.6550397070684015,-0.33613671614073465,210.81408919279158,2.8982973162708165,50,-4.293292560843112,0.08623060466288207,119.59379832898523,-3.3979017443313593,-0.45979984850648253,0.03361367161407346,0.5146820458965108,219.45773540797515,-49.866976619725286,-5.8989994636362875,-2.9548580903773995,-3.9534087864026803
GUIDED_NOGPS,2.7636189460754395,27.516624242265202,217.3878404017368,-49.43362281540479,-5.8754706377973065,-0.48186946614886167,210.55192328018433,2.828033908286926,50,-4.210990488891751,0.14939347270366257,119.46972111252278,-3.3247523826356526,-0.49696365417286054,0.04818694661488617,0.5147057172923076,217.80618268294845,-48.09944825741537,-5.134338480552461,-1.0033393964752406,-3.552338329811104
GUIDED_NOGPS,2.801461935043335,26.431135309538213,217.44714000081512,-48.348203389613154,-5.17641632842965,-0.5903426804506875,210.2896628735121,2.7577451748327135,50,-4.0819114395227345,0.24650280780622957,119.34169604672006,-3.267704593334139,-0.5208159276062656,0.059034268045068755,0.5147393482826441,218.24548240949383,-47.07818529169881,-4.495911041100215,-2.298013928453571,-2.6929016371148693
GUIDED_NOGPS,2.838266611099243,27.177854958270697,218.15019505328937,-46.99984621100075,-4.434352941148344,-0.6652710615996326,210.02749696090484,2.6874817668488244,50,-3.980515146859779,0.4122684040329714,119.25794426711735,-3.1956192019595546,-0.5898848374994979,0.06652710615996325,0.514765895301848,218.43296193619355,-45.82190508388809,-3.6728093017923675,-3.7916194547372584,-1.432394487827058
GUIDED_NOGPS,2.883721351623535,22.00394510429345,218.2021379659715,-45.665966419949825,-3.69395042369653,-0.7123060176878663,209.76561442832758,2.617294307894551,50,-3.720673833378161,0.5432300242919728,119.20450486705117,-3.1257896338903537,-0.6137742526567332,0.07123060176878664,0.514814156753739,217.06832739324605,-44.09780888426258,-2.9131309281970217,-2.5990957284568594,-0.5729577951308232
GUIDED_NOGPS,2.9211440086364746,26.725355388330648,217.83469944049057,-43.93876421863181,-2.7587138692584383,-0.7496398056250572,209.50420385525047,2.547233339385129,50,-3.5518806490801054,0.6553695641891231,119.19947784782205,-3.0321160442757304,-0.6079143195227561,0.07496398056250572,0.5148195592088242,217.62054278057045,-41.89657868774478,-1.6902013777859386,-3.486688545616616,0.2291831180523293
GUIDED_NOGPS,2.9591386318206787,26.33008782337395,217.35698893379458,-42.12190339391216,-1.8934262708763068,-0.745412148014945,209.24345331031887,2.477349265829022,50,-3.346540616637192,0.7473853390790058,119.21879362279485,-2.933061092942634,-0.5942285978232346,0.0745412148014945,0.5148290634464444,215.41763014946858,-40.37132260972913,-1.0769465066459731,-5.033962575284065,0.8021409131831525
GUIDED_NOGPS,2.996870756149292,26.506468145882444,217.63387095682484,-40.761127912148815,-1.0480596300763925,-0.7109850197395456,208.98355014702358,2.407692300065216,50,-2.9565513291814502,0.8499498075334445,119.29725883597995,-2.8596179781202604,-0.6334720298857993,0.07109850197395456,0.5148429879930931,219.62989252464507,-40.01548243897253,-0.3770310057972787,0.06059920415839315,1.604281826366305
GUIDED_NOGPS,3.0341482162475586,26.833069969483912,217.6229007845196,-39.76181695542811,-0.3871454576955629,-0.6454859433982487,208.72468079937082,2.338312408500525,50,-2.797793400321436,0.859075260429699,119.37647536997376,-2.8060423299167025,-0.6524817689465542,0.06454859433982488,0.5148707145088921,218.37811107466746,-38.898645817582675,0.29254113935655,-0.5880203063634042,2.5783100780887045
GUIDED_NOGPS,3.072659969329834,26.00489804016393,216.89702043145212,-38.65560492987091,0.23552129770757338,-0.5544456893594905,208.46703057755232,2.26925925634686,50,-2.7441458929289824,0.8271422050691852,119.48571741555894,-2.7465432685173754,-0.6213318726518096,0.05544456893594905,0.5149044475181271,213.43892562790876,-37.05268653305755,0.7910537595634358,-7.838735586719679,3.380450991271857
GUIDED_NOGPS,3.1040403842926025,31.825420552238015,217.01551581059442,-37.6208383771347,0.8040479124431336,-0.44748370480418304,208.21078346361548,2.2005821528585416,50,-2.782686302537837,0.7930866684240901,119.58591629068303,-2.6897450389280877,-0.6489442678388243,0.044748370480418305,0.514924725093597,218.21301967628222,-36.9111827807639,1.3285488384094015,-1.9820412284135358,3.552338329811104
GUIDED_NOGPS,3.1425673961639404,25.959831403301376,216.96713651752844,-36.502711845365546,1.2451995419839366,-0.33718112083011664,207.95612190713348,2.132329996569588,50,-2.8321494652900117,0.7417143610771912,119.7622854354311,-2.6292608821284307,-0.6651195950631213,0.03371811208301167,0.5149745142393817,215.17573368413844,-35.5442662222752,1.6159960279789598,-4.527915709605352,4.068000345428845
GUIDED_NOGPS,3.176306962966919,29.645705077006806,215.6491986090614,-35.63362753278637,1.5094317979831386,-0.1930243177685097,207.70322662087534,2.064551220530996,50,-2.836585673155935,0.7007426175672234,119.89018755782875,-2.5818995095559907,-0.5919111055151677,0.01930243177685097,0.5150301392244029,213.04020298230995,-34.44543359532001,1.583750527561042,-5.6405293355401085,4.5263665815335035
GUIDED_NOGPS,3.2132787704467773,27.053218867510754,215.19748447046192,-34.72546766574856,1.5824603154878332,-0.0491954582136318,207.452276376476,1.9972937375480555,50,-2.7992012730641047,0.6382325128398553,120.03612137963525,-2.532700136210651,-0.5792876041973997,0.00491954582136318,0.5151122280199457,216.11954038167,-34.18670317965048,1.5476343909234849,-2.0392648421748873,4.870141258611998
GUIDED_NOGPS,3.2547481060028076,24.118086103492097,215.3395898512518,-33.92755383582473,1.4345118046659417,0.0985329059775052,207.20344780010643,1.9306048854176279,50,-2.706842814776958,0.4800656087864584,120.24493392294087,-2.4902296555502277,-0.6083397601449582,-0.009853290597750522,0.5152277084815968,214.14945253185815,-33.150524732503726,1.1721504955132862,-5.357154406436294,4.5263665815335035
GUIDED_NOGPS,3.2925844192504883,26.44146609004829,214.84112849405363,-33.136221106321884,1.2124128144870836,0.26855707037793325,206.95691516814384,1.8645313721654322,50,-2.621590527990974,0.26071435039576335,120.42910314372111,-2.447508565486886,-0.592195300940265,-0.026855707037793327,0.515342153853286,215.72071289029148,-32.07143540681146,0.9174535570244678,-3.669753405184096,4.469070802020421
GUIDED_NOGPS,3.3281452655792236,28.12458677824492,214.6608121219595,-32.106743272467604,0.8552948374440064,0.42059744882643696,206.71285020284165,1.7991192212833607,50,-2.552813938143531,0.04364181386691382,120.57002360667681,-2.3910225906179208,-0.5980723428321677,-0.0420597448826437,0.5154653372373811,214.2741518236679,-31.09826967808764,0.4762804597942532,-4.308569067665118,4.239887683968092
GUIDED_NOGPS,3.3638017177581787,28.09764463142099,214.97902050791086,-31.225031141674066,0.5045007195845237,0.5588139762863443,206.4714218679996,1.7344137169667402,50,-2.485331882587216,-0.12864357144857538,120.71982331555353,-2.342635933586311,-0.6387352294665131,-0.055881397628634435,0.5155870038936705,214.63124491206676,-30.505388340123112,0.11976814193483827,-4.6495044039336335,4.5263665815335035
GUIDED_NOGPS,3.3966000080108643,30.468574749382537,214.71482195470753,-30.46797593021424,-0.01719817080833108,0.6949388674224403,206.2327961646339,1.6704593493516562,50,-2.3610875399335107,-0.42044331337625684,120.88727223324555,-2.3009744624349335,-0.6383686783960517,-0.06949388674224403,0.5157231182378431,214.79854761565352,-29.800269772431985,-0.6476431141540965,-2.986785980894524,4.1252961249419275
GUIDED_NOGPS,3.434229850769043,26.58155776665188,214.76328024380592,-29.76744931207769,-0.6026907317435761,0.8250879855672912,205.9971359266473,1.6072997597522374,50,-2.32573384045929,-0.6833463391946126,121.04688009377041,-2.2629019674641038,-0.6598963386475164,-0.08250879855672913,0.515876299973023,214.39174397734993,-28.99668982367798,-1.280197223011482,-4.486848356753072,4.068000345428845
GUIDED_NOGPS,3.467668056488037,29.934297765438885,214.18492494835922,-28.927574978498495,-1.3703019311298907,0.9713912310213509,205.76460061649925,1.544977685897921,50,-2.280365162671127,-0.7231630870437605,121.08736945517025,-2.21645626975325,-0.6370972643288163,-0.0971391231021351,0.516038979473002,212.82893641305813,-27.985765339385516,-2.1830654562241048,-6.168132857839495,4.1252961249419275
GUIDED_NOGPS,3.4980947971343994,32.86144974772008,214.27771791862511,-28.080012702030285,-2.177234745273584,1.0936333225403585,205.5353461208759,1.4835349071707853,50,-2.205766690329894,-0.9691257229361774,121.20204833133477,-2.1691206417131936,-0.6609597160627255,-0.10936333225403586,0.516198402544721,214.73811667499712,-27.257582943027355,-3.0684415565851766,-3.3222873092551737,3.896113006889598
GUIDED_NOGPS,3.532578945159912,29.004847621484437,214.29881452158628,-27.264207396488274,-3.0095874242829264,1.1980678987530733,205.3095245463602,1.4230121898428134,50,-2.1089786409225817,-1.1370015274513356,121.29910531944064,-2.1240409894276167,-0.6798086952595448,-0.11980678987530734,0.5163739081262159,214.73672792687265,-26.549273907051955,-3.7772552600395093,-3.3604549939056056,3.6096341093241864
GUIDED_NOGPS,3.5629351139068604,32.94973840086728,214.13200032207783,-26.488868998770215,-3.9241857672187277,1.3141820529814863,205.08728401510226,1.3634492323132115,50,-1.9616595713750462,-1.3752435416215523,121.4237972529284,-2.080666559755694,-0.6850605768401953,-0.13141820529814863,0.5165471682611441,213.96447661811106,-25.65975014623133,-4.926860485031509,-5.83689251135452,3.495042550298022
GUIDED_NOGPS,3.599405527114868,27.42594094107185,213.9359032412266,-25.646766336663358,-4.75427197764739,1.4252445675528005,204.86876846048898,1.3048846103456722,50,-1.6145506384154675,-1.7907951322111841,121.66722519494766,-2.034157858862554,-0.6882819836998358,-0.14252445675528005,0.5167299441017691,213.4112585730938,-24.731274956706788,-5.55870018787116,-7.284454631564387,4.010704565915763
GUIDED_NOGPS,3.6346960067749023,28.343147523702047,214.25415091416636,-24.721767367007477,-5.691733610195605,1.5567642190800912,204.65411742281458,1.2473557223056932,50,-1.4203275926203967,-2.0747788165312704,121.8283630178466,-1.982795859486505,-0.7272759355666799,-0.15567642190800912,0.5169217910347452,214.42017477775676,-23.77427699808432,-6.589640157684156,-6.266910202612806,3.896113006889598
GUIDED_NOGPS,3.6719675064086914,26.835130103199635,214.20821485443625,-23.835616677493462,-6.481490336635516,1.6869940110076673,204.44346584495045,1.190898734397848,50,-1.3081319171060053,-2.1828866238274087,121.96469359368005,-1.933745467348464,-0.7406279677244214,-0.16869940110076675,0.5171061521289575,214.5084363763468,-23.001298077689277,-7.296130664351239,-4.920854306170639,3.896113006889598
GUIDED_NOGPS,3.700514554977417,35.04130463841732,214.33950984169934,-22.954915045645276,-7.40563614359771,1.8255779451453853,204.2369438680154,1.1355485259031006,50,-1.1837283456672738,-2.283883777310741,122.06537058204604,-1.8840788582144916,-0.7657179061473076,-0.18255779451453855,0.5172805478965053,215.39320286318804,-22.089170061162214,-8.331137608757743,-0.08674535110525028,3.896113006889598
GUIDED_NOGPS,3.7456367015838623,22.169328837066715,214.51236222754437,-22.091657359585383,-8.187168279871512,1.9347937866667246,204.0346766270456,1.0813386344160776,50,-1.0289612749949566,-2.3474305766880703,122.24598810445785,-1.8368811904068543,-0.7943390592001941,-0.19347937866667247,0.517489916566251,214.82873854733631,-21.184503939904644,-8.934236566505565,-3.2598097898600713,4.1252961249419275
GUIDED_NOGPS,3.7761237621307373,32.816198791975715,214.54326818318646,-20.852155308137416,-9.093643547072963,2.110186248288859,203.83678404666492,1.0283012010823818,50,-1.0050342685587559,-2.3305950141576353,122.36104947121589,-1.7671525304870812,-0.8119779921070446,-0.2110186248288859,0.5176701463249136,213.56578835130423,-19.282791923345375,-10.015556465955585,-1.8688295065221467,4.1252961249419275
GUIDED_NOGPS,3.8140056133270264,26.398529744971174,214.37239089789597,-19.916695928865135,-9.655116499472243,2.218612993046013,203.64338063675467,0.9764669158358696,50,-0.9978052603742378,-2.2830193314939113,122.48826857469655,-1.7150347142325646,-0.8155900386959118,-0.2218612993046013,0.5178394551848385,213.56578835130423,-19.282791923345375,-10.015556465955585,-1.8688295065221467,3.8388172273765155
GUIDED_NOGPS,3.849245548248291,28.38457842414071,214.35287000782006,-19.0783305546876,-10.062639681752547,2.34200088470875,203.45457528812412,0.9258649626359379,50,-1.0452496753398504,-2.1774801022125208,122.62886118857209,-1.668081983300825,-0.8293668006186435,-0.234200088470875,0.5179863999759908,214.41083192596716,-18.669407817372043,-10.156806113346477,-3.2714983682179906,3.4377467707849396
GUIDED_NOGPS,3.895838975906372,21.464560965374655,214.35112356049513,-18.59378242407396,-10.13326838508307,2.4638484245939805,203.27047106818026,0.8765229647048329,50,-1.0150108270586171,-2.116558229910592,122.77472670848688,-1.6418241972778511,-0.8447213169862658,-0.24638484245939807,0.518133990159093,215.38447062656346,-17.82914753150445,-10.227442575947158,-0.23067337213387873,3.495042550298022
GUIDED_NOGPS,3.935828447341919,25.016724323034712,214.5811206988284,-17.570436425071794,-10.073875500014019,2.633001859598181,203.09116501659807,0.828466929764959,50,-1.0078200252447689,-2.047539168347613,122.92292815309781,-1.5847623636558583,-0.8756649545077829,-0.2633001859598181,0.5182479070394888,215.97872423900276,-16.212753926338873,-9.837377810748428,0.21038632828854986,3.724225668350351
GUIDED_NOGPS,3.9701080322265625,29.179999860858917,214.7027543986364,-16.40165488587404,-9.77356578397025,2.7836141460576407,202.9167479409906,0.7817211952761056,50,-0.9879068221630083,-2.0118416115373647,123.04091284082062,-1.5190390452072489,-0.898400077472102,-0.2783614146057641,0.5183198941972382,214.17395685034433,-15.163063199778788,-9.255876965215176,2.6157000530183723,4.010704565915763
GUIDED_NOGPS,4.01082181930542,24.565732291581252,214.8264379118817,-15.253582164300468,-9.318759172271951,2.929249856176007,202.747304212579,0.7363083736728235,50,-0.9443387529947895,-1.9522456497080645,123.2289616090494,-1.4548099189211283,-0.9213798359025177,-0.2929249856176007,0.5183952621515214,214.1842059175308,-14.38492936678372,-8.863022740852255,3.804158522247505,4.640958140559668
GUIDED_NOGPS,4.039568662643433,34.795374226410715,214.46060631236182,-14.372494340280118,-8.919342584446715,3.0951453743161212,202.58291156186274,0.6922492976016592,50,-0.8574643496417809,-1.9982409973525768,123.36383052440048,-1.4047374676976228,-0.9089898096696147,-0.30951453743161217,0.5184401798297393,212.58167392836768,-13.569490454277823,-8.639128047272719,-4.970929000362105,4.583662361046586
GUIDED_NOGPS,4.078243732452393,25.86234877726942,214.27311606870043,-13.589537462889282,-8.634406520248303,3.2111617502877148,202.42364087428962,0.6495629651584629,50,-0.7177442924327075,-2.0207387867049524,123.53118381944414,-1.3606991891984586,-0.9093005823939809,-0.3211161750287715,0.5185248106922952,214.44701940825638,-12.814192567606284,-8.401068772619944,3.6028004114242265,4.239887683968092
GUIDED_NOGPS,4.115165948867798,27.087287850998425,213.30744212793897,-12.811957589870246,-8.417434995910087,3.370336446579847,202.26955598592582,0.6082664851257071,50,-0.6253287380329673,-2.0078325039379785,123.70016269951024,-1.3168280218491175,-0.8545310649191024,-0.3370336446579847,0.5186111703013171,211.15035453519548,-12.052189747726619,-8.212108167837606,-2.217930625760715,4.411775022507339
GUIDED_NOGPS,4.150257349014282,28.504757244603926,212.83945275762864,-12.0971517658979,-8.211618996834948,3.5154219589716726,202.1207134791262,0.5683750222097252,50,-0.4510895984497371,-2.079320251999094,123.82247772716684,-1.2763439376213308,-0.834072688981153,-0.3515421958971673,0.5186927916800903,211.83400999879242,-11.425072982360787,-8.021680050047303,4.412146730227434,4.068000345428845
GUIDED_NOGPS,4.18853235244751,26.132735202492213,211.9349920711968,-11.168244813995358,-8.032087692690888,3.654935855056352,201.97716247820418,0.5299017422780565,50,-0.27017624346949376,-2.0665202640510785,123.99555472073496,-1.2239634271887594,-0.7827166019806873,-0.3654935855056352,0.5187860088466791,209.66190248537163,-10.027471711898652,-7.86247486018777,5.418749092944665,4.297183463481175
GUIDED_NOGPS,4.226095676422119,26.626613256476833,211.1278975597339,-10.32271171410606,-8.03438140634024,3.8119754578934724,201.8389444451019,0.49285775759670614,50,-0.21275723101536342,-2.0390725085411474,124.11024725727782,-1.1761629064111228,-0.7376384951830107,-0.3811975457893473,0.5188951506454222,208.54620137105331,-9.515590448058726,-8.218989308785657,1.1570719774822038,4.297183463481175
GUIDED_NOGPS,4.2623302936553955,27.60482029208706,209.93726484841528,-9.458421125855132,-8.077284088153862,3.9479552161924345,201.70609297506056,0.4572520720674831,50,-0.12762217802318082,-2.050568784131337,124.25780666410677,-1.127200600943027,-0.6650795998292598,-0.3947955216192435,0.5190042749985186,208.49385585166326,-8.832201217608006,-8.150388095488172,0.802566732410483,3.552338329811104
GUIDED_NOGPS,4.293738603591919,31.84765260176615,208.8994731969739,-8.84133614889752,-8.05404470734444,4.060867930191281,201.57863359229,0.4230915264652033,50,-0.08472496149750416,-2.0397121984456015,124.37325052145833,-1.0918975195046556,-0.6025087311533937,-0.40608679301912814,0.5190933352619819,205.96139627798854,-8.176216781025817,-7.792756717759502,3.3567698404159074,2.979380534680281
GUIDED_NOGPS,4.328847408294678,28.48810704340148,208.03677469851385,-8.229212615874744,-7.924618944446368,4.1432406995549185,201.45658354563938,0.3903807436750988,50,-0.052435642402665565,-1.997031840426073,124.45414728198796,-1.0569978266171571,-0.5518189626301427,-0.41432406995549187,0.5191821207758845,207.5205175064922,-7.679219848990396,-7.8307120200914415,2.7090483127640965,2.521014298575622
GUIDED_NOGPS,4.364843368530273,27.78862564265649,207.29695412520692,-7.607960796647088,-7.767627700066587,4.235318561313652,201.33995160426684,0.3591220739300027,50,-0.029186305457963628,-1.9527442535174755,124.54022132590846,-1.0216033522951853,-0.509266946949819,-0.42353185613136524,0.5192702994346592,205.962799618837,-6.968445759925039,-7.67941436234883,5.022418491303469,2.46371851906254
GUIDED_NOGPS,4.4003942012786865,28.136284052565557,206.79944379342032,-7.039969172826744,-7.750102013051792,4.316213753479671,201.22873785330984,0.329315540047709,50,0.0026146150905793928,-1.9073947856363527,124.58581966880746,-0.989175393477371,-0.4832171595186678,-0.43162137534796713,0.5193712785584256,206.05864971212029,-6.472241909564785,-7.740179656715116,0.12276742791537743,2.0626480624709638
GUIDED_NOGPS,4.4323389530181885,31.31269363713055,205.9985911925988,-6.354066596807883,-7.688702788499003,4.383684707600572,201.12293348955524,0.3009587826682605,50,-0.01575790008566733,-1.755657010582642,124.64328888048395,-0.9500268308040947,-0.43534216350303734,-0.4383684707600572,0.5194572364997176,204.48959284755574,-5.621512120933811,-7.646514346433071,1.3658924425944292,1.6615776058793874
GUIDED_NOGPS,4.469419002532959,26.972842618375445,205.77794267713733,-5.703192912955571,-7.6123342789137,4.418080680052032,201.02252061710928,0.27404700549121586,50,0.008101831655251608,-1.6678879058092144,124.65994088168044,-0.9129608733028595,-0.4278107886200635,-0.4418080680052032,0.5195568326893896,204.85815370068127,-5.015824708368104,-7.450308833592921,-3.2779620884461877,0.8594366926962349
GUIDED_NOGPS,4.511803388595581,23.597045238456907,204.98842631024849,-4.945531641403155,-7.439126127645135,4.442597038541598,200.92747204306772,0.24857292051292035,50,-0.09541311365108986,-1.3247029165278081,124.6579464664428,-0.8699837838383971,-0.3800565909482067,-0.4442597038541598,0.5196609469698171,203.57293567204815,-4.19925809490754,-7.220555202909422,5.493079201088534,0.0
GUIDED_NOGPS,4.550385475158691,25.923409725827586,204.1642750123018,-3.9765966320411685,-6.948721033718008,4.463676309731036,200.83775107318615,0.22452669326390406,50,-0.17882090251562616,-1.01928033562011,124.63731929514935,-0.8150242334555651,-0.3292872453614326,-0.4463676309731036,0.519721604910819,201.84204312910367,-2.71470709284785,-6.17529906465169,1.7517391242944313,-0.057295779513082325
GUIDED_NOGPS,4.584740400314331,29.112554833694265,203.4727771827129,-2.9029857724139734,-6.256946172292075,4.471363808817941,200.7533113075497,0.20189588804604242,50,-0.2036187047101508,-0.7195861489919366,124.6220060110302,-0.7540634952023975,-0.2872626405284995,-0.4471363808817941,0.5197495434287751,202.60116056417573,-1.7949921294865177,-5.374984249315124,0.4755779338773607,-0.11459155902616465
GUIDED_NOGPS,4.6214470863342285,27.2502501331878,202.51408222192623,-1.8147298910694112,-5.441394256979632,4.477392386161062,200.67409643624347,0.18066541316992613,50,-0.23971258591503197,-0.41806091137724466,124.61984767125247,-0.6922201500449762,-0.22603087011841308,-0.44773923861610626,0.5197679751095778,199.6961180436223,-0.9344904508738539,-4.773899456972091,1.8564524149814758,0.057295779513082325
GUIDED_NOGPS,4.656848907470703,28.254555497921817,201.38314940951938,-0.9170495017092642,-4.514082942762928,4.4944888652992026,200.60004003502246,0.16081746619215664,50,-0.3332875649263818,-0.03401575612926511,124.63313921937731,-0.6409937463009077,-0.15219045400245737,-0.44944888652992027,0.5197733505179485,199.20348963864703,-0.021665924767408806,-3.3933651220015757,-0.06132402371588341,0.5729577951308232
GUIDED_NOGPS,4.696695804595947,25.098910305126534,200.33808902312492,-0.03536135494127982,-3.6248698429015085,4.524881998329729,200.5310653609818,0.1423314791525776,50,-0.3537935537229055,0.27743668119636444,124.65427182466934,-0.5906123283633585,-0.08382599095317085,-0.4524881998329729,0.5197913119111235,198.34763374007588,0.8500723108174355,-2.7073449497308646,0.3987113917266072,1.088619810748564
GUIDED_NOGPS,4.734524726867676,26.44363324569865,199.46558418619404,0.8318034386052533,-2.441415543457523,4.585638307956197,200.46708514822672,0.12518406381165903,50,-0.25045732725310826,0.5808527339528128,124.72643960343969,-0.5409846114521407,-0.02704106009209853,-0.4585638307956197,0.5197715170639517,197.4795189444493,1.6670039297657455,-1.2235365586401363,4.8654593549766645,2.0626480624709638
GUIDED_NOGPS,4.762612819671631,35.61134318220411,197.93579273814882,1.6263802548517463,-1.4592565810784937,4.657429197645363,200.4080014035426,0.1093489568876933,50,-0.24375803225523646,0.7546052759185324,124.76964738012919,-0.4954310264598632,0.07625583052462517,-0.4657429197645363,0.5197456026854288,194.9522033239496,2.36206452397207,-0.44688823486448725,-1.3674956890894805,2.46371851906254
GUIDED_NOGPS,4.804297924041748,23.998992962178864,196.7654405161357,2.2998936137261685,-0.26339065919599775,4.737463487686145,200.35370520206544,0.0947969652941758,50,-0.17774672186650942,0.9989293601012338,124.92771161790162,-0.4565317511862354,0.15512750957549948,-0.4737463487686145,0.5197307598519325,193.84435693355672,2.8706123874407026,0.8802528159166233,-6.206880312924142,3.323155211758775
GUIDED_NOGPS,4.833994626998901,33.67836839569616,195.6730943787053,2.9380279488959538,0.6350433203757883,4.865016352222403,200.30407648295136,0.08149591137702927,50,-0.15566127850484676,1.121385580574571,125.01440037884743,-0.4197106644453138,0.22880816332287154,-0.4865016352222403,0.5197145148110818,193.74175895149486,3.5814069352751026,1.4717653800752217,-0.4235232139242697,4.010704565915763
GUIDED_NOGPS,4.870402812957764,27.47246729939151,194.0167640914849,3.4843753763323195,1.6401850301585403,4.976150280900241,200.25898384504737,0.06941057815194185,50,-0.13906023692286631,1.2504377360737307,125.18423986274897,-0.38794169188569994,0.34272978394527875,-0.49761502809002417,0.5197019303750282,190.06598230397393,4.001106806281166,2.568536894483769,0.5709065212553668,4.239887683968092
GUIDED_NOGPS,4.907436370849609,27.008796218785015,192.6382214698322,3.9450293772121245,2.3521252034704663,5.1079200285276505,200.21828434256082,0.05850265454160919,50,-0.07727357195856405,1.329777106750893,125.31828915539963,-0.3609586595498748,0.43778198818289515,-0.510792002852765,0.5197189398818771,190.58680583618568,4.2525743900801185,3.0160733358524014,-0.5949428159823356,4.18259190445501
GUIDED_NOGPS,4.935810804367065,35.25276941955656,191.3129740453724,4.283035720881978,3.096270213411241,5.251973910531409,200.18182328073013,0.048730680613108035,50,0.0073540193226277716,1.3192287333514545,125.45106803286468,-0.34100269972063013,0.5292547266623633,-0.5251973910531409,0.519711039643937,188.32596620165057,4.595425966284664,3.7042004098975476,1.4134041580529413,4.411775022507339
GUIDED_NOGPS,4.967652797698975,31.417772151519465,189.92272422852236,4.533863701653695,3.6291534993597394,5.372573992952607,200.14943401149426,0.040049992815124114,50,0.05260955876244966,1.2824980037075357,125.54966864372298,-0.3258978034797731,0.6259332810308216,-0.5372573992952607,0.5197315838524312,186.8931078493064,4.753590748596318,4.167186752329263,0.5468941816106963,4.640958140559668
GUIDED_NOGPS,5.002800464630127,28.453127649904008,188.28542268836327,4.7203658024705115,3.9762216620121116,5.517903014233036,200.1209377291633,0.032412669215229784,50,0.15287745614975087,1.268064746774241,125.7167350708215,-0.3143645839745308,0.7406369535882524,-0.5517903014233035,0.5197780443024287,185.55525125069929,4.812080692530566,4.057277823809517,0.2364790367481504,5.156620156177409
GUIDED_NOGPS,5.048050165176392,22.104135924786036,187.24585663130944,4.8277109455792555,4.205835763092417,5.696758369499752,200.09614326608843,0.025767474737246943,50,0.27112158433930583,1.1203647874587714,126.02112928137228,-0.3071385767321231,0.8144893520623488,-0.5696758369499751,0.5198555208638983,184.8681520187048,4.917461395610896,4.393042713138462,1.4720040906704668,5.7868737308213145
GUIDED_NOGPS,5.07842755317688,32.926458581925516,185.63348926378836,4.91057102284658,4.178250759353938,5.918657172940344,200.0748468883318,0.020059806398474933,50,0.3579237637779269,0.9956877950098281,126.23290612677769,-0.301558546930323,0.9281537166110805,-0.5918657172940345,0.5199309208004051,182.52496899858036,5.002170980398291,4.084431741113826,1.3708432627991982,5.7868737308213145
GUIDED_NOGPS,5.117838144302368,25.380185042872096,184.39899286938822,4.927991996741121,4.110091979992205,6.106095243590231,200.05683209133704,0.01523163854705345,50,0.4340580415066343,0.8829428228757795,126.44823467055151,-0.29953964914445247,1.016386822938439,-0.6106095243590232,0.5200279874011718,182.15348422964988,4.864343614214191,3.85280148572432,-0.7017712399791947,6.589014644004467
GUIDED_NOGPS,5.151635646820068,29.596545203082222,183.03554023060002,4.861020132433061,3.763963995346831,6.351089415182452,200.04186939559892,0.011221468099154919,50,0.5386930177749388,0.8046562618261512,126.70035061319503,-0.3024102158052377,1.1136534151852375,-0.6351089415182453,0.5201406908862096,180.07584465536553,4.716545802686716,3.35465875920234,3.387310655651504,7.047380880109126
GUIDED_NOGPS,5.192301034927368,24.59684967335593,182.03812557533533,4.692243549591598,3.3669194879317694,6.579972910312306,200.02971614233388,0.00796425977636872,50,0.6541957855080858,0.7526139556103564,126.95268512189199,-0.3109173799079283,1.1862797382570553,-0.6579972910312306,0.5202752090614667,180.5681779743757,4.495841231873903,2.8932982188686425,1.0292468216539845,7.563042895726867
GUIDED_NOGPS,5.226390838623047,29.34290371551899,180.8897422609853,4.451918333573258,2.933095583095336,6.872438709872382,200.02011628914974,0.0053913913429504134,50,0.7625056169932687,0.7131277782448665,127.1611834764958,-0.32362653918212614,1.269248059161527,-0.6872438709872383,0.5203986375436469,179.12623544695458,4.143367966159174,2.5513297712150176,2.9456661559403585,8.13600069085769
GUIDED_NOGPS,5.255980730056763,33.803223726627984,180.00067137706782,4.126486866762396,2.5581699121207366,7.138337036801783,200.01280020571593,0.003430598843134902,50,0.874204716410659,0.6803615465273171,127.40517149402699,-0.3412518557322163,1.3339379768599522,-0.7138337036801783,0.5205064693462113,178.07961457899313,3.740251402254133,2.2298817462785423,0.5153687448945874,8.651662706475431
GUIDED_NOGPS,5.297512769699097,24.08000826721475,179.30950917935962,3.7822978960391374,2.3005414776634887,7.391933714580425,200.00748446943396,0.0020059218383927657,50,1.1365616205801046,0.5936013887603474,127.89301092530597,-0.3598161448549414,1.386262473830246,-0.7391933714580425,0.5206316790347167,178.6976732411087,3.4632743197041242,2.120412915496899,4.04605275636041,9.339212060632418
GUIDED_NOGPS,5.327784538269043,33.042927482569816,178.6930140736951,3.328686433558914,2.1199953245058083,7.754672940685367,200.00387166110684,0.0010376486447789546,50,1.2461041944887692,0.5723620617625464,128.12368007395565,-0.38476288793632873,1.4323765348234618,-0.7754672940685368,0.5207219057561936,176.9933691270431,2.7825335787185037,2.009691311741977,6.111706855872271,9.568395178684748
GUIDED_NOGPS,5.3638434410095215,27.738638167292734,177.88999278076426,2.7381246807963424,1.9837002738459486,8.036275414913346,200.00165016060959,0.00044226157014648493,50,1.4664177091396426,0.5333693655645899,128.53636010360782,-0.4174072322894661,1.4924080336062553,-0.8036275414913346,0.5208218650354128,176.55307150972138,1.968566143966419,1.8209965942989628,0.8347599437703082,10.255944532841736
GUIDED_NOGPS,5.40066123008728,27.1669408640456,177.13999671065235,2.035981014373004,1.8803728214649975,8.387434499429107,200.00049394255947,0.00013238215155197963,50,1.6415870884713168,0.5094403314159792,128.91659673470244,-0.4564094211002603,1.5490447534716203,-0.8387434499429107,0.5209209820392094,175.376255096395,1.3568433204341104,1.8104305583540454,5.859945348647088,10.943493886998723
GUIDED_NOGPS,5.429421901702881,34.78873636627545,176.4575775773561,1.2599031367951612,1.7962645342395807,8.768520748469454,200.00006237198573,1.6716392440940808e-05,50,1.7277133193059446,0.5229050888693073,129.24335298459584,-0.4997186069509755,1.6001637021377344,-0.8768520748469455,0.5209985953823231,174.66751891251198,0.45429994598497453,1.7573664500657273,3.5290705518427075,11.3445643435903
