Mode,Time,Freq,time2delay,actualDelay,North-Desired,East-Desired,Down-Desired,Roll-UAV,Pitch-UAV,Yaw-UAV,Roll-Control,Pitch-Control,Yaw-Control,Thrust-Control,North-Pos,East-Pos,Down-Pos,Yaw-Ang,North-Vel,East-Vel,Down-Vel,Yaw-Vel,North-Acc,East-Acc,Down-Acc,North-Avg,East-Avg,Down-Avg,Yaw-Avg,North-Dif,East-Dif,Down-Dif,Yaw-Dif,North-One,East-One,Down-One,Yaw-One,North-Two,East-Two,Down-Two,Yaw-Two,Landing-State,Q-Size,Kalman-Time,Kalman-Dt
STABILIZE,0.03898787498474121,25.656687750033644,0.03275445302327474,0.037523746490478516,0.0,0.0,0.0,-0.7940470570544174,-1.1361381488515638,126.11108287274135,-0.15995387859863516,0.1552497334452661,0.032418995943625635,0.4,0.09580271719215318,0.09837111020151815,0.1319078516876198,0.09720363534760526,-0.15040099387988448,0.1647620927542448,1.5558058395981789,0.10216204758236326,-0.06910593947395682,1.0186521336436272,18.31723302602768,0.0,0.0,0.0,0.0,0.0,0.0,0.0,0.0,0.0,0.0,0.0,0.0,0.0,0.0,0.0,0.0,False,0,0.14459705352783203,0.02494677734375
STABILIZE,0.0724172592163086,29.912735882696943,0.03231027921040853,0.03248429298400879,0.0,0.0,0.0,-0.792423126218394,-1.1355591835976995,126.11639675991562,-0.08906915940022918,0.08655145411995731,0.027936150750871854,0.4,0.10388975541609885,0.1065387558331733,0.1513302816152493,0.10412080265824221,0.12609516270458698,0.08628849755041301,1.6225771978497505,-0.12873783339520686,3.1206078827381134,2.9459964483976364,24.553215503692627,0.0,0.0,0.0,0.0,0.0,0.0,0.0,0.0,0.0,0.0,0.0,0.0,0.0,0.0,0.0,0.0,False,0,0.17314982414245605,0.03483642578125
STABILIZE,0.1058351993560791,29.9229792394949,0.03241780598958333,0.032559871673583984,0.0,0.0,0.0,-0.7926325142051371,-1.135854269114185,126.11968891109557,-0.06912779722064018,0.06676806907667032,0.02879008500237042,0.4,0.11668213080264918,0.12027148451383765,0.18327717332178595,0.11652626918841198,-0.004729487409349531,0.07965926197357476,1.923057809472084,-0.06723810974721786,-3.8581546396017075,0.9201958775520325,23.619218170642853,0.0,0.0,0.0,0.0,0.0,0.0,0.0,0.0,0.0,0.0,0.0,0.0,0.0,0.0,0.0,0.0,False,0,0.20189476013183594,0.03492578125
STABILIZE,0.1393730640411377,29.818104263381272,0.032463820775349934,0.03261089324951172,0.0,0.0,0.0,-0.7920594720059436,-1.1352040137608588,126.12243464714192,-0.06157213790315519,0.05916250425986529,0.031108919820366124,0.4,0.13384924394048803,0.13857177039347254,0.2381286534867184,0.13146923179761197,-0.19187210127711296,0.14180958969518542,1.6733668744564056,-0.13245372310795825,3.771296516060829,-0.9262152947485447,24.03293251991272,0.0,0.0,0.0,0.0,0.0,0.0,0.0,0.0,0.0,0.0,0.0,0.0,0.0,0.0,0.0,0.0,False,0,0.2592427730560303,0.034925048828125
STABILIZE,0.17705798149108887,26.534807804236152,0.03238681157430013,0.036841392517089844,0.0,0.0,0.0,-0.7921156609840376,-1.1368955527974947,126.12564483605182,-0.05277207316662668,0.05024410520516123,0.03194696644153945,0.4,0.1398402706876455,0.14612262799591422,0.2671373141356237,0.13868627642023929,-0.17480725655332208,-0.037594541208818555,1.535072922706604,-0.002321507260703948,-4.781092330813408,-1.1870400980114937,24.220463633537292,0.0,0.0,0.0,0.0,0.0,0.0,0.0,0.0,0.0,0.0,0.0,0.0,0.0,0.0,0.0,0.0,False,0,0.2879645824432373,0.034926025390625
STABILIZE,0.2106480598449707,29.77259756668891,0.03248289426167806,0.0326383113861084,0.0,0.0,0.0,-0.7913342446543058,-1.1378384390680738,126.12843155323318,-0.02397581470641005,0.02261758229393173,0.030749069625849813,0.4,0.14707202825920118,0.15278688857715,0.298211890659511,0.14428315833089916,0.15284840483218431,0.04704657767433673,1.8207469955086708,-0.014349120208499308,-0.665874732658267,-1.1239614337682724,19.635668396949768,0.0,0.0,0.0,0.0,0.0,0.0,0.0,0.0,0.0,0.0,0.0,0.0,0.0,0.0,0.0,0.0,False,0,0.3166482448577881,0.034926025390625
STABILIZE,0.25153398513793945,24.457153519615616,0.03235748608907064,0.03988027572631836,0.0,0.0,0.0,-0.789903373384041,-1.137801299914462,126.13427819516271,-0.02279553663158381,0.021730783647091672,0.03161365286400321,0.4,0.1531811292838106,0.15808218215145514,0.3290802855794432,0.14851460067723982,0.15284840483218431,0.04704657767433673,1.8207469955086708,-0.014349120208499308,-0.665874732658267,-1.1239614337682724,19.635668396949768,0.0,0.0,0.0,0.0,0.0,0.0,0.0,0.0,0.0,0.0,0.0,0.0,0.0,0.0,0.0,0.0,False,1,0.34534406661987305,0.034926025390625
STABILIZE,0.2848644256591797,30.00453540693474,0.032312663396199544,0.03243255615234375,0.0,0.0,0.0,-0.78899367756396,-1.138565000441034,126.13998823330884,-0.020083186230236496,0.019708431101717567,0.03287203540476811,0.4,0.15969526683631305,0.1637073083914653,0.377558507437291,0.155149172377607,0.020174919336568564,-0.009732755279401317,1.5381227247416973,-0.1298271285059049,1.196044310927391,0.7759411353617907,28.130844235420227,0.0,0.0,0.0,0.0,0.0,0.0,0.0,0.0,0.0,0.0,0.0,0.0,0.0,0.0,0.0,0.0,False,0,0.4034891128540039,0.034926025390625
STABILIZE,0.31835222244262695,29.860561144215914,0.032418044408162434,0.03255152702331543,0.0,0.0,0.0,-0.7883505192040681,-1.1389305222833355,126.14272030897685,-0.014104574197243905,0.013802442084646854,0.03287509769442943,0.4,0.16023105915178987,0.1651809474996221,0.4026779736571727,0.15664909155246992,-0.10427189990878105,-0.02520161506254226,1.4410551637411118,-0.00911027840371358,-1.6986282542347908,-1.3521738350391388,20.2237069606781,0.0,0.0,0.0,0.0,0.0,0.0,0.0,0.0,0.0,0.0,0.0,0.0,0.0,0.0,0.0,0.0,False,0,0.4332878589630127,0.03492626953125
STABILIZE,0.3518836498260498,29.822768609438214,0.03238371213277181,0.0325167179107666,0.0,0.0,0.0,-0.7874821780449773,-1.1397269863735824,126.14512453556469,-0.012453263251537134,0.011275516538899915,0.03295821273217387,0.4,0.15854961734483825,0.16705190404323753,0.43221558177979236,0.1573841078946877,-0.19843857735395432,0.08523951983079314,1.8766025081276894,0.0013165990037992939,-1.0706977918744087,0.8767534978687763,28.17312777042389,0.0,0.0,0.0,0.0,0.0,0.0,0.0,0.0,0.0,0.0,0.0,0.0,0.0,0.0,0.0,0.0,False,0,0.464510440826416,0.029935791015625
STABILIZE,0.3852114677429199,30.005393997925385,0.03230264981587728,0.03241372108459473,0.0,0.0,0.0,-0.7869521446932137,-1.1397055353107204,126.15134000770941,-0.009401180725326362,0.008053211320000015,0.03213596542604949,0.4,0.1568352167390763,0.16529580528489443,0.45499151539426946,0.15408664870640146,0.006968101661186665,8.172125944838626e-05,1.8665952607989311,-0.12378397189539066,-4.339873790740967,0.6853571627289057,24.495188891887665,0.0,0.0,0.0,0.0,0.0,0.0,0.0,0.0,0.0,0.0,0.0,0.0,0.0,0.0,0.0,0.0,False,0,0.49320220947265625,0.034926025390625
STABILIZE,0.41867589950561523,29.88247363921345,0.03240326245625814,0.03255295753479004,0.0,0.0,0.0,-0.7881871816333695,-1.140106168594224,126.15348468710879,-0.007689794368801627,0.0060972153077654126,0.03162539782152638,0.4,0.15634351522229,0.16484098299348152,0.4836301770353249,0.15187420131502694,0.006968101661186665,8.172125944838626e-05,1.8665952607989311,-0.12378397189539066,-4.339873790740967,0.6853571627289057,24.495188891887665,0.0,0.0,0.0,0.0,0.0,0.0,0.0,0.0,0.0,0.0,0.0,0.0,0.0,0.0,0.0,0.0,False,0,0.5219986438751221,0.034926025390625
STABILIZE,0.45215487480163574,29.869705170203673,0.032412083943684895,0.03253459930419922,0.0,0.0,0.0,-0.7869279722268543,-1.139586113721951,126.15774672515087,-0.006059480026746816,0.0036421035235201333,0.031736136585315496,0.4,0.1559651354951994,0.16578624608413978,0.5105503747028393,0.15277467891340601,0.059604167472571135,0.15153044369071722,1.7911432310938835,0.15740285668128098,-1.6285179182887077,-1.094617135822773,22.243155539035797,0.0,0.0,0.0,0.0,0.0,0.0,0.0,0.0,0.0,0.0,0.0,0.0,0.0,0.0,0.0,0.0,False,0,0.5507223606109619,0.034926025390625
STABILIZE,0.4856224060058594,29.879280498664293,0.03235987027486165,0.032563209533691406,0.0,0.0,0.0,-0.787212759098732,-1.1389816419804049,126.16413978221401,-0.004310015706042136,0.001387336419324319,0.030552201451859422,0.4,0.1505733629432618,0.16258618724734833,0.5529507787440855,0.14738903133887427,0.1082928036339581,0.01712286175461486,1.6236070543527603,-0.0782154843935779,8.42280387878418,0.8673102594912052,28.62783968448639,0.0,0.0,0.0,0.0,0.0,0.0,0.0,0.0,0.0,0.0,0.0,0.0,0.0,0.0,0.0,0.0,False,0,0.6080543994903564,0.034926025390625
STABILIZE,0.5192339420318604,29.753378402343778,0.03242209752400716,0.03257155418395996,0.0,0.0,0.0,-0.7870323994159614,-1.1383766366303296,126.16624348047837,-0.0033053164718814883,0.0021709357240056837,0.030051091114812672,0.4,0.15096567002664174,0.16165281986710653,0.5786423496218405,0.1448823889043243,0.19124391255900264,0.0975766044575721,1.86220183968544,-0.00949200193497399,2.3149650543928146,-1.2065066024661064,19.037805497646332,0.0,0.0,0.0,0.0,0.0,0.0,0.0,0.0,0.0,0.0,0.0,0.0,0.0,0.0,0.0,0.0,False,0,0.6367442607879639,0.0399150390625
STABILIZE,0.552640438079834,29.934511404835995,0.03227117856343587,0.03240036964416504,0.0,0.0,0.0,-0.7875262541094651,-1.1372955457507636,126.17187155635446,-0.003593465450780124,0.0017030926851592295,0.030051313149200766,0.4,0.1481173038720336,0.16070610614688516,0.6076706981404053,0.1440351359057426,-0.08062960114330053,0.04184941644780338,1.7272969707846642,0.06005383129763548,4.233288392424583,-1.1052563786506653,21.09149694442749,0.0,0.0,0.0,0.0,0.0,0.0,0.0,0.0,0.0,0.0,0.0,0.0,0.0,0.0,0.0,0.0,False,0,0.6661014556884766,0.02492529296875
STABILIZE,0.5862441062927246,29.756755798031968,0.03230312665303548,0.03243851661682129,0.0,0.0,0.0,-0.7881876085201927,-1.137921361833466,126.17411185840223,-0.0011758397916292063,-0.0012412714549887133,0.0293085602211289,0.4,0.1400131297528144,0.15401966275175943,0.613649374580142,0.14010901942335013,-0.2044562716037035,-0.08743671933189034,1.5297891572117805,0.06757602401825498,-1.7470955848693848,0.7922395132482052,26.225578784942627,0.0,0.0,0.0,0.0,0.0,0.0,0.0,0.0,0.0,0.0,0.0,0.0,0.0,0.0,0.0,0.0,False,0,0.6940670013427734,0.034925048828125
STABILIZE,0.6196815967559814,29.909109708703248,0.03216675122578939,0.032379150390625,0.0,0.0,0.0,-0.7884669525850756,-1.1388069385480406,126.17627019817995,0.0009215721611177611,-0.003533125305194416,0.028905107638886252,0.4,0.13368345735424036,0.14943636770530866,0.6318811684886051,0.13806782220433608,-0.2044562716037035,-0.08743671933189034,1.5297891572117805,0.06757602401825498,-1.7470955848693848,0.7922395132482052,26.225578784942627,0.0,0.0,0.0,0.0,0.0,0.0,0.0,0.0,0.0,0.0,0.0,0.0,0.0,0.0,0.0,0.0,False,0,0.7227613925933838,0.034925048828125
STABILIZE,0.653120756149292,29.903991900697996,0.03223470052083333,0.03238201141357422,0.0,0.0,0.0,-0.7884618299431981,-1.1384525157631402,126.18094204757224,0.0011695993960281405,-0.002921422081355271,0.02854534012877199,0.4,0.1302315736376874,0.1457828458808653,0.6536883516276345,0.13540957870070025,0.003275252674939111,-0.006496629066532478,1.832246221601963,0.040032939344634776,-1.5197713859379292,0.8270073682069778,21.406912803649902,0.0,0.0,0.0,0.0,0.0,0.0,0.0,0.0,0.0,0.0,0.0,0.0,0.0,0.0,0.0,0.0,False,0,0.7516789436340332,0.034926025390625
STABILIZE,0.6865427494049072,29.92105807574601,0.03228357632954915,0.03240466117858887,0.0,0.0,0.0,-0.7880495106329115,-1.1384367209506847,126.18469865161575,0.002967951462064348,-0.005867531838300452,0.02751188023579058,0.4,0.12295787275302483,0.140257524590371,0.694796207382718,0.13021072829663619,-0.14329352416098118,-0.16303498996421695,1.5805695205926895,0.1217645971188073,2.896302379667759,-0.9703315794467926,30.099156498908997,0.0,0.0,0.0,0.0,0.0,0.0,0.0,0.0,0.0,0.0,0.0,0.0,0.0,0.0,0.0,0.0,False,0,0.8089306354522705,0.029936767578125
STABILIZE,0.7200424671173096,29.84972315925815,0.03229239781697591,0.032430171966552734,0.0,0.0,0.0,-0.7881580999685441,-1.1382679939338443,126.18793616128234,0.004170434248751593,-0.006381028533884099,0.027008277579205625,0.4,0.1189423837228514,0.13622636874696256,0.7023206193050557,0.1275373563412757,0.020149305055383593,0.041140211396850646,1.4870621263980865,0.10320235743010761,-1.3631625100970268,2.7322573587298393,17.407788336277008,0.0,0.0,0.0,0.0,0.0,0.0,0.0,0.0,0.0,0.0,0.0,0.0,0.0,0.0,0.0,0.0,False,0,0.8375647068023682,0.034925048828125
STABILIZE,0.75343918800354,29.942845720567973,0.03226307233174642,0.03240060806274414,0.0,0.0,0.0,-0.7880099702409195,-1.138670548208052,126.19057261430196,0.002660720685073357,-0.004603606795253534,0.026392339873781787,0.4,0.11599838375451221,0.13387372639528325,0.7165624387788985,0.12398765040086213,0.055118941236287355,0.10511502623558044,1.5660203993320465,0.008944106037705252,-2.172188460826874,1.005527563393116,23.45491647720337,0.0,0.0,0.0,0.0,0.0,0.0,0.0,0.0,0.0,0.0,0.0,0.0,0.0,0.0,0.0,0.0,False,0,0.8669371604919434,0.029937255859375
STABILIZE,0.7868068218231201,29.96851890223426,0.03231838544209798,0.03244757652282715,0.0,0.0,0.0,-0.7873125972544905,-1.138776416140187,126.19409699191368,0.0026865527940050813,-0.004162200566432749,0.02575656807223251,0.4,0.1112610793597675,0.12953085544500878,0.7258037476132054,0.120606751098314,-0.030757696367800236,0.01871486456366256,1.677793264389038,0.05652836645853125,2.3863524198532104,-0.9831133298575878,26.276302337646484,0.0,0.0,0.0,0.0,0.0,0.0,0.0,0.0,0.0,0.0,0.0,0.0,0.0,0.0,0.0,0.0,False,0,0.8956847190856934,0.0349248046875
STABILIZE,0.8202731609344482,29.880983422029395,0.032406123479207356,0.032549142837524414,0.0,0.0,0.0,-0.7872241783212507,-1.1389323365523336,126.1990830300078,0.0026854942985877718,-0.004983639160116754,0.02550134896835518,0.4,0.1059131631758747,0.1261092874552006,0.7415312045307988,0.11880472780483893,-0.09431426296941936,0.040595175232738256,1.744561642408371,0.1203785356247575,0.08163827005773783,0.9261425584554672,24.057573080062866,0.0,0.0,0.0,0.0,0.0,0.0,0.0,0.0,0.0,0.0,0.0,0.0,0.0,0.0,0.0,0.0,False,0,0.9242875576019287,0.034926025390625
STABILIZE,0.8537251949310303,29.89397459837783,0.03239396413167318,0.03255724906921387,0.0,0.0,0.0,-0.787287944540455,-1.13905133125428,126.20155555848734,0.002028435917949503,-0.004456478341729116,0.02531671305094931,0.4,0.10050984360438679,0.12263911327797414,0.7563768724860374,0.11698435366649829,-0.09431426296941936,0.040595175232738256,1.744561642408371,0.1203785356247575,0.08163827005773783,0.9261425584554672,24.057573080062866,0.0,0.0,0.0,0.0,0.0,0.0,0.0,0.0,0.0,0.0,0.0,0.0,0.0,0.0,0.0,0.0,False,0,0.9530313014984131,0.034926025390625
STABILIZE,0.8872048854827881,29.867365467738605,0.032427342732747395,0.03257012367248535,0.0,0.0,0.0,-0.7885650298326887,-1.137798845315229,126.2093556345195,0.0017702598487414358,-0.005687644748731384,0.02480891883212244,0.4,0.09360321055639408,0.11954372586154009,0.7724732556714952,0.11409627617623312,-0.1838799798861146,0.065089255804196,1.872582547366619,0.05626090185352311,-0.560436025261879,-1.1800684034824371,20.47315090894699,0.0,0.0,0.0,0.0,0.0,0.0,0.0,0.0,0.0,0.0,0.0,0.0,0.0,0.0,0.0,0.0,False,1,0.9816403388977051,0.039916015625
STABILIZE,0.9207746982574463,29.790360384675484,0.03240636189778646,0.03265213966369629,0.0,0.0,0.0,-0.7886998727079436,-1.1378699219712793,126.21141835164885,0.003457686781652145,-0.007162677559653598,0.022435200229102153,0.4,0.08702458843121359,0.11296472144649677,0.7885696617661316,0.103003438071317,0.083867774810642,0.16540656797587872,1.6898231580853462,-0.114818334753544,1.7041390761733055,0.8204632438719273,22.261367738246918,0.0,0.0,0.0,0.0,0.0,0.0,0.0,0.0,0.0,0.0,0.0,0.0,0.0,0.0,0.0,0.0,False,0,1.0392577648162842,0.034925048828125
STABILIZE,0.954216480255127,29.901859997576086,0.0323975404103597,0.03251981735229492,0.0,0.0,0.0,-0.7874480804599802,-1.137124043969573,126.21326250272475,0.0023948891119988675,-0.006341746562663812,0.02128221297769843,0.4,0.08473299286317677,0.11163642086885447,0.7997263898876941,0.09726586453047181,0.083867774810642,0.16540656797587872,1.6898231580853462,-0.114818334753544,1.7041390761733055,0.8204632438719273,22.261367738246918,0.0,0.0,0.0,0.0,0.0,0.0,0.0,0.0,0.0,0.0,0.0,0.0,0.0,0.0,0.0,0.0,False,0,1.0680036544799805,0.034925048828125
STABILIZE,0.9877233505249023,29.844838014188433,0.03217128117879232,0.03231358528137207,0.0,0.0,0.0,-0.7865269120565276,-1.1370305557553082,126.2191501257893,0.0026272091501421345,-0.006074160229809412,0.01929464855988623,0.4,0.08045464167262141,0.1078329160315219,0.8133091265420369,0.08812934809990795,-0.040553975850343704,0.01394479040754959,1.8819015473127365,-0.3172752002734918,-2.1810537204146385,-1.1972606182098389,23.69641363620758,0.0,0.0,0.0,0.0,0.0,0.0,0.0,0.0,0.0,0.0,0.0,0.0,0.0,0.0,0.0,0.0,False,0,1.0966005325317383,0.064863037109375
STABILIZE,1.0211036205291748,29.957174487536605,0.03234675725301107,0.032469749450683594,0.0,0.0,0.0,-0.785678474495565,-1.1366389938167962,126.22248325810426,0.0019795819652456627,-0.004916415629019946,0.019054673841392727,0.4,0.07841728938878874,0.10624716007799073,0.8550569294897281,0.08659701464148832,0.0699482043273747,0.052075140411034226,1.658390834927559,0.11128875445866057,4.349053278565407,0.7169582881033421,18.331968784332275,0.0,0.0,0.0,0.0,0.0,0.0,0.0,0.0,0.0,0.0,0.0,0.0,0.0,0.0,0.0,0.0,False,0,1.125124216079712,0.034926025390625
STABILIZE,1.0552268028259277,29.307023673104336,0.032396825154622395,0.03314709663391113,0.0,0.0,0.0,-0.7848773146502637,-1.136565889448336,126.22539291869069,0.0025143879254942727,-0.004471934843772396,0.01851955801936845,0.4,0.07306764824884285,0.10189732250728514,0.8568524016328167,0.08363924821639795,-0.09076044079847634,0.005653140760841779,1.481397170573473,0.05893864950317884,0.6976873613893986,0.7697180844843388,23.516856133937836,0.0,0.0,0.0,0.0,0.0,0.0,0.0,0.0,0.0,0.0,0.0,0.0,0.0,0.0,0.0,0.0,False,0,1.1544859409332275,0.034898681640625
STABILIZE,1.0886683464050293,29.903139102970847,0.032360108693440755,0.032489776611328125,0.0,0.0,0.0,-0.7846753438220723,-1.1363989767004936,126.22695020182145,0.000966959470561057,-0.0024462272302946666,0.018789360452028715,0.4,0.0722023641945428,0.09977559068910212,0.8633028531236038,0.08313312625936954,0.1502922037616372,0.1237069838680327,1.764422468841076,0.18699163637217292,-0.7041280157864094,-0.9065492078661919,27.182650566101074,0.0,0.0,0.0,0.0,0.0,0.0,0.0,0.0,0.0,0.0,0.0,0.0,0.0,0.0,0.0,0.0,False,0,1.1834144592285156,0.02993603515625
STABILIZE,1.1246142387390137,27.81977488442431,0.03235009511311849,0.0350186824798584,0.0,0.0,0.0,-0.7876582154986638,-1.1412236515754615,126.2318132965105,0.0031489930145029437,-0.0021188082731932747,0.01975387825422416,0.4,0.07079616973063546,0.09241538133107924,0.8702578890033288,0.08634112402881775,0.15001974534243345,0.03340847324579954,1.7621060833334923,0.2973725092797507,1.722107082605362,-1.1073087342083454,22.54212498664856,0.0,0.0,0.0,0.0,0.0,0.0,0.0,0.0,0.0,0.0,0.0,0.0,0.0,0.0,0.0,0.0,False,0,1.2432403564453125,0.03492626953125
STABILIZE,1.158066749572754,29.890992018244013,0.032392295201619466,0.03251957893371582,0.0,0.0,0.0,-0.8078416913003159,-1.162050499180417,126.21600823877108,0.002577871257293173,-0.00031078428051740627,0.019286429333837184,0.4,0.07147174867024648,0.09033007855716589,0.8699252263299967,0.08287902887445124,0.21599577739834785,0.10797858703881502,1.4229747466742992,0.0022298099700645436,5.1729027181863785,0.8334963582456112,19.489367306232452,0.0,0.0,0.0,0.0,0.0,0.0,0.0,0.0,0.0,0.0,0.0,0.0,0.0,0.0,0.0,0.0,False,0,1.2718887329101562,0.03492578125
STABILIZE,1.1916167736053467,29.80623796360122,0.03240207036336263,0.032614707946777344,0.0,0.0,0.0,-0.8340761810980705,-1.1830362554052811,126.19917865265617,0.0028945540350412274,-0.0016267446141744963,0.017518263323121914,0.4,0.06616665690501172,0.0880133016631718,0.8753254064499211,0.07476822263293684,-0.12286799028515816,0.08959862170740962,1.7665836960077286,-0.25995326455098294,-4.646102711558342,0.9548631496727467,25.43240785598755,0.0,0.0,0.0,0.0,0.0,0.0,0.0,0.0,0.0,0.0,0.0,0.0,0.0,0.0,0.0,0.0,False,0,1.3004708290100098,0.02993603515625
STABILIZE,1.2251174449920654,29.85078535894498,0.03239324887593587,0.03251934051513672,0.0,0.0,0.0,-0.814267885453093,-1.1658953620746053,126.22929978689594,0.0022678706794602654,-0.0017739278327461967,0.01579730373028406,0.4,0.060907751472529324,0.08564217937716427,0.8753124506047363,0.06670832778556335,-0.12286799028515816,0.08959862170740962,1.7665836960077286,-0.25995326455098294,-4.646102711558342,0.9548631496727467,25.43240785598755,0.0,0.0,0.0,0.0,0.0,0.0,0.0,0.0,0.0,0.0,0.0,0.0,0.0,0.0,0.0,0.0,False,0,1.3292863368988037,0.02993603515625
STABILIZE,1.258544921875,29.915509432616524,0.03233459790547689,0.03249621391296387,0.0,0.0,0.0,-0.7899986758673039,-1.1246013190131776,126.2527683168841,0.009541859886745954,-0.009953092869687073,0.024639486009269487,0.4,0.03902747163988678,0.06499902029681644,0.8558466723383434,0.1047964116002151,-1.0873503983020782,-0.966173131018877,0.6400018464773893,2.3726540384061043,-18.046589195728302,-37.03778088092804,13.089857995510101,0.0,0.0,0.0,0.0,0.0,0.0,0.0,0.0,0.0,0.0,0.0,0.0,0.0,0.0,0.0,0.0,False,0,1.3581466674804688,0.034926025390625
STABILIZE,1.292017936706543,29.873960113960113,0.03238704999287923,0.03253674507141113,0.0,0.0,0.0,-0.799815258530199,-1.1568146255730734,126.21102220067698,0.01507428164280215,-0.017968870908139638,0.03349019732447536,0.4,0.017135663509998428,0.044496125217623944,0.841429206985576,0.14326765739846542,-1.0873503983020782,-0.966173131018877,0.6400018464773893,2.3726540384061043,-18.046589195728302,-37.03778088092804,13.089857995510101,0.0,0.0,0.0,0.0,0.0,0.0,0.0,0.0,0.0,0.0,0.0,0.0,0.0,0.0,0.0,0.0,False,1,1.3866171836853027,0.034926025390625
STABILIZE,1.3254766464233398,29.88864897991178,0.03238871892293294,0.03252220153808594,0.0,0.0,0.0,-0.8382104198974851,-1.187786225086202,126.23326129661454,0.019023306015032597,-0.026484276394160088,0.03670868692947421,0.4,-0.004181232421660481,0.03246879835296267,0.8989889809822671,0.1563621856031445,-0.9852724149823189,-0.9475183673202991,2.0133616402745247,2.8210779420888326,-59.70667600631714,-27.050134539604187,19.153963029384613,0.0,0.0,0.0,0.0,0.0,0.0,0.0,0.0,0.0,0.0,0.0,0.0,0.0,0.0,0.0,0.0,False,0,1.444577693939209,0.024947021484375
STABILIZE,1.3590610027313232,29.77661349292555,0.032378466924031575,0.03252410888671875,0.0,0.0,0.0,-0.8534607915710956,-1.1825904788402322,126.27571775249534,0.02033049776210564,-0.031517306828860184,0.03180190057364844,0.4,-0.022010412977553254,0.026958606410835726,0.919146714811881,0.1335737570451724,-0.9268674068152905,-0.17658505821600556,3.322187438607216,-0.8747298405639566,41.83779060840607,28.585439920425415,78.2191514968872,0.0,0.0,0.0,0.0,0.0,0.0,0.0,0.0,0.0,0.0,0.0,0.0,0.0,0.0,0.0,0.0,False,0,1.4731812477111816,0.034926025390625
STABILIZE,1.392329454421997,30.056784142863286,0.03221252759297689,0.032328128814697266,0.0,0.0,0.0,-0.8384509172614636,-1.195187055217028,126.19314076542989,0.021939261904740347,-0.03713419562720802,0.02752545397529239,0.4,-0.0412546227265355,0.020634477234897166,0.9498212625149369,0.11359874628966547,-0.9268674068152905,-0.17658505821600556,3.322187438607216,-0.8747298405639566,41.83779060840607,28.585439920425415,78.2191514968872,0.0,0.0,0.0,0.0,0.0,0.0,0.0,0.0,0.0,0.0,0.0,0.0,0.0,0.0,0.0,0.0,False,0,1.5014607906341553,0.034926025390625
STABILIZE,1.4257774353027344,29.896957773786102,0.032416375478108723,0.03253650665283203,0.0,0.0,0.0,-0.8223667289005827,-1.1922354530002306,126.20091352070536,0.023812225014781696,-0.03173988520575814,0.034839922401670165,0.4,-0.047608046851585345,-0.0032099159798915852,0.9259864690101361,0.14993306992851718,-0.2477786736562848,-1.136187743395567,0.380935613065958,2.1732825240807245,-13.644438982009888,-48.061203956604004,5.2253782749176025,0.0,0.0,0.0,0.0,0.0,0.0,0.0,0.0,0.0,0.0,0.0,0.0,0.0,0.0,0.0,0.0,False,0,1.530172348022461,0.064862060546875
STABILIZE,1.4621870517730713,27.465811014340908,0.032421382268269856,0.03553509712219238,0.0,0.0,0.0,-0.7874753478558073,-1.1060956685089685,126.29579850865518,0.02527034134411196,-0.03571799105745207,0.04105416982279674,0.4,-0.08051908055476704,-0.02761942730545982,0.9448131985231587,0.1817260643170075,-1.2322445400059223,-0.8380015380680561,1.1196507140994072,1.4457695136701652,-20.648610591888428,30.433472990989685,11.403948813676834,0.0,0.0,0.0,0.0,0.0,0.0,0.0,0.0,0.0,0.0,0.0,0.0,0.0,0.0,0.0,0.0,False,0,1.5600647926330566,0.034926025390625
STABILIZE,1.495875358581543,29.683470039136314,0.03243974049886068,0.03258466720581055,0.0,0.0,0.0,-0.7619358831669545,-1.1233928024169084,126.27334084666417,-0.002857834604797326,-0.036873288057224396,0.02946193399794264,0.4,-0.10291642072821536,0.03361146279773259,0.9495306486215093,0.13261175419447707,-1.3641223311424255,1.2086275964975357,2.8801152482628822,-1.1144217758289199,-32.007426023483276,-61.820006370544434,55.37062883377075,0.0,0.0,0.0,0.0,0.0,0.0,0.0,0.0,0.0,0.0,0.0,0.0,0.0,0.0,0.0,0.0,False,0,1.616551399230957,0.03492626953125
STABILIZE,1.5292201042175293,29.992520290321426,0.03221944173177083,0.03236985206604004,0.0,0.0,0.0,-0.7777054559391916,-1.157175131495203,126.2224286165909,0.012259771131224352,-0.03281109633375115,0.027040044005617377,0.4,-0.10894063305698731,-0.010418063347346927,0.9076557791726352,0.11877010292259502,-0.33511228393763304,-2.2139668464660645,-0.35233120433986187,-0.45651426275460816,-30.97345232963562,-62.93900012969971,-35.84917485713959,0.0,0.0,0.0,0.0,0.0,0.0,0.0,0.0,0.0,0.0,0.0,0.0,0.0,0.0,0.0,0.0,False,0,1.645388126373291,0.03493603515625
STABILIZE,1.5625956058502197,29.95910029214077,0.03233459790547689,0.03247642517089844,0.0,0.0,0.0,-0.7797936795562173,-1.1150387340100425,126.26798597835489,0.026925700811836345,-0.028078846395439328,0.024562479527873427,0.4,-0.11456077928043647,-0.054010076914735736,0.8662557506899962,0.10508655195798614,-0.33511228393763304,-2.2139668464660645,-0.35233120433986187,-0.45651426275460816,-30.97345232963562,-62.93900012969971,-35.84917485713959,0.0,0.0,0.0,0.0,0.0,0.0,0.0,0.0,0.0,0.0,0.0,0.0,0.0,0.0,0.0,0.0,True,0,1.6740353107452393,0.03493603515625
STABILIZE,1.5960936546325684,29.853122464376717,0.032425912221272786,0.032559871673583984,0.0,0.0,0.0,-0.7683538063875335,-1.1055111537264035,126.31996371793868,0.022291331816715238,-0.029012832706816212,0.02771276053988169,0.4,-0.1227743267507567,-0.06404969614535118,0.8357920154243694,0.12315877345215125,-0.49202628433704376,-0.4752947483211756,0.1936029177159071,1.2076101021002235,57.38577842712402,19.7390079498291,78.69505286216736,0.0,0.0,0.0,0.0,0.0,0.0,0.0,0.0,0.0,0.0,0.0,0.0,0.0,0.0,0.0,0.0,True,0,1.702714443206787,0.029936767578125
STABILIZE,1.629875898361206,29.60197614510551,0.03238347371419271,0.03288578987121582,0.0,0.0,0.0,-0.7449351687968225,-1.0742297411013915,126.37262447643948,-0.0020241177663984614,-0.004541077803526041,0.013165791690576334,0.4,-0.08721370428629913,-0.021926719296420392,0.8282982278520431,0.06341277823988274,1.7562834545969963,2.23909392952919,1.557458471506834,-2.936896392627681,9.936127066612244,66.9703722000122,16.150207817554474,0.0,0.0,0.0,0.0,0.0,0.0,0.0,0.0,0.0,0.0,0.0,0.0,0.0,0.0,0.0,0.0,True,0,1.731389045715332,0.034926025390625
STABILIZE,1.6633224487304688,29.898236459803545,0.03242233594258626,0.03255295753479004,0.0,0.0,0.0,-0.7649325753044447,-1.0682941999909445,126.38903059082585,0.014676268985887374,-0.01445508557593338,0.01686751158928369,0.4,-0.1333717786648409,-0.00839912019613151,0.8312766094741677,0.072922598121334,-2.580207958817482,0.7633229251950979,1.9032446667551994,0.75889388766536,-40.93070924282074,-33.96139144897461,22.777584195137024,0.0,0.0,0.0,0.0,0.0,0.0,0.0,0.0,0.0,0.0,0.0,0.0,0.0,0.0,0.0,0.0,True,0,1.7601161003112793,0.03492529296875
STABILIZE,1.6967861652374268,29.88332525862806,0.03243401845296224,0.03257298469543457,0.0,0.0,0.0,-0.7904147837981458,-1.12725175257626,126.3543742109772,-0.013620672252166857,-0.0024769664824345447,0.018485553774525546,0.4,-0.10796451395005571,0.023744234881801378,0.8055822568935201,0.07793515214918775,1.3754754327237606,0.02853198384400457,0.8262496441602707,0.8961783421050892,45.78245282173157,-71.73898220062256,-39.10997807979584,0.0,0.0,0.0,0.0,0.0,0.0,0.0,0.0,0.0,0.0,0.0,0.0,0.0,0.0,0.0,0.0,True,0,1.8175461292266846,0.034926025390625
STABILIZE,1.7302398681640625,29.890352971358936,0.032422574361165364,0.03255963325500488,0.0,0.0,0.0,-0.926159991075389,-1.2461714291634114,126.27459760147146,0.002452626717913173,0.022851210592474254,0.027349025257915622,0.4,-0.048031876942561016,-0.057934347206258285,0.782206085434227,0.1143777954895851,3.221862018108368,-4.527512192726135,0.37279787939041853,2.241016656306095,72.15797901153564,-17.130695283412933,60.94101667404175,0.0,0.0,0.0,0.0,0.0,0.0,0.0,0.0,0.0,0.0,0.0,0.0,0.0,0.0,0.0,0.0,True,0,1.846147060394287,0.03492578125
STABILIZE,1.763707160949707,29.88077054599339,0.032429011662801106,0.03256058692932129,0.0,0.0,0.0,-0.9523643319912602,-1.273266789600852,126.31257345325673,0.030503615939341658,0.04919832696728119,0.03530158088942533,0.4,0.011968666370695685,-0.13951451984168756,0.7591590060550409,0.15088054272074855,3.221862018108368,-4.527512192726135,0.37279787939041853,2.241016656306095,72.15797901153564,-17.130695283412933,60.94101667404175,0.0,0.0,0.0,0.0,0.0,0.0,0.0,0.0,0.0,0.0,0.0,0.0,0.0,0.0,0.0,0.0,True,0,1.874783992767334,0.03492578125
STABILIZE,1.7974340915679932,29.652202191587133,0.032393487294514973,0.032517194747924805,0.0,0.0,0.0,-0.9430922434712622,-1.2686231147388896,126.30705466040736,0.0609003674966374,0.08456771044350947,0.022007524014943693,0.4,0.13529488280053914,-0.17913506231030038,0.7676448848718782,0.08512140982699669,6.778991222381592,-2.197435684502125,2.1186556667089462,-3.4851292103215705,117.47349500656128,40.09388983249664,62.238430976867676,0.0,0.0,0.0,0.0,0.0,0.0,0.0,0.0,0.0,0.0,0.0,0.0,0.0,0.0,0.0,0.0,True,0,1.903529405593872,0.029936279296875
STABILIZE,1.8306465148925781,30.107053900210317,0.03211716016133626,0.03227043151855469,0.0,0.0,0.0,-0.9317451648257554,-1.290507787891551,126.33548190773296,0.06696265167144427,0.09112710894340174,0.02699236355559985,0.4,0.10942867519330186,-0.18229048302605425,0.7980998830627284,0.1077291751573838,-1.4554820023477077,-0.32964989077299833,3.5269800573587418,1.5135255238452205,-198.2295274734497,-77.5117039680481,-8.9743971824646,0.0,0.0,0.0,0.0,0.0,0.0,0.0,0.0,0.0,0.0,0.0,0.0,0.0,0.0,0.0,0.0,True,0,1.9322540760040283,0.034926025390625
STABILIZE,1.864053726196289,29.932802375039252,0.03238704999287923,0.0325014591217041,0.0,0.0,0.0,-0.8096230900132199,-1.1490141226540957,126.36672319299659,0.08063123468329886,0.07286300451879155,0.03219778062036066,0.4,0.08571227183681962,-0.18770243824160715,0.8322523608257177,0.13064141482612884,-1.4554820023477077,-0.32964989077299833,3.5269800573587418,1.5135255238452205,-198.2295274734497,-77.5117039680481,-8.9743971824646,0.0,0.0,0.0,0.0,0.0,0.0,0.0,0.0,0.0,0.0,0.0,0.0,0.0,0.0,0.0,0.0,True,0,1.9609358310699463,0.034926025390625
STABILIZE,1.8974614143371582,29.93365686554382,0.032416375478108723,0.03254246711730957,0.0,0.0,0.0,-0.7016256863217121,-0.9897939820863417,126.43450599031979,0.03059293681687213,0.013919205013565484,0.014843045004110466,0.4,-0.010183241380516184,-0.1339245406424493,0.8637984675955258,0.05971987122355162,-6.746865063905716,4.592875763773918,0.9409831836819649,-0.36915166095850227,-79.45610284805298,197.18884229660034,-34.335872530937195,0.0,0.0,0.0,0.0,0.0,0.0,0.0,0.0,0.0,0.0,0.0,0.0,0.0,0.0,0.0,0.0,True,0,2.0183589458465576,0.034926025390625
STABILIZE,1.9309921264648438,29.824040957087497,0.032454760869344075,0.03260946273803711,0.0,0.0,0.0,-0.7491743150330203,-1.0934428497932256,126.41987572511762,-0.03070886990332864,-0.053543300221795376,0.011452529851905898,0.4,-0.12824722442423914,-0.051266515148226735,0.852828437352842,0.04957275172660075,-6.746865063905716,4.592875763773918,0.9409831836819649,-0.36915166095850227,-79.45610284805298,197.18884229660034,-34.335872530937195,0.0,0.0,0.0,0.0,0.0,0.0,0.0,0.0,0.0,0.0,0.0,0.0,0.0,0.0,0.0,0.0,True,0,2.047410011291504,0.034926025390625
STABILIZE,1.9643774032592773,29.95268190614935,0.03239324887593587,0.032549381256103516,0.0,0.0,0.0,-0.8653655978510162,-1.2809193762356166,126.30221888647499,-0.04750397094152742,-0.09460658737694118,0.016534295729456864,0.4,-0.11990001281088797,-0.044472760089547536,0.7128267371187252,0.06293978426378141,0.5151266232132912,0.21724123507738113,-6.443144381046295,0.9687692724388673,65.630042552948,-122.05803394317627,-329.1921377182007,0.0,0.0,0.0,0.0,0.0,0.0,0.0,0.0,0.0,0.0,0.0,0.0,0.0,0.0,0.0,0.0,True,0,2.0808544158935547,0.064862060546875
STABILIZE,1.9983892440795898,29.403174247097752,0.03249052365620931,0.03310728073120117,0.0,0.0,0.0,-0.9117939688167366,-1.2795418124573896,126.29853058432317,0.008599650744187374,-0.08627243004644293,0.025045950438109806,0.4,-0.12246835020059703,-0.19344814812459069,0.6628334935165846,0.10267218338910503,0.3983117174357176,-8.152007311582565,-1.7340127378702164,2.309147793276972,-27.21101939678192,-255.05220890045166,-10.821367800235748,0.0,0.0,0.0,0.0,0.0,0.0,0.0,0.0,0.0,0.0,0.0,0.0,0.0,0.0,0.0,0.0,True,0,2.109313726425171,0.034926025390625
STABILIZE,2.0321500301361084,29.622673757512835,0.032396825154622395,0.03273320198059082,0.0,0.0,0.0,-0.8830197158647951,-1.1997129093158079,126.29451443309121,0.027443372260073973,-0.0402972178744929,0.06904406738820887,0.4,-0.025828701110314642,-0.24699831916885465,0.6340745253618677,0.29633473002868993,5.06654866039753,-2.9976055026054382,0.11655965354293585,10.52253820890287,18.885406851768494,111.40527725219727,-105.70441484451294,0.0,0.0,0.0,0.0,0.0,0.0,0.0,0.0,0.0,0.0,0.0,0.0,0.0,0.0,0.0,0.0,True,0,2.138068437576294,0.02993603515625
STABILIZE,2.065441370010376,30.03354003465708,0.03228643735249837,0.03241086006164551,0.0,0.0,0.0,-0.7948846090013901,-1.1417081681197092,126.3119860569881,0.00622973569805189,0.0017986335827900458,0.09369110194837876,0.4,-0.005822986684101691,-0.14334271426072057,0.6459336239901737,0.39316818441914236,0.9849685244262218,5.322403833270073,2.3165831342339516,5.643531313521776,-90.42559266090393,278.58238220214844,-101.32454633712769,0.0,0.0,0.0,0.0,0.0,0.0,0.0,0.0,0.0,0.0,0.0,0.0,0.0,0.0,0.0,0.0,True,0,2.1667566299438477,0.03489892578125
STABILIZE,2.1066782474517822,24.250980029371974,0.03246167500813802,0.04026198387145996,0.0,0.0,0.0,-0.7302239018199671,-1.09946953124041,126.373006967033,0.026535931758395994,0.007652261130455432,0.10272889888400637,0.4,-0.11955463380144865,-0.11444209546477885,0.6450903101411295,0.4305290707709754,-5.4760802537202835,0.35344366915524006,1.7412800341844559,2.892415212544796,-13.436806201934814,-16.346055269241333,-35.23256778717041,0.0,0.0,0.0,0.0,0.0,0.0,0.0,0.0,0.0,0.0,0.0,0.0,0.0,0.0,0.0,0.0,True,0,2.2241570949554443,0.029936767578125
STABILIZE,2.14009952545166,29.92020430437357,0.032341988881429036,0.03246426582336426,0.0,0.0,0.0,-0.76105713664155,-1.1216982751725106,126.42333180083766,-0.0032345274760554425,0.021261699543232912,0.04278095008836446,0.4,-0.07628142830203749,-0.03161090652428704,0.6478494049479894,0.1710134979501618,2.2530164569616318,4.382437467575073,1.7453020438551903,-13.909103947519748,157.24432468414307,96.69604301452637,-0.13845115900039673,0.0,0.0,0.0,0.0,0.0,0.0,0.0,0.0,0.0,0.0,0.0,0.0,0.0,0.0,0.0,0.0,True,0,2.252819061279297,0.03492626953125
STABILIZE,2.175786256790161,28.021057694877207,0.032349379857381184,0.034799814224243164,0.0,0.0,0.0,-0.7751346367686223,-1.1768996506011422,126.34119194587907,-0.08585303597248069,0.03768036290428773,-0.016615915300847987,0.4,-0.03422202608414906,0.05055111425205615,0.6532851412496368,-0.08412835484667003,2.2530164569616318,4.382437467575073,1.7453020438551903,-13.909103947519748,157.24432468414307,96.69604301452637,-0.13845115900039673,0.0,0.0,0.0,0.0,0.0,0.0,0.0,0.0,0.0,0.0,0.0,0.0,0.0,0.0,0.0,0.0,True,0,2.2823922634124756,0.03492626953125
STABILIZE,2.2092630863189697,29.87140700225052,0.03245571454366048,0.03258466720581055,0.0,0.0,0.0,-0.8414472892338365,-1.2161404747650406,126.24793254295173,-0.09169101698826532,0.028814350129757176,-0.01036912783612921,0.4,0.031785588877032527,0.01634762963012426,0.5996199892184338,-0.031841041427324135,3.587232530117035,-2.1203558892011642,-1.589915156364441,3.3142651980445317,164.72103595733643,-136.0640525817871,-2.4387985467910767,0.0,0.0,0.0,0.0,0.0,0.0,0.0,0.0,0.0,0.0,0.0,0.0,0.0,0.0,0.0,0.0,True,0,2.3120360374450684,0.034925048828125
STABILIZE,2.2427608966827393,29.853334946653664,0.03242615063985189,0.032572031021118164,0.0,0.0,0.0,-0.8488428366402264,-1.2438149071780513,126.33288643584835,-0.013870614109766583,0.003543367927963924,0.0564738714873269,0.4,-0.01445465510742603,-0.08819963563792152,0.5691676587010754,0.27073452007165233,-2.709478698670864,-6.032165139913559,-0.3058534115552902,17.295333299320003,-101.31418704986572,-147.5152611732483,68.66048574447632,0.0,0.0,0.0,0.0,0.0,0.0,0.0,0.0,0.0,0.0,0.0,0.0,0.0,0.0,0.0,0.0,True,0,2.340230941772461,0.029936767578125
STABILIZE,2.2794551849365234,27.25255189889867,0.03238967259724935,0.03582429885864258,0.0,0.0,0.0,-0.780732830567094,-1.1072481562097023,126.36158689074074,0.012809966611431085,0.01774391163604771,0.11382615413605465,0.4,-0.06815161515371272,-0.13969201267034165,0.5718153683924541,0.5254357510514239,-0.5341322626918554,2.7486635372042656,3.3468224108219147,-1.8473198567915055,-38.37813138961792,33.37160348892212,-96.06401324272156,0.0,0.0,0.0,0.0,0.0,0.0,0.0,0.0,0.0,0.0,0.0,0.0,0.0,0.0,0.0,0.0,True,0,2.3982293605804443,0.06985107421875
STABILIZE,2.3130977153778076,29.724701463449204,0.03245666821797689,0.03272414207458496,0.0,0.0,0.0,-0.7707691320327792,-1.1093257076561498,126.37090326876864,0.043930862664547286,-0.006453432571856808,0.14229429904483126,0.4,-0.09141524641664575,-0.14264281262373438,0.6584865145793238,0.6137696107259398,-1.0863639414310455,0.19153025932610035,5.2580393850803375,2.664682618351408,-77.46252417564392,0.8409551344811916,-70.38503289222717,0.0,0.0,0.0,0.0,0.0,0.0,0.0,0.0,0.0,0.0,0.0,0.0,0.0,0.0,0.0,0.0,True,0,2.427347421646118,0.02993701171875
STABILIZE,2.346653699874878,29.80009662659505,0.03238728841145833,0.0326385498046875,0.0,0.0,0.0,-0.7642274116334937,-1.103261780333648,126.39285549676106,0.06705555610874954,-0.035919632164562176,0.13128575414918423,0.4,-0.1313690925912624,-0.13039628393464026,0.7142488891790868,0.5332404962565201,-2.314119413495064,0.392406340688467,4.510378837585449,-3.3939762804229305,-57.59633779525757,-20.772865414619446,21.68806493282318,0.0,0.0,0.0,0.0,0.0,0.0,0.0,0.0,0.0,0.0,0.0,0.0,0.0,0.0,0.0,0.0,True,0,2.4576005935668945,0.034926025390625
STABILIZE,2.3800833225250244,29.914442621781614,0.03241470654805501,0.03253340721130371,0.0,0.0,0.0,-0.820767397417742,-1.1247326934329946,126.36784334402047,0.05075492100162119,-0.07571101682001989,0.11288722496011307,0.4,-0.1722057625072854,-0.11926393745528771,0.7737862894106042,0.45867424755587216,-2.314119413495064,0.392406340688467,4.510378837585449,-3.3939762804229305,-57.59633779525757,-20.772865414619446,21.68806493282318,0.0,0.0,0.0,0.0,0.0,0.0,0.0,0.0,0.0,0.0,0.0,0.0,0.0,0.0,0.0,0.0,True,0,2.4861977100372314,0.034926025390625
STABILIZE,2.413557529449463,29.875236833482912,0.03241542180379232,0.03254342079162598,0.0,0.0,0.0,-0.7974588432665445,-1.160852654754726,126.33249028487649,0.009763904248573683,-0.046313696411802156,0.09815594202981494,0.4,-0.1383397949378573,-0.1108896124589597,0.8116930509800975,0.4326740954205274,1.7289267852902412,0.23888014256954193,3.3405937254428864,-0.7140569507762526,108.91002416610718,-55.61172962188721,108.17561149597168,0.0,0.0,0.0,0.0,0.0,0.0,0.0,0.0,0.0,0.0,0.0,0.0,0.0,0.0,0.0,0.0,True,0,2.515336275100708,0.03492578125
STABILIZE,2.4575839042663574,22.714272562345997,0.03238371213277181,0.04071617126464844,0.0,0.0,0.0,-0.8519219179345799,-1.2252191835541626,126.36270704176462,-0.0015108975563452452,-0.013534338823948451,0.12415848719141671,0.4,-0.09005188204253223,-0.12893897660262255,0.7799767209018745,0.5775775022802867,2.492358349263668,-1.2019149959087372,-0.43376972898840904,8.619675680667642,27.761340141296387,-16.721633076667786,-71.25542163848877,0.0,0.0,0.0,0.0,0.0,0.0,0.0,0.0,0.0,0.0,0.0,0.0,0.0,0.0,0.0,0.0,True,0,2.543959140777588,0.029936279296875
STABILIZE,2.4887359142303467,32.10188586823414,0.030013354619344075,0.03016495704650879,0.0,0.0,0.0,-0.8380137851545828,-1.1823784228108443,126.39122991173859,0.002061810233738642,-0.014002625647401425,0.1090561254854482,0.4,-0.11264950090693716,-0.14079156326610673,0.7791759293756665,0.5218121512615611,-0.6481277756392956,1.064185332506895,1.388872042298317,0.2822793386787564,-45.81705033779144,71.33216857910156,-14.559367299079895,0.0,0.0,0.0,0.0,0.0,0.0,0.0,0.0,0.0,0.0,0.0,0.0,0.0,0.0,0.0,0.0,True,0,2.6092872619628906,0.03492578125
STABILIZE,2.522202491760254,29.879493353470014,0.032316001256306966,0.03244781494140625,0.0,0.0,0.0,-0.768840830891867,-1.1286886536229013,126.38480953391878,-0.004990852461727333,0.00695512207275839,0.124202018533949,0.4,-0.09525151288016961,-0.11184963553700163,0.7942212773452699,0.5755871166819225,0.8119464851915836,1.3901105150580406,2.164086326956749,3.7581532157881368,22.60707914829254,34.812724590301514,-29.01415228843689,0.0,0.0,0.0,0.0,0.0,0.0,0.0,0.0,0.0,0.0,0.0,0.0,0.0,0.0,0.0,0.0,True,0,2.6380414962768555,0.02993603515625
STABILIZE,2.579944133758545,17.3177372139209,0.03229263623555501,0.056703805923461914,0.0,0.0,0.0,-0.7668150928335765,-1.1050989944986755,126.41344168691947,0.00030826653541673766,0.021640020588364426,0.11575845917452937,0.4,-0.09523434044563006,-0.1177236011844543,0.8132737427303826,0.5236946190395761,-0.19629858434200287,-0.5903027486056089,2.690792828798294,-1.90730428562985,-21.194766461849213,-53.509920835494995,38.05176913738251,0.0,0.0,0.0,0.0,0.0,0.0,0.0,0.0,0.0,0.0,0.0,0.0,0.0,0.0,0.0,0.0,True,0,2.6935293674468994,0.03491845703125
STABILIZE,2.6145753860473633,28.87704393206056,0.03230002721150716,0.03366827964782715,0.0,0.0,0.0,-0.7869254642667683,-1.1572058673464682,126.38080704306516,0.003617919056502793,0.02176380851493804,0.11885173711482258,0.4,-0.06262952615498375,-0.1184908538151649,0.8323000006979534,0.5322013456139236,1.6840443015098572,-0.26874179020524025,2.400072105228901,1.2760045215192635,29.817810654640198,-31.34448528289795,-5.759760737419128,0.0,0.0,0.0,0.0,0.0,0.0,0.0,0.0,0.0,0.0,0.0,0.0,0.0,0.0,0.0,0.0,True,0,2.722144603729248,0.03492626953125
STABILIZE,2.6479690074920654,29.94455589745054,0.03235295613606771,0.032486915588378906,0.0,0.0,0.0,-0.7778065747554196,-1.130587873098988,126.36349934370834,-0.001245423685903011,0.020538476025937866,0.11761071513740717,0.4,-0.02990299107269475,-0.1192679439457917,0.8509576129151463,0.5403443278281032,1.6840443015098572,-0.26874179020524025,2.400072105228901,1.2760045215192635,29.817810654640198,-31.34448528289795,-5.759760737419128,0.0,0.0,0.0,0.0,0.0,0.0,0.0,0.0,0.0,0.0,0.0,0.0,0.0,0.0,0.0,0.0,True,0,2.7508835792541504,0.03492626953125
STABILIZE,2.6814589500427246,29.858010322121373,0.03242472012837728,0.03256940841674805,0.0,0.0,0.0,-0.7870873610944388,-1.1533664472592746,126.39041028903819,-0.003790518977096326,0.0281182500193958,0.12170493366259137,0.4,-0.031204566247256926,-0.1238147051180184,0.8177681555288038,0.5492957020548237,-0.24773888289928436,-0.4825974814593792,-0.5215245299041271,1.3424784838427664,-34.393659234046936,-2.3216111585497856,-33.000314235687256,0.0,0.0,0.0,0.0,0.0,0.0,0.0,0.0,0.0,0.0,0.0,0.0,0.0,0.0,0.0,0.0,True,0,2.7795894145965576,0.029936767578125
STABILIZE,2.714848518371582,29.950543055248104,0.032404454549153645,0.03252291679382324,0.0,0.0,0.0,-0.7775304857025629,-1.1308554244153821,126.4150536115636,0.003558650535687757,0.026169836724051026,0.11091901821486114,0.4,-0.020336619358033152,-0.11587228575372505,0.7971433186983041,0.5078996333500514,0.08532506180927157,1.0879259556531906,1.1091317981481552,-1.4469962796781228,2.0476775243878365,22.4724680185318,68.86785626411438,0.0,0.0,0.0,0.0,0.0,0.0,0.0,0.0,0.0,0.0,0.0,0.0,0.0,0.0,0.0,0.0,True,0,2.8368823528289795,0.03492626953125
STABILIZE,2.748321771621704,29.875236833482912,0.03245666821797689,0.032591819763183594,0.0,0.0,0.0,-0.7796555283080832,-1.1306975830125314,126.40357889375798,0.0024173071268743995,0.027709857945914608,0.11277155950773951,0.4,-0.016331203386880922,-0.11606742267258237,0.8221025469195241,0.5105594960194014,0.08856410277076066,-0.23910999298095703,2.8424687683582306,1.036016326799051,11.00887879729271,-23.172055184841156,43.78780424594879,0.0,0.0,0.0,0.0,0.0,0.0,0.0,0.0,0.0,0.0,0.0,0.0,0.0,0.0,0.0,0.0,True,0,2.8655171394348145,0.0349248046875
STABILIZE,2.7817914485931396,29.876726477522848,0.032434733708699544,0.032558441162109375,0.0,0.0,0.0,-0.7750040094007458,-1.120740981471651,126.40057361052317,0.0025217227078076342,0.02173867526345355,0.11897367939601786,0.4,-0.0026906115968841193,-0.11685703606845001,0.7955637704879908,0.537040409870989,0.6547301076352596,-0.27222465723752975,-0.12091542594134808,2.4167160156286798,44.212570786476135,-10.283484309911728,-25.419753789901733,0.0,0.0,0.0,0.0,0.0,0.0,0.0,0.0,0.0,0.0,0.0,0.0,0.0,0.0,0.0,0.0,True,0,2.894174098968506,0.02993701171875
STABILIZE,2.8153445720672607,29.801790535739663,0.03240779240926107,0.03265690803527832,0.0,0.0,0.0,-0.7856616124660516,-1.1404333773441497,126.41748515890812,0.0017979369570254298,0.013684666536334626,0.10969554221217727,0.4,0.006833541124715556,-0.11543882468464273,0.7973091901883707,0.4962743475426289,0.46445177868008614,-0.17418753122910857,1.7770424485206604,-1.3056031462875137,16.13062024116516,-5.251559242606163,24.52359050512314,0.0,0.0,0.0,0.0,0.0,0.0,0.0,0.0,0.0,0.0,0.0,0.0,0.0,0.0,0.0,0.0,True,0,2.9227840900421143,0.03492578125
STABILIZE,2.848780632019043,29.909109708703248,0.03243068059285482,0.03256106376647949,0.0,0.0,0.0,-0.7763431000040385,-1.1324208183957845,126.41262206421908,-0.0014386569881524912,0.018451198432424435,0.10609206801459602,0.4,0.01796057631521754,-0.11135055478388477,0.7868714033226317,0.4803643275704029,0.5311887711286545,0.01650533959036693,0.8032112382352352,-0.030119026486067048,-17.78940260410309,1.998012326657772,-0.4512874409556389,0.0,0.0,0.0,0.0,0.0,0.0,0.0,0.0,0.0,0.0,0.0,0.0,0.0,0.0,0.0,0.0,True,0,2.953021764755249,0.029937255859375
STABILIZE,2.8822765350341797,29.854822407288776,0.03244069417317708,0.03257465362548828,0.0,0.0,0.0,-0.774887682741444,-1.1352162867570237,126.41603715880407,0.0027988279609968505,0.012030213137273281,0.10434816097862937,0.4,0.011385303837341152,-0.11472020297232294,0.785991206557384,0.46603322568555505,-0.4519916605204344,-0.44969869777560234,1.610352098941803,0.19533092382278824,-14.228032529354095,-11.622557044029236,14.550349116325378,0.0,0.0,0.0,0.0,0.0,0.0,0.0,0.0,0.0,0.0,0.0,0.0,0.0,0.0,0.0,0.0,True,0,2.9804108142852783,0.034925048828125
STABILIZE,2.915745496749878,29.879067646891208,0.032390626271565755,0.03251194953918457,0.0,0.0,0.0,-0.7724610445953854,-1.134272653434504,126.42890523520039,0.0014872132802919414,0.008586499396893795,0.10165506098438007,0.4,0.006251487952539261,-0.11140447195672637,0.784390946189793,0.4533480910420022,-0.021423507132567465,0.21193427965044975,1.1165319941937923,0.8570137705999715,8.62058699131012,11.922232061624527,5.944819375872612,0.0,0.0,0.0,0.0,0.0,0.0,0.0,0.0,0.0,0.0,0.0,0.0,0.0,0.0,0.0,0.0,True,0,3.037677526473999,0.03492578125
STABILIZE,2.949063777923584,30.01247924895529,0.03234866460164388,0.0324554443359375,0.0,0.0,0.0,-0.7733549456030109,-1.1318677865164248,126.42299029137915,-0.0012115935987694081,0.009160804639524227,0.09731336120592707,0.4,0.020354493337483945,-0.10515685032963144,0.7865392738776147,0.436640569570687,0.7608282845467329,0.14752985443919897,1.5506974421441555,-0.08490457412833434,19.521979987621307,-1.572880707681179,17.926953732967377,0.0,0.0,0.0,0.0,0.0,0.0,0.0,0.0,0.0,0.0,0.0,0.0,0.0,0.0,0.0,0.0,True,0,3.0663411617279053,0.029937255859375
STABILIZE,2.9880361557006836,25.659983971319676,0.032230647404988606,0.03778076171875,0.0,0.0,0.0,-0.7751138793968478,-1.1379215752768777,126.41986206473929,-0.000574336484495927,0.005843691153505744,0.09401572081788935,0.4,0.02058867366795401,-0.10539962154228717,0.7771026804232394,0.41521869805955214,-0.016438806778751314,-0.25820634327828884,1.1018749326467514,-0.2737000874726914,2.8404220938682556,-15.540100634098053,0.8655577898025513,0.0,0.0,0.0,0.0,0.0,0.0,0.0,0.0,0.0,0.0,0.0,0.0,0.0,0.0,0.0,0.0,True,0,3.0949673652648926,0.03492578125
STABILIZE,3.0221190452575684,29.33961960589548,0.032369407018025716,0.03326153755187988,0.0,0.0,0.0,-0.7732473167627303,-1.132972249449557,126.44144546251653,0.0026388544196908072,0.002783270767482158,0.0923682408282461,0.4,0.022960196383711967,-0.1098759884208166,0.7763990409742451,0.4047508586348075,0.08440654492005706,-0.4805498756468296,1.3720233924686909,0.2678584347829058,1.1909627355635166,-1.5286029316484928,21.47957980632782,0.0,0.0,0.0,0.0,0.0,0.0,0.0,0.0,0.0,0.0,0.0,0.0,0.0,0.0,0.0,0.0,True,0,3.123845338821411,0.034926025390625
STABILIZE,3.0557198524475098,29.76309048203629,0.03249409993489583,0.03261971473693848,0.0,0.0,0.0,-0.7769495994579945,-1.1346104276333024,126.44312568905235,-0.003259606356580419,0.006055037291975787,0.08727344276052382,0.4,0.025403979357890287,-0.09781967380983655,0.7731948664977992,0.3796209865186146,0.0987325212918222,0.5007566884160042,1.2305237352848053,-0.6046182170873134,2.319551818072796,13.992784917354584,13.719980418682098,0.0,0.0,0.0,0.0,0.0,0.0,0.0,0.0,0.0,0.0,0.0,0.0,0.0,0.0,0.0,0.0,True,0,3.1527748107910156,0.029936279296875
STABILIZE,3.0891621112823486,29.902499536594757,0.03233316739400228,0.0324859619140625,0.0,0.0,0.0,-0.7745652231074254,-1.1342787365717337,126.43491580167,-0.005334520429172736,0.009365787185661658,0.07956008883827774,0.4,0.029194867938439496,-0.08941641598870755,0.7753154072555497,0.3434146804056043,0.0943418126553297,0.026833891752175987,1.5895163640379906,-0.17973079843890558,-3.525026887655258,-7.6000019907951355,15.709592401981354,0.0,0.0,0.0,0.0,0.0,0.0,0.0,0.0,0.0,0.0,0.0,0.0,0.0,0.0,0.0,0.0,True,0,3.210552215576172,0.03491259765625
STABILIZE,3.122530698776245,29.968090655120427,0.03236082394917806,0.032472848892211914,0.0,0.0,0.0,-0.7767930387156131,-1.137169827581353,126.44465565142643,-0.001472263435296273,0.006158067934796426,0.07876070303924934,0.4,0.033892187349933434,-0.09348445629258986,0.7710470726447125,0.336784634001941,0.25686705484986305,-0.45145153999328613,1.1562944389879704,0.4539258345025849,13.656456768512726,-9.220211207866669,32.69376754760742,0.0,0.0,0.0,0.0,0.0,0.0,0.0,0.0,0.0,0.0,0.0,0.0,0.0,0.0,0.0,0.0,True,0,3.2388930320739746,0.034926025390625
STABILIZE,3.157668113708496,28.457760860862898,0.03242615063985189,0.03418445587158203,0.0,0.0,0.0,-0.7747872042554508,-1.1317130400430417,126.45364418037417,-0.00210317816473999,0.0077345513607173675,0.07576038240854391,0.4,0.0383156719732509,-0.09196498808748743,0.7681906970264224,0.32025892718541854,0.24685433600097895,-0.11314492439851165,1.24785415828228,-0.1516138711532985,4.233458638191223,11.953860521316528,12.714602053165436,0.0,0.0,0.0,0.0,0.0,0.0,0.0,0.0,0.0,0.0,0.0,0.0,0.0,0.0,0.0,0.0,True,0,3.2677440643310547,0.03492626953125
STABILIZE,3.1912341117858887,29.795439369183775,0.03237870534261068,0.032501935958862305,0.0,0.0,0.0,-0.7767623028643481,-1.1340538739376522,126.45296116145717,-0.005449930369186245,0.007435646155503138,0.07146954610836392,0.4,0.03971406729658539,-0.0873482159116104,0.7635524147274035,0.29939120882604375,0.07528175483457744,0.07179134991019964,1.1486336588859558,-0.4204572939197142,-4.600202664732933,-7.470279186964035,25.91734528541565,0.0,0.0,0.0,0.0,0.0,0.0,0.0,0.0,0.0,0.0,0.0,0.0,0.0,0.0,0.0,0.0,True,0,3.2964401245117188,0.029935791015625
STABILIZE,3.2245304584503174,30.02923951487034,0.03224137624104818,0.03237605094909668,0.0,0.0,0.0,-0.7759291265073123,-1.134008517212695,126.45319338788894,-0.0015430537466681721,0.006244544353016635,0.07006768157144598,0.4,0.038835222139200334,-0.08621899636996792,0.7608489650509481,0.289185463735148,-0.02012066834140569,-0.1464337226934731,1.4775648713111877,0.20587812328346308,-1.6235249117016792,-3.6685992032289505,13.658440113067627,0.0,0.0,0.0,0.0,0.0,0.0,0.0,0.0,0.0,0.0,0.0,0.0,0.0,0.0,0.0,0.0,True,0,3.3258872032165527,0.034926025390625
STABILIZE,3.262186288833618,26.558330378400285,0.03242162068684896,0.0368044376373291,0.0,0.0,0.0,-0.7766537135287155,-1.1331609334253787,126.46439489812776,0.0032003026098074423,0.009433194096551361,0.06608709156811704,0.4,0.05178932280403118,-0.09117090337146438,0.7740497940634882,0.26595590147410453,0.39343000389635563,-0.3384039970114827,1.7967987805604935,0.07150571732832628,13.816842436790466,-3.410450741648674,29.78389263153076,0.0,0.0,0.0,0.0,0.0,0.0,0.0,0.0,0.0,0.0,0.0,0.0,0.0,0.0,0.0,0.0,True,0,3.384617567062378,0.034926025390625
STABILIZE,3.295766830444336,29.77682488747533,0.032453330357869466,0.03262758255004883,0.0,0.0,0.0,-0.7757142423527214,-1.1340099045948702,126.46261904894357,0.00029662949098525746,0.00761691408852264,0.06324357306465826,0.4,0.051468951507028134,-0.0873893123945702,0.7735673122393875,0.2519860587397578,-0.0010703406587708741,0.038000792847014964,1.3783806003630161,-0.09760789889133825,0.7071428466588259,4.229047521948814,18.224382400512695,0.0,0.0,0.0,0.0,0.0,0.0,0.0,0.0,0.0,0.0,0.0,0.0,0.0,0.0,0.0,0.0,True,0,3.4135961532592773,0.02993701171875
STABILIZE,3.3293159008026123,29.80814441048966,0.032381566365559895,0.032624244689941406,0.0,0.0,0.0,-0.7766135861673417,-1.1339884535320082,126.46395776602088,3.173981259732124e-05,0.00481142937090003,0.060435076941121116,0.4,0.04811514968542691,-0.08529360301239247,0.7710685624800591,0.2370234127624772,-0.13980558142066002,-0.0784396193921566,1.4859781600534916,-0.1802328707037544,-4.457341507077217,-7.5663648545742035,23.64567518234253,0.0,0.0,0.0,0.0,0.0,0.0,0.0,0.0,0.0,0.0,0.0,0.0,0.0,0.0,0.0,0.0,True,0,3.4420907497406006,0.034925048828125
STABILIZE,3.362773895263672,29.88907495955932,0.032388957341512044,0.03253793716430664,0.0,0.0,0.0,-0.7778067881988311,-1.1339861056544809,126.47606086123015,0.0010324277085138045,0.0031879707080273677,0.05785360993576998,0.4,0.04519895653660595,-0.08355180606053715,0.7726112173663144,0.22243299898970975,-0.13980558142066002,-0.0784396193921566,1.4859781600534916,-0.1802328707037544,-4.457341507077217,-7.5663648545742035,23.64567518234253,0.0,0.0,0.0,0.0,0.0,0.0,0.0,0.0,0.0,0.0,0.0,0.0,0.0,0.0,0.0,0.0,True,0,3.4708194732666016,0.034925048828125
STABILIZE,3.396419048309326,29.725754783841246,0.03238704999287923,0.03251504898071289,0.0,0.0,0.0,-0.7778429134962381,-1.134898149352089,126.47459920074778,0.0008076568360863663,0.002554145103835888,0.05724323010565385,0.4,0.04274129255845514,-0.08188911155244265,0.7745763123398139,0.21781652339076768,-0.1035579014569521,-0.08170318906195462,1.5167726203799248,0.3909252368154451,2.685948647558689,3.9866629987955093,12.873287498950958,0.0,0.0,0.0,0.0,0.0,0.0,0.0,0.0,0.0,0.0,0.0,0.0,0.0,0.0,0.0,0.0,True,0,3.5004653930664062,0.0349267578125
STABILIZE,3.430265426635742,29.53964039467846,0.03217295010884603,0.03292655944824219,0.0,0.0,0.0,-0.7778839479921111,-1.1352910986727764,126.47673021976881,-0.0015670409355614105,0.0003836790888929915,0.055348391923976926,0.4,0.04785808186990434,-0.07974701516374459,0.7753646926718158,0.2062544446849618,0.3503847634419799,-0.05171283264644444,1.4524392783641815,-0.04605589220222325,5.30223585665226,-3.5947684198617935,24.288132786750793,0.0,0.0,0.0,0.0,0.0,0.0,0.0,0.0,0.0,0.0,0.0,0.0,0.0,0.0,0.0,0.0,True,0,3.529099941253662,0.029936279296875
STABILIZE,3.46427321434021,29.40523563145866,0.032433541615804036,0.03314089775085449,0.0,0.0,0.0,-0.7776830977418304,-1.1333317948763348,126.48662033368699,-0.003189172509081905,0.0017632836989584046,0.053132670842761215,0.4,0.051153822421544926,-0.07195045052770216,0.7649600723549501,0.19420209991077106,-0.052964448696002364,0.08065938018262386,1.3384654186666012,0.154512032475926,0.9855275973677635,6.1136603355407715,15.617939829826355,0.0,0.0,0.0,0.0,0.0,0.0,0.0,0.0,0.0,0.0,0.0,0.0,0.0,0.0,0.0,0.0,True,0,3.586470603942871,0.064863037109375
STABILIZE,3.497774124145508,29.85014803006149,0.032451661427815755,0.03258204460144043,0.0,0.0,0.0,-0.7780930158137369,-1.1346037041658381,126.49041791886552,-0.0038506925276282225,0.00314075397459619,0.05191190627829186,0.4,0.051594415631652873,-0.0683011716173643,0.7851320317595502,0.18640942275637568,-0.052964448696002364,0.08065938018262386,1.3384654186666012,0.154512032475926,0.9855275973677635,6.1136603355407715,15.617939829826355,0.0,0.0,0.0,0.0,0.0,0.0,0.0,0.0,0.0,0.0,0.0,0.0,0.0,0.0,0.0,0.0,True,0,3.6152467727661133,0.064863037109375
STABILIZE,3.531287431716919,29.839529887167227,0.0323977788289388,0.03252577781677246,0.0,0.0,0.0,-0.7759058611754519,-1.135129735453635,126.48431172974753,-0.0036235142606444795,0.006640130435691295,0.04925281537637638,0.4,0.05787637793849287,-0.06727502809115896,0.81110347105421,0.17244465832669037,0.2914789831265807,-0.08716604206711054,1.7792750149965286,-0.16757679697598524,7.6233334839344025,-3.5763241350650787,25.280743837356567,0.0,0.0,0.0,0.0,0.0,0.0,0.0,0.0,0.0,0.0,0.0,0.0,0.0,0.0,0.0,0.0,True,0,3.644094228744507,0.0349248046875
STABILIZE,3.5647084712982178,29.920844628334997,0.03232863744099935,0.03244328498840332,0.0,0.0,0.0,-0.7776468123618647,-1.1363976960400244,126.48993980562362,-0.0020462300495473415,0.007924483617935333,0.04794558839296715,0.4,0.058873855599263496,-0.069775120765772,0.7981245375304113,0.16567623627823777,0.14577939873561263,-0.2953406423330307,0.993706751614809,0.15231041704650758,5.793347209692001,-7.5542256236076355,18.07897537946701,0.0,0.0,0.0,0.0,0.0,0.0,0.0,0.0,0.0,0.0,0.0,0.0,0.0,0.0,0.0,0.0,True,0,3.673611640930176,0.034926025390625
STABILIZE,3.598073720932007,29.970446165718695,0.03234818776448568,0.03246760368347168,0.0,0.0,0.0,-0.7775555653034216,-1.1351896063305782,126.50019874975698,-0.00027280024682377286,0.006510152763504661,0.04693760972153753,0.4,0.059834346847914,-0.07234960397451992,0.7855643504431092,0.15935221310348646,0.14577939873561263,-0.2953406423330307,0.993706751614809,0.15231041704650758,5.793347209692001,-7.5542256236076355,18.07897537946701,0.0,0.0,0.0,0.0,0.0,0.0,0.0,0.0,0.0,0.0,0.0,0.0,0.0,0.0,0.0,0.0,True,0,3.7012128829956055,0.034926025390625
STABILIZE,3.6315276622772217,29.892270193993472,0.03242019017537435,0.03255414962768555,0.0,0.0,0.0,-0.7773840101613779,-1.136082867007969,126.49742569295395,0.0028965685384416398,0.005827572896851244,0.04742295004561512,0.4,0.0610198748201854,-0.07339191681117457,0.7772157328703359,0.15945837023211185,0.15938166761770844,-0.21384528372436762,1.1899535544216633,0.46307679388652107,6.701206415891647,4.232020676136017,18.469466269016266,0.0,0.0,0.0,0.0,0.0,0.0,0.0,0.0,0.0,0.0,0.0,0.0,0.0,0.0,0.0,0.0,True,0,3.729891538619995,0.029928955078125
STABILIZE,3.6649580001831055,29.912522554004806,0.032425912221272786,0.03259563446044922,0.0,0.0,0.0,-0.7770252117865407,-1.136118618779406,126.49789014581751,0.006111467826681028,0.004953372101071034,0.04469838849737191,0.4,0.05913168651159316,-0.07825524543588813,0.7878578232064462,0.1461674615975082,0.159669469576329,-0.24322124663740396,1.3624846003949642,0.04056610764650567,1.974521018564701,-3.3843781799077988,24.887992441654205,0.0,0.0,0.0,0.0,0.0,0.0,0.0,0.0,0.0,0.0,0.0,0.0,0.0,0.0,0.0,0.0,True,0,3.787295341491699,0.02993603515625
STABILIZE,3.698624849319458,29.705964842698698,0.03248408635457357,0.032611846923828125,0.0,0.0,0.0,-0.776339471466042,-1.1366370728260922,126.508394976761,0.006965343607527702,0.0029338192211213355,0.043532616757488235,0.4,0.05970588007823681,-0.07945750154137488,0.7778656058164636,0.1388748201704304,0.159669469576329,-0.24322124663740396,1.3624846003949642,0.04056610764650567,1.974521018564701,-3.3843781799077988,24.887992441654205,0.0,0.0,0.0,0.0,0.0,0.0,0.0,0.0,0.0,0.0,0.0,0.0,0.0,0.0,0.0,0.0,True,0,3.8164408206939697,0.02993603515625
