Mode,Time,Freq,time2delay,actualDelay,North-Desired,East-Desired,Down-Desired,Roll-UAV,Pitch-UAV,Yaw-UAV,Roll-Control,Pitch-Control,Yaw-Control,Thrust-Control,North-Pos,East-Pos,Down-Pos,Yaw-Ang,North-Vel,East-Vel,Down-Vel,Yaw-Vel,North-Acc,East-Acc,Down-Acc,North-Avg,East-Avg,Down-Avg,Yaw-Avg,North-Dif,East-Dif,Down-Dif,Yaw-Dif,North-One,East-One,Down-One,Yaw-One,North-Two,East-Two,Down-Two,Yaw-Two,Landing-State,Q-Size,Kalman-Time,Kalman-Dt
STABILIZE,0.03450298309326172,28.99482223466545,0.0327787717183431,0.03289461135864258,-10.0,40.0,10.0,-0.8838658589090833,-1.1234105182200682,-0.07668164668755385,4.000098307474868,3.9999016901089823,-0.0002825638343773979,0.5186975424647198,-0.003048288417917864,0.033762776111017176,0.6635636345359507,-0.0014081681556728613,0.03210785216651857,-0.007765466580167413,1.3946035876870155,0.21790838092852985,-1.6115542501211166,1.7506280913949013,22.0280259847641,0.0,0.0,0.0,0.0,0.0,0.0,0.0,0.0,0.0,0.0,0.0,0.0,0.0,0.0,0.0,0.0,False,0,3.531215190887451,0.0349208984375
STABILIZE,0.06851696968078613,29.39596167728461,0.032117398579915364,0.03312039375305176,-10.0,40.0,10.0,-0.8843065128322549,-1.1226523672221969,-0.07792290016707144,3.9998475850614117,4.000152409131231,0.0004371948267460419,0.518717843549309,-0.002263590287487872,0.032236550580488806,0.6662111614708752,0.002183141587358886,0.03210785216651857,-0.007765466580167413,1.3946035876870155,0.21790838092852985,-1.6115542501211166,1.7506280913949013,22.0280259847641,0.0,0.0,0.0,0.0,0.0,0.0,0.0,0.0,0.0,0.0,0.0,0.0,0.0,0.0,0.0,0.0,False,0,3.562891960144043,0.0349208984375
STABILIZE,0.10199332237243652,29.870768792507924,0.032508166631062825,0.032633304595947266,-10.0,40.0,10.0,-0.8839993677630159,-1.1233351726957865,-0.07791426904911636,4.000015132051595,3.9999848678911603,-4.292876291138552e-05,0.5187549252720165,-0.0070362084254311456,0.030971548909900164,0.6601712246961075,-0.00021675108292657338,-0.19385791383683681,-0.09803378488868475,1.1309890076518059,-0.03230416008204883,-3.0719174072146416,-0.4685644060373306,12.910974025726318,0.0,0.0,0.0,0.0,0.0,0.0,0.0,0.0,0.0,0.0,0.0,0.0,0.0,0.0,0.0,0.0,False,0,3.6204214096069336,0.029931884765625
STABILIZE,0.13547873497009277,29.864175555017585,0.032474788029988606,0.03267717361450195,-10.0,40.0,10.0,-0.882215514450879,-1.122331455052912,-0.07790877288126861,4.000139279418041,3.9998607157321016,-0.0003999288119238133,0.5187868695482422,-0.004506969955091178,0.02986404758632561,0.6567236048833264,-0.001995065441641962,0.13689862098544836,0.01478170306654647,1.2204849161207676,-0.10169967579206513,2.924038842320442,-0.47825733199715614,12.044045329093933,0.0,0.0,0.0,0.0,0.0,0.0,0.0,0.0,0.0,0.0,0.0,0.0,0.0,0.0,0.0,0.0,False,0,3.6490283012390137,0.034922119140625
STABILIZE,0.16899681091308594,29.834223647990214,0.03251770337422689,0.032628774642944336,-10.0,40.0,10.0,-0.8818647202039753,-1.1230372056932447,-0.07857404264457711,4.000168134998162,3.7250719425122663,-0.0005198534683327708,0.5188151483292373,-0.0020724593273128743,0.02813897174490707,0.6550825922534117,-0.0025860419566406984,0.1325582736171782,-0.02674720890354365,1.1303705163300037,-0.029515942126696077,2.2794604301452637,-0.45127449557185173,11.149352788925171,0.0,0.0,0.0,0.0,0.0,0.0,0.0,0.0,0.0,0.0,0.0,0.0,0.0,0.0,0.0,0.0,False,0,3.677670478820801,0.0349208984375
STABILIZE,0.20253467559814453,29.818952217774903,0.03243306477864583,0.03256583213806152,-10.0,40.0,10.0,-0.880859935344043,-1.122741159681407,-0.07922399117299936,4.000032256956915,1.729173770410727,-0.00021712128079577207,0.5188318097056016,-0.0036503648027411788,0.027113765218152043,0.659256814034484,-0.0010688038688611244,-0.1045516924932599,0.013181843678466976,1.474833395332098,0.09371337038332195,-2.9941150918602943,-0.20103049464523792,20.922274887561798,0.0,0.0,0.0,0.0,0.0,0.0,0.0,0.0,0.0,0.0,0.0,0.0,0.0,0.0,0.0,0.0,False,0,3.706401824951172,0.039899658203125
STABILIZE,0.2360076904296875,29.87715211739146,0.032334359486897786,0.03246498107910156,-10.0,40.0,10.0,-0.8804241906193374,-1.1226214179275202,-0.07963747108183637,4.000082734255636,1.7341968880777663,-0.0005518470308821053,0.5188593472887184,-0.0028951542650056438,0.02603645704250732,0.6579874153630477,-0.0027332899253759814,0.033701423672027886,0.007275469397427514,0.978239718824625,-0.09214290712189503,-3.4686539322137833,1.4815042726695538,12.044484913349152,0.0,0.0,0.0,0.0,0.0,0.0,0.0,0.0,0.0,0.0,0.0,0.0,0.0,0.0,0.0,0.0,False,0,3.735175848007202,0.024944091796875
STABILIZE,0.27245354652404785,27.436166802943582,0.032288583119710286,0.03557944297790527,-10.0,40.0,10.0,-0.8803468173826459,-1.1222799084690196,-0.07979119702890794,4.000099376601566,1.7412881308022656,-0.00066152222085258,0.5188989731697526,-0.003951751126394145,0.025266851474191845,0.6518608168874863,-0.003269698197216972,-0.07190668256953359,0.026786650414578617,1.2441055849194527,-0.03511656384397431,-0.16423906199634075,-0.294221262447536,19.521337747573853,0.0,0.0,0.0,0.0,0.0,0.0,0.0,0.0,0.0,0.0,0.0,0.0,0.0,0.0,0.0,0.0,False,1,3.763711929321289,0.034921875
STABILIZE,0.30620503425598145,29.627067881613335,0.03243234952290853,0.032853126525878906,-10.0,40.0,10.0,-0.8797286852627597,-1.1221635818097178,-0.07991716866236971,4.000197961329948,1.745187198629859,-0.0013116410718644537,0.5189249978442977,-0.003526718934375724,0.023787753803091772,0.6514626963953746,-0.006498371411838005,0.07925200625322759,0.01854792353697121,1.1596348136663437,-0.15104371044016113,1.0569867677986622,-0.37868418730795383,16.859328746795654,0.0,0.0,0.0,0.0,0.0,0.0,0.0,0.0,0.0,0.0,0.0,0.0,0.0,0.0,0.0,0.0,False,0,3.8221330642700195,0.02993310546875
STABILIZE,0.339738130569458,29.822768609438214,0.03248098691304525,0.03260445594787598,-10.0,40.0,10.0,-0.8787599723393814,-1.121964759271847,-0.07859416635622353,4.000274750916676,1.7486630440236368,-0.0018181352582457115,0.5189518972684994,-0.003837194178922786,0.024983445140356917,0.6505255708410953,-0.009000727713944428,-0.028031988767907023,0.13623848790302873,1.3397759757936,-0.1529318308588465,1.3737015426158905,-0.26364263612776995,21.411220729351044,0.0,0.0,0.0,0.0,0.0,0.0,0.0,0.0,0.0,0.0,0.0,0.0,0.0,0.0,0.0,0.0,False,0,3.851902961730957,0.034922119140625
STABILIZE,0.3732585906982422,29.83337482484654,0.03238824208577474,0.03250837326049805,-10.0,40.0,10.0,-0.8792906993822326,-1.121898378370851,-0.07873379169791872,4.000355570374653,1.754048062695803,-0.0023481661605272903,0.5189721743116515,-0.004161307802896613,0.026256482107660576,0.6529121306081032,-0.01161198213613689,-0.028031988767907023,0.13623848790302873,1.3397759757936,-0.1529318308588465,1.3737015426158905,-0.26364263612776995,21.411220729351044,0.0,0.0,0.0,0.0,0.0,0.0,0.0,0.0,0.0,0.0,0.0,0.0,0.0,0.0,0.0,0.0,False,0,3.880974531173706,0.034922119140625
STABILIZE,0.40667724609375,29.921484979704232,0.03228786786397298,0.032431602478027344,-10.0,40.0,10.0,-0.878798285431757,-1.1218851448793339,-0.07882189046604131,4.000363870769082,1.758783896015617,-0.0024038899096297016,0.5190064386093683,-0.0040009620201507485,0.024722101208267004,0.6482781849483118,-0.011851004893286266,0.0010959458450088277,-0.032691145315766335,0.9252706542611122,-0.012876240606796303,-0.4912646487355232,-0.4929487593472004,9.971039742231369,0.0,0.0,0.0,0.0,0.0,0.0,0.0,0.0,0.0,0.0,0.0,0.0,0.0,0.0,0.0,0.0,False,0,3.9093775749206543,0.02993212890625
STABILIZE,0.4400467872619629,29.96680598721109,0.03235438664754232,0.032474517822265625,-10.0,40.0,10.0,-0.878789961138706,-1.1218004078449435,-0.0781128581332558,4.000438594908351,1.764689219002573,-0.002890458043610532,0.5190336137445712,-0.0030806125424524787,0.02423229257166407,0.6471974005927197,-0.014236252949111457,0.0458471302408725,0.03222347004339099,1.3200875371694565,-0.15302030315293935,0.6712845526635647,-0.2385214902460575,21.187852323055267,0.0,0.0,0.0,0.0,0.0,0.0,0.0,0.0,0.0,0.0,0.0,0.0,0.0,0.0,0.0,0.0,False,0,3.938284158706665,0.034921875
STABILIZE,0.47527170181274414,28.391879725713977,0.032421382268269856,0.03363656997680664,-10.0,40.0,10.0,-0.8776682092892373,-1.1194109088524968,-0.07831291464084975,4.000515562908608,1.767155433370177,-0.0033968229350367636,0.5190618835461742,-0.006768158200600663,0.023637619385630245,0.6459825080824216,-0.01671037541107163,-0.22860905155539513,0.021020695567131042,1.115359179675579,-0.1490390632589756,-3.7641748785972595,-0.3871551947668195,16.696959733963013,0.0,0.0,0.0,0.0,0.0,0.0,0.0,0.0,0.0,0.0,0.0,0.0,0.0,0.0,0.0,0.0,False,1,3.966841697692871,0.0349208984375
STABILIZE,0.5081090927124023,30.449773131511126,0.031731398900349934,0.031868696212768555,-10.0,40.0,10.0,-0.8788452963431537,-1.1196653333990798,-0.07926608621582354,4.000299849273795,1.7742126204946895,-0.001997506420085246,0.5190856083173668,-0.004609989552880094,0.024737622005510704,0.646646107444368,-0.009681379646025664,0.056892953580245376,0.08723806822672486,1.2131068855524063,0.20242652987507948,-0.8177312090992928,-0.37527757231146097,17.994777858257294,0.0,0.0,0.0,0.0,0.0,0.0,0.0,0.0,0.0,0.0,0.0,0.0,0.0,0.0,0.0,0.0,False,0,4.024219512939453,0.034922119140625
STABILIZE,0.5415480136871338,29.906124107836774,0.03235963185628255,0.03249764442443848,-10.0,40.0,10.0,-0.8780403478772971,-1.1196733375270134,-0.0793061735565577,4.000186426285354,1.7789826619169813,-0.0012659523608010157,0.5191008683033009,-0.005619836367183475,0.023250388803610616,0.651520949797399,-0.006003533037839309,-0.06821509450674057,-0.03521281178109348,1.484792586416006,0.20460537356052674,-4.263971745967865,-0.44660139828920364,16.993097960948944,0.0,0.0,0.0,0.0,0.0,0.0,0.0,0.0,0.0,0.0,0.0,0.0,0.0,0.0,0.0,0.0,False,0,4.052865743637085,0.0349208984375
STABILIZE,0.5753941535949707,29.546923651323667,0.032367738087972005,0.032958269119262695,-10.0,40.0,10.0,-0.8777531064061864,-1.1202880545523146,-0.07961529964746027,4.000136790000328,1.7834221342328056,-0.0009470755280797494,0.5191302578476336,-0.006672618975307499,0.021634701027045827,0.649501271180031,-0.00439425725630516,-0.07007831009104848,-0.042514727101661265,1.078721322119236,0.0798267020064001,-3.6614660173654556,1.434969250112772,13.494469225406647,0.0,0.0,0.0,0.0,0.0,0.0,0.0,0.0,0.0,0.0,0.0,0.0,0.0,0.0,0.0,0.0,False,0,4.081957101821899,0.02993310546875
STABILIZE,0.6088979244232178,29.84547511634195,0.0324275811513265,0.032581329345703125,-10.0,40.0,10.0,-0.8773573289602958,-1.120234586977718,-0.08026252010227848,4.000074904058647,1.7894943727221608,-0.0005494615161560868,0.5191646853264261,-0.004585405790180162,0.021892114937997628,0.6448202443940722,-0.0023981554448205,0.11307080276310444,0.07022094796411693,1.1040938086807728,0.10420866307434734,10.674341022968292,-2.356763556599617,13.954630494117737,0.0,0.0,0.0,0.0,0.0,0.0,0.0,0.0,0.0,0.0,0.0,0.0,0.0,0.0,0.0,0.0,False,0,4.110588788986206,0.034921875
STABILIZE,0.6423287391662598,29.91209590574878,0.032418282826741536,0.032538414001464844,-10.0,40.0,10.0,-0.8773271267175597,-1.1197963876537793,-0.07898253998377544,4.000011871907902,1.7976963385265856,-0.00014575862519492126,0.5191924972898909,-0.002521081100180144,0.0222255882278982,0.6434262672165512,-0.0003783760390669586,0.11307080276310444,0.07022094796411693,1.1040938086807728,0.10420866307434734,10.674341022968292,-2.356763556599617,13.954630494117737,0.0,0.0,0.0,0.0,0.0,0.0,0.0,0.0,0.0,0.0,0.0,0.0,0.0,0.0,0.0,0.0,False,0,4.1388866901397705,0.034921875
STABILIZE,0.6758100986480713,29.86757815281635,0.032373698552449544,0.03256654739379883,-10.0,40.0,10.0,-0.8778932853667303,-1.119788703690963,-0.07950330188734925,4.000084853435682,1.8022003389092054,-0.0006113972514899364,0.5192173256990219,-0.0014835987024728256,0.022108463009554078,0.6435528976310934,-0.0026975301410944756,0.05109916673973203,0.04225399752613157,1.1982500553131104,-0.15198683683457823,-3.655266761779785,1.5000399202108383,16.409023106098175,0.0,0.0,0.0,0.0,0.0,0.0,0.0,0.0,0.0,0.0,0.0,0.0,0.0,0.0,0.0,0.0,False,1,4.16754412651062,0.06485302734375
STABILIZE,0.7094097137451172,29.763512890200893,0.03246668179829915,0.03261280059814453,-10.0,40.0,10.0,-0.8777051349994376,-1.1198445191430868,-0.0800606760061127,4.00014136326882,1.809701802900742,-0.0009699327735143262,0.5191799662286982,0.0017872446526885836,0.02306097255414973,0.6747222633019576,-0.004475223241823248,0.08087465539574623,0.060990703059360385,1.0884319432079792,0.031751381666740595,-1.4855926856398582,1.4897760935127735,14.697468280792236,0.0,0.0,0.0,0.0,0.0,0.0,0.0,0.0,0.0,0.0,0.0,0.0,0.0,0.0,0.0,0.0,False,0,4.224973917007446,0.034932861328125
STABILIZE,0.7427926063537598,29.954393206830307,0.0323217233022054,0.032439231872558594,-10.0,40.0,10.0,-0.8779227939183789,-1.1203318104516848,-0.07893861066163316,4.000116502629446,1.813735313245906,-0.0008133587790064256,0.5192050576170966,-0.0005775160216525757,0.023630432431763226,0.6746475347313977,-0.0036800497734087298,-0.12497194111347198,0.07967340643517673,1.3940696604549885,0.029918779880434686,-1.7997218295931816,1.7006106674671173,23.509441316127777,0.0,0.0,0.0,0.0,0.0,0.0,0.0,0.0,0.0,0.0,0.0,0.0,0.0,0.0,0.0,0.0,False,0,4.253561735153198,0.029932861328125
STABILIZE,0.7765512466430664,29.62476603499057,0.032385857899983723,0.0327305793762207,-10.0,40.0,10.0,-0.8775796302734387,-1.1200921135004998,-0.07985351583497768,4.0000921698146765,1.8163274345308864,-0.0006607701525645789,0.5192358415811874,-0.0029207118333316497,0.02410550614112476,0.671814907879326,-0.0029073206879779837,-0.12497194111347198,0.07967340643517673,1.3940696604549885,0.029918779880434686,-1.7997218295931816,1.7006106674671173,23.509441316127777,0.0,0.0,0.0,0.0,0.0,0.0,0.0,0.0,0.0,0.0,0.0,0.0,0.0,0.0,0.0,0.0,False,0,4.282359838485718,0.029932861328125
STABILIZE,0.8100261688232422,29.869917888604817,0.0322757085164388,0.03260374069213867,-10.0,40.0,10.0,-0.8770407923809481,-1.1198284041655138,-0.08024921323958886,4.000065693942436,1.8204626749680215,-0.0004941999208451632,0.5192780732767484,-0.0028874327783023845,0.02323023073146167,0.6632589827075641,-0.002067516395020211,-0.0037470788811333477,0.008396978228120133,1.0652914643287659,0.035196395014952135,3.96021232008934,-0.5756864324212074,11.27014011144638,0.0,0.0,0.0,0.0,0.0,0.0,0.0,0.0,0.0,0.0,0.0,0.0,0.0,0.0,0.0,0.0,False,0,4.3110246658325195,0.069843017578125
STABILIZE,0.843531608581543,29.84589986622264,0.032474788029988606,0.032595157623291016,-10.0,40.0,10.0,-0.8774642641094889,-1.1195518882258342,-0.08031438685128826,4.0001127225424815,1.8268124786089426,-0.0007900961950197321,0.5192734180191471,8.763951663501128e-05,0.023815293042073773,0.6780638543407638,-0.003535168368678547,0.14753543073311448,0.043337466195225716,1.0228688828647137,-0.087454175689773,2.9899107292294502,-0.5457737948745489,12.386177480220795,0.0,0.0,0.0,0.0,0.0,0.0,0.0,0.0,0.0,0.0,0.0,0.0,0.0,0.0,0.0,0.0,False,0,4.339759111404419,0.02993212890625
STABILIZE,0.8770790100097656,29.80920365303294,0.03240636189778646,0.03264570236206055,-10.0,40.0,10.0,-0.8771939380287445,-1.1192321499953128,-0.08093500692094045,4.000068793045951,1.8290647680026233,-0.0005154819454883232,0.5193386414532893,-0.0019437054796566607,0.022168877408446665,0.6579921499241448,-0.0021548657943187225,-0.16877929447218776,0.044903362868353724,1.0510403662919998,-0.10071698232522955,3.239569813013077,1.3752404600381851,12.693643569946289,0.0,0.0,0.0,0.0,0.0,0.0,0.0,0.0,0.0,0.0,0.0,0.0,0.0,0.0,0.0,0.0,False,0,4.397194147109985,0.0349208984375
STABILIZE,0.9106521606445312,29.78486010509871,0.03241875966389974,0.03257608413696289,-10.0,40.0,10.0,-0.877212721048962,-1.1185388857945566,-0.08010046319204935,4.000084336924795,1.8352315123600316,-0.000612845278067361,0.51936858589164,-0.0018771789610052528,0.022040729040803432,0.6555446926275595,-0.002632860127534795,-0.000648557033855468,0.042386900167912245,1.2607254087924957,-0.03120611045642342,-3.156794235110283,-0.38326948415488005,20.39833515882492,0.0,0.0,0.0,0.0,0.0,0.0,0.0,0.0,0.0,0.0,0.0,0.0,0.0,0.0,0.0,0.0,False,0,4.426384210586548,0.02993310546875
STABILIZE,0.9440219402313232,29.96744830739772,0.032323630650838216,0.03244590759277344,-10.0,40.0,10.0,-0.8772447909215493,-1.1174098768690945,-0.07824243829439433,4.00009958769872,1.841369371145731,-0.0007080582597817996,0.5194035967050182,-0.001805236201215393,0.021844704549777046,0.6505320694964405,-0.0030985742285894145,-0.000648557033855468,0.042386900167912245,1.2607254087924957,-0.03120611045642342,-3.156794235110283,-0.38326948415488005,20.39833515882492,0.0,0.0,0.0,0.0,0.0,0.0,0.0,0.0,0.0,0.0,0.0,0.0,0.0,0.0,0.0,0.0,False,0,4.455056667327881,0.02993310546875
STABILIZE,0.9774692058563232,29.89802333787165,0.03239134152730306,0.032526493072509766,-10.0,40.0,10.0,-0.8771108018199407,-1.1171873621125403,-0.08001800733411996,3.999932529905459,1.8465860648884642,0.0003317661193218763,0.5194420907263232,-0.0020347346942494147,0.024065122384527165,0.6438093998302503,0.002093541549440921,-0.016490639245603234,0.16994095640257,1.1389187537133694,0.26924976566117853,1.7023464664816856,1.5741264447569847,19.185595214366913,0.0,0.0,0.0,0.0,0.0,0.0,0.0,0.0,0.0,0.0,0.0,0.0,0.0,0.0,0.0,0.0,False,0,4.483991861343384,0.034922119140625
STABILIZE,1.0109617710113525,29.8582228739838,0.032406123479207356,0.032540082931518555,-10.0,40.0,10.0,-0.8767745217250233,-1.1171852276784247,-0.08040023779348283,3.9999793010945868,1.8498343490579898,4.1711483337693986e-05,0.5194806679873684,-0.0024083127440385787,0.02067982131301644,0.6370438981064772,0.0006411245792483696,-0.023834499006625265,-0.13527972623705864,0.9493011049926281,-0.08392433526073173,-3.2276183366775513,-0.5522301886230707,11.03607565164566,0.0,0.0,0.0,0.0,0.0,0.0,0.0,0.0,0.0,0.0,0.0,0.0,0.0,0.0,0.0,0.0,False,0,4.51245641708374,0.0349208984375
STABILIZE,1.0444011688232422,29.904631530914898,0.0323362668355306,0.0324702262878418,-10.0,40.0,10.0,-0.8760063388868085,-1.1169943025467817,-0.07843174259013078,4.000026575412743,1.8554773732603562,-0.0002511858315779484,0.519518810570727,-0.0027791410597674563,0.017319998039810082,0.6305110852115733,-0.0008206165725063225,-0.023834499006625265,-0.13527972623705864,0.9493011049926281,-0.08392433526073173,-3.2276183366775513,-0.5522301886230707,11.03607565164566,0.0,0.0,0.0,0.0,0.0,0.0,0.0,0.0,0.0,0.0,0.0,0.0,0.0,0.0,0.0,0.0,False,0,4.541444778442383,0.0349208984375
STABILIZE,1.07820463180542,29.582141975526326,0.032383235295613606,0.03292250633239746,-10.0,40.0,10.0,-0.8766404792625618,-1.1171076409983216,-0.07834992706243607,3.9998658842989956,1.8609699586353123,0.0007416314817747212,0.5195478824627363,-0.002619808772818023,0.017091217918900583,0.6286644467617128,0.004129491094918071,0.004706323670689017,0.032596098026260734,1.1910014785826206,0.2639313961752658,3.319709002971649,-0.42522381991147995,16.65932387113571,0.0,0.0,0.0,0.0,0.0,0.0,0.0,0.0,0.0,0.0,0.0,0.0,0.0,0.0,0.0,0.0,False,1,4.569847106933594,0.02993310546875
STABILIZE,1.1116044521331787,29.93857113285795,0.03243974049886068,0.032553672790527344,-10.0,40.0,10.0,-0.8763173792983086,-1.1173361321703996,-0.07822964502991377,4.000124209554317,1.8649785120568219,-0.0008499555203171349,0.5195485792399779,-0.0032603416098462004,0.014776097734794082,0.640831799894743,-0.003815687397797589,-0.017572304932400584,-0.020718549785669893,1.1504161171615124,-0.21580377552966679,-1.2193568050861359,-0.48553631640970707,18.91743093729019,0.0,0.0,0.0,0.0,0.0,0.0,0.0,0.0,0.0,0.0,0.0,0.0,0.0,0.0,0.0,0.0,False,0,4.627299070358276,0.0698427734375
STABILIZE,1.1450955867767334,29.861198917841378,0.03248742421468099,0.032649993896484375,-10.0,40.0,10.0,-0.8759717076932825,-1.11729792579973,-0.07778865093130499,4.000117376060793,1.8716347814583831,-0.0008078147077391505,0.5195451596026645,-0.00092938388772828,0.013788273450651586,0.6550539375181051,-0.003592956455111051,0.1119207707233727,-0.007383529737126082,1.1119828559458256,0.02470055204013131,3.0117660760879517,-0.6571630015969276,11.72308549284935,0.0,0.0,0.0,0.0,0.0,0.0,0.0,0.0,0.0,0.0,0.0,0.0,0.0,0.0,0.0,0.0,False,0,4.655866861343384,0.034921142578125
STABILIZE,1.178631067276001,29.818316247458448,0.03247073491414388,0.03260922431945801,-10.0,40.0,10.0,-0.8765039822008674,-1.1171818125838398,-0.07718154449764737,4.000097263906763,1.8784742702377897,-0.0006845105076046265,0.5195843150006064,0.001532345136251818,0.01282531625273737,0.6479980940501712,-0.002966505454150961,0.1119207707233727,-0.007383529737126082,1.1119828559458256,0.02470055204013131,3.0117660760879517,-0.6571630015969276,11.72308549284935,0.0,0.0,0.0,0.0,0.0,0.0,0.0,0.0,0.0,0.0,0.0,0.0,0.0,0.0,0.0,0.0,False,0,4.684683799743652,0.034921142578125
STABILIZE,1.212172508239746,29.815136802746718,0.032398494084676106,0.0325467586517334,-10.0,40.0,10.0,-0.8768714250338729,-1.1171457406472856,-0.07761188643599785,4.000039546277282,1.887297468916149,-0.00033212229526442377,0.5196133132559544,0.006929429936572541,0.011036881749703253,0.6460274747278734,-0.0012005444343701167,0.256941607221961,-0.04959327634423971,1.3266270980238914,0.08033844592583538,2.806606888771057,-0.47761225141584873,17.65163689851761,0.0,0.0,0.0,0.0,0.0,0.0,0.0,0.0,0.0,0.0,0.0,0.0,0.0,0.0,0.0,0.0,False,0,4.713334798812866,0.06485498046875
STABILIZE,1.2474772930145264,28.324198754743993,0.03231933911641439,0.03439450263977051,-10.0,40.0,10.0,-0.8777116983843432,-1.1163794787997747,-0.07866472274395829,4.000273298153567,1.8900454871253831,-0.0017546003474815676,0.5196252699216227,0.003730058014709883,0.011139853176035948,0.6532758703968768,-0.008283628890332486,-0.18217344768345356,0.04620148683898151,0.9527332149446011,-0.32570821606220973,1.967671513557434,3.502025082707405,16.16426557302475,0.0,0.0,0.0,0.0,0.0,0.0,0.0,0.0,0.0,0.0,0.0,0.0,0.0,0.0,0.0,0.0,False,0,4.741887331008911,0.0349208984375
STABILIZE,1.2809579372406006,29.86779084092317,0.032407315572102864,0.03252696990966797,-10.0,40.0,10.0,-0.8778337346549042,-1.1161830041394312,-0.07684038188469053,4.000046302371945,1.8916416016916906,-0.00037929484023449626,0.5196734044832886,-0.002752989028997215,0.016378444625805854,0.6417240306384732,-0.0014024125067209018,-0.15004625311121345,0.15663394005969167,1.2519562616944313,0.1524916305029245,-4.391222074627876,-2.2081835195422173,22.78950661420822,0.0,0.0,0.0,0.0,0.0,0.0,0.0,0.0,0.0,0.0,0.0,0.0,0.0,0.0,0.0,0.0,False,0,4.799499988555908,0.02993310546875
STABILIZE,1.3143889904022217,29.911882586184763,0.0323670228322347,0.03257107734680176,-10.0,40.0,10.0,-0.8773803808487447,-1.1167091421489337,-0.08023346511787949,4.000064369982598,1.8947252296076433,-0.0004894074709443533,0.519706716255109,-0.003969537780610816,0.017138196597143964,0.6376151525815974,-0.0019464543043760398,-0.06320462562143803,0.07571434834972024,1.3479005545377731,-0.03138795423791509,-2.8720835223793983,1.557556726038456,16.43979102373123,0.0,0.0,0.0,0.0,0.0,0.0,0.0,0.0,0.0,0.0,0.0,0.0,0.0,0.0,0.0,0.0,False,0,4.828261852264404,0.069843017578125
STABILIZE,1.3479149341583252,29.828070774307335,0.03241780598958333,0.0325474739074707,-10.0,40.0,10.0,-0.877065285012425,-1.116957056671464,-0.07918234969742477,3.999958171269829,1.8968894318406648,0.00015342345881064702,0.5197013192588258,-0.006902246146644469,0.016837434323816028,0.6528281476140849,0.001263471335787286,-0.1147384406067431,-0.01280033029615879,1.1340875178575516,0.1434630542350932,0.45903101563453674,-2.2932564839720726,17.701953649520874,0.0,0.0,0.0,0.0,0.0,0.0,0.0,0.0,0.0,0.0,0.0,0.0,0.0,0.0,0.0,0.0,False,0,4.857703685760498,0.029932861328125
STABILIZE,1.3813436031341553,29.913802571801472,0.03238824208577474,0.03250551223754883,-10.0,40.0,10.0,-0.8775777092827346,-1.116891102657291,-0.0787751263485892,3.999857935787071,1.8981226952203512,0.0007613202533358584,0.51974627574015,-0.009075286467606435,0.015709658436632724,0.6428632890012738,0.0042886172934005614,-0.1147384406067431,-0.01280033029615879,1.1340875178575516,0.1434630542350932,0.45903101563453674,-2.2932564839720726,17.701953649520874,0.0,0.0,0.0,0.0,0.0,0.0,0.0,0.0,0.0,0.0,0.0,0.0,0.0,0.0,0.0,0.0,False,0,4.886432647705078,0.029932861328125
STABILIZE,1.4148764610290527,29.822556562051165,0.03240040143330892,0.03252911567687988,-10.0,40.0,10.0,-0.8757544756611643,-1.117867286100074,-0.08015597181926892,3.9999196461934106,1.9050905965443006,0.00038856445802825155,0.5197891114729476,-0.008089992586853693,0.012627435798760654,0.6339755137066235,0.0024167553344399237,0.03417474217712879,-0.11269659735262394,1.1338607408106327,-0.08803401472760344,0.15052075032144785,-0.34600687213242054,17.24364310503006,0.0,0.0,0.0,0.0,0.0,0.0,0.0,0.0,0.0,0.0,0.0,0.0,0.0,0.0,0.0,0.0,False,0,4.9150710105896,0.034921142578125
STABILIZE,1.4481844902038574,30.021501682055685,0.03231528600056966,0.032430171966552734,-10.0,40.0,10.0,-0.8765092649253036,-1.1179136033203831,-0.0791260273171986,3.9998545334963973,1.9112699572131786,0.0007803537224946158,0.5198291516523221,-0.011278483341862301,0.013943386798093019,0.6264904334555716,0.004361121552217137,-0.16609433805570006,0.09833433432504535,1.0124171152710915,0.09533612728058177,-4.880804568529129,-0.4853647667914629,11.600768566131592,0.0,0.0,0.0,0.0,0.0,0.0,0.0,0.0,0.0,0.0,0.0,0.0,0.0,0.0,0.0,0.0,False,0,4.943832635879517,0.0349208984375
STABILIZE,1.4820079803466797,29.564834916965065,0.03245094617207845,0.03293943405151367,-10.0,40.0,10.0,-0.8759070877004318,-1.1172549169523,-0.07947713505911297,3.9997506939377003,1.9173230120519111,0.0014033823236289775,0.5198718217752809,-0.010980770944927441,0.01417902985136469,0.6178410820175354,0.007451077867344953,0.005676037471857853,0.04443030047696084,0.9254892356693745,0.155975747351145,-0.872848741710186,1.498787384480238,14.964617788791656,0.0,0.0,0.0,0.0,0.0,0.0,0.0,0.0,0.0,0.0,0.0,0.0,0.0,0.0,0.0,0.0,False,1,4.972416639328003,0.02993310546875
STABILIZE,1.5154411792755127,29.91060273269247,0.032441171010335286,0.03255295753479004,-10.0,40.0,10.0,-0.8770143253979142,-1.1176676097885567,-0.07871924419539938,3.9997566247167784,1.9231806058004333,0.0013683449417379197,0.5199131661979888,-0.011814941972717378,0.011959569340513166,0.6097304123644991,0.007251639319302699,-0.0690487795509398,-0.07276341202668846,1.1081402190029621,-0.028919047626260432,-2.4562299251556396,-0.46768905594944954,16.644668579101562,0.0,0.0,0.0,0.0,0.0,0.0,0.0,0.0,0.0,0.0,0.0,0.0,0.0,0.0,0.0,0.0,False,0,5.029855489730835,0.0349208984375
STABILIZE,1.5489332675933838,29.858647986787403,0.03243902524312337,0.032570838928222656,-10.0,40.0,10.0,-0.8759923583433511,-1.116725577291624,-0.0796497774285343,3.999895670832837,1.931422110958377,0.0005391091071039932,0.5199502594086038,-0.007993126354921404,0.012955178601286756,0.6037577293970945,0.0030951055767118084,0.19108331762254238,0.08287741802632809,0.9734248742461205,-0.2169768738598297,3.506714478135109,3.2926227897405624,10.872764140367508,0.0,0.0,0.0,0.0,0.0,0.0,0.0,0.0,0.0,0.0,0.0,0.0,0.0,0.0,0.0,0.0,False,0,5.058473348617554,0.02993310546875
STABILIZE,1.5823888778686523,29.8905659839512,0.032378228505452473,0.032521724700927734,-10.0,40.0,10.0,-0.8768563772733577,-1.1171298391131241,-0.08150182591066556,3.9999526669659344,1.9376174237770052,0.00020096105116700042,0.519990094324999,-0.005262373587189152,0.01345280714558931,0.5964214101952731,0.001399683671130798,0.1328631187789142,0.059157999930903316,1.0282826609909534,-0.0868501375051566,-0.2779700793325901,-0.4953303840011358,14.300242066383362,0.0,0.0,0.0,0.0,0.0,0.0,0.0,0.0,0.0,0.0,0.0,0.0,0.0,0.0,0.0,0.0,False,0,5.08967137336731,0.034922119140625
STABILIZE,1.6158456802368164,29.88864897991178,0.03235462506612142,0.03255867958068848,-10.0,40.0,10.0,-0.8774515642265008,-1.1171413650573485,-0.07947630796589315,4.000008433029641,1.9457604867974723,-0.00012880645563569673,0.5200231656779983,-0.002625159673992966,0.014007264680207847,0.5924937493369151,-0.00024832185550610945,0.1328631187789142,0.059157999930903316,1.0282826609909534,-0.0868501375051566,-0.2779700793325901,-0.4953303840011358,14.300242066383362,0.0,0.0,0.0,0.0,0.0,0.0,0.0,0.0,0.0,0.0,0.0,0.0,0.0,0.0,0.0,0.0,False,0,5.118604898452759,0.034922119140625
STABILIZE,1.649336338043213,29.85928567869067,0.032467158635457356,0.03267312049865723,-10.0,40.0,10.0,-0.8909118393681862,-1.1128378122717115,-0.07575762347847162,4.000067326537258,1.9498478885289143,-0.000476129276110676,0.5200564216793538,-0.003673329873284928,0.013737103283486499,0.5884880185752285,-0.0019783029445588117,-0.06840002024546266,0.013696234964299947,1.0091723874211311,-0.09213603691208534,-3.0440352857112885,-0.5036509595811367,12.741599977016449,0.0,0.0,0.0,0.0,0.0,0.0,0.0,0.0,0.0,0.0,0.0,0.0,0.0,0.0,0.0,0.0,False,0,5.149559259414673,0.03991015625
STABILIZE,1.6837513446807861,29.057494197928573,0.032509835561116536,0.03352046012878418,-10.0,40.0,10.0,-0.8740427128612828,-1.115056983421731,-0.0835366019634145,4.00012416629422,1.9563323746141645,-0.0008102191309105194,0.5200754480689026,-0.0020204585619690864,0.014572806326090123,0.5918980260086412,-0.0036362650588825226,0.08011654717847705,0.07037761388346553,1.2541163712739944,-0.08558900710793722,1.5773307532072067,1.6364194452762604,19.920240342617035,0.0,0.0,0.0,0.0,0.0,0.0,0.0,0.0,0.0,0.0,0.0,0.0,0.0,0.0,0.0,0.0,False,1,5.176016807556152,0.02494384765625
STABILIZE,1.7172908782958984,29.817044388204852,0.032427104314168294,0.032555341720581055,-10.0,40.0,10.0,-0.8724298277218077,-1.1163005047374965,-0.07677828986224557,3.9996450411838116,1.9600408637767237,0.001999589030964141,0.5201381028566052,-0.002729907343616472,0.023366138415463842,0.5731878899659368,0.010378049661067309,-0.0285578949842602,0.2807662822306156,0.8279910311102867,0.39385584153663017,-2.932429313659668,11.145540326833725,8.562260866165161,0.0,0.0,0.0,0.0,0.0,0.0,0.0,0.0,0.0,0.0,0.0,0.0,0.0,0.0,0.0,0.0,False,0,5.233412981033325,0.03485009765625
STABILIZE,1.7507083415985107,29.923192717362614,0.03231337865193685,0.032441139221191406,-10.0,40.0,10.0,-0.8767759091071985,-1.113483692035101,-0.08543658183165487,3.999798180587168,1.9734098396396829,0.0010999411398205945,0.5201193934885564,0.012642511675137556,0.022259440902558766,0.5951238345711455,0.005860211635324367,0.8645890280604362,-0.03536535368766636,2.4156345054507256,-0.25592099834144244,43.21068823337555,-34.95335578918457,44.20367479324341,0.0,0.0,0.0,0.0,0.0,0.0,0.0,0.0,0.0,0.0,0.0,0.0,0.0,0.0,0.0,0.0,False,0,5.2620720863342285,0.034922119140625
STABILIZE,1.7845113277435303,29.582976562444898,0.03233912785847982,0.032906532287597656,-10.0,40.0,10.0,-0.8712813954458936,-1.1096726599216453,-0.11058243018915927,3.9998783718079802,1.967254780222246,0.0006388208334157112,0.5201363729791753,-0.002632290098505281,0.040864441336547014,0.5993694291427877,0.0035426118745775863,-0.8806312456727028,1.088965404778719,1.394909806549549,-0.1286140628969268,-29.365932941436768,25.39665699005127,45.03624439239502,0.0,0.0,0.0,0.0,0.0,0.0,0.0,0.0,0.0,0.0,0.0,0.0,0.0,0.0,0.0,0.0,False,0,5.290688514709473,0.06485400390625
STABILIZE,1.8180503845214844,29.81640849926424,0.03220942815144857,0.032364845275878906,-10.0,40.0,10.0,-0.8747998500029492,-1.111838043331951,-0.0742565093154828,3.999084596815712,1.963381478320913,0.005293438348048892,0.5201456844988186,-0.019627587617523267,0.02921218459779692,0.6072993342766357,0.026726170716298365,-0.8993967436254025,-0.7322308607399464,0.6091979332268238,1.2239261433669146,63.95566463470459,-13.924787938594818,30.001848936080933,0.0,0.0,0.0,0.0,0.0,0.0,0.0,0.0,0.0,0.0,0.0,0.0,0.0,0.0,0.0,0.0,False,0,5.3195343017578125,0.034921875
STABILIZE,1.851487636566162,29.90505796626121,0.032387526830037434,0.03250598907470703,-10.0,40.0,10.0,-0.8839332536662843,-1.1201426995890402,-0.07757704846916681,3.9983064594689983,1.9583118901020706,0.009899960746916472,0.5201951125735906,-0.03641953362068644,0.01447646541605608,0.5951613052366561,0.0495929951990767,-0.8993967436254025,-0.7322308607399464,0.6091979332268238,1.2239261433669146,63.95566463470459,-13.924787938594818,30.001848936080933,0.0,0.0,0.0,0.0,0.0,0.0,0.0,0.0,0.0,0.0,0.0,0.0,0.0,0.0,0.0,0.0,False,0,5.348170757293701,0.034921875
STABILIZE,1.8853850364685059,29.500787756020706,0.03238967259724935,0.032967567443847656,-10.0,40.0,10.0,-0.8883288539231577,-1.115553132631909,-0.08958075241981382,3.99973401603815,1.9840796452624692,0.0015229811748077807,0.5202334196843543,-0.0001771976909257858,0.0255578301757641,0.5887671462643553,0.007682059717664974,1.9309889525175095,0.6455224938690662,0.8980722166597843,-2.23190411673624,35.438716411590576,40.18700122833252,7.718886435031891,0.0,0.0,0.0,0.0,0.0,0.0,0.0,0.0,0.0,0.0,0.0,0.0,0.0,0.0,0.0,0.0,False,1,5.376929521560669,0.03492138671875
STABILIZE,1.9188048839569092,29.923406198276354,0.03239038785298665,0.032518625259399414,-10.0,40.0,10.0,-0.8929562003641356,-1.1113686812699242,-0.02439044544355686,3.99933222908962,1.9717562846332621,0.003881738290970322,0.5202768464846215,-0.016828738450575982,0.022863385714709413,0.5796571345347669,0.01941092107515502,-0.7514955010265112,0.09801770793274045,1.2963640503585339,-0.16873502096840484,2.964278496801853,37.7142608165741,3.2285816967487335,0.0,0.0,0.0,0.0,0.0,0.0,0.0,0.0,0.0,0.0,0.0,0.0,0.0,0.0,0.0,0.0,False,0,5.434207439422607,0.034922119140625
STABILIZE,1.9522621631622314,29.889287953936492,0.032419713338216145,0.03254890441894531,-10.0,40.0,10.0,-0.8834094635343089,-1.108968616828605,-0.0952990948486756,4.000924915168215,1.99462057625647,-0.005329407760789468,0.5202809476359832,0.004514358981308499,0.04669080996627932,0.5901960268504479,-0.026555985407569812,1.1638783849775791,1.3607590459287167,1.7630618065595627,-2.5120812512545134,39.719170331954956,-12.702600657939911,30.436164140701294,0.0,0.0,0.0,0.0,0.0,0.0,0.0,0.0,0.0,0.0,0.0,0.0,0.0,0.0,0.0,0.0,False,0,5.462893724441528,0.034921142578125
STABILIZE,1.9856672286987305,29.934297765438885,0.03241089185078939,0.03252696990966797,-10.0,40.0,10.0,-0.8975439530522685,-1.1078187971705158,-0.022776046189881046,3.999405951553033,2.0123089087886106,0.003376919403409001,0.5202857648916885,0.006855466115929531,-0.0020787284905135206,0.6003538643138543,0.01691910219134104,0.11397659545764327,-2.650727331638336,1.7325375229120255,2.4289420542430027,-20.043280720710754,-75.76184272766113,35.84669530391693,0.0,0.0,0.0,0.0,0.0,0.0,0.0,0.0,0.0,0.0,0.0,0.0,0.0,0.0,0.0,0.0,False,0,5.493596076965332,0.034922119140625
STABILIZE,2.019172430038452,29.845687489771088,0.032448800404866536,0.03256416320800781,-10.0,40.0,10.0,-0.8969646676332869,-1.1204961618785885,0.0193944638880167,4.0010966847458995,2.0117605928801847,-0.006271206600815528,0.5203081658220726,-0.008931545754832489,-0.003184244383522088,0.6017259174741233,-0.031217126242547563,-0.8890195749700069,-0.007165431452449411,1.2389859184622765,-2.6576462428458254,-15.855108201503754,76.54390335083008,14.081087708473206,0.0,0.0,0.0,0.0,0.0,0.0,0.0,0.0,0.0,0.0,0.0,0.0,0.0,0.0,0.0,0.0,False,0,5.5209128856658936,0.029931640625
STABILIZE,2.052522897720337,29.98544445874262,0.032380135854085286,0.03248333930969238,-10.0,40.0,10.0,-0.8871160150978045,-1.13567807157794,-0.07290859416114327,4.002710261191756,1.986324196786036,-0.015694101564561826,0.5203365612793857,-0.024432991370169344,-0.00386958979316869,0.6000945525873048,-0.078070677019897,-0.8890195749700069,-0.007165431452449411,1.2389859184622765,-2.6576462428458254,-15.855108201503754,76.54390335083008,14.081087708473206,0.0,0.0,0.0,0.0,0.0,0.0,0.0,0.0,0.0,0.0,0.0,0.0,0.0,0.0,0.0,0.0,False,0,5.555154085159302,0.029931640625
STABILIZE,2.0860354900360107,29.839742175994765,0.032462151845296223,0.03260087966918945,-10.0,40.0,10.0,-0.8992323971594368,-1.1431372784818286,0.05617463069461203,4.002891823026278,2.025794050462019,-0.01646962755432423,0.5203747966119597,0.016823350635467204,0.05708758997345525,0.593577528813687,-0.08167478248593699,2.3422637954354286,3.526228666305542,0.9389623068273067,-0.25460469282233406,76.61125659942627,47.179362177848816,10.948649793863297,0.0,0.0,0.0,0.0,0.0,0.0,0.0,0.0,0.0,0.0,0.0,0.0,0.0,0.0,0.0,0.0,False,0,5.5840349197387695,0.03492236328125
STABILIZE,2.1203415393829346,29.14917541750353,0.03240636189778646,0.033437252044677734,-10.0,40.0,10.0,-0.8981669943706206,-1.139147487511189,0.0342908346609701,4.000077925933345,2.0477842258588965,-0.0005722156081485353,0.5204134328352326,0.05057708039338514,-0.007797526007555504,0.5871815575620183,-0.0021802400419723283,1.9201230257749557,-3.6991380155086517,0.7502363529056311,4.5791231710034515,-12.065475434064865,-167.39633083343506,-15.418699383735657,0.0,0.0,0.0,0.0,0.0,0.0,0.0,0.0,0.0,0.0,0.0,0.0,0.0,0.0,0.0,0.0,False,1,5.612768888473511,0.0299326171875
STABILIZE,2.1538541316986084,29.838468488336524,0.032433303197224934,0.03267264366149902,-10.0,40.0,10.0,-0.8851211196124847,-1.139951315399135,-0.046383401106946685,4.002380934190911,2.043824475174979,-0.013514955182990396,0.5204126170454842,0.04533444680599355,0.017290147666435635,0.6002052410467612,-0.06667023685770576,-0.27935588732361794,1.492885034531355,2.0462321117520332,-3.7767360260856258,-12.890663743019104,125.61240196228027,51.02872848510742,0.0,0.0,0.0,0.0,0.0,0.0,0.0,0.0,0.0,0.0,0.0,0.0,0.0,0.0,0.0,0.0,False,0,5.64134669303894,0.034921142578125
STABILIZE,2.1874001026153564,29.81216993268937,0.03250101407368978,0.032623291015625,-10.0,40.0,10.0,-0.8993491507055618,-1.134998361033818,0.010645967064322272,4.001882340741692,2.0629915658137405,-0.010662329048707595,0.5204578509809139,0.053912139144080086,0.023283295803191346,0.5901807231913518,-0.052232359639506065,0.48739854246377945,0.3883148077875376,0.5102802999317646,0.8381912633512973,-13.75540941953659,-127.76062488555908,44.522616267204285,0.0,0.0,0.0,0.0,0.0,0.0,0.0,0.0,0.0,0.0,0.0,0.0,0.0,0.0,0.0,0.0,False,0,5.67759895324707,0.03991015625
STABILIZE,2.2212092876434326,29.577552589082345,0.032392056783040364,0.03291654586791992,-10.0,40.0,10.0,-0.9045652807973359,-1.1286332650576008,-0.023163139156963584,4.000016545055531,2.0764950133632176,-0.0003074694085615225,0.52046400048846,0.04981447258192547,-0.03759024003524765,0.5998293906509748,-0.00045651666526221046,-0.28159418143332005,-3.467497229576111,1.486077532172203,2.986517503504412,56.06144666671753,-96.96431159973145,22.639364004135132,0.0,0.0,0.0,0.0,0.0,0.0,0.0,0.0,0.0,0.0,0.0,0.0,0.0,0.0,0.0,0.0,False,1,5.713397979736328,0.024927490234375
STABILIZE,2.25474214553833,29.821284341049996,0.032431872685750325,0.03261208534240723,-10.0,40.0,10.0,-0.9043667784245824,-1.1347779807113791,-0.04883991132546417,3.999365490723272,2.0627248675260126,0.003321618034215796,0.5205219254351514,0.04924046791869875,-0.029678960110126322,0.5834850308401697,0.017629860592978372,-1.195081416517496,-1.2945877388119698,0.8860391564667225,4.691489601247094,25.48733651638031,49.06218945980072,6.957516074180603,0.0,0.0,0.0,0.0,0.0,0.0,0.0,0.0,0.0,0.0,0.0,0.0,0.0,0.0,0.0,0.0,False,0,5.770890712738037,0.034922119140625
STABILIZE,2.288196563720703,29.890992018244013,0.03240397771199544,0.03253650665283203,-10.0,40.0,10.0,-0.9131838055911283,-1.1469809674372533,-0.05120987691069951,4.000281524032519,2.066640723932508,-0.001770373981031946,0.5205421744689094,0.07450187854123896,0.020733667630051418,0.5859661453263119,-0.00780397517889558,1.5164871700108051,3.010176122188568,1.2328370474278927,-1.563319310441906,70.27620077133179,106.00926876068115,9.801090508699417,0.0,0.0,0.0,0.0,0.0,0.0,0.0,0.0,0.0,0.0,0.0,0.0,0.0,0.0,0.0,0.0,False,0,5.799460411071777,0.029931884765625
STABILIZE,2.3218257427215576,29.735238027719685,0.03240183194478353,0.032655954360961914,-10.0,40.0,10.0,-0.917623748716754,-1.1411239735022616,-0.004451028842813681,3.9985036101466274,2.0823165579368257,0.008058561430084467,0.5205893523353685,0.0817341514561039,-0.015015472367016315,0.5750481571330981,0.04120222077790865,0.5095044150948524,-2.1037908270955086,0.6084195338189602,2.879167633762733,-3.72881181538105,-92.11508631706238,10.676056891679764,0.0,0.0,0.0,0.0,0.0,0.0,0.0,0.0,0.0,0.0,0.0,0.0,0.0,0.0,0.0,0.0,False,0,5.828098773956299,0.034921875
STABILIZE,2.355290651321411,29.885667462324985,0.03234723409016927,0.03247475624084473,-10.0,40.0,10.0,-0.9117045360272917,-1.1346153368317684,-0.05384276809339397,4.001513541048406,2.0701686004004176,-0.008581962757129264,0.520583748838294,0.07049119919972238,-0.0024886811437216383,0.590427129494022,-0.04186051891090192,-0.6370148155838251,0.773163978010416,1.986447349190712,-4.9955939556449795,-30.339917540550232,133.81754159927368,76.47384405136108,0.0,0.0,0.0,0.0,0.0,0.0,0.0,0.0,0.0,0.0,0.0,0.0,0.0,0.0,0.0,0.0,False,0,5.85693883895874,0.03492138671875
STABILIZE,2.388669490814209,29.95567681067299,0.032316001256306966,0.032449960708618164,-10.0,40.0,10.0,-0.9085931714169393,-1.1390010653308569,-0.08619305863276684,4.004551739977625,2.0637318431329352,-0.025514514075029325,0.5205778025834957,0.05887511862521273,0.010290716094584762,0.6059638807340386,-0.12610165328247586,-0.6370148155838251,0.773163978010416,1.986447349190712,-4.9955939556449795,-30.339917540550232,133.81754159927368,76.47384405136108,0.0,0.0,0.0,0.0,0.0,0.0,0.0,0.0,0.0,0.0,0.0,0.0,0.0,0.0,0.0,0.0,False,0,5.885665655136108,0.03492138671875
STABILIZE,2.4223155975341797,29.721752563439367,0.032412322362264,0.0327298641204834,-10.0,40.0,10.0,-0.9329354320103359,-1.1406587735867602,-0.02150598118485577,4.003530623870778,2.06274808162153,-0.01994120651093043,0.5206023556974199,0.0460264649189544,0.026823511352078604,0.6063249994259774,-0.09790582419664637,-0.6926434580236673,0.9842200204730034,1.0857827961444855,1.6850518510283392,-21.420104801654816,-45.358383655548096,25.429868698120117,0.0,0.0,0.0,0.0,0.0,0.0,0.0,0.0,0.0,0.0,0.0,0.0,0.0,0.0,0.0,0.0,False,0,5.914380788803101,0.039910888671875
STABILIZE,2.4557881355285645,29.87502403931764,0.03239444096883138,0.03252005577087402,-10.0,40.0,10.0,-0.9199719464090632,-1.1381790947529282,-0.046930383199609675,4.004007155576364,2.0582662441821653,-0.02270179756710963,0.5206383203896089,0.051406653894057706,-0.012149304968331451,0.6009145539866754,-0.11133647964861636,1.0808099061250687,0.40016956627368927,1.1646786704659462,-0.7415717275174143,15.140119194984436,75.63707828521729,16.28735065460205,0.0,0.0,0.0,0.0,0.0,0.0,0.0,0.0,0.0,0.0,0.0,0.0,0.0,0.0,0.0,0.0,False,0,5.97151517868042,0.034921142578125
STABILIZE,2.489215612411499,29.915296064362437,0.032366307576497395,0.03248906135559082,-10.0,40.0,10.0,-0.9306997189959203,-1.1453084248642464,-0.025177968255891314,4.004455548616235,2.0700508030031366,-0.025130207111006327,0.5206601671624526,0.06836432219267188,-0.0058212101219318555,0.6025591656441803,-0.12306705722264502,1.0808099061250687,0.40016956627368927,1.1646786704659462,-0.7415717275174143,15.140119194984436,75.63707828521729,16.28735065460205,0.0,0.0,0.0,0.0,0.0,0.0,0.0,0.0,0.0,0.0,0.0,0.0,0.0,0.0,0.0,0.0,False,0,6.000250816345215,0.034921142578125
STABILIZE,2.5226922035217285,29.873747337981925,0.03236535390218099,0.03250861167907715,-10.0,40.0,10.0,-0.9338283725226093,-1.1513678698751055,0.015141145342796416,4.004306529215291,2.0786515835212516,-0.02428988333165523,0.5206694060370747,0.06503676717075241,-0.00015081317079987475,0.6105092721998036,-0.11846895762133725,-0.1298265065997839,0.35094725899398327,1.5441141091287136,0.2135761733648906,-32.176563143730164,-26.301249861717224,30.38395345211029,0.0,0.0,0.0,0.0,0.0,0.0,0.0,0.0,0.0,0.0,0.0,0.0,0.0,0.0,0.0,0.0,False,0,6.029038906097412,0.064854736328125
STABILIZE,2.556204080581665,29.839529887167227,0.032369407018025716,0.032523393630981445,-10.0,40.0,10.0,-0.9257119733545185,-1.1470829933879803,0.017693700093937243,4.0080212097730445,2.10441415441581,-0.044262375269847075,0.5206501561861812,0.09909326855572034,-0.040970625061638975,0.6326804933225371,-0.2176027913275701,1.776614785194397,-2.212836779654026,1.2651355005800724,-5.127990769403329,46.61637842655182,-26.306891441345215,46.93278670310974,0.0,0.0,0.0,0.0,0.0,0.0,0.0,0.0,0.0,0.0,0.0,0.0,0.0,0.0,0.0,0.0,False,0,6.057696580886841,0.03492138671875
STABILIZE,2.589651107788086,29.89802333787165,0.032329829533894856,0.03250932693481445,-10.0,40.0,10.0,-0.934239144368162,-1.137166412486768,-0.00977342957440965,4.011539309963127,2.129117441949913,-0.0627410622342644,0.5206729764602135,0.12980954285782645,-0.08169364412846275,0.6338178083842712,-0.30896147175840805,1.776614785194397,-2.212836779654026,1.2651355005800724,-5.127990769403329,46.61637842655182,-26.306891441345215,46.93278670310974,0.0,0.0,0.0,0.0,0.0,0.0,0.0,0.0,0.0,0.0,0.0,0.0,0.0,0.0,0.0,0.0,False,0,6.086218595504761,0.03492138671875
STABILIZE,2.6231865882873535,29.821920437982154,0.03238538106282552,0.03251361846923828,-10.0,40.0,10.0,-0.9347869468839383,-1.1390110971712004,0.00909917684502233,4.010059293079848,2.119764894198043,-0.05526718336395402,0.5206967600999692,0.10741306885054266,-0.06020768513989951,0.6344500857061394,-0.27068713535196004,-1.1287788860499859,1.1925107799470425,1.2336847372353077,1.9589906749568637,-16.57858043909073,45.85908651351929,28.45662832260132,0.0,0.0,0.0,0.0,0.0,0.0,0.0,0.0,0.0,0.0,0.0,0.0,0.0,0.0,0.0,0.0,False,1,6.1149513721466064,0.034921875
STABILIZE,2.656555414199829,29.9650932679874,0.03228309949239095,0.032410621643066406,-10.0,40.0,10.0,-0.9354484080163716,-1.1405495972817459,0.03360043193595007,4.010391182377666,2.0942220525871993,-0.057910101766793703,0.5207375061016417,0.07406242908392037,-0.08441440999824992,0.6266174667026729,-0.28295533264143335,-0.9797349572181702,-2.1511349827051163,1.6910422593355179,-0.8061957224320486,15.467722713947296,-79.02531027793884,41.85267090797424,0.0,0.0,0.0,0.0,0.0,0.0,0.0,0.0,0.0,0.0,0.0,0.0,0.0,0.0,0.0,0.0,False,0,6.172619342803955,0.034921875
STABILIZE,2.690016269683838,29.88588040814,0.03238085110982259,0.03249359130859375,-10.0,40.0,10.0,-0.9394491913227067,-1.1371442143719654,0.0025852605767053777,4.010569791361729,2.112876931254069,-0.05856551796716548,0.5207693278924078,0.09281990980199117,-0.08093604761987393,0.6232467233185885,-0.2852786087892249,1.1838214471936226,0.17555829836055636,0.9867296554148197,-0.3740286027888765,17.48068481683731,45.26627063751221,-10.493150353431702,0.0,0.0,0.0,0.0,0.0,0.0,0.0,0.0,0.0,0.0,0.0,0.0,0.0,0.0,0.0,0.0,False,0,6.201846599578857,0.034922119140625
STABILIZE,2.7235326766967773,29.834860297046607,0.03235605557759603,0.0324864387512207,-10.0,40.0,10.0,-0.9439396138151669,-1.1286571707196957,-0.013240799452455754,4.00900475516636,2.0834056886001315,-0.05099871061595798,0.5208239972161698,0.06049399474279649,-0.07255579385607469,0.6084817221788829,-0.24661938012897494,-1.672862283885479,0.4324666690081358,0.351045373827219,1.8823390904398072,-60.15086770057678,-41.23570919036865,-24.178102612495422,0.0,0.0,0.0,0.0,0.0,0.0,0.0,0.0,0.0,0.0,0.0,0.0,0.0,0.0,0.0,0.0,False,0,6.230121374130249,0.044898681640625
STABILIZE,2.756922721862793,29.950115321722613,0.03228715260823568,0.03242230415344238,-10.0,40.0,10.0,-0.9330503712874625,-1.1361059188964178,0.05033032663744839,4.007564306803439,2.0548605540510914,-0.04384834150166845,0.5208682624303443,0.02741139730904181,-0.065243561304918,0.5989251112487387,-0.21016468135818567,-1.672862283885479,0.4324666690081358,0.351045373827219,1.8823390904398072,-60.15086770057678,-41.23570919036865,-24.178102612495422,0.0,0.0,0.0,0.0,0.0,0.0,0.0,0.0,0.0,0.0,0.0,0.0,0.0,0.0,0.0,0.0,False,0,6.258515357971191,0.044898681640625
STABILIZE,2.7903034687042236,29.95674656458018,0.032357009251912434,0.032473087310791016,-10.0,40.0,10.0,-0.9158874932853956,-1.1297014426107672,0.03314276257081293,4.0063243234098485,2.05227246531866,-0.03714035362202392,0.5208916454429251,-0.004516357319076691,-0.09518282897131886,0.5998052860354933,-0.17603617154359796,-1.515244785696268,-1.6022242605686188,0.9805082343518734,1.5824426661791782,14.211609959602356,-46.05264663696289,24.501286447048187,0.0,0.0,0.0,0.0,0.0,0.0,0.0,0.0,0.0,0.0,0.0,0.0,0.0,0.0,0.0,0.0,False,0,6.287261486053467,0.019955322265625
STABILIZE,2.8243391513824463,29.3794890833059,0.032418282826741536,0.033133745193481445,-10.0,40.0,10.0,-0.9066431524089007,-1.125533853278296,-0.03125106697498385,4.007559202779499,2.0880159160022176,-0.043416137972075934,0.5209222637853359,0.021758506181654775,-0.10877158173215709,0.597297121618399,-0.2067115413794136,1.4662297442555428,-1.015907246619463,1.5277997590601444,-2.20540703818141,49.368417263031006,14.234569668769836,7.400511205196381,0.0,0.0,0.0,0.0,0.0,0.0,0.0,0.0,0.0,0.0,0.0,0.0,0.0,0.0,0.0,0.0,False,1,6.316005229949951,0.034921875
STABILIZE,2.8579211235046387,29.78274515373145,0.03242042859395345,0.03256416320800781,-10.0,40.0,10.0,-0.9070911701297713,-1.1348657059535316,0.051162889344675916,4.005823569684581,2.066155763068807,-0.034392189732570404,0.5209376821809875,-0.010800083790570937,-0.1776386888826502,0.6021742719285325,-0.16105256278749353,-3.0525069683790207,-2.997615933418274,1.0895680636167526,4.048951081022368,-40.003421902656555,-155.90170621871948,22.233106195926666,0.0,0.0,0.0,0.0,0.0,0.0,0.0,0.0,0.0,0.0,0.0,0.0,0.0,0.0,0.0,0.0,False,0,6.373334646224976,0.06485400390625
STABILIZE,2.8912363052368164,30.01162025243997,0.03225663503011068,0.03237462043762207,-10.0,40.0,10.0,-0.9104912169542624,-1.1359767856324223,0.04254892356875228,4.008219311649007,2.10176246189472,-0.04697824225048187,0.5209127522783702,0.01922645654146133,-0.19219942272147988,0.6271746584661517,-0.22323642138490818,1.9165994599461555,-0.2019735984504223,1.5939077362418175,-3.4952148384047406,122.28450775146484,99.1605281829834,36.01417541503906,0.0,0.0,0.0,0.0,0.0,0.0,0.0,0.0,0.0,0.0,0.0,0.0,0.0,0.0,0.0,0.0,False,0,6.402230501174927,0.0349208984375
STABILIZE,2.9247031211853027,29.880983422029395,0.03242615063985189,0.032552480697631836,-10.0,40.0,10.0,-0.8972738404149357,-1.1389774798338792,-0.014800944892718253,4.009431044294535,2.1381072174340336,-0.05283759654506952,0.5209536942638983,0.046160522590202244,-0.16129099246933942,0.619245947576658,-0.25169189835288497,1.4785048551857471,1.407026406377554,0.8483710698783398,-1.8740737077704455,-27.922847867012024,-5.297614634037018,16.55852347612381,0.0,0.0,0.0,0.0,0.0,0.0,0.0,0.0,0.0,0.0,0.0,0.0,0.0,0.0,0.0,0.0,False,0,6.4307520389556885,0.02993310546875
STABILIZE,2.9581916332244873,29.863537654237483,0.03240063985188802,0.03252983093261719,-10.0,40.0,10.0,-0.8920994385101222,-1.133579282512042,0.06824745696007235,4.007498180884723,2.1325838570879982,-0.04279189792514773,0.5209876430646493,0.0008349419881197376,-0.20436991544199756,0.6148310094457744,-0.20079164455260784,-2.3333998396992683,-2.5963179767131805,1.1716638691723347,2.228127662455458,-104.71398830413818,-40.620896220207214,35.231003165245056,0.0,0.0,0.0,0.0,0.0,0.0,0.0,0.0,0.0,0.0,0.0,0.0,0.0,0.0,0.0,0.0,False,0,6.459684133529663,0.034922119140625
STABILIZE,2.991600275039673,29.930452777678667,0.03234532674153646,0.03246641159057617,-10.0,40.0,10.0,-0.8846925786029193,-1.123774972845312,0.02743353484263555,4.009890959969088,2.09285299417151,-0.05672775732758897,0.5209965950510564,-0.04166572612311281,-0.16789556374490028,0.6228967987697419,-0.26956957498258705,-2.212037518620491,1.732718013226986,1.658947393298149,-4.077229344846691,-28.61042320728302,69.54348683357239,41.50146245956421,0.0,0.0,0.0,0.0,0.0,0.0,0.0,0.0,0.0,0.0,0.0,0.0,0.0,0.0,0.0,0.0,False,0,6.488147497177124,0.0349208984375
STABILIZE,3.0251848697662354,29.777036285026657,0.03239181836446126,0.03255033493041992,-10.0,40.0,10.0,-0.8827433066468211,-1.1239125371240641,-0.06166119358883633,4.008926900790578,2.107143442758224,-0.051328515852231,0.5210529017737646,-0.054344202080995926,-0.16057624293509476,0.6073286152588692,-0.24176352426510947,-0.6225896533578634,0.15250638825818896,0.379502191208303,1.112162690760938,16.873304545879364,-47.68906235694885,6.81815892457962,0.0,0.0,0.0,0.0,0.0,0.0,0.0,0.0,0.0,0.0,0.0,0.0,0.0,0.0,0.0,0.0,False,0,6.5191919803619385,0.02993310546875
STABILIZE,3.0585415363311768,29.97794343627826,0.032265694936116536,0.03240323066711426,-10.0,40.0,10.0,-0.9009603282977443,-1.1335158898188078,0.07563578064100225,4.007794550218577,2.0926036966062163,-0.04565010814002348,0.521114102263355,-0.06542915719639411,-0.1521178069675723,0.5893134549291119,-0.2126604986985639,-0.6225896533578634,0.15250638825818896,0.379502191208303,1.112162690760938,16.873304545879364,-47.68906235694885,6.81815892457962,0.0,0.0,0.0,0.0,0.0,0.0,0.0,0.0,0.0,0.0,0.0,0.0,0.0,0.0,0.0,0.0,False,0,6.549199342727661,0.02993310546875
STABILIZE,3.092053174972534,29.841865230414584,0.03238538106282552,0.03250718116760254,-10.0,40.0,10.0,-0.8931855453098599,-1.130702598932703,-0.06932904142752767,4.009429394290694,2.083473166608416,-0.054928874175292464,0.5211844719653042,-0.06240229178750149,-0.15305102802419424,0.5667466562534464,-0.25819092933216703,2.0671697333455086,1.2996653094887733,0.3926757723093033,-6.604898795334465,112.4310851097107,93.18498373031616,2.478288672864437,0.0,0.0,0.0,0.0,0.0,0.0,0.0,0.0,0.0,0.0,0.0,0.0,0.0,0.0,0.0,0.0,False,0,6.610424757003784,0.029931884765625
STABILIZE,3.125487804412842,29.907616833758787,0.03231075604756673,0.032433271408081055,-10.0,40.0,10.0,-0.8925805399597849,-1.1269969011428538,-0.07877541316317349,4.00685904021838,2.109755497719767,-0.04055557855544511,0.5212188205739328,-0.07079993875113655,-0.14724464221999475,0.5621963108322823,-0.18570346118653303,-0.5279272794723511,0.010124310210812837,1.0521287098526955,3.5939298549316425,-155.93345165252686,-148.66410493850708,7.6682694256305695,0.0,0.0,0.0,0.0,0.0,0.0,0.0,0.0,0.0,0.0,0.0,0.0,0.0,0.0,0.0,0.0,False,0,6.639575719833374,0.034922119140625
STABILIZE,3.1589531898498535,29.88204784770807,0.032329829533894856,0.03244137763977051,-10.0,40.0,10.0,-0.8947293281448415,-1.129582874795644,0.0509082646948946,4.003437600232606,2.0918628453765984,-0.022279302507620568,0.5212726176615975,-0.14725276836098017,-0.2387638180179379,0.5479395337004509,-0.09400775158298533,-4.316457360982895,-5.418528616428375,0.34842025488615036,4.7781787890797185,-90.52637815475464,-130.5789589881897,10.73250100016594,0.0,0.0,0.0,0.0,0.0,0.0,0.0,0.0,0.0,0.0,0.0,0.0,0.0,0.0,0.0,0.0,False,0,6.667861700057983,0.02993310546875
STABILIZE,3.1925153732299805,29.793534547056023,0.03229811986287435,0.03258657455444336,-10.0,40.0,10.0,-0.8949634222064731,-1.1317313961764361,-0.11734266328103228,4.006604830745552,2.106559518111687,-0.0394203645014166,0.521286652662163,-0.13236951235924263,-0.22409437015168931,0.5536243931947491,-0.1791109439397109,0.7238928694278002,0.46554827131330967,1.5944970771670341,-5.232835880710318,123.17289113998413,43.34719777107239,42.65067279338837,0.0,0.0,0.0,0.0,0.0,0.0,0.0,0.0,0.0,0.0,0.0,0.0,0.0,0.0,0.0,0.0,False,0,6.696584939956665,0.0349208984375
STABILIZE,3.2277369499206543,28.39399396146712,0.03234294255574544,0.033374786376953125,-10.0,40.0,10.0,-0.9073035463242763,-1.1266508026510045,-0.10956859399455533,4.004346144170337,2.130584837151234,-0.027009182392640413,0.5213063557910446,-0.11779645209654685,-0.2374406823460757,0.5567718388020167,-0.11665358668724557,0.8057502098381519,-1.0236993432044983,1.2975853867828846,3.216606726404866,-9.175438433885574,-119.99092102050781,10.365026444196701,0.0,0.0,0.0,0.0,0.0,0.0,0.0,0.0,0.0,0.0,0.0,0.0,0.0,0.0,0.0,0.0,False,0,6.725388050079346,0.0299599609375
STABILIZE,3.2603859901428223,30.62787708844491,0.03144195874532064,0.031688690185546875,-10.0,40.0,10.0,-0.90972474166334,-1.137534602371714,0.02549988427622114,4.002711452753643,2.0969145181456046,-0.018527231264100462,0.5213578190800472,-0.17973154959385934,-0.2249236866863246,0.5437015172575962,-0.07399614188486141,-3.733363375067711,0.3375775180757046,0.49035344272851944,2.1140137710013507,-126.92362070083618,99.36367869377136,19.635595381259918,0.0,0.0,0.0,0.0,0.0,0.0,0.0,0.0,0.0,0.0,0.0,0.0,0.0,0.0,0.0,0.0,False,0,6.756348609924316,0.034921875
STABILIZE,3.2938387393951416,29.891418064681652,0.03238418896993001,0.03251051902770996,-10.0,40.0,10.0,-0.8881636487226081,-1.1327049115765746,-0.12451206739287138,4.001126192929632,2.0676544752794905,-0.009987067363255475,0.5214038369705312,-0.24323628977414485,-0.2142133685036845,0.5333619609386321,-0.031190963671660334,-3.733363375067711,0.3375775180757046,0.49035344272851944,2.1140137710013507,-126.92362070083618,99.36367869377136,19.635595381259918,0.0,0.0,0.0,0.0,0.0,0.0,0.0,0.0,0.0,0.0,0.0,0.0,0.0,0.0,0.0,0.0,False,0,6.789515256881714,0.034921875
STABILIZE,3.327275276184082,29.906763829271423,0.03238657315572103,0.03250408172607422,-10.0,40.0,10.0,-0.8791177034971609,-1.1259274429292179,-0.04805637390182999,4.00253514348622,2.1302219675825107,-0.017416610399204835,0.5213953177778063,-0.2067520978704741,-0.22321758627619548,0.5502706600882176,-0.06811075171498679,-0.37251696921885014,-3.77863310277462,1.103689894080162,5.507312582035981,-155.2612543106079,-177.2618055343628,-8.865182101726532,0.0,0.0,0.0,0.0,0.0,0.0,0.0,0.0,0.0,0.0,0.0,0.0,0.0,0.0,0.0,0.0,False,0,6.847358703613281,0.029932861328125
STABILIZE,3.3607423305511475,29.882686539516527,0.032392295201619466,0.03252267837524414,-10.0,40.0,10.0,-0.8819905984559446,-1.1287293145928041,0.041449810061122354,3.998866266083772,2.1338357754408093,0.002317330084769372,0.5214243472869597,-0.20843939549904422,-0.2806756080091433,0.5483931895503085,0.030457143788667124,-0.37251696921885014,-3.77863310277462,1.103689894080162,5.507312582035981,-155.2612543106079,-177.2618055343628,-8.865182101726532,0.0,0.0,0.0,0.0,0.0,0.0,0.0,0.0,0.0,0.0,0.0,0.0,0.0,0.0,0.0,0.0,False,0,6.875988483428955,0.029932861328125
STABILIZE,3.394165515899658,29.918496907790086,0.0323672612508138,0.032489776611328125,-10.0,40.0,10.0,-0.8817479666578505,-1.1272014866528368,-0.04530079611317983,3.9994248761969833,2.157571899428987,-0.0007085701579458178,0.5214675593149359,-0.1673676678707204,-0.260937401862442,0.5394369758567232,0.01527657647018845,2.1607009693980217,0.7413289044052362,0.665657501667738,-1.1250690802496177,37.86880970001221,-95.62143683433533,-16.623158752918243,0.0,0.0,0.0,0.0,0.0,0.0,0.0,0.0,0.0,0.0,0.0,0.0,0.0,0.0,0.0,0.0,False,0,6.904739141464233,0.07483203125
STABILIZE,3.4275870323181152,29.92041774264884,0.03239134152730306,0.03252530097961426,-10.0,40.0,10.0,-0.8992859714557392,-1.136666848182005,0.07096597230133661,3.9952353683980353,2.1672495551270514,0.021564428188306582,0.5214633513219685,-0.21760870260988358,-0.3309586689851673,0.5541782685156794,0.12621940482404276,-2.331525646150112,-3.2181106507778168,0.7970000617206097,5.024773804439743,-58.67534279823303,-46.27780616283417,30.383917689323425,0.0,0.0,0.0,0.0,0.0,0.0,0.0,0.0,0.0,0.0,0.0,0.0,0.0,0.0,0.0,0.0,False,0,6.933613061904907,0.029932861328125
STABILIZE,3.4611756801605225,29.77386563689023,0.032427104314168294,0.03257560729980469,-10.0,40.0,10.0,-0.8898915265000626,-1.1404012541107096,0.015429677479536481,3.9976131560217225,2.1966991097695114,0.008825673193234084,0.5215133197828197,-0.21973052551396674,-0.27878414163132453,0.5418629641311227,0.06231695005572471,-0.49051782116293907,2.275758795440197,0.607235636562109,-3.5270996555542413,35.40549278259277,96.9753086566925,26.658442616462708,0.0,0.0,0.0,0.0,0.0,0.0,0.0,0.0,0.0,0.0,0.0,0.0,0.0,0.0,0.0,0.0,False,0,6.962652921676636,0.02993310546875
STABILIZE,3.4966893196105957,28.159140651225243,0.032296212514241536,0.03244829177856445,-10.0,40.0,10.0,-0.875703355964095,-1.140353656229931,-0.014374068074752375,4.000009630757693,2.178461087872132,-0.0036885459070298272,0.5215618483247887,-0.22179044615554605,-0.2279645479588589,0.5302737503588139,-0.0002532978590936291,-0.49051782116293907,2.275758795440197,0.607235636562109,-3.5270996555542413,35.40549278259277,96.9753086566925,26.658442616462708,0.0,0.0,0.0,0.0,0.0,0.0,0.0,0.0,0.0,0.0,0.0,0.0,0.0,0.0,0.0,0.0,False,0,6.990745782852173,0.02993310546875
STABILIZE,3.52813720703125,31.79646883125744,0.03025534947713216,0.030371904373168945,-10.0,40.0,10.0,-0.8601445051999232,-1.1335111940637534,0.033852895471189304,4.000095971608936,2.185775753605627,-0.004142688710371144,0.5216222273993897,-0.21907499041234194,-0.25499729210105454,0.5127671404549415,-0.0025156044641634415,0.12636020546779037,-0.1619821647182107,0.3517196048051119,-2.130203667211808,-26.123803853988647,66.85807704925537,-4.064318537712097,0.0,0.0,0.0,0.0,0.0,0.0,0.0,0.0,0.0,0.0,0.0,0.0,0.0,0.0,0.0,0.0,False,0,7.048136949539185,0.034921875
