Mode,Time,Freq,North-Vision,East-Vision,Down-Vision,Yaw-Vision,North-Desired,East-Desired,Down-Desired,Roll-UAV,Pitch-UAV,Yaw-UAV,Roll-Control,Pitch-Control,Yaw-Control,Thrust-Control,northVraw,eastVraw,downVraw,N-Velocity,E-Velocity,D-Velocity,yawVraw,yawRate,Q-Size
GUIDED_NOGPS,0.01925182342529297,51.98948881947543,-19.68309245377179,51.061214558662925,70.52680574273468,18.962813575803793,-28.58365973034792,33.317953687588535,73.74658187908733,-0.4832564277067651,-0.6320055147509193,178.70084838730654,-5.082736394863043,2.483101033050132,10.0,0.5064442907886909,-33.17809553264327,28.36222137230107,77.70387315438444,0.5861266516149044,47.70396649837494,13.008303940296173,18.383089631031027,-4.811206595698138,0
GUIDED_NOGPS,0.04090523719787598,46.19175789079536,-20.522964279278117,53.24983267402215,77.41464500215092,19.002441669036273,-28.58340054363677,33.31804688223548,73.74636117991788,-0.4385071093381043,-0.7167414285634792,178.83821715189384,-3.1452088679455317,-3.1516081311175377,10.0,0.4926617348906145,-33.812402327192615,27.770905563240518,77.91071710718302,-3.5330239683389664,47.072622179985046,8.306297659873962,18.30555309905193,-4.397546860786894,0
GUIDED_NOGPS,0.07829427719116211,26.749046568283568,-22.233894717306278,50.82392923906164,77.92605505804106,18.813076957337316,-28.581621300296682,33.318686637083125,73.74483409582669,-0.4247238943147243,-0.7102075522095687,178.97592742593963,3.6008724820094797,-1.558109669148748,10.0,0.4916233595664115,-35.0033512673332,25.686456215297724,79.46586243490987,-1.8741708248853683,49.53862726688385,14.957010746002197,18.205894205458726,-5.124824976723029,0
GUIDED_NOGPS,0.11016559600830078,31.380163248816036,-23.440462792880915,49.407743805267216,78.80424356985235,18.68597412186563,-28.57689729043636,33.320385228917296,73.74074289429942,-0.6040988559061281,-0.6921512534475524,179.14395007952194,2.309169693942186,-1.547014797839887,10.0,0.48984592794931536,-33.810941497976955,25.321259017042706,81.87765443951287,1.9055657088756561,52.49938368797302,13.795427978038788,18.40827202707195,-2.644570699453482,0
GUIDED_NOGPS,0.14431071281433105,29.29371913871254,-24.669857312449896,48.186725975294785,79.28229996044362,18.537192635575202,-28.567905640470688,33.32361831768277,73.73288226089541,-0.9780790337210062,-0.7935731593198948,179.2303792932793,1.8422357531995632,-1.6859312892775324,10.0,0.488858917489521,-36.19119844501526,24.541599238825807,79.91624540141103,1.2093259952962399,52.62512564659119,12.877373397350311,18.091067457640868,-3.4644427017597175,0
GUIDED_NOGPS,0.17756104469299316,30.078338568334697,-26.093534039434516,47.141598863239736,79.68178039351336,18.351072603869792,-28.553422916972345,33.32882580805603,73.72009857623974,-1.150839704153193,-0.8651766470709301,179.37573937919552,1.8454454035690553,-2.3428247571987315,9.891368493016857,0.48801852772456017,-39.897951209000794,22.360454335146418,79.96641277965398,-1.7381573095917702,52.592527866363525,9.651108831167221,17.68116844175406,-3.9206797015227055,0
GUIDED_NOGPS,0.2113497257232666,29.600513772345217,-27.377777800351893,46.251967267879415,80.1556658752988,18.178377054019148,-28.532322730523415,33.33641271101799,73.7012891930153,-1.0134999678698693,-1.0039256434790982,179.52428233326495,1.5242821907454194,-2.2319355649431536,9.886063062246988,0.4870156699069516,-40.61763303673831,21.431909128623346,81.44459871483471,-1.7381573095917702,52.592527866363525,9.651108831167221,17.5920218636399,-3.9206797015227055,0
GUIDED_NOGPS,0.24467706680297852,30.008614151820847,-28.551935817697448,45.59835326750074,80.62508460716472,18.01884476219094,-28.503573339567026,33.34675000542672,73.67540171295492,-0.5492583065647436,-1.142948060897478,179.6947775153268,1.1364571526176748,-2.290480941905282,9.854030029685823,0.48600652660371124,-40.53362743829045,20.617109437247752,82.27240392854591,-5.213254317641258,56.719112396240234,7.968325912952423,17.701279078641313,-4.44706615915631,0
GUIDED_NOGPS,0.28909897804260254,22.51491760158892,-29.708023736023613,45.06359961973918,81.02332770317247,17.837334948240176,-28.46623525425895,33.36017549959017,73.64143326383339,-0.19610305536411704,-1.2421246488018847,179.80858212727756,0.5343549146939726,-1.9206415231152794,9.884942401235236,0.48511587811019985,-41.72209253739516,19.77058553793534,82.33341501761974,-6.709713488817215,58.22446346282959,6.871341168880463,17.575617218887288,-5.840705641368528,0
GUIDED_NOGPS,0.3119533061981201,43.763606010016694,-30.84649724299839,44.956429063672076,81.42356529748935,17.619875806521254,-28.419458840319244,33.37699469283892,73.59842977645964,0.7413818696028291,-1.7202652114594572,-179.89428734098288,0.6689707540943434,-3.825200899409793,8.668705251775608,0.48421509053139267,-42.45685055294048,19.166117593222992,81.57781595125448,-6.709713488817215,58.22446346282959,6.871341168880463,17.45860675896705,-5.840705641368528,0
GUIDED_NOGPS,0.3573744297027588,22.019077617660184,-31.865782844888976,44.05359916850401,81.83703091694174,17.512763064816934,-28.362481922883838,33.397481637098885,73.5454852616687,1.144849628251092,-2.0026535129998164,-179.66028506001825,1.0891401641017824,-1.7276735462155974,10.0,0.4832521794711983,-43.136803351297885,16.635196609849523,84.91974371140293,-9.601879864931107,58.94794464111328,8.009149879217148,17.47132389831915,-4.814248591199733,0
GUIDED_NOGPS,0.3799703121185303,44.26238919375264,-33.00232281625473,44.12308773793333,82.37421133110253,17.29441234383188,-28.294627390356187,33.421879798464076,73.48174108731396,1.2663183527808335,-2.2968675400361125,-179.47257780124795,0.29398055983340254,-4.097870503347408,8.444253085494596,0.4820342534322708,-44.87825217562684,16.878793743338882,84.51122696850511,-6.634875386953354,57.44561553001404,5.215895175933838,17.397394761185463,-6.406740920247232,0
GUIDED_NOGPS,0.4135854244232178,29.753589467113105,-34.05411327217034,43.169796852386135,82.66502308933863,17.142288665279867,-28.215300798258873,33.45040291876929,73.4063852552591,1.1682490025739094,-2.725732129813451,-179.2268958968026,1.9782288775165235,-2.4209051839765254,9.3741618693162,0.4812771870746359,-44.70573227249494,15.461240303593287,85.37716647423397,-17.771266400814056,50.84306597709656,4.2449455708265305,17.254833350377858,-7.869747376783277,0
GUIDED_NOGPS,0.446624755859375,30.27176211612717,-35.05064746937315,42.74282516737965,83.04714038526971,16.93866353846772,-28.123987973085228,33.4832358771629,73.31865167837023,1.0457427296205606,-3.066049079973687,-178.9813369357623,1.0360672017869195,-2.725836641773512,8.94051044437838,0.4803115625716981,-45.9945501240821,14.39293148400232,85.27649646828601,-9.469162672758102,53.756994009017944,4.894767329096794,17.077449226078578,-8.032081336560616,0
GUIDED_NOGPS,0.48775410652160645,24.31607446185598,-36.181556318756726,42.02485063010852,83.47210908484088,16.709258708982947,-28.02025261615095,33.52053555167951,73.21781945750801,0.8559720600298388,-3.268032928213185,-178.6920237828989,1.3409400427674987,-2.5574437969788852,8.91053727057565,0.4792262050977022,-49.76188317386162,8.312228919447268,86.38196019036361,-8.308645337820053,54.01291847229004,5.3432900458574295,16.413789165616194,-7.695189085938907,0
GUIDED_NOGPS,0.5139744281768799,38.148069996725724,-37.27737155746768,41.66002812499656,83.93420576240547,16.456161766679262,-27.903733907445734,33.562431680812736,73.10321215851974,0.810378946494417,-3.397559354972837,-178.5421967532655,1.5138781498641463,-3.723680102856543,7.938317223010418,0.47805013458452755,-49.76188317386162,8.312228919447268,86.38196019036361,-10.630599409341812,53.291767835617065,5.033911764621735,16.413789165616194,-7.498734916162769,0
GUIDED_NOGPS,0.5475063323974609,29.83019216818628,-38.272618814648,40.82636598418594,84.16223840899944,16.260335550186117,-27.77414410948487,33.60902772508794,72.97419708923137,0.8838401923388429,-3.2950753546845575,-178.12071943996236,2.034491475364423,-2.83784386345079,8.588093980126509,0.47730602942050127,-49.76188317386162,8.312228919447268,86.38196019036361,-14.345821738243103,53.19954752922058,1.3609589077532291,16.413789165616194,-9.209133812644437,0
GUIDED_NOGPS,0.5809743404388428,29.885667462324985,-39.3944679578816,40.24315295252231,84.43964564358261,16.02078429882617,-27.631266171160885,33.660401728634916,72.83018457643965,0.8858810848793545,-3.335401858761371,-177.8931648575742,1.7300731353523195,-3.363899196654355,8.17788086409453,0.47643217271271243,-51.38578892228291,6.4171051490536355,86.21444485357702,-16.057784855365753,53.9371132850647,2.240925654768944,16.105512136037564,-9.063160717250216,0
GUIDED_NOGPS,0.6203985214233398,25.36744444847649,-40.438042048312056,39.698180411934985,84.71787576901781,15.760580275479706,-27.474951331595154,33.71660718076067,72.67062724290425,0.950510789405248,-3.3165016581108877,-177.60315502541545,1.412492913900968,-3.03072928113339,8.135303099423869,0.4755186309744984,-51.611803131341745,5.568937407758964,86.69523823348425,-14.365139603614807,55.19782900810242,2.018977329134941,16.00708271502829,-10.592525449780696,0
GUIDED_NOGPS,0.6498842239379883,33.921599391817026,-41.61963771795654,39.00520150805156,85.02963551429914,15.499355154973466,-27.30511672398951,33.77767387752212,72.49501928433973,1.1547841383988755,-3.2641215776962946,-177.26540217095834,2.3769890701300103,-3.4917872998657957,7.426966267582982,0.4745159192792056,-53.934696305001836,2.0669851789114344,87.18364882226314,-18.8149556517601,53.381216526031494,3.521834686398506,15.461928020804722,-8.412988179967533,0
GUIDED_NOGPS,0.682703971862793,30.47698769092151,-42.66623114687634,38.0699421221056,85.26741965105238,15.263299203147747,-27.12174297947788,33.84360878329883,72.3028957464078,1.2667734141342855,-3.2007884351739397,-176.8588419908025,2.5729243564416064,-3.3795095136885145,7.767344490965407,0.4736208929309782,-54.291072384261604,-0.12244737175062548,87.6804743740799,-18.179452419281006,53.69085073471069,1.4640673995018005,15.173230122955127,-9.726045944125588,0
GUIDED_NOGPS,0.7162516117095947,29.813653293906913,-43.78566875577853,37.25141545717696,85.57481910763629,14.96315485921248,-26.924871830977892,33.914396892365765,72.0938318017092,1.2830367348783205,-3.292044671683776,-176.50507917293086,2.4212769412763278,-3.4932814984243468,7.217653785309338,0.47255118710655347,-55.47126869755948,-3.0818854133128326,88.58589263802723,-17.55739003419876,53.63834500312805,1.2163937091827393,14.67738970854989,-10.47425304033911,0
GUIDED_NOGPS,0.7518906593322754,28.062302628057594,-44.87765575918604,36.474804829634735,85.88794699250398,14.70566968658092,-26.714603717042497,33.99000209046597,71.86744202677598,1.3365337646656223,-3.2983719881761466,-176.2260522849575,2.329317917354043,-3.5241355079694214,7.380217247074678,0.4714321283861548,-55.47126869755948,-3.0818854133128326,88.58589263802723,-19.46580857038498,52.414917945861816,2.8074506670236588,14.67738970854989,-8.515893517550237,0
GUIDED_NOGPS,0.783275842666626,31.86773644541697,-46.07893515165162,35.639695988222975,86.07557879944157,14.382924360391565,-26.491095385711592,34.07036801638335,71.62337967906346,1.4032864840846262,-3.3995042513389984,-175.89395482713311,2.715235634202815,-3.4331361573443093,6.565774967042925,0.4705325817380176,-57.338062749638226,-4.361638290796294,87.76249475128562,-24.833467602729797,49.952396750450134,-0.9671133011579514,14.391319104528268,-11.701094180377739,0
GUIDED_NOGPS,0.82275390625,25.334195060371226,-47.25434033098816,34.63657722500305,86.1857119979698,14.10476493441124,-26.254557498363642,34.15541892351537,71.3613359739424,1.55529234406326,-3.469376019331171,-175.41021350935614,2.947834491812109,-3.3836362043774226,6.828319552956616,0.46974786387556355,-59.369740290913214,-7.924303753615039,86.76147135272055,-22.375842928886414,51.8075168132782,-0.4320734180510044,13.604489939145267,-9.04509315934824,0
GUIDED_NOGPS,0.850590705871582,35.93567346659013,-48.437058162049404,33.76196015692561,86.31891946247222,13.769265122994307,-26.005252233567287,34.24506054144582,71.081039361691,1.7152432081504996,-3.5529758272248344,-174.9846107617943,2.807760440940099,-3.4302975294217983,6.246670363216918,0.46888025948764667,-59.369740290913214,-7.924303753615039,86.76147135272055,-23.737916350364685,50.79045295715332,0.6049101706594229,13.604489939145267,-12.15393913744417,0
GUIDED_NOGPS,0.886765718460083,27.64594140328906,-49.57214589744683,32.89410321213516,86.46831905644343,13.458577353093462,-25.74349089093297,34.33918093751748,70.78225480448708,1.8437493754028813,-3.568093170292188,-174.5372060504018,2.707649867074629,-3.464968749928559,6.359839111545172,0.46793843257090045,-59.747422288700804,-8.370632129528612,87.59065950364551,-23.46961349248886,50.46104192733765,-0.01866733655333519,13.580692065785835,-11.664168470177358,0
GUIDED_NOGPS,0.9291534423828125,23.595585008832234,-50.7349664934057,31.885138889101356,86.69192722391882,13.129812125227398,-25.469631494964563,34.43765137840495,70.4647830534001,1.9765803330603506,-3.6518387600359494,-174.0316491084158,2.7439759884647774,-3.467326942474757,6.32438689457512,0.4668013266693386,-59.94224972106788,-11.682625667912568,88.27879972968526,-28.000038862228394,48.30952286720276,3.2304398715496063,13.227355644032599,-11.077765994080497,0
GUIDED_NOGPS,0.9525883197784424,42.678822906915215,-52.04620397043302,31.183585275375798,86.8989982415109,12.723589062419679,-25.184076398910967,34.54032719168726,70.12845992538328,2.055433372924267,-3.6911302770100938,-173.84765747255398,3.306766339204778,-3.3540542497058543,4.14885495275953,0.465683263791019,-59.94224972106788,-11.682625667912568,88.27879972968526,-27.483412623405457,48.14313054084778,-0.21746540442109108,13.227355644032599,-13.512760022814955,0
GUIDED_NOGPS,0.9879150390625,28.31234474565288,-52.901809432253124,29.88855370295167,86.94923559532543,12.53609155352551,-24.88726988861776,34.6470486274207,69.77315558026568,2.2103892342941114,-3.775001158036442,-173.3324836242166,3.716153622985596,-3.271383425617605,6.464800075614838,0.4648234248283491,-60.61714823619444,-13.46777102712538,87.77107575043769,-27.24716365337372,48.51181209087372,-0.7389951962977648,12.71616298373738,-9.492841941520195,0
GUIDED_NOGPS,1.0241949558258057,27.56798822168472,-54.094702939782415,28.816052434918277,87.09064788636317,12.14289900841852,-24.579695786378778,34.75764171971151,69.3987737977443,2.2007200343069004,-3.6851184298800135,-173.04215960335605,3.347926875655317,-3.371188497478611,5.112391402293618,0.4637406249066468,-61.61466346423857,-15.80384890165244,88.28639229849013,-32.3144406080246,43.964970111846924,-0.18135381396859884,12.049790574960781,-14.015766742919606,0
GUIDED_NOGPS,1.056222677230835,31.22643855299697,-55.232202189503404,27.677637878323797,87.33680051146727,11.787846787724988,-24.26187505478778,34.87191914828858,69.00525125437615,2.3619671402325615,-3.7120127266237617,-172.58584832528584,3.8159562210454254,-3.289824297024596,4.8657220116155715,0.46241408871828305,-60.62052406835473,-18.627828024153136,90.51153943939192,-32.23083317279816,43.34297776222229,-0.07047480903565884,11.661729558615633,-11.050285581728598,0
GUIDED_NOGPS,1.0896856784820557,29.88779705704208,-56.35829616580333,26.348209948057374,87.49499830019606,11.480536942438135,-23.93436340059002,34.98968110007627,68.5925568005703,2.5069396129133747,-3.6099060942871253,-172.2576167545317,4.183310900237108,-3.2320399668799538,5.049210061923597,0.4612217676173186,-63.05586464498028,-22.024596473135432,88.46344270924939,-31.591081619262695,43.08461546897888,2.544746920466423,10.791004019885296,-8.40709201916652,0
GUIDED_NOGPS,1.1260180473327637,27.527821167452057,-57.45862179069567,25.040781965628256,87.68964675496261,11.151433334679275,-23.597748878533906,35.11071613076702,68.1606907375801,2.7171228898080617,-3.564665269102488,-171.82500623288144,4.016273083962988,-3.2852693412063507,4.878935164970468,0.45991198523527355,-62.957843411293474,-23.116281817317613,89.02294044700679,-31.30936622619629,42.38577485084534,3.3517174422740936,10.532580517504403,-9.213599048814332,0
GUIDED_NOGPS,1.1585910320281982,30.703883459609823,-58.595753360473864,23.82482950217607,87.86360043817952,10.804740196999024,-23.252649495222606,35.234802026394185,67.70968409449507,2.8582158150403076,-3.5602879716181564,-171.5664289312831,4.209546704522696,-3.268817950114359,4.355623049649301,0.4586095098230574,-62.957843411293474,-23.116281817317613,89.02294044700679,-32.47714042663574,41.360580921173096,1.9437134265899658,10.532580517504403,-9.765362220535472,0
GUIDED_NOGPS,1.1973762512207031,25.790151999606472,-59.64896381791274,22.57356494224242,88.06588104421196,10.535064254946008,-22.899710812965647,35.361706664904716,67.2395979052332,3.1319717179651225,-3.481323727736816,-171.20873192444952,3.969354991912447,-3.330393919179852,4.912328156164956,0.4572009862862858,-62.957843411293474,-23.116281817317613,89.02294044700679,-34.9018931388855,40.45400619506836,5.315589532256126,10.532580517504403,-7.9724409785017105,0
GUIDED_NOGPS,1.22855544090271,32.07537242666177,-60.67412467499238,21.38602301107707,88.14593082460823,10.266919748085549,-22.53960355363057,35.49118887773188,66.75052248553284,3.2962283759938202,-3.419447123054966,-171.05161025278255,4.64888894889085,-3.2230159076369027,4.303816098508262,0.4560132874070264,-62.957843411293474,-23.116281817317613,89.02294044700679,-34.05509293079376,39.918506145477295,-2.1671999245882034,10.532580517504403,-7.927223418648934,0
GUIDED_NOGPS,1.2593498229980469,32.4807483815011,-61.5420215990638,20.142434153318934,88.28542742463777,10.078103259518263,-22.17302120249452,35.62299931136803,66.24257670994494,3.4951885848651183,-3.3273149147840755,-170.71038766222705,4.466018254816926,-3.2689285354776807,4.919710168083709,0.45465932200715986,-62.957843411293474,-23.116281817317613,89.02294044700679,-34.108564257621765,38.12114894390106,3.409288078546524,10.532580517504403,-6.638645906249852,0
STABILIZE,1.2934150695800781,29.359540809183816,-62.59565947893432,18.68424477479907,88.36710517787998,9.813952062121622,-21.80067761209589,35.756881288937294,65.7159072888251,3.599168610025042,-3.2345940295840947,-170.50302311902547,4.623263487503716,-3.2596678857078327,4.335473494098132,0.4533809793901331,-63.622329051914505,-29.088141300938943,89.23727722681313,-38.7948215007782,32.92614817619324,-1.6195578500628471,9.35845542857689,-6.094984192657994,0
STABILIZE,1.3299460411071777,27.381895572471244,-63.56812398186196,17.3133852619203,88.46125083479987,9.630682906866092,-21.423304606085907,35.89257167176832,65.17068804532552,3.548003022622242,-3.188658659538232,-170.31124506750984,4.612813316901967,-3.2744393876527744,4.7034514510986964,0.4520387168283219,-64.42856668680969,-29.105533656715245,89.39057622941803,-33.290085196495056,35.10727286338806,-0.7985785603523254,9.482317857795955,-2.3259854902415227,0
STABILIZE,1.3608815670013428,32.3295307393476,-64.43567876147118,15.987023477747643,88.52371441261174,9.404955940068938,-21.041649583080293,36.02980172096705,64.60711919238734,3.2966853583379767,-2.904408811283927,-170.13046362055795,4.599877313046807,-3.292586932021277,4.290921753967501,0.45072276541507933,-64.42856668680969,-29.105533656715245,89.39057622941803,-29.437196254730225,34.68962907791138,-2.3164067417383194,9.482317857795955,-5.678869858513776,0
STABILIZE,1.3942453861236572,29.97751491977272,-65.34189204604172,14.600595098994265,88.71746981420007,9.24705676610197,-20.656473120510853,36.168297958989356,64.02542660973252,2.5203103485439096,-2.546386516691137,-169.97730345860958,4.590785946869228,-3.3052510328306384,4.602380595649488,0.4491059166811994,-64.42856668680969,-29.105533656715245,89.39057622941803,-35.28142869472504,28.2568097114563,6.576570123434067,9.482317857795955,-2.6746576827473882,0
STABILIZE,1.4360601902008057,23.917293447455908,-66.24131699925411,13.219354900135292,88.87017999959345,9.150623861530546,-20.268546578477107,36.30778303121386,63.42586112085601,1.927961552444319,-1.9881325308243694,-169.84098654315446,4.585216472819471,-3.312972969612787,5.029588109240387,0.447516165922315,-64.42856668680969,-29.105533656715245,89.39057622941803,-36.93253993988037,25.34715235233307,4.406271502375603,9.482317857795955,0.27859487850835757,0
STABILIZE,1.4698460102081299,29.603856550984254,-67.29974833923538,11.98897303037281,89.01952570812226,8.977877089049652,-19.878649703597894,36.447976567514615,62.808697770017815,1.2908148262390842,-1.1314496508731733,-169.7461835174747,4.575207034300021,-3.3267823182906935,4.365071449315687,0.4459122379673095,-64.42856668680969,-29.105533656715245,89.39057622941803,-33.580178022384644,26.40441656112671,2.5758370757102966,9.482317857795955,-1.490200427829627,0
STABILIZE,1.504603385925293,28.774029787263235,-68.1122209591587,10.699044718316081,89.09585679850136,8.90827981377521,-19.487568232863026,36.588596043833846,62.17423509923512,1.390831634133108,-0.771379633550702,-169.74655234768989,4.571162612117199,-3.3323373739136724,4.944146602542231,0.4444158571509977,-64.42856668680969,-29.105533656715245,89.39057622941803,-34.97849702835083,26.39106810092926,0.3473579650744796,9.482317857795955,0.46834777893506685,0
STABILIZE,1.5371437072753906,30.735833156240155,-68.84960770858625,9.51760322475377,89.14230115926428,8.858941434110948,-19.09609149748489,36.729357643754696,61.522794425274334,2.3986996841454786,-0.088416645393363,-169.7477271402271,4.568291384723284,-3.336272444549909,5.012286830927204,0.44294814776155655,-64.42856668680969,-29.105533656715245,89.39057622941803,-32.91827142238617,30.35072088241577,-1.175834983587265,9.482317857795955,1.3195242457547633,0
STABILIZE,1.5710797309875488,29.47363095279923,-69.52522183952533,8.06991484583908,89.12900832477675,8.749433075147127,-18.705010026750024,36.869977120073926,60.85471911664319,4.129724471260116,0.49623400057320083,-169.7912081244834,4.56190648908821,-3.34499763599541,4.604360246848107,0.44156181175014153,-64.27823992901727,-36.260411885615575,89.34103954082687,-33.493369817733765,31.542685627937317,-4.060077667236328,8.646900906242683,-1.1001795507489738,0
STABILIZE,1.6041269302368164,30.265427466374184,-70.15227822888096,6.71785958111645,89.087417812202,8.724446755850197,-18.315113151870815,37.010170656374676,60.17037387058285,5.882293809451089,0.8391860697317391,-169.82727152330108,4.560447323488973,-3.346986735809131,5.082359864095526,0.4402004003376925,-64.27823992901727,-36.260411885615575,89.34103954082687,-30.39502501487732,33.49767029285431,-5.633189156651497,8.646900906242683,3.7697521576592874,0
STABILIZE,1.6378350257873535,29.67108092812677,-70.6648659137448,5.452162966451462,89.05905983889538,8.640104857186406,-17.92718660983707,37.14965572859918,59.47014399005998,7.1284076088933785,1.0031115703073972,-169.85948269542686,4.55551547305244,-3.35369628541104,4.686635347157532,0.4387763848051043,-64.27823992901727,-36.260411885615575,89.34103954082687,-25.696280598640442,35.608020424842834,-4.462574794888496,8.646900906242683,-0.587601174296197,0
STABILIZE,1.6721429824829102,29.15079613296915,-71.05168001104065,4.235023353020001,88.91071362938067,8.584932972953057,-17.542010147267625,37.288151966621484,58.754434660758825,9.126312646316155,1.0340797547259408,-170.0033811208607,4.552283983299115,-3.3580813771256857,4.828869110413762,0.43755900960386757,-64.27823992901727,-36.260411885615575,89.34103954082687,-17.891253530979156,34.85672175884247,-11.748065054416656,8.646900906242683,0.9983858264536889,0
STABILIZE,1.7065632343292236,29.05648770349844,-71.40113393835398,2.9796997970186454,88.84125065112846,8.556407971038134,-17.160355124262008,37.42538201582021,58.023670228073314,10.015049177155397,0.8764138557203349,-170.16077600009447,4.550611580919886,-3.360347339129961,4.9684498911326145,0.43615136691824263,-64.27823992901727,-36.260411885615575,89.34103954082687,-17.835615575313568,29.238411784172058,-6.600111722946167,8.646900906242683,2.178898647125768,0
STABILIZE,1.7392747402191162,30.575408772479754,-71.67613927883546,1.6997192555418854,88.75466745754268,8.549200854169879,-16.782982118252026,37.56107239865125,57.278293474099144,10.821602310580108,0.7782477622871201,-170.30161450078012,4.550188853821085,-3.360919724504344,5.0854246164966925,0.43475146686535604,-64.27823992901727,-36.260411885615575,89.34103954082687,-14.777356386184692,24.481482803821564,-7.500921189785004,8.646900906242683,3.1189717335404725,0
STABILIZE,1.7739582061767578,28.837335936801722,-71.86494099991138,0.38654515469214656,88.7063396390226,8.570717953519098,-16.410638527853404,37.69495437622051,56.51876489462589,11.821417354117623,0.6812895451199396,-170.47335277727092,4.551450706934046,-3.3592106903779606,5.26865615567731,0.43324127530008183,-64.27823992901727,-36.260411885615575,89.34103954082687,-12.246700376272202,19.55907791852951,-4.964989796280861,8.646900906242683,4.0932128412781665,0
STABILIZE,1.807173728942871,30.112457641720752,-72.00952604252134,-0.9486230525475744,88.67526506341393,8.557297616227606,-16.044056176717348,37.826764809856655,55.745561976129025,12.695625218818602,0.7652060496755096,-170.54594402776982,4.550663757283313,-3.3602766802970447,5.054818744176241,0.4316681440660313,-64.27823992901727,-36.260411885615575,89.34103954082687,-9.234275668859482,14.734481275081635,-3.811485692858696,8.646900906242683,1.8384615283248222,0
STABILIZE,1.840050458908081,30.422165808370202,-72.04374645939816,-2.307315088767501,88.57847516128739,8.571987815410706,-15.68394891738227,37.95624702268382,54.959178472762076,14.022380927357116,0.6656479316729343,-170.73983943792814,4.551525156913239,-3.3591098145172213,5.23259497482003,0.4302005700109628,-64.27823992901727,-36.260411885615575,89.34103954082687,-3.7220757454633713,10.368923842906952,-7.818961888551712,8.646900906242683,3.176797822601093,0
STABILIZE,1.8743579387664795,29.1544434018003,-71.9564179356956,-3.7161360623926187,88.45754748510066,8.594917219314567,-15.331010235125309,38.08315166119435,54.16012368334868,14.059759137590012,0.5311152964167799,-170.8608157485074,4.552869086630914,-3.3572880543677788,5.290578541079545,0.42875015369269254,-64.27823992901727,-36.260411885615575,89.34103954082687,2.39019263535738,4.248548299074173,-9.288359433412552,8.646900906242683,3.3250423827811657,0
STABILIZE,1.9073970317840576,30.269577454624184,-71.7869700917027,-5.215382956820225,88.34454371760694,8.678043494657732,-14.985910851814008,38.20723755682152,53.348921728374705,13.357394563538321,0.32134089705736835,-170.98475636118647,4.557735138083268,-3.3506790970012474,5.7101309235710245,0.4272612787860902,-64.27823992901727,-36.260411885615575,89.34103954082687,7.636895775794983,-4.512397572398186,-8.693604916334152,8.646900906242683,6.919890044382528,0
STABILIZE,1.9408698081970215,29.879067646891208,-71.50864484592147,-6.73712200068289,88.23250423434327,8.70051894064128,-14.649296329757899,38.328272587512274,52.52611082698026,12.132675051010628,0.09630405313137984,-171.14313478766073,4.559049160062335,-3.3488909740591613,5.354325442631311,0.4257439230768178,-64.27823992901727,-36.260411885615575,89.34103954082687,12.845109403133392,-8.836798369884491,-8.688036352396011,8.646900906242683,2.9283001726703968,0
STABILIZE,1.97468900680542,29.57859550641035,-71.16280734173988,-8.307073621027937,88.19551628166262,8.692096117236037,-14.321784675560142,38.44603453929995,51.69224257395189,10.613085172956081,-0.019786677829450094,-171.2666382682329,4.558556803732844,-3.349561145454878,5.165399320155117,0.42405149555208554,-64.27823992901727,-36.260411885615575,89.34103954082687,17.035606503486633,-14.676250517368317,-3.9347898215055466,8.646900906242683,0.9290013497701143,0
STABILIZE,2.0146355628967285,25.035688491222626,-70.80309995054411,-9.833494594116686,88.1593756086133,8.685885334328434,-14.003963943969136,38.560311967877034,50.847881216714555,9.528022538387638,-0.12994080046277534,-171.37820257813587,4.558193689176272,-3.3500552669998758,5.180363562893674,0.42231609305161133,-64.27823992901727,-36.260411885615575,89.34103954082687,17.035606503486633,-14.676250517368317,-3.9347898215055466,8.646900906242683,0.9290013497701143,0
STABILIZE,2.0413928031921387,37.380056502713735,-70.41713389869167,-11.417086422962218,88.13646046752119,8.711147505111505,-13.696389841730149,38.67090506016784,49.99360293232381,8.714470168610957,-0.1991303766311665,-171.49027232203744,4.559670312428682,-3.3480451971197356,5.415108821490856,0.4205715436249817,-64.27823992901727,-36.260411885615575,89.34103954082687,18.30093115568161,-20.969754457473755,-3.121100552380085,8.646900906242683,2.7081495153425457,0
STABILIZE,2.0827877521514893,24.161711589753043,-69.95034230959918,-12.892428291712172,88.03282079885386,8.830746658031302,-13.39958333143694,38.77762649590127,49.12999510445784,8.146857542920802,-0.27500860230727775,-171.60963670797258,4.566649079780377,-3.3385200586698645,5.902118629300102,0.41892828853681896,-64.27823992901727,-36.260411885615575,89.34103954082687,19.353052973747253,-20.98371386528015,-9.054257720708847,8.646900906242683,8.119510319257717,0
STABILIZE,2.115278959274292,30.785464207335423,-69.52040377282657,-14.464490002111884,87.90994202119265,8.916193490201906,-13.114028235383362,38.880302309183584,48.257655600409535,7.36660319912158,-0.3575797463593404,-171.73957422674292,4.5716228299838955,-3.3317059744776456,5.882709342229427,0.4173276573599535,-64.27823992901727,-36.260411885615575,89.34103954082687,23.354491591453552,-23.01197052001953,-8.720105141401291,8.646900906242683,6.300747056499213,0
STABILIZE,2.1467294692993164,31.800808230914452,-68.99833221829999,-15.943163426830631,87.75484834293742,9.038831037782488,-12.840168839414954,38.97877275007105,47.37719204807866,6.340621273986924,-0.3928932117504815,-171.80876404303515,4.578743632303423,-3.3219131159078885,6.1511181268258,0.4157680594849336,-64.27823992901727,-36.260411885615575,89.34103954082687,25.63585340976715,-23.790499567985535,-11.737394332885742,8.646900906242683,8.33552871213771,0
STABILIZE,2.180223226547241,29.860135976933755,-68.53375079885754,-17.48623390654278,87.63125241403348,9.10390542229393,-12.578407496780631,39.07289314614272,46.48922111296383,5.191462009812965,-0.5890008294675206,-171.94797695869835,4.582513581879905,-3.3167106102109964,5.85121287055564,0.41412915255631405,-64.27823992901727,-36.260411885615575,89.34103954082687,22.101059556007385,-29.593944549560547,-9.567364305257797,8.646900906242683,4.738870623519472,0
STABILIZE,2.217489242553711,26.837705715236364,-67.94065844329975,-18.937905635449603,87.48389817854296,9.140048942724354,-12.329102231984269,39.162534764073165,45.594367775154666,4.1053748468690205,-0.7492886139799122,-172.0333953044585,4.584604928741834,-3.3138191935221935,5.678661357720023,0.41250969094097156,-64.27823992901727,-36.260411885615575,89.34103954082687,30.321577191352844,-26.4874666929245,-11.144916713237762,8.646900906242683,2.952052155509116,0
STABILIZE,2.248607873916626,32.14149201118817,-67.3374937051761,-20.419895639098858,87.2972747114639,9.189182814100961,-12.092564344636333,39.24758567120519,44.69326460632391,3.4146997146949842,-0.9592392375559955,-172.10982512127097,4.587445001118937,-3.3098864575252245,5.828651702958028,0.41097445310520153,-64.27823992901727,-36.260411885615575,89.34103954082687,30.776384472846985,-27.596232295036316,-12.861184775829315,8.646900906242683,3.5737257284799218,0
STABILIZE,2.281113862991333,30.76717232475573,-66.73357985678847,-21.75203739141707,87.11767343331708,9.231294325113776,-11.869056013305428,39.32795159712258,43.78655104671938,2.7533369796742924,-1.3574057555521235,-172.22587003526948,4.589876477135702,-3.30651386276186,5.797743648931021,0.40940748900972473,-64.27823992901727,-36.260411885615575,89.34103954082687,30.893874168395996,-27.55359709262848,-14.000459015369415,8.646900906242683,3.453429021723072,0
STABILIZE,2.3152108192443848,29.333053591535013,-66.1373918215766,-23.062737987208738,86.89452273643288,9.275533270094261,-11.658787899370044,39.40355679522277,42.87487268215628,2.2036544543290675,-1.6989823420056975,-172.31820053246972,4.5924281184968025,-3.302968963892927,5.824363490054697,0.4079101522441773,-64.27823992901727,-36.260411885615575,89.34103954082687,30.622056126594543,-26.973047852516174,-16.460880637168884,8.646900906242683,3.526496677916576,0
STABILIZE,2.3554863929748535,24.83261990609995,-65.5255385044092,-24.337282191793864,86.61816771553397,9.325655168663744,-11.461916750870035,39.4743449042897,41.958880521009036,2.023093280977903,-2.305407197489332,-172.42118612477518,4.5953157722703,-3.2989502804867823,5.870225901351954,0.40650056407033475,-64.27823992901727,-36.260411885615575,89.34103954082687,31.695055961608887,-26.23049020767212,-19.5636123418808,8.646900906242683,3.815840566631241,0
STABILIZE,2.382568120956421,36.93144316280708,-64.88630367287368,-25.53805264528338,86.30849173455151,9.380885878185259,-11.278543006358422,39.54027981006641,41.03923027120358,2.0732161973152183,-2.7421309871238284,-172.4844063557328,4.576860097217537,-3.163570047841547,5.986965966089749,0.405169007800536,-64.27823992901727,-36.260411885615575,89.34103954082687,33.91309976577759,-24.47560280561447,-21.79969847202301,8.646900906242683,3.993650881294183,0
STABILIZE,2.4169204235076904,29.115586191576945,-64.31222967401621,-26.620658951701333,85.98056699043221,9.37885078707699,-11.108708398752771,39.601346506827866,40.11658161720929,2.2191769129915677,-3.2943210456680942,-172.57313051305127,4.598376664326302,-3.294682390304004,5.615444000056103,0.4038537097535877,-64.27823992901727,-36.260411885615575,89.34103954082687,31.597191095352173,-24.05250072479248,-24.537479877471924,8.646900906242683,0.9723672880275831,0
STABILIZE,2.449666976928711,30.546460902053035,-63.757945003018975,-27.726807096028427,85.66859432698654,9.38612763648067,-10.952393559187033,39.65755195895362,39.19159749703127,2.417911725620255,-3.657131302869063,-172.61666613882093,4.596376932469406,-3.2794695921455297,5.676026071224711,0.40250567195815595,-64.27823992901727,-36.260411885615575,89.34103954082687,29.530474543571472,-24.39982444047928,-22.487471997737885,8.646900906242683,1.344381652021967,0
STABILIZE,2.486574649810791,27.0976128177795,-63.25317281522413,-28.785832717366638,85.32351173902515,9.385600546063072,-10.809515620863042,39.7089259625006,38.26494337920219,2.768555281475315,-4.1550358716637135,-172.65711451908575,4.598764764182659,-3.2941406532982187,5.6285046532421825,0.40120355439636396,-64.27823992901727,-36.260411885615575,89.34103954082687,27.183157205581665,-25.06120204925537,-25.238025188446045,8.646900906242683,0.9837073230405083,0
STABILIZE,2.5169336795806885,32.9448210316307,-62.78117560314656,-29.84580270147951,85.04194153425273,9.377442745571603,-10.679925822902195,39.7555220067758,37.33728653977456,2.9250086618206854,-4.348378463386088,-172.65686863227563,4.5955952576941375,-3.2784434168194654,5.572635971374534,0.3997957081118379,-64.27823992901727,-36.260411885615575,89.34103954082687,25.290009379386902,-26.455354690551758,-20.72930485010147,8.646900906242683,0.30146363251002967,0
STABILIZE,2.550624370574951,29.688302495788445,-62.34724291698695,-30.812421760230237,84.71960361016077,9.403058460184699,-10.56340711419698,39.797418135909034,36.4092953393128,3.083696794685119,-4.534628330542227,-172.67794659605428,4.599768269029093,-3.292739265601377,5.79399927034457,0.3984542786401534,-64.27823992901727,-36.260411885615575,89.34103954082687,25.462394952774048,-27.346602082252502,-25.76679289340973,8.646900906242683,2.8286041702239517,0
STABILIZE,2.58388090133667,30.07531908791051,-61.967002203820485,-31.866396511689384,84.45370273600423,9.356837349511297,-10.4596717572627,39.83471781042564,35.48163849988521,3.2825306450567715,-4.626782096597685,-172.66312508555535,4.597110485040294,-3.2964488754313472,5.336272720931735,0.39700041098206085,-64.27823992901727,-36.260411885615575,89.34103954082687,20.535117387771606,-31.219321489334106,-20.776906609535217,8.646900906242683,-1.750024238951497,0
STABILIZE,2.6164164543151855,30.74011315997772,-61.59931612149412,-32.87152984469531,84.22217624971084,9.276433418711123,-10.368358932089041,39.867550768819235,34.554984382056105,3.5436112109859237,-4.46249043384949,-172.55707956850173,4.592480009412623,-3.302896813881026,5.072850097757739,0.39548055387448733,-64.27823992901727,-36.260411885615575,89.34103954082687,20.499292016029358,-30.475687980651855,-19.053004682064056,8.646900906242683,-3.7723843418106813,0
STABILIZE,2.651339530944824,28.637685117539824,-61.24313320460558,-33.86322156121243,83.98984897644891,9.28305435226506,-10.28903233999171,39.896073889124466,33.63000026187807,3.675150195673203,-4.391455185820889,-172.4950477904597,4.5928616518936884,-3.302366098203587,5.607752699964672,0.39395455307811456,-64.27823992901727,-36.260411885615575,89.34103954082687,20.278625190258026,-32.12099373340607,-19.769640266895294,8.646900906242683,1.6040150716207229,0
STABILIZE,2.684772491455078,29.914229268744965,-60.82155180097608,-34.83424217774988,83.69390793474021,9.234862663064701,-10.221177807464077,39.92047205048965,32.70735160788381,3.4523707692885433,-4.19064036714652,-172.42513397411543,4.575178849026935,-3.2145641586351337,5.252633215353162,0.3925647653866223,-64.27823992901727,-36.260411885615575,89.34103954082687,24.576570093631744,-30.54056167602539,-23.009230196475983,8.646900906242683,-1.8159191292994297,0
STABILIZE,2.7203497886657715,28.111391862093924,-60.52031586543904,-35.81238512771902,83.45862316764327,9.202150701438836,-10.16420089002867,39.94095899474962,31.787701358078323,3.0973046659458996,-3.727318753666937,-172.28974596438744,4.588194017931089,-3.308848085636656,5.337219220751659,0.3910491123857857,-64.27823992901727,-36.260411885615575,89.34103954082687,18.412816524505615,-36.032164096832275,-20.661717653274536,8.646900906242683,-0.7951706231728844,0
STABILIZE,2.7555429935455322,28.420352213360797,-60.259304565028536,-36.81906119948987,83.21465416083588,9.18922573679195,-10.117424476088974,39.957778187998365,30.871709196931107,2.536304944032787,-3.307934466457576,-172.2145455816256,4.587447480693542,-3.3098830208752807,5.440069032553229,0.3895577267490894,-64.27823992901727,-36.260411885615575,89.34103954082687,16.208215057849884,-38.88389468193054,-21.062257885932922,8.646900906242683,0.3841050794857758,0
STABILIZE,2.7866764068603516,32.12598232203312,-60.02888174153767,-37.78293135304953,83.07402654068464,9.131688451235823,-10.080086390780924,39.971203682161814,29.960030832367977,1.321131901530655,-2.158793558417012,-172.0403757577903,4.584121333723374,-3.3144881350975193,5.101576972339564,0.38788607601360753,-64.27823992901727,-36.260411885615575,89.34103954082687,15.522672235965729,-40.40893912315369,-14.607642590999603,8.646900906242683,-2.3360322716237887,0
STABILIZE,2.8231892585754395,27.39155194482903,-59.83180072640611,-38.649986285571885,83.01455267545437,9.14608541609345,-10.051336999824503,39.98154097657054,29.053317272763465,0.5120110438648428,-1.5129258545804345,-171.9714181679298,4.5849540351434666,-3.313336157956455,5.565306176020455,0.3860315288900969,-64.27823992901727,-36.260411885615575,89.34103954082687,15.685294568538666,-40.31987488269806,-12.98154890537262,8.646900906242683,2.0984082828517523,0
STABILIZE,2.853813886642456,32.66286639877893,-59.61006954387821,-39.527779652811475,82.88723182568808,9.099688218295299,-10.030236813375627,39.98912787953249,28.15221410393272,-0.11871952002795842,-0.8507924821222949,-171.88028978402352,4.582269445984242,-3.317047892991488,5.156344080636712,0.38435006970874236,-64.27823992901727,-36.260411885615575,89.34103954082687,15.498411655426025,-37.20235228538513,-13.795508444309235,8.646900906242683,-1.7113500003235924,0
STABILIZE,2.8871917724609375,29.963594799257038,-59.435334264231294,-40.25363353189416,82.77769777854722,9.084112036670765,-10.015754089877237,39.99433536990577,27.257360766123554,-0.5559523188381793,-0.20745400267145842,-171.78611513574737,4.581367518442817,-3.3182934862602353,5.355577983233386,0.3826336114556488,-64.27823992901727,-36.260411885615575,89.34103954082687,15.030673146247864,-34.358882904052734,-16.696837544441223,8.646900906242683,0.2145362418301005,0
STABILIZE,2.9201011657714844,30.39086456250181,-59.23668541620724,-40.926677507653686,82.6163022642655,9.044796937005787,-10.006762439911558,39.997568458671246,26.36938983100869,-0.8706275115545705,0.30556617496282723,-171.70542328089286,4.579089500303828,-3.3214363381234984,5.192344450848364,0.38102960107534245,-64.27823992901727,-36.260411885615575,89.34103954082687,16.041691601276398,-30.54034411907196,-19.05706822872162,8.646900906242683,-1.28491311590937,0
STABILIZE,2.9539551734924316,29.544218022498185,-59.03581303188332,-41.54168141589359,82.41059043376106,8.979542597708845,-10.002038430051204,39.999267050505416,25.488926278677823,-1.115078541206299,0.5911706951894691,-171.65231172990684,4.575303737304197,-3.3266493219770314,5.0022483377998075,0.37952592465812013,-64.27823992901727,-36.260411885615575,89.34103954082687,16.26165062189102,-27.58795917034149,-21.893540024757385,8.646900906242683,-2.89810518701024,0
STABILIZE,2.9877419471740723,29.60782708136268,-58.87589451759969,-42.10981914802639,82.20788466045397,8.909772663644997,-10.000259186711123,39.99990680535307,24.616586774629496,-1.0765917058937464,0.8468635225239508,-171.50344092675724,4.571249435100594,-3.332218270475766,4.931854227508223,0.37803137023587896,-64.27823992901727,-36.260411885615575,89.34103954082687,14.026573300361633,-25.713998079299927,-21.67578786611557,8.646900906242683,-3.1880147007655464,0
STABILIZE,3.0237362384796143,27.785496147807596,-58.7190449594433,-42.595042120964344,81.9863787192345,8.828736952363803,-10.000000000000018,40.000000000000014,23.75297894676359,-0.9523721226757823,0.9867072701900248,-171.37794303094742,4.566531975105379,-3.338680236311972,4.847329988734262,0.3765793475805018,-64.27823992901727,-36.260411885615575,89.34103954082687,14.621351659297943,-22.712427377700806,-23.442000150680542,8.646900906242683,-3.9038074267254816,0
STABILIZE,3.0546648502349854,32.33975095416169,-58.53933552990348,-42.97677659466349,81.81903449104729,8.792669630838716,-10.0,40.0,22.898700662372818,-0.6855535041527316,0.9215177035956017,-171.29188264740526,4.564429392921776,-3.341554176881134,5.037921883861717,0.3750624232872414,-64.27823992901727,-36.260411885615575,89.34103954082687,16.71186089515686,-18.304328620433807,-20.637115836143494,8.646900906242683,-1.2070634735232109,0
STABILIZE,3.08756422996521,30.399895630241137,-58.393777418722074,-43.238649643456604,81.63439094347619,8.727622625052172,-10.0,40.0,22.054339305135457,0.057717446364134936,0.9457236805707153,-171.11420210633653,4.560632837863262,-3.346733947926439,4.849104139123579,0.3735829542364366,-64.27823992901727,-36.260411885615575,89.34103954082687,17.039133608341217,-16.433429718017578,-24.0052729845047,8.646900906242683,-3.1606188120046252,0
STABILIZE,3.125364065170288,26.45814566695684,-58.242920081675486,-43.53347913630741,81.47399369887671,8.66543748055985,-10.0,40.0,21.220471052107115,1.3357824438569208,0.7617919689467082,-170.92508782859724,4.5569978232502875,-3.351681792606831,4.869665348946112,0.3720541235530014,-64.27823992901727,-36.260411885615575,89.34103954082687,15.111823379993439,-14.925985038280487,-20.338401198387146,8.646900906242683,-2.9138287093664323,0
STABILIZE,3.1578874588012695,30.753411298896506,-58.123954926755935,-43.81517544740654,81.29939652110079,8.59844680470975,-10.0,40.0,20.39766015071268,2.4188534379520705,0.500933437526434,-170.83766140722108,4.553075896626452,-3.357007578120614,4.7431229447384835,0.3706007581596244,-64.27823992901727,-36.260411885615575,89.34103954082687,12.634384632110596,-14.060379564762115,-20.853225886821747,8.646900906242683,-3.171512963730796,0
STABILIZE,3.191221237182617,30.004750050075828,-58.066805630734954,-44.01442484271278,81.12933155934073,8.510835963909091,-10.0,40.0,19.586458195738686,3.731142805828498,0.12913238354148088,-170.7019045672779,4.54793738342469,-3.363965748405917,4.581867963021091,0.36915404719552125,-64.27823992901727,-36.260411885615575,89.34103954082687,11.052698642015457,-14.06884640455246,-22.875481843948364,8.646900906242683,-4.6861449782215585,0
STABILIZE,3.2243502140045166,30.18983524195464,-57.95900917108431,-44.17625208310282,80.93804722136996,8.409688452155299,-10.0,40.0,18.787403406325296,4.877926871718585,-0.2746372641320112,-170.51698402568897,4.541991698867388,-3.371989235958463,4.439681780375677,0.36777256513579465,-64.27823992901727,-36.260411885615575,89.34103954082687,14.645656943321228,-12.61214017868042,-24.056704342365265,8.646900906242683,-5.5427155869382725,0
STABILIZE,3.2665953636169434,23.673761507244414,-57.76953132986432,-44.32704425869855,80.65524235233337,8.325158365274355,-10.0,40.0,18.001019902958376,5.795784340971,-0.8853514250535611,-170.4255277927025,4.537011966379117,-3.3786864928449196,4.5956798359581015,0.36655325101021785,-64.27823992901727,-36.260411885615575,89.34103954082687,20.09201943874359,-12.105976790189743,-29.826122522354126,8.646900906242683,-4.576527272232024,0
STABILIZE,3.29457950592041,35.745487395387684,-57.48339631712511,-44.6771619995157,80.27677983639123,8.208105942125414,-10.0,40.0,17.22781698446147,6.86596740843257,-1.7170279152362828,-170.29106868870164,4.483818321028738,-3.067097168610557,4.081959913279308,0.3656236823768234,-64.27823992901727,-36.260411885615575,89.34103954082687,19.972647726535797,-14.655530452728271,-28.721579909324646,8.646900906242683,-5.725426562330698,0
STABILIZE,3.3250436782836914,32.83135425391185,-57.38129885109273,-44.677005563196424,80.19707575513041,8.166821880436828,-10.0,40.0,16.468288404988243,7.355505849267602,-2.246421256930279,-170.17208679336,4.527657677509434,-3.3912115763086628,4.629639547509762,0.36410838474414936,-64.27823992901727,-36.260411885615575,89.34103954082687,21.811069548130035,-16.190242767333984,-25.448384881019592,8.646900906242683,-3.00110145148627,0
STABILIZE,3.361949920654297,27.098663255351177,-57.23147935412415,-44.85433827616525,80.04950320837476,8.159266758217857,-10.0,40.0,15.722911651014073,7.705685379145924,-2.614614983857687,-170.01115387613618,4.527210467027772,-3.391808571726031,4.854743584142465,0.3627222668606631,-64.27823992901727,-36.260411885615575,89.34103954082687,20.7257941365242,-20.70215791463852,-24.753543734550476,8.646900906242683,-0.43362565851566076,0
STABILIZE,3.3923280239105225,32.927751042165504,-56.99430034018759,-45.19761948189178,79.90101428364135,8.12363948309435,-10.0,40.0,14.992147218328569,7.856787092833177,-2.9984718286558154,-169.90081900028378,4.496737506739466,-3.195921808091436,4.634579382125427,0.361403292840479,-64.27823992901727,-36.260411885615575,89.34103954082687,21.955515444278717,-24.64570254087448,-19.59793120622635,8.646900906242683,-1.6107250921500258,0
STABILIZE,3.4340476989746094,23.9711498345459,-56.8005487427677,-45.43259497541003,79.80572564642169,8.066904062666971,-10.0,40.0,14.276437889027392,7.748649830346243,-3.2427285714421683,-169.70695091088214,4.521736879243857,-3.3991021748229375,4.572265722783521,0.35994038920241583,-64.27823992901727,-36.260411885615575,89.34103954082687,25.163748860359192,-27.27169692516327,-22.91419804096222,8.646900906242683,-3.791356046004038,0
STABILIZE,3.4586021900177,40.732866535238074,-56.519108674758826,-46.03078267056395,79.55547933110334,8.03566873168935,-10.0,40.0,13.576208008504494,7.045011426014346,-3.4629172216972774,-169.54447437090587,4.452012596044013,-2.920814399413092,4.566631051236234,0.35891099503689544,-64.27823992901727,-36.260411885615575,89.34103954082687,24.100512266159058,-36.36565804481506,-22.254738211631775,8.646900906242683,-1.0116022424976636,0
STABILIZE,3.492563486099243,29.44941863730832,-56.37353904478475,-46.33838994673019,79.64957407464905,8.024679978808324,-10.0,40.0,12.891862762444163,6.0436156205707965,-3.391554551475338,-169.34850258323988,4.519230685681919,-3.4024335422739607,4.750138635780655,0.35717261727539285,-64.27823992901727,-36.260411885615575,89.34103954082687,27.044498920440674,-40.36389887332916,-16.40286147594452,8.646900906242683,-1.7480025029571733,0
STABILIZE,3.526245594024658,29.69418761061947,-56.115877348439724,-46.815076975140286,79.61723819991704,7.998800958155515,-10.0,40.0,12.22378745381306,4.481031409238313,-3.2693987526037755,-169.1769145709108,4.482669716529587,-3.1552298720835905,4.645336426146114,0.35571986991323057,-64.27823992901727,-36.260411885615575,89.34103954082687,27.044498920440674,-40.36389887332916,-16.40286147594452,8.646900906242683,-1.7480025029571733,0
STABILIZE,3.5604236125946045,29.26265409919558,-55.89341950332141,-47.343956381103894,79.80254894621193,8.002384819948972,-10.0,40.0,11.57234677985224,2.6825775005334296,-3.1472252379290535,-169.0461301086834,4.491228624657281,-3.2144270781882613,4.822509229821338,0.35386075272956075,-64.27823992901727,-36.260411885615575,89.34103954082687,25.349214673042297,-45.10345757007599,-3.472115844488144,8.646900906242683,-0.11012313998811558,0
STABILIZE,3.5931644439697266,30.552468641191126,-55.61821935211174,-47.83178928457712,79.82389561596284,8.055997099557297,-10.0,40.0,10.937884109069529,1.5789301346767932,-2.7879893040981174,-168.91690292958677,4.473276957125498,-3.0621531720514774,5.158774970184281,0.35236741692097107,-64.27823992901727,-36.260411885615575,89.34103954082687,28.73285412788391,-42.32763051986694,-13.638085126876831,8.646900906242683,2.940659399973535,0
STABILIZE,3.628613233566284,28.212364379931255,-55.426829302100444,-48.290552261568045,79.9229654951136,8.040007149627497,-10.0,40.0,10.320720758231346,0.42844554699958787,-2.503236156279347,-168.84704375475587,4.499069486284164,-3.2520508135645643,4.733755935237472,0.35073763957788107,-64.27823992901727,-36.260411885615575,89.34103954082687,24.62358921766281,-42.460593581199646,-9.738066792488098,8.646900906242683,-1.5272439587931912,0
STABILIZE,3.6608171463012695,31.05626596571767,-55.24001493859025,-48.77708807392454,79.94997266683335,8.081432554013215,-10.0,40.0,9.721155269354824,-0.0405954160949559,-2.179380388905665,-168.77286790036953,4.495364999971937,-3.206156381068548,5.105951906698261,0.3493034382658524,-64.27823992901727,-36.260411885615575,89.34103954082687,21.679313480854034,-40.821659564971924,-12.742872536182404,8.646900906242683,2.0984526790813574,0
STABILIZE,3.699904441833496,25.587193909298325,-55.14522330878349,-49.04260407471589,80.0243795408811,8.100992976911906,-10.0,40.0,9.1394626867,-0.21526531116314648,-1.9028170647885632,-168.74109386035065,4.523758421537374,-3.396411303651207,4.960924572374551,0.34777012012986824,-64.27823992901727,-36.260411885615575,89.34103954082687,20.28503566980362,-33.98650586605072,-12.757019698619843,8.646900906242683,0.442737984642104,0
STABILIZE,3.733172655105591,30.065186693140845,-55.02087763738674,-49.41184039953603,80.01405068542348,8.148567296373708,-10.0,40.0,8.575893833761825,0.1752310778178291,-1.8111832468836722,-168.7669939376833,4.5172209457868835,-3.327311977028561,5.1751163413299155,0.3464734914718287,-64.27823992901727,-36.260411885615575,89.34103954082687,16.32382571697235,-31.291809678077698,-13.772429525852203,8.646900906242683,2.4283217876890006,0
STABILIZE,3.766436815261841,30.06647981018057,-54.95717459325908,-49.58933183787025,80.12367299541371,8.132177928969211,-10.0,40.0,8.030674590262265,0.9712659200239185,-1.73163971758335,-168.75767755965543,4.52560635043682,-3.3939486090519884,4.7807066981971715,0.3449720748266865,-64.27823992901727,-36.260411885615575,89.34103954082687,17.79121309518814,-27.8560608625412,-10.15140786767006,8.646900906242683,-1.7828535431971633,0
STABILIZE,3.808713674545288,23.65546957836082,-54.86911338279614,-49.71858710045605,80.14820221053509,8.158338823852135,-10.0,40.0,7.504005169142431,1.8955429133224997,-1.7347158640307945,-168.76581914514608,4.527155534364659,-3.3918818917632496,5.0184672583174565,0.34362339520382573,-64.27823992901727,-36.260411885615575,89.34103954082687,19.75143700838089,-25.88282823562622,-15.589150786399841,8.646900906242683,0.7710224893623044,0
STABILIZE,3.8333654403686523,40.57367835550181,-54.742394579604756,-50.06273283319039,80.16560813645327,8.155081698227209,-10.0,40.0,6.9960593935545035,2.868173163633128,-1.772089378508635,-168.801732279802,4.500565288833057,-3.207930993937255,4.866528514132377,0.3424289102769328,-64.27823992901727,-36.260411885615575,89.34103954082687,15.43874442577362,-28.661325573921204,-11.206663399934769,8.646900906242683,-0.7293788259927366,0
STABILIZE,3.8670248985290527,29.714172363713647,-54.818506906606494,-50.031604144617596,80.32347694643289,8.171211971037998,-10.0,40.0,6.506983973854119,3.553579658636146,-1.7332362743018404,-168.86025334061068,4.527917504056575,-3.39086465027109,4.9983868047809965,0.34093586900593165,-64.27823992901727,-36.260411885615575,89.34103954082687,17.00875759124756,-28.800979256629944,-12.44988664984703,8.646900906242683,-0.17895949399079658,0
STABILIZE,3.9006431102752686,29.749368740602037,-54.78766127005943,-50.23104797871445,80.38106404054312,8.205438396631598,-10.0,40.0,6.03689778459227,4.046767128035256,-1.6879780534791606,-168.8795144740701,4.529942275910214,-3.3881592313410227,5.1268063343384975,0.33968050326919763,-64.27823992901727,-36.260411885615575,89.34103954082687,16.476070880889893,-31.65828287601471,-13.335254788398743,8.646900906242683,1.239973032491625,0
STABILIZE,3.934370994567871,29.655346979177715,-54.732932442278006,-50.4257451336281,80.38199260894328,8.249579256799803,-10.0,40.0,5.585891141507261,4.360089676491721,-1.6655257275734479,-168.93112338343872,4.532551180547284,-3.3846683435337384,5.212240463442288,0.3385753892079731,-64.27823992901727,-36.260411885615575,89.34103954082687,18.519258499145508,-31.72737956047058,-16.80397540330887,8.646900906242683,1.8193301684596164,0
STABILIZE,3.9689431190490723,28.932220459405393,-54.681639635229374,-50.62866173333776,80.4959171942965,8.258668182259365,-10.0,40.0,5.154025078517009,4.472625580804143,-1.7414584346803605,-169.0463350143585,4.533088039124221,-3.3839492947662384,5.008091908316079,0.3372766567952531,-64.27823992901727,-36.260411885615575,89.34103954082687,18.624508380889893,-33.44981670379639,-10.009438544511795,8.646900906242683,-0.3186274710074486,0
STABILIZE,4.001787424087524,30.449773131511126,-54.67120698152154,-50.87313361226882,80.58609991181162,8.286457279578404,-10.0,40.0,4.741330624711225,4.494103110649249,-1.774736930585661,-169.12272385003592,4.5347287593457,-3.3817502981685394,5.139852637668328,0.33607014718341155,-64.27823992901727,-36.260411885615575,89.34103954082687,16.054069995880127,-36.26711368560791,-11.142411082983017,8.646900906242683,0.8337498794826437,0
STABILIZE,4.03642201423645,28.876447504302927,-54.67529790804183,-51.089944950835644,80.68657949207952,8.314377214741324,-10.0,40.0,4.347808081343089,4.481143680472796,-1.7441111093992643,-169.1790592503102,4.536376130200824,-3.379540147023585,5.1504211929737505,0.3348713700110849,-64.27823992901727,-36.260411885615575,89.34103954082687,16.054069995880127,-36.26711368560791,-11.142411082983017,8.646900906242683,0.8337498794826437,0
STABILIZE,4.068444728851318,31.232949341355713,-54.63170326741568,-51.33746847820459,80.84088319086607,8.451547311389826,-10.0,40.0,3.973426298821664,3.833824454715885,-1.767267691841429,-169.31194741080196,4.544453977276311,-3.3686700711731206,5.922857199493185,0.33361597468146875,-64.27823992901727,-36.260411885615575,89.34103954082687,18.42186748981476,-37.26803660392761,-7.18822255730629,8.646900906242683,7.455551045135364,0
STABILIZE,4.102508306503296,29.360362882903065,-54.64600451121943,-51.593920073433054,81.04045117188556,8.518928616655414,-10.0,40.0,3.618121953704133,3.1443234747488558,-1.7932012797897325,-169.4248640981606,4.548412476137792,-3.3633233485518574,5.507732620657237,0.3322956491734657,-64.27823992901727,-36.260411885615575,89.34103954082687,16.272829473018646,-40.880557894706726,-5.219801887869835,8.646900906242683,3.2619685740038595,0
STABILIZE,4.13543963432312,30.37127899146277,-54.607700890050936,-51.874084133936286,81.23748597365095,8.6038379431391,-10.0,40.0,3.281798825687247,2.7642977257448704,-1.8463333213432618,-169.4979334619014,4.553391747774162,-3.356579150161986,5.677914391263078,0.3310235332937156,-64.27823992901727,-36.260411885615575,89.34103954082687,18.367913365364075,-40.1238888502121,-4.433402791619301,8.646900906242683,4.31602556483503,0
STABILIZE,4.168735980987549,30.037626669531278,-54.5657252293221,-52.136589360395654,81.46955230425542,8.660927589034502,-10.0,40.0,2.9643270746001917,1.6892780305772845,-1.8107420593519716,-169.6533885674109,4.556733990028066,-3.352040474714305,5.5391437630031755,0.32971514001006935,-64.27823992901727,-36.260411885615575,89.34103954082687,19.63091939687729,-41.15965664386749,-2.61890459805727,8.646900906242683,2.708718128590949,0
STABILIZE,4.204764366149902,27.759383169529105,-54.56880132555629,-52.41568127068344,81.69044471092279,8.759269693025015,-10.0,40.0,2.6655425173962612,1.185598536839388,-1.6845019140784474,-169.76196125445742,4.5624806956296675,-3.3442143923508594,5.802576841523946,0.3284484731264741,-64.27823992901727,-36.260411885615575,89.34103954082687,16.350270807743073,-41.798293590545654,-2.9771164059638977,8.646900906242683,5.260316293062218,0
STABILIZE,4.237588405609131,30.471009596873206,-54.56944241604126,-52.70003548897926,81.93533794400705,8.768698396777221,-10.0,40.0,2.3852459051449273,0.8705790065392929,-1.504630162946631,-169.88603847091989,4.563030964206683,-3.343463536467989,5.319411256702121,0.3271918653815706,-64.27823992901727,-36.260411885615575,89.34103954082687,15.456423163414001,-40.1473730802536,-0.7953434251248837,8.646900906242683,-0.20992244904575688,0
STABILIZE,4.27058482170105,30.31464523449866,-54.60282373433225,-52.865997636508666,82.26328216596417,8.789600614995642,-10.0,40.0,2.1232022000239112,0.5408848681682783,-1.230815563083636,-170.0085037627382,4.564250397924848,-3.341798663151757,5.399148686167817,0.3257981400518918,-64.27823992901727,-36.260411885615575,89.34103954082687,16.23034030199051,-38.271066546440125,3.4502506256103516,8.646900906242683,0.779545711672834,0
STABILIZE,4.303538084030151,30.350620500018092,-54.64624739696818,-53.04574922811543,82.60999347216323,8.91902005812212,-10.0,40.0,1.8791398523113685,0.29008912638613704,-1.033637713420594,-170.1400122250176,4.571787187194204,-3.3314804389350554,6.133912504068621,0.32440295673939035,-64.27823992901727,-36.260411885615575,89.34103954082687,14.531540870666504,-37.83332705497742,5.223873630166054,8.646900906242683,7.385325601410231,0
STABILIZE,4.336632013320923,30.22094129175433,-54.72740500499267,-53.1941438175952,83.06566288078567,8.961005149132783,-10.0,40.0,1.6527500773781867,0.12223237169546061,-0.897771270285583,-170.2324246844879,4.574227195356446,-3.3281294393790484,5.6301934745008175,0.3228231753973152,-64.27823992901727,-36.260411885615575,89.34103954082687,12.333432585000992,-36.77564263343811,12.204375118017197,8.646900906242683,2.169632641742999,0
STABILIZE,4.370924234390259,29.16457949448945,-54.787672170614975,-53.310017854265524,83.34266178177592,9.040093761374859,-10.0,40.0,1.4436861326794883,-0.0163622784457209,-1.1058441254484417,-170.40037903617852,4.57881684178566,-3.321812205616084,5.885514663153575,0.32162646517171095,-64.27823992901727,-36.260411885615575,89.34103954082687,13.480602204799652,-34.43623483181,1.4473565854132175,8.646900906242683,4.494042492720364,0
STABILIZE,4.404910087585449,29.42854937730223,-54.826997733868154,-53.39330927576855,83.70781325699089,9.12718676637451,-10.0,40.0,1.2515625947475542,-0.05147788179434317,-1.2679642149273949,-170.50835066657808,4.583860902817991,-3.3148482957168093,5.989395012858667,0.3202879712358808,-64.27823992901727,-36.260411885615575,89.34103954082687,14.65340405702591,-32.222822308540344,7.348977774381638,8.646900906242683,4.976006253765852,0
