Mode,Time,Freq,North-Vision,East-Vision,Down-Vision,Yaw-Vision,North-Desired,East-Desired,Down-Desired,Roll-UAV,Pitch-UAV,Yaw-UAV,Roll-Control,Pitch-Control,Yaw-Control,Thrust-Control
GUIDED_NOGPS,0.0017113685607910156,591.9977417078335,315.49389193778114,0.3678644429177577,-4.1328510802101714,-3.906224268870389,300,0,30,-1.2586292673226915,0.4979878117251603,93.41037742876806,0.07357309758627702,-3.098787190433771,3.906224268870389,0.5034136729606141
GUIDED_NOGPS,0.0027167797088623047,1000.3109945146673,315.820080128598,0.5634255770397554,-4.337036659838626,-1.2656810169716195,300,0,30,-1.2586292673226915,0.4979878117251603,93.41037742876806,0.11268612596450246,-3.164047334933866,1.2656810169716195,0.5034350685059281
GUIDED_NOGPS,0.00365447998046875,1071.8895987733197,315.92880952553696,0.628612621747088,-4.405098519714777,-0.385499933005363,300,0,30,-1.2586292673226915,0.4979878117251603,93.41037742876806,0.12572414683713434,-3.1858087204292933,0.385499933005363,0.5034425445337644
GUIDED_NOGPS,0.004523038864135742,1156.73028130171,315.44373825176785,0.7882423046543248,-4.536715349193233,1.4377858432906596,300,0,30,-1.2586292673226915,0.4979878117251603,93.41037742876806,0.15765081691565655,-3.088808836810801,-1.4377858432906596,0.5034563489779427
GUIDED_NOGPS,0.00685429573059082,430.75937146965185,315.16682006716786,0.9126384876146454,-4.692664361174322,2.393708938869267,300,0,30,-1.2586292673226915,0.4979878117251603,93.41037742876806,0.18253085075737607,-3.033438449104194,-2.393708938869267,0.5034725500055552
GUIDED_NOGPS,0.009576797485351562,368.5032507467932,314.46210336116707,1.0417130201294065,-4.903187880659515,0.6682463512008118,300,0,30,-1.2586292673226915,0.4979878117251603,93.41037742876806,0.20834952518659888,-2.892547418029885,-0.6682463512008118,0.503496127287806
GUIDED_NOGPS,0.010554790496826172,1026.506118453255,314.4599167228134,1.1415319591515962,-5.118218290418554,-1.1201398448311533,300,0,30,-1.2586292673226915,0.4979878117251603,93.41037742876806,0.22831500257538798,-2.8921314925186024,1.1201398448311533,0.5035186699000631
GUIDED_NOGPS,0.011450767517089844,1123.8756698821007,314.19241941927453,1.2403142450310363,-5.1896953758756466,0.3370937411973027,300,0,30,-1.2586292673226915,0.4979878117251603,93.41037742876806,0.24807260179858928,-2.838645099801088,-0.3370937411973027,0.5035264656427215
GUIDED_NOGPS,0.01262211799621582,860.7231684793761,314.4096669365319,1.3683508684940915,-5.403246573891162,1.7342279031502603,300,0,30,-1.2586292673226915,0.4979878117251603,93.41037742876806,0.27368115804821874,-2.882107572387055,-1.7342279031502603,0.5035484580422996
GUIDED_NOGPS,0.01402425765991211,716.4851383669286,314.5805578419948,1.5780872174081129,-5.651923283959597,5.852557232769082,300,0,30,-1.2586292673226915,0.4979878117251603,93.41037742876806,0.31563094491216076,-2.916309009765293,-5.852557232769082,0.5035744630241298
GUIDED_NOGPS,0.015456199645996094,701.2713593044641,315.00741815573366,1.6931698952525693,-6.0271233538919065,2.1817167890716482,300,0,30,-1.2586292673226915,0.4979878117251603,93.41037742876806,0.3386497786492854,-3.001701442336418,-2.1817167890716482,0.5036129610356418
GUIDED_NOGPS,0.01671886444091797,796.4876566654007,315.5748804254061,1.8384940766702582,-6.191262766353062,1.4377598049410523,300,0,30,-1.2586292673226915,0.4979878117251603,93.41037742876806,0.3677165698897319,-3.1152104577711435,-1.4377598049410523,0.5036301446542024
GUIDED_NOGPS,0.018351078033447266,617.6268590781917,315.58607306686645,1.9541240167775273,-6.423074341256495,1.4171079696957964,300,0,30,-1.2586292673226915,0.4979878117251603,93.41037742876806,0.39084587558132206,-3.1174754477661115,-1.4171079696957964,0.5036545625780902
GUIDED_NOGPS,0.020443201065063477,479.9523972994622,315.55697882767464,2.0667527528974237,-6.614668457374659,0.9250500903926783,300,0,30,-1.2586292673226915,0.4979878117251603,93.41037742876806,0.4133744502177388,-3.1116778825874034,-0.9250500903926783,0.503674723800575
GUIDED_NOGPS,0.02179884910583496,741.3050547896784,315.4158649178887,2.1922387907184446,-6.821271673693936,2.1892797180725743,300,0,30,-1.2586292673226915,0.4979878117251603,93.41037742876806,0.43847613288640036,-3.083486569649971,-2.1892797180725743,0.5036968874168087
GUIDED_NOGPS,0.024947404861450195,318.4741078208049,315.9112432286582,2.265648962927185,-7.0386868251312835,-3.3243579816004853,300,0,30,-1.2586292673226915,0.4979878117251603,93.41037742876806,0.4531628295596412,-3.1825949738131003,3.3243579816004853,0.5037201532892999
GUIDED_NOGPS,0.0378880500793457,77.37854441472189,315.80086329416775,2.4031477633494407,-7.213363186861119,-0.6542163825633859,300,0,30,-1.2586292673226915,0.4979878117251603,93.41037742876806,0.4806682951307303,-3.160556500885553,0.6542163825633859,0.5037393879441278
GUIDED_NOGPS,0.04068112373352051,358.57946482003933,315.21910451165445,2.466887796650751,-7.4390518633047735,-2.591547474198682,300,0,30,-1.311393972764921,0.46665293152555165,93.37970304920553,0.4934484342928316,-3.0444029811670608,2.591547474198682,0.50377171007582
GUIDED_NOGPS,0.04555511474609375,205.51246998873046,315.19012846323386,2.626401901762549,-7.602777272849611,2.5666918500646765,300,0,30,-1.385248701538563,0.5058073111077671,93.37075550139282,0.5253644176820522,-3.038683897700856,-2.5666918500646765,0.5037918515871604
GUIDED_NOGPS,0.04784870147705078,437.31665102700447,316.2634799312125,2.716731607711202,-7.7666901907308725,1.7715112687346608,300,0,30,-1.385248701538563,0.5058073111077671,93.37075550139282,0.5434377065994054,-3.253398177835549,-1.7715112687346608,0.5038102857701339
GUIDED_NOGPS,0.04966592788696289,551.8821052631579,316.83185180281896,2.8122613330641966,-7.930625469460981,2.257089947289259,300,0,30,-1.4710293674898707,0.6047516725803932,93.3670467086735,0.5625496599788454,-3.3671085128845366,-2.257089947289259,0.5038283000500308
GUIDED_NOGPS,0.052733421325683594,326.7609847304456,316.320927970975,2.8546343946262263,-8.024429932709657,0.8785317453411068,300,0,30,-1.5317474013337566,0.6622236590212308,93.35477968892415,0.5710296939339333,-3.264954743914171,-0.8785317453411068,0.5038391248485478
GUIDED_NOGPS,0.058888912200927734,162.65187885368596,316.32538085041716,2.971969388227368,-8.141876578992282,0.8876449402264844,300,0,30,-1.662140194900943,0.7575891080904761,93.36473810473404,0.5945205878519536,-3.26597657896227,-0.8876449402264844,0.503857002871673
GUIDED_NOGPS,0.06234455108642578,290.2833414077099,317.22066358951946,3.0808316371327003,-8.207691486919751,2.281785706672352,300,0,30,-1.662140194900943,0.7575891080904761,93.36473810473404,0.6162965993568742,-3.445053035448803,-2.281785706672352,0.5038644677943583
GUIDED_NOGPS,0.06411862373352051,567.4112554112554,317.84701008151166,3.1657030165946196,-8.322655206022224,1.5947550063587623,300,0,30,-1.662140194900943,0.7575891080904761,93.36473810473404,0.633283460157767,-3.5703932826974203,-1.5947550063587623,0.5038790111173379
GUIDED_NOGPS,0.07932400703430176,65.95336111329507,316.5819390512407,3.205894650063392,-8.307863454621684,1.1006753211162277,300,0,30,-1.7495126150939808,0.8545541020859736,93.35031274520698,0.6413666034472932,-3.31761088278182,-1.1006753211162277,0.5038882423879156
GUIDED_NOGPS,0.08137893676757812,484.55452865064694,315.7274241795751,3.270529890675375,-8.258339994735229,-0.7862726916217184,300,0,30,-1.7495126150939808,0.8545541020859736,93.35031274520698,0.6543033400266762,-3.146754498597019,0.7862726916217184,0.5038855567344436
GUIDED_NOGPS,0.08319592475891113,553.0464135021097,316.4923447976889,3.369360005606135,-8.227677197500135,-0.5963888818768576,300,0,30,-1.7495126150939808,0.8545541020859736,93.35031274520698,0.6740751115566151,-3.2997667601943608,0.5963888818768576,0.5038837948773752
GUIDED_NOGPS,0.08909916877746582,169.9061816414162,317.7607532101547,3.446554644172499,-8.242470490073602,-0.09553032905476755,300,0,30,-1.756132135616781,0.9075372668599376,93.3501693112344,0.6895338189560624,-3.553550371181625,0.09553032905476755,0.5038896636572169
GUIDED_NOGPS,0.09052300453186035,704.6881720430108,317.6737992878191,3.5202766846381515,-8.28437443209519,2.2021760888077373,300,0,30,-1.756132135616781,0.9075372668599376,93.3501693112344,0.7042851613405481,-3.536194400817094,-2.2021760888077373,0.5038953623135839
GUIDED_NOGPS,0.09169459342956543,859.4885245901639,316.37456333850906,3.5507629021071643,-8.24568117059796,0.8033087146277845,300,0,30,-1.756132135616781,0.9075372668599376,93.3501693112344,0.710387000004618,-3.276368401867758,-0.8033087146277845,0.5038924828897273
GUIDED_NOGPS,0.09296512603759766,792.275028333963,315.4030305845361,3.6099065590560464,-8.115617189203192,-1.4015704551057553,300,0,30,-1.756132135616781,0.9075372668599376,93.3501693112344,0.7222196121499797,-3.082078409783482,1.4015704551057553,0.5038802959997489
GUIDED_NOGPS,0.09450936317443848,650.1788869942644,316.3500369880881,3.706375634731615,-8.005793618319395,-1.8007915043712046,300,0,30,-1.756132135616781,0.9075372668599376,93.3501693112344,0.7415180647790212,-3.2715001479986574,1.8007915043712046,0.5038702647153769
GUIDED_NOGPS,0.09765338897705078,318.81301307388264,317.65147316475424,3.7933295019806716,-7.927042249895031,-0.39716564191169823,300,0,30,-1.7601621606705,0.8843136631865423,93.37309142608896,0.7589225380835154,-3.5318511327681423,0.39716564191169823,0.5038651290978253
GUIDED_NOGPS,0.09876179695129395,906.8765405405405,317.2986384356273,3.8538109051897926,-7.845615760048076,3.973864958511271,300,0,30,-1.7601621606705,0.8843136631865423,93.37309142608896,0.7710234275270623,-3.461304874515807,-3.973864958511271,0.5038578916460255
GUIDED_NOGPS,0.09995818138122559,864.4484748557296,316.552527620195,3.8748428574106373,-7.685296915876621,3.926883835709693,300,0,30,-1.7601621606705,0.8843136631865423,93.37309142608896,0.7752335391767112,-3.3120986076498524,-3.926883835709693,0.5038425835831337
GUIDED_NOGPS,0.10121917724609375,797.8512459577706,315.67781630843507,3.880027165772838,-7.504555494894987,2.4600238328534565,300,0,30,-1.7601621606705,0.8843136631865423,93.37309142608896,0.7762754350831592,-3.1371766868554514,-2.4600238328534565,0.503825482664679
GUIDED_NOGPS,0.10369086265563965,405.44262928951184,315.75449454298723,3.915096507085206,-7.3537857564991995,-0.2517088496103715,300,0,30,-1.7601621606705,0.8843136631865423,93.37309142608896,0.7832942682690912,-3.152532312803282,0.2517088496103715,0.5038113530937288
GUIDED_NOGPS,0.10592365264892578,449.6466552315609,315.54588419845396,4.015254635993649,-7.175288073910966,1.7874743882270252,300,0,30,-1.7863102592474245,0.8302906021114438,93.3903922952566,0.8033366973088574,-3.1108520709323364,-1.7874743882270252,0.5037955037676216
GUIDED_NOGPS,0.12642431259155273,48.79480676609507,315.5753030182606,4.070373006425524,-6.961511856713496,1.2640435492423687,300,0,30,-1.7863102592474245,0.8302906021114438,93.3903922952566,0.8144466620949492,-3.1170660266951637,-1.2640435492423687,0.5037897976075377
GUIDED_NOGPS,0.13148117065429688,198.03135033050046,316.8239443163451,4.1507019936369876,-6.736531181193572,1.8143094517088845,300,0,30,-1.8244833327449794,0.7847190463605898,93.45234211102863,0.8305205693458866,-3.3668271576117226,-1.8143094517088845,0.5037687350862553
GUIDED_NOGPS,0.1325843334197998,911.4089526292917,316.9076392205077,4.106673158035253,-6.544980573493073,-3.755734712732045,300,0,30,-1.8244833327449794,0.7847190463605898,93.45234211102863,0.821732924520319,-3.3836407499875003,3.755734712732045,0.5037528054046921
GUIDED_NOGPS,0.1356644630432129,325.4930932795282,316.9945129253593,4.184172774084566,-6.313352651843396,-1.7858188344704615,300,0,30,-1.8176960457006908,0.771023663301068,93.48395222650744,0.8372387644040141,-3.4010395222288388,1.7858188344704615,0.5037306695981466
GUIDED_NOGPS,0.13707661628723145,712.9532551419344,315.93063033198314,4.2051425567868135,-6.154309342038712,-1.012369214409522,300,0,30,-1.8176960457006908,0.771023663301068,93.48395222650744,0.8414441123051593,-3.188306158227622,1.012369214409522,0.5037167240439393
GUIDED_NOGPS,0.13913750648498535,487.7097674418605,315.5639156470955,4.2812364064673565,-5.976310350050582,1.9761848582808124,300,0,30,-1.8176960457006908,0.771023663301068,93.48395222650744,0.8566720299903758,-3.114996476782363,-1.9761848582808124,0.5037004615616438
GUIDED_NOGPS,0.14037489891052246,811.9055361982191,315.34158366916273,4.341589820801237,-5.800549896267099,2.785158520599462,300,0,30,-1.8176960457006908,0.771023663301068,93.48395222650744,0.868748861444268,-3.0705518080441747,-2.785158520599462,0.5036838995355944
GUIDED_NOGPS,0.14980816841125488,106.16609714734098,315.55108172003287,4.378948639744128,-5.568987970141483,-0.08062380099321824,300,0,30,-1.8176960457006908,0.771023663301068,93.49298856677937,0.8762252606936904,-3.112467880258826,0.08062380099321824,0.5036614963942943
GUIDED_NOGPS,0.15232634544372559,411.4483029232882,316.02371307098724,4.480129650034056,-5.301914672172846,0.504087529917669,300,0,30,-1.7821222860691488,0.7498702472764212,93.49298856677937,0.8965042067559744,-3.2071470294317588,-0.504087529917669,0.503641525232021
GUIDED_NOGPS,0.15636205673217773,245.9713816561107,316.11203106857016,4.515215636070953,-5.105870955446515,-2.546105286407131,300,0,30,-1.7280417019946341,0.610515391744532,93.52000196494677,0.9035459193551042,-3.2248981093225657,2.546105286407131,0.5036257330113
GUIDED_NOGPS,0.15763401985168457,790.483226535997,316.09517477997673,4.576754006166577,-4.971249839712386,-2.017557277169724,300,0,30,-1.7280417019946341,0.610515391744532,93.52000196494677,0.9158590045516536,-3.2215458812144497,2.017557277169724,0.5036130978423038
GUIDED_NOGPS,0.1587052345275879,939.3737961926092,315.63464920643315,4.591541032870693,-4.890592121644027,-2.636135791757056,300,0,30,-1.7280417019946341,0.610515391744532,93.52000196494677,0.9188220213692164,-3.129459874136424,2.636135791757056,0.5036058848898215
GUIDED_NOGPS,0.15980267524719238,916.5874125874126,315.300160216592,4.620439908079175,-4.729489994929998,-2.164577522463574,300,0,30,-1.7280417019946341,0.610515391744532,93.52000196494677,0.9246063206768463,-3.062577057857176,2.164577522463574,0.5035904548091358
GUIDED_NOGPS,0.16136455535888672,643.6930632289748,314.82484591910776,4.673719897221958,-4.59315932722764,1.4486515721764353,300,0,30,-1.7280417019946341,0.610515391744532,93.52000196494677,0.9352681563317842,-2.96753271570379,-1.4486515721764353,0.503577685931331
GUIDED_NOGPS,0.16277360916137695,721.042461750043,314.6893729938868,4.717832236867314,-4.438988688221353,-0.026578629603671782,300,0,30,-1.7280417019946341,0.610515391744532,93.52000196494677,0.9440979029636878,-2.9404607935215803,0.026578629603671782,0.5035633315214287
GUIDED_NOGPS,0.16579723358154297,333.5165394402036,315.0275278294482,4.8051953087623795,-4.367730116135763,-0.5175940935583961,300,0,30,-1.7280417019946341,0.610515391744532,93.52000196494677,0.9615798074010178,-3.0081208138982793,0.5175940935583961,0.5035575345517949
GUIDED_NOGPS,0.16824746131896973,406.77955581417905,314.95606942221906,4.908092349533601,-4.258971782254952,-2.0660405076052704,300,0,30,-1.6903488761730956,0.45743772567473506,93.56819577973037,0.9821737456853395,-2.993873409050905,2.0660405076052704,0.5035486871534112
GUIDED_NOGPS,0.1703641414642334,473.61156278229447,314.82616791368156,4.982144323115237,-4.21610800694519,0.04182109463219774,300,0,30,-1.6903488761730956,0.45743772567473506,93.56819577973037,0.9969954177144706,-2.9679266670563327,-0.04182109463219774,0.5035459497705616
GUIDED_NOGPS,0.17227554321289062,525.3386773547094,314.28415860648215,5.002521182303643,-4.177059557559171,0.21781654993183963,300,0,30,-1.6903488761730956,0.45743772567473506,93.56819577973037,1.001083343849114,-2.859560653054665,-0.21781654993183963,0.5035437603364702
GUIDED_NOGPS,0.17417025566101074,530.5887413029728,314.27264409118357,4.978774378191228,-4.147812287518383,-2.3881634577265864,300,0,30,-1.6903488761730956,0.45743772567473506,93.56819577973037,0.9963432216991225,-2.8572842344817575,2.3881634577265864,0.5035421029111354
GUIDED_NOGPS,0.1754002571105957,822.7351902706944,314.3967746668072,5.056811136343332,-4.147940254705097,-0.2269854098209123,300,0,30,-1.6903488761730956,0.45743772567473506,93.56819577973037,1.0119570234913768,-2.882128713259774,0.2269854098209123,0.5035429868487173
GUIDED_NOGPS,0.1769707202911377,640.9388753056235,314.4606718743231,5.152354838418451,-4.164295543614682,4.048724735097963,300,0,30,-1.6903488761730956,0.45743772567473506,93.56819577973037,1.0310718924794104,-2.8949253553025454,-4.048724735097963,0.5035454351258996
GUIDED_NOGPS,0.1801609992980957,316.3840989665837,314.481211174341,5.291823982365968,-4.193741205677889,6.641140234945245,300,0,30,-1.6756609812498064,0.33668846552451925,93.6243809158429,1.0589797220115238,-2.8990715286950457,-6.641140234945245,0.5035501890409092
GUIDED_NOGPS,0.19537901878356934,65.68481716388693,314.64436027353685,5.327565830052041,-4.2747423095092145,3.811192162007439,300,0,30,-1.6756609812498064,0.33668846552451925,93.6243809158429,1.0662120054255095,-2.931932010168923,-3.811192162007439,0.5035690863017895
GUIDED_NOGPS,0.19968485832214355,232.60337178349602,314.5948911433906,5.3478082606541895,-4.374091728057487,-0.4763477349720991,300,0,30,-1.6269862784599451,0.18230228462013603,93.67004073044444,1.0702817205764386,-2.9220961210315983,0.4763477349720991,0.5035817503192062
GUIDED_NOGPS,0.20234036445617676,377.4231980563304,314.5887799207424,5.324125249383937,-4.460350773452138,-3.080592986880044,300,0,30,-1.6269862784599451,0.18230228462013603,93.67004073044444,1.0655557911885174,-2.9209031215117554,3.080592986880044,0.5035917578242654
GUIDED_NOGPS,0.2047595977783203,414.2522469135802,314.53115412349183,5.3152564169114465,-4.552870307204469,-3.9739512587809664,300,0,30,-1.5702710556348038,0.09997550659388649,93.72000356422308,1.0637979883163708,-2.909421604331845,3.9739512587809664,0.5036030852710109
GUIDED_NOGPS,0.2071514129638672,419.8922815096606,315.2099004617362,5.365367725294598,-4.615860517585669,-3.1290035366012794,300,0,30,-1.5702710556348038,0.09997550659388649,93.72000356422308,1.0738346691731555,-3.0452117478919556,3.1290035366012794,0.5036112448628601
GUIDED_NOGPS,0.20879125595092773,612.217778426507,315.2689431283613,5.460790843741868,-4.748207661928073,1.141526342737227,300,0,30,-1.5702710556348038,0.09997550659388649,93.72000356422308,1.0929279365351743,-3.057044449830748,-1.141526342737227,0.5036255796089119
GUIDED_NOGPS,0.21104979515075684,444.12367640830155,315.78079711723694,5.47820885676671,-4.90167409552914,-1.5643659892546726,300,0,30,-1.5702710556348038,0.09997550659388649,93.72000356422308,1.0964256895009068,-3.1594560098291153,1.5643659892546726,0.503642729291523
GUIDED_NOGPS,0.21276307106018066,586.2879507967571,315.68465297859666,5.5291263665744355,-5.230156970717705,-1.884401603144023,300,0,30,-1.5338531273105305,0.0025892820256695212,93.77702881360352,1.1066195133321708,-3.1402564624853184,1.884401603144023,0.503676892944495
GUIDED_NOGPS,0.21416044235229492,718.5718691108447,316.20821251157565,5.534732066318043,-5.4892829119450655,-5.630019374192192,300,0,30,-1.5338531273105305,0.0025892820256695212,93.77702881360352,1.107748865045621,-3.244992416862694,5.630019374192192,0.5037038586325641
GUIDED_NOGPS,0.21670937538146973,394.7951807228916,315.9096026715681,5.628228482666819,-5.670045362918908,-0.605481249261454,300,0,30,-1.5338531273105305,0.0025892820256695212,93.77702881360352,1.1264539116652272,-3.185286740418372,0.605481249261454,0.5037226654057531
GUIDED_NOGPS,0.2196807861328125,337.7056360708535,315.84622754056915,5.64294710185573,-5.8448616061401735,1.2936798235424807,300,0,30,-1.5338531273105305,0.0025892820256695212,93.77702881360352,1.1294200643901702,-3.17267469784097,-1.2936798235424807,0.5037429964643929
GUIDED_NOGPS,0.2218494415283203,463.5102221239916,315.78285240957024,5.6576657210446415,-6.019677849361439,3.1928408963464157,300,0,30,-1.4787998816095236,-0.13480077354193032,93.82617202468175,1.132377812664546,-3.160038794774968,-3.1928408963464157,0.5037622638276152
GUIDED_NOGPS,0.23187470436096191,99.8477396624372,315.3513430087224,5.654174080461391,-6.227374909639461,0.36670320640406356,300,0,30,-1.4787998816095236,-0.13480077354193032,93.82617202468175,1.1317326304712596,-3.073881208234751,-0.36670320640406356,0.5037898438555864
GUIDED_NOGPS,0.2353348731994629,289.7018925265921,315.0515455049412,5.66984514079597,-6.338450962878305,-0.5721813462962189,300,0,30,-1.4787998816095236,-0.13480077354193032,93.82617202468175,1.1348878007899053,-3.0139773446382225,0.5721813462962189,0.5038036379201833
GUIDED_NOGPS,0.23851442337036133,315.17162608957017,314.9017515114688,5.671386366807184,-6.529123013905687,-0.12145543704026807,300,0,30,-1.3629178249340295,-0.2985413520818956,93.85774115902557,1.1352087428109727,-2.9840519072467546,0.12145543704026807,0.5038243407171035
GUIDED_NOGPS,0.2403104305267334,558.8679546968688,315.4926243097854,5.653285102711604,-6.728053917295213,-0.2052839927343039,300,0,30,-1.3629178249340295,-0.2985413520818956,93.85774115902557,1.1316060713237965,-3.1022746479173477,0.2052839927343039,0.5038465182424061
GUIDED_NOGPS,0.25118088722229004,92.07727432384966,315.6431670689417,5.639064472018892,-6.923835389676575,1.1815048465538969,300,0,30,-1.3629178249340295,-0.2985413520818956,93.85774115902557,1.1288222938597792,-3.1325506112762906,-1.1815048465538969,0.5038739994896538
GUIDED_NOGPS,0.2548854351043701,270.72251984767314,315.6443140584918,5.6388802058219065,-7.156205774809119,1.1758010613146677,300,0,30,-1.3629178249340295,-0.2985413520818956,93.85774115902557,1.1288058340334113,-3.132836587965516,-1.1758010613146677,0.5038999240896095
GUIDED_NOGPS,0.27509069442749023,49.50433161013148,315.4872941447463,5.660032493709699,-7.330509472482231,4.0719832669824,300,0,30,-1.3629178249340295,-0.2985413520818956,93.85774115902557,1.1330452466069902,-3.1014571083721107,-4.0719832669824,0.5039185357054708
GUIDED_NOGPS,0.2820732593536377,143.306819734864,315.71643961708725,5.599892615220746,-7.495676692978075,-0.2545337232875558,300,0,30,-1.202412755028667,-0.6394055978298049,93.99155822524445,1.1211627587656547,-3.1476945233685925,0.2545337232875558,0.5039545355355127
GUIDED_NOGPS,0.2846992015838623,381.92533236204696,316.06248240331166,5.596327716442842,-7.692375426136478,-1.2930030116091398,300,0,30,-1.1079999039052268,-0.794225015498808,94.05409543728508,1.12045887872126,-3.216929198446134,1.2930030116091398,0.5039754311759661
GUIDED_NOGPS,0.28606438636779785,735.7137344325557,316.4085251895362,5.592762817664938,-7.889074159294881,-2.3314722999307236,300,0,30,-1.1079999039052268,-0.794225015498808,94.05409543728508,1.119759681179959,-3.286178191128328,2.3314722999307236,0.5039969684459729
GUIDED_NOGPS,0.28990817070007324,260.5643287569112,316.44280355682804,5.593481322461062,-8.01294729519714,-2.256512014740489,300,0,30,-1.1079999039052268,-0.794225015498808,94.05409543728508,1.1199090018868925,-3.293050384603889,2.256512014740489,0.5040101195886032
GUIDED_NOGPS,0.2913177013397217,714.5321976149914,316.5021080220736,5.529591220514049,-8.020337141073501,-3.4716501761586707,300,0,30,-1.1079999039052268,-0.794225015498808,94.05409543728508,1.107153915640764,-3.304979720634525,3.4716501761586707,0.5040140123826663
GUIDED_NOGPS,0.29323673248291016,523.6988388063429,316.38981001862425,5.457600512079774,-8.056867712026222,-5.239951084524374,300,0,30,-1.1079999039052268,-0.794225015498808,94.05409543728508,1.0927628498433974,-3.2825413696649552,5.239951084524374,0.5040186522697415
GUIDED_NOGPS,0.29638099670410156,318.9827363297589,315.96219767078674,5.41509977322898,-8.151599228659753,-2.327642880179217,300,0,30,-1.1079999039052268,-0.794225015498808,94.05409543728508,1.0842769089018103,-3.1970607778495594,2.327642880179217,0.5040301272801061
GUIDED_NOGPS,0.3083317279815674,83.7537490764592,315.39205417040944,5.380726131237911,-8.215097612116905,-1.4104017686028196,300,0,30,-1.0194031723034642,-0.8181610399191473,94.10715234675774,1.0774663891836527,-3.083215752515674,1.4104017686028196,0.5040455976011379
GUIDED_NOGPS,0.3097708225250244,698.3523143523144,315.4220427768468,5.280774811153843,-8.271185281660046,-2.8201996258107775,300,0,30,-1.0194031723034642,-0.8181610399191473,94.10715234675774,1.057489190171239,-3.08925162901028,2.8201996258107775,0.5040531000796098
GUIDED_NOGPS,0.31610894203186035,157.97160182290685,315.85057241496645,5.207096526573583,-8.292915292822393,-5.700401341542654,300,0,30,-1.0194031723034642,-0.8181610399191473,94.10715234675774,1.0427600906920953,-3.1749775176869828,5.700401341542654,0.5040562375467188
GUIDED_NOGPS,0.318251371383667,468.06204664657963,316.41050553597086,5.124982446088811,-8.2291815572014,-6.592778744938879,300,0,30,-1.0194031723034642,-0.8181610399191473,94.10715234675774,1.0263720239542202,-3.287075411449378,6.592778744938879,0.504055048345283
GUIDED_NOGPS,0.3201892375946045,518.8401781296388,315.97155916638485,5.0826926521137485,-8.207346231030202,-3.6996197426149515,300,0,30,-1.0194031723034642,-0.8181610399191473,94.10715234675774,1.017924020164886,-3.1993174195657517,3.6996197426149515,0.5040543614774251
GUIDED_NOGPS,0.32146644592285156,787.2192192192192,315.5326127967989,5.040402858138686,-8.185510904859006,-0.806460740291025,300,0,30,-1.0194031723034642,-0.8181610399191473,94.10715234675774,1.0094743484702149,-3.11155368335347,0.806460740291025,0.5040534335871419
GUIDED_NOGPS,0.32428789138793945,355.2688463493139,314.8662741318021,4.970962371702213,-8.167843169831185,2.798639232636816,300,0,30,-0.90012053519495,-0.9722445580659345,94.17625337059076,0.9955924946573499,-2.9783046222319953,-2.798639232636816,0.5040526255815196
GUIDED_NOGPS,0.3268561363220215,390.38570364854803,315.37318056484173,4.863495876353464,-8.070441470953936,-0.8140378531171848,300,0,30,-0.90012053519495,-0.9722445580659345,94.17625337059076,0.9741174607841725,-3.0797436438873294,0.8140378531171848,0.5040457449353768
GUIDED_NOGPS,0.3288748264312744,499.0248661511005,315.3244714291846,4.73915445309994,-7.9305633734038095,-1.704162953325375,300,0,30,-0.8021040655932408,-1.094300678864297,94.24306628105182,0.9492610401094116,-3.0700401799622905,1.704162953325375,0.5040336562293368
GUIDED_NOGPS,0.3316047191619873,367.2448997460818,315.18028441028895,4.644333253052012,-7.80023844096961,-2.485826750715854,300,0,30,-0.8021040655932408,-1.094300678864297,94.24306628105182,0.9303081675937358,-3.0412399315252046,2.485826750715854,0.5040224741372461
GUIDED_NOGPS,0.33431172370910645,370.32526929189476,315.16825719147147,4.620718133445088,-7.634643948192519,1.6128622957215981,300,0,30,-0.7233843211398455,-1.2211989768973754,94.3015190399688,0.9255963068443209,-3.0388711326854247,-1.6128622957215981,0.504007733115279
GUIDED_NOGPS,0.3497767448425293,64.69296973810037,315.1087684390162,4.59381635836412,-7.461350626749591,5.2225877492773,300,0,30,-0.7233843211398455,-1.2211989768973754,94.3015190399688,0.9202278298270531,-3.0270124481737883,-5.2225877492773,0.5039923410215779
GUIDED_NOGPS,0.3531336784362793,299.03778696706115,315.79992843033534,4.5204492576841195,-7.333152125546266,2.3825789380797744,300,0,30,-0.7233843211398455,-1.2211989768973754,94.3015190399688,0.9056217276015059,-3.165479736805142,-2.3825789380797744,0.5039906403750961
GUIDED_NOGPS,0.36273694038391113,104.1700774885754,315.55329948763057,4.466475625428492,-7.197637860706231,3.3805835413827765,300,0,30,-0.09056794820861207,-1.7939577232403117,94.70592771053609,0.8948754110848849,-3.116322522834535,-3.3805835413827765,0.5039851522869736
GUIDED_NOGPS,0.3648655414581299,471.74716004948823,316.13511903823763,4.370380010326692,-7.0145221994930536,1.1890889087790792,300,0,30,-0.034564719243591654,-1.8546234634483647,94.78696790503828,0.8756654710324336,-3.2327203357927674,-1.1890889087790792,0.5039683962065021
GUIDED_NOGPS,0.3690812587738037,237.55686452197554,315.5642769335964,4.307258350082434,-6.80933667802213,4.850141783119478,300,0,30,-0.034564719243591654,-1.8546234634483647,94.78696790503828,0.8630503166607068,-3.1185850783984312,-4.850141783119478,0.5039494462819123
GUIDED_NOGPS,0.3704395294189453,742.2233233056096,315.7507500061874,4.1719928825807635,-6.635039081576306,2.4392647176347473,300,0,30,-0.034564719243591654,-1.8546234634483647,94.78696790503828,0.8360137368479442,-3.1559420379330185,-2.4392647176347473,0.5039349167170024
GUIDED_NOGPS,0.38178324699401855,88.26025840663272,314.86597138389067,4.056202335870297,-6.475482734022013,4.019820524348764,300,0,30,-0.034564719243591654,-1.8546234634483647,94.78696790503828,0.8128613554851378,-2.97900730650339,-4.019820524348764,0.5039199912616724
GUIDED_NOGPS,0.39061951637268066,113.31362960961772,315.307023865377,3.938921360171817,-6.267858709008817,-0.3641883022567356,300,0,30,0.07420740399061011,-1.863850195243406,94.91541644256954,0.7894776128388561,-3.067499360096269,0.3641883022567356,0.5039125710742294
GUIDED_NOGPS,0.39247798919677734,549.2083278774388,315.20858366293083,3.719168947387928,-5.974644593327849,-2.3891799365079387,300,0,30,0.07420740399061011,-1.863850195243406,94.91541644256954,0.7455345414792787,-3.0478416257894803,2.3891799365079387,0.5038846833979342
GUIDED_NOGPS,0.39461302757263184,469.4240626748741,315.5645575989907,3.3869725938052593,-5.587004304135537,-4.4701799669316955,300,0,30,0.14585740906515293,-1.8915303906285288,94.98299433421765,0.6791010315904018,-3.119062886417282,4.4701799669316955,0.5038471299521712
GUIDED_NOGPS,0.3965260982513428,524.8128128128128,315.5573980033959,2.8827004905538325,-5.0086521434924824,-5.695828419460985,300,0,30,0.14585740906515293,-1.8915303906285288,94.98299433421765,0.5782523353731537,-3.1176618609979667,5.695828419460985,0.5037906851315751
GUIDED_NOGPS,0.3981306552886963,626.0155223880597,316.41074150151024,2.4513107189583767,-4.2446310804001435,-2.2310478093838007,300,0,30,0.14585740906515293,-1.8915303906285288,94.98299433421765,0.49197897707464033,-3.288361329509107,2.2310478093838007,0.5037155671466782
GUIDED_NOGPS,0.4137556552886963,64.04201975783671,316.80941386320075,2.127422755738348,-3.2020937850809332,-3.197773454711703,300,0,30,0.21942532325450737,-1.9224734954462137,95.06390475512562,0.427206317624252,-3.368134780509515,3.197773454711703,0.5036128532366928
GUIDED_NOGPS,0.41634345054626465,387.536172964982,316.31529412024406,1.7332468394626845,-1.844850767329856,-1.140132934393056,300,0,30,0.21942532325450737,-1.9224734954462137,95.06390475512562,0.3483978394777031,-3.2695622108280586,1.140132934393056,0.5034869419653322
GUIDED_NOGPS,0.42058587074279785,236.76567880327406,314.6687527031224,1.0523138335656717,-0.7977894257077264,1.67588770339718,300,0,30,0.21942532325450737,-1.9224734954462137,95.06390475512562,0.212214125553873,-2.9402941743686797,-1.67588770339718,0.5033839258420071
GUIDED_NOGPS,0.4225904941558838,499.85746633297583,313.13909766044304,0.11463881259469304,-0.8623804280605549,7.310327140262539,300,0,30,0.21942532325450737,-1.9224734954462137,95.06390475512562,0.024679638754869018,-2.634422466045365,-7.310327140262539,0.5033931707434695
GUIDED_NOGPS,0.42357730865478516,1022.2529856202779,312.98234764825963,-0.915422010159379,-2.19427051078778,8.551203762733076,300,0,30,0.21942532325450737,-1.9224734954462137,95.06390475512562,-0.18133351535783554,-2.6030864973945596,-8.551203762733076,0.5035270557853273
GUIDED_NOGPS,0.42455482482910156,1030.2883812331122,313.25447138755277,-1.8110200128990037,-3.5957908725750047,5.482883996042967,300,0,30,0.21942532325450737,-1.9224734954462137,95.06390475512562,-0.36045489095670413,-2.6575242364745852,-5.482883996042967,0.5036678663922547
GUIDED_NOGPS,0.43040919303894043,171.07737488273443,314.514508484703,-2.53910515908674,-4.305442914040342,2.2275414142828964,300,0,30,0.2676404290184207,-1.98730501071774,95.13447426963019,-0.5060743259340124,-2.9095454080448504,-2.2275414142828964,0.503739481667689
GUIDED_NOGPS,0.4346959590911865,233.5358574610245,314.5708289948055,-3.1278822364051493,-4.246667330700405,1.2885736040733302,300,0,30,0.3403506742192626,-2.0043390756209285,95.276644657204,-0.6238579805326367,-2.9209410583702704,-1.2885736040733302,0.5037397878220845
GUIDED_NOGPS,0.43594884872436523,806.2868127643214,314.55370200984476,-3.7071076942971786,-3.3895840085438373,1.381579663650901,300,0,30,0.3403506742192626,-2.0043390756209285,95.276644657204,-0.7397074170849465,-2.917532719273566,-1.381579663650901,0.5036548621856153
GUIDED_NOGPS,0.4430885314941406,140.16053467000836,314.78233436266834,-4.47903554710974,-1.4567896356807817,-0.4420750542674578,300,0,30,0.3403506742192626,-2.0043390756209285,95.276644657204,-0.8941204525892551,-2.963349833448634,0.4420750542674578,0.5034654405381918
GUIDED_NOGPS,0.44623541831970215,318.69189271331965,315.28982737894097,-5.327273767238017,1.4124617196884965,-0.11015029548465805,300,0,30,0.35799033144190806,-1.9835266354462535,95.35842251213657,-1.0637857284352166,-3.064899041853306,0.11015029548465805,0.5031804077414381
GUIDED_NOGPS,0.4493601322174072,322.6884136020926,315.2199365182302,-6.2509455395023865,4.955740115322153,-0.10504342484969698,300,0,30,0.35799033144190806,-1.9835266354462535,95.35842251213657,-1.2485391458469022,-3.0509672846128897,0.10504342484969698,0.502827607407407
GUIDED_NOGPS,0.4529457092285156,279.34092574092574,315.13502216827965,-7.2434044468901355,8.670607334990954,0.24405042098606108,300,0,30,0.35799033144190806,-1.9835266354462535,95.35842251213657,-1.4470520100789417,-3.0340284668303963,-0.24405042098606108,0.502457362318024
GUIDED_NOGPS,0.4580543041229248,195.73027206122543,315.0138903088039,-8.275508468990646,12.320392516679036,2.0168628904900934,300,0,30,0.3584705791179246,-1.9515882440004508,95.43479768743565,-1.6535145205122508,-3.0098777603170044,-2.0168628904900934,0.5020941657953566
GUIDED_NOGPS,0.4602055549621582,466.44839857651243,314.8408255078126,-9.488979155614272,15.312613978124844,2.255940814535464,300,0,30,0.3584705791179246,-1.9515882440004508,95.43479768743565,-1.8962382946079248,-2.9753111522224884,-2.255940814535464,0.501795861106587
GUIDED_NOGPS,0.4617118835449219,669.2682304132759,314.39494576289405,-10.856783911383355,17.414959143598633,0.4306787218075148,300,0,30,0.3584705791179246,-1.9515882440004508,95.43479768743565,-2.1698227489694046,-2.8861663660032133,-0.4306787218075148,0.5015861714822123
GUIDED_NOGPS,0.46408534049987793,422.5147577314395,313.72176978462466,-12.262879549101422,18.414987721242074,-0.6040925415025621,300,0,30,0.36033772872142394,-1.9496881707507179,95.51092014573544,-2.451058237528805,-2.7515494778024214,0.6040925415025621,0.501486477756684
GUIDED_NOGPS,0.4661216735839844,492.8676850763807,312.8652908543194,-13.475955998533186,17.674275495243553,2.135050672215319,300,0,30,0.36033772872142394,-1.9496881707507179,95.51092014573544,-2.693716162840749,-2.580294395135702,-2.135050672215319,0.5015613289054132
GUIDED_NOGPS,0.46938085556030273,307.8162336709232,311.738478232059,-14.476036713532949,15.16225204769882,7.435919777189032,300,0,30,0.36033772872142394,-1.9496881707507179,95.51092014573544,-2.893764924607243,-2.3549583209260776,-7.435919777189032,0.5018131999263337
GUIDED_NOGPS,0.47076940536499023,722.7820093055316,310.8290944176267,-15.519915878774356,11.16902510114781,11.379202155673221,300,0,30,0.36033772872142394,-1.9496881707507179,95.51092014573544,-3.1025762281206157,-2.173106307723742,-11.379202155673221,0.502213383377507
GUIDED_NOGPS,0.47210025787353516,755.5943073320122,311.66336657583383,-16.92020023828295,6.671576534190701,10.99200752209064,300,0,30,0.36033772872142394,-1.9496881707507179,95.51092014573544,-3.382655021267932,-2.3399758500328636,-10.99200752209064,0.502663732704709
GUIDED_NOGPS,0.473543643951416,695.8035832780358,311.93328662366076,-18.105192728866346,2.378588564225461,11.763173149564395,300,0,30,0.36033772872142394,-1.9496881707507179,95.51092014573544,-3.619675715415469,-2.393974489191102,-11.763173149564395,0.503093708750172
GUIDED_NOGPS,0.47474050521850586,840.5418837675351,313.0726720771501,-19.048770832486408,-1.0405896670674568,10.131033230299815,300,0,30,0.36033772872142394,-1.9496881707507179,95.51092014573544,-3.8084224641348023,-2.6218729422161706,-10.131033230299815,0.5034366410548533
GUIDED_NOGPS,0.4787783622741699,248.11026323572906,312.9477321330276,-19.36443278063788,-3.697092189029529,6.024316136698876,300,0,30,0.35014951439857145,-1.9812521824526392,95.57597086739065,-3.8716120471858138,-2.5969231948986433,-6.024316136698876,0.5037042818140707
GUIDED_NOGPS,0.4821586608886719,296.39629708147834,313.47433953964355,-19.32589559805639,-6.220259837712782,0.6581956253386588,300,0,30,0.35014951439857145,-1.9812521824526392,95.57597086739065,-3.8639885114151333,-2.702303173233177,-0.6581956253386588,0.5039597434855141
GUIDED_NOGPS,0.4842722415924072,474.62985175964695,313.3569009196577,-18.788343931107022,-9.162247085551046,-1.7950072762743094,300,0,30,0.35014951439857145,-1.9812521824526392,95.57597086739065,-3.7565181574758633,-2.678843871196048,1.7950072762743094,0.5042556088661018
GUIDED_NOGPS,0.5025484561920166,54.753782488936466,312.8819524079798,-17.865673568481608,-12.317512218016772,-1.7045937624300602,300,0,30,0.35014951439857145,-1.9812521824526392,95.57597086739065,-3.5721587460971054,-2.5839801073853086,1.7045937624300602,0.5045794095988064
GUIDED_NOGPS,0.5043120384216309,568.4108957853367,312.9352144144437,-16.784499216012822,-15.259973499012398,-0.08192195447994759,300,0,30,0.35014951439857145,-1.9812521824526392,95.57597086739065,-3.3560954540555503,-2.5947647380666217,0.08192195447994759,0.5048829090696477
GUIDED_NOGPS,0.506401538848877,480.0622639349891,312.8656741273408,-15.607929116516578,-17.568554420454888,-1.583078402684971,300,0,30,0.35014951439857145,-1.9812521824526392,95.57597086739065,-3.1208107089962653,-2.5808808120057085,1.583078402684971,0.5051155515904725
GUIDED_NOGPS,0.5085763931274414,461.7751844104371,313.28721430738415,-14.348972062929965,-19.17525875966328,-0.2396719948309709,300,0,30,0.35014951439857145,-1.9812521824526392,95.57597086739065,-2.8690518052056087,-2.6652189495783896,0.2396719948309709,0.505278450109476
GUIDED_NOGPS,0.5186755657196045,99.39580074885066,313.95173333166207,-13.076714386179523,-19.852769635108334,-1.0295442431417758,300,0,30,0.12670603888011317,-1.9377613797994062,95.86767458646355,-2.6147266346375644,-2.7982575748245955,1.0295442431417758,0.5053558360856986
GUIDED_NOGPS,0.5221350193023682,288.18908891026524,314.6644775090496,-11.760608794109906,-19.62558889699993,-0.3208918266090374,300,0,30,0.12670603888011317,-1.9377613797994062,95.86767458646355,-2.3515371083016787,-2.9408458029327047,0.3208918266090374,0.5053357841586911
GUIDED_NOGPS,0.5245985984802246,407.5701098046837,314.8911456694746,-10.322932938581053,-18.49542494754845,-0.37093696165311013,300,0,30,-0.0004012869539514718,-1.9751312657392501,95.9555586305141,-2.0640314319650845,-2.9862219821219913,0.37093696165311013,0.5052255389943128
GUIDED_NOGPS,0.5270733833312988,405.2859213450575,315.7680193756839,-8.794518468881185,-16.67290499042865,0.4333389217457106,300,0,30,-0.0004012869539514718,-1.9751312657392501,95.9555586305141,-1.7583708204700097,-3.1616366743883546,-0.4333389217457106,0.5050456520773425
GUIDED_NOGPS,0.5306522846221924,280.2180652057723,316.40375323365953,-7.130887444963764,-14.228071553947814,2.2049407946709465,300,0,30,-0.0004012869539514718,-1.9751312657392501,95.9555586305141,-1.4256744819765574,-3.288852149809687,-2.2049407946709465,0.5048048735416101
GUIDED_NOGPS,0.5389251708984375,120.97790597057976,318.0430765042851,-5.58429654255531,-11.56198891299813,2.417651770682658,300,0,30,-0.0004012869539514718,-1.9751312657392501,95.9555586305141,-1.1164019418884763,-3.6168642697986457,-2.417651770682658,0.5045450589909891
GUIDED_NOGPS,0.5436694622039795,211.0660225442834,318.23452780765456,-4.059767426616751,-8.867830823016261,2.3665675201275747,300,0,30,-0.18714380818440404,-1.9969490243823864,96.04504776901962,-0.8115158962914751,-3.6552433619226834,-2.3665675201275747,0.5042794301577905
GUIDED_NOGPS,0.5457496643066406,484.2188870930501,317.78840402967745,-2.628309676249196,-6.556318703742903,1.8678559698656965,300,0,30,-0.42607675201806283,-1.9938346715642723,96.12513856722718,-0.5252278798288479,-3.5660425218112906,-1.8678559698656965,0.5040492619031365
GUIDED_NOGPS,0.5494821071624756,268.3495841330774,316.8659635605666,-1.180075043877067,-4.801378833041629,2.9705294559855844,300,0,30,-0.42607675201806283,-1.9938346715642723,96.12513856722718,-0.2355853857709187,-3.381617777329072,-2.9705294559855844,0.503876382227867
GUIDED_NOGPS,0.5509016513824463,707.7799527505906,315.4035956906401,0.17107833317095741,-3.9101115509475264,0.38684420940973513,300,0,30,-0.42607675201806283,-1.9938346715642723,96.12513856722718,0.034645656651387705,-3.089177248529336,-0.38684420940973513,0.503788710440376
GUIDED_NOGPS,0.553058385848999,465.5165371809101,314.85431761920245,1.478339693479845,-3.9949029271970757,0.6558631955806314,300,0,30,-0.42607675201806283,-1.9938346715642723,96.12513856722718,0.2961000269292686,-2.9793427170609807,-0.6558631955806314,0.5037981545612598
GUIDED_NOGPS,0.5545217990875244,685.7920209287116,314.28414790649293,2.696103172453564,-4.998383962885934,1.0803455662700447,300,0,30,-0.42607675201806283,-1.9938346715642723,96.12513856722718,0.5396588274059403,-2.8653411175616106,-1.0803455662700447,0.503900087574518
GUIDED_NOGPS,0.5566914081573486,462.6410765497463,314.30420806556293,3.851641788353438,-6.8471783736702285,1.005802961934852,300,0,30,-0.6579789098954795,-1.945173629152751,96.19661649689137,0.7707745205373256,-2.869382748141413,-1.005802961934852,0.5040864919249073
GUIDED_NOGPS,0.5579733848571777,783.9820560747663,313.9248110766842,4.94406406904404,-9.233354794265916,1.2151982804542456,300,0,30,-0.6579789098954795,-1.945173629152751,96.19661649689137,0.9892667046045701,-2.793525115850813,-1.2151982804542456,0.5043263360582944
GUIDED_NOGPS,0.5597176551818848,575.2714305307913,313.1189882836933,6.029098328890181,-11.994431171620286,2.168755773648679,300,0,30,-0.6579789098954795,-1.945173629152751,96.19661649689137,1.206279841101075,-2.632374232040338,-2.168755773648679,0.504603319167398
GUIDED_NOGPS,0.5634002685546875,271.9688756322137,313.33913675227177,7.161809076881208,-14.762842786257094,5.861191044103123,300,0,30,-0.6579789098954795,-1.945173629152751,96.19661649689137,1.4328424449417319,-2.676442022546148,-5.861191044103123,0.5048827171969081
GUIDED_NOGPS,0.5660569667816162,377.55909622828335,313.5651021465096,8.230845129574773,-17.275886059400037,2.707126671917152,300,0,30,-0.8836033768737138,-1.8874107193419531,96.27274578538032,1.6466835969156295,-2.7216910396391865,-2.707126671917152,0.5051379205440611
GUIDED_NOGPS,0.568152666091919,479.51343317708927,314.0473389061082,9.298828286876484,-19.088037759875892,-4.72939093456299,300,0,30,-0.8836033768737138,-1.8874107193419531,96.27274578538032,1.8602992946914478,-2.8181671942195146,4.72939093456299,0.5053211487161454
GUIDED_NOGPS,0.5697574615478516,625.5486950037285,314.2516228627307,10.514776721966046,-20.153177472758713,-5.199133722333457,300,0,30,-0.8836033768737138,-1.8874107193419531,96.27274578538032,2.103503060561554,-2.859043067879004,5.199133722333457,0.5054290057481403
GUIDED_NOGPS,0.5770540237426758,137.2167370039585,314.80787489634895,11.866489000552308,-20.31237839275642,-4.847843440593327,300,0,30,-1.081102939118834,-1.9064479506626597,96.34081545064868,2.373932536549316,-2.970402064875572,4.847843440593327,0.5054523049339521
GUIDED_NOGPS,0.5787467956542969,593.4216185625354,315.70556394408374,13.324737883484369,-19.668222601586937,-0.3782470238654175,300,0,30,-1.081102939118834,-1.9064479506626597,96.34081545064868,2.6656047703949297,-3.1499663442805845,0.3782470238654175,0.5053895635523448
GUIDED_NOGPS,0.5803806781768799,615.4517975055026,316.47663006150117,14.798829283531509,-18.21029771492839,-2.2235058434231973,300,0,30,-1.081102939118834,-1.9064479506626597,96.34081545064868,2.960447649822465,-3.304206956113793,2.2235058434231973,0.5052453738192049
GUIDED_NOGPS,0.5819652080535889,633.7721365971593,317.07729632953243,16.207350645515877,-16.223905704229907,-1.0240259671155438,300,0,30,-1.081102939118834,-1.9064479506626597,96.34081545064868,3.242180215404913,-3.4243700215705273,1.0240259671155438,0.5050483484803517
GUIDED_NOGPS,0.5843207836151123,426.38040052861646,317.96484699326174,17.6829400394789,-13.9540421628947,-1.334161277488467,300,0,30,-1.3000593805589906,-1.9490604336773114,96.40614621005984,3.537322673136104,-3.6019051251000933,1.334161277488467,0.5048225840312867
GUIDED_NOGPS,0.5874860286712646,317.60593669544147,318.1800732339338,19.03759680262445,-11.796024176721806,-1.7088343857103467,300,0,30,-1.3000593805589906,-1.9490604336773114,96.40614621005984,3.8083192636160814,-3.6450126725319776,1.7088343857103467,0.5046096467568216
GUIDED_NOGPS,0.5948612689971924,135.6414203479723,318.557058900594,20.405156519322436,-9.94148673245752,-1.6739898177966381,300,0,30,-1.5074519915691982,-1.9735099495850184,96.48655119696923,4.0818712407808375,-3.7204462138205394,1.6739898177966381,0.5044257602735871
GUIDED_NOGPS,0.5963411331176758,680.6725089256735,317.8405433410357,21.527344834808826,-8.784967521226976,-4.419769091882993,300,0,30,-1.5074519915691982,-1.9735099495850184,96.48655119696923,4.306468684326087,-3.577275518146418,4.419769091882993,0.5043158657549981
GUIDED_NOGPS,0.5980336666107178,592.7507066139061,317.3029491105373,22.61403470761388,-8.320125841196607,-5.777789422986733,300,0,30,-1.5074519915691982,-1.9735099495850184,96.48655119696923,4.523850902406121,-3.469790524624049,5.777789422986733,0.5042708810250551
GUIDED_NOGPS,0.599179744720459,878.5722664432342,316.09223018899917,23.587132150118787,-8.81804555066448,-10.49197028445505,300,0,30,-1.5074519915691982,-1.9735099495850184,96.48655119696923,4.718495719648939,-3.2276640207531164,10.49197028445505,0.5043215066812912
GUIDED_NOGPS,0.6003842353820801,836.1850079744817,315.56425141667194,24.597997654784802,-10.172108082923453,-12.417439051607118,300,0,30,-1.5074519915691982,-1.9735099495850184,96.48655119696923,4.920696947297983,-3.12208606331664,12.417439051607118,0.50445783163488
GUIDED_NOGPS,0.6015775203704834,841.7226570339153,314.93748017902055,25.62752243057844,-12.208632049362421,-10.923674766973548,300,0,30,-1.5074519915691982,-1.9735099495850184,96.48655119696923,5.126632807228623,-2.9967498292099837,10.923674766973548,0.5046625020371854
GUIDED_NOGPS,0.602529764175415,1057.2987143937485,315.0048705116007,26.681922966635057,-14.808724720254796,-5.373656717252483,300,0,30,-1.5074519915691982,-1.9735099495850184,96.48655119696923,5.337544276468122,-3.0102455325047544,5.373656717252483,0.5049235646709971
GUIDED_NOGPS,0.6056177616119385,325.34160719826247,315.2488336825567,27.750492143520564,-17.589849128242008,0.17946809961587937,300,0,30,-1.5074519915691982,-1.9735099495850184,96.48655119696923,5.551284279046368,-3.0590525455147604,-0.17946809961587937,0.5052025746044587
GUIDED_NOGPS,0.608137845993042,398.0926347760061,315.51039349566753,28.786605145066673,-20.369422356444193,1.7005835508958096,300,0,30,-1.6412186851429593,-1.953771343213916,96.55128772992262,5.758607172195829,-3.1114185465137663,-1.7005835508958096,0.5054840416794042
GUIDED_NOGPS,0.6125457286834717,227.41983408339206,315.5778989444641,29.812171020888503,-22.629549777244904,-2.8653891756404684,300,0,30,-1.6412186851429593,-1.953771343213916,96.55128772992262,5.963829302450139,-3.1249765691069706,2.8653891756404684,0.5057139013451624
GUIDED_NOGPS,0.6257617473602295,75.73953555563581,315.3656283274351,30.869685173303967,-24.25043079769088,-7.403624995179119,300,0,30,-1.8277776183590413,-1.8744882148757007,96.71217966601144,6.175426089499309,-3.082569213320121,7.403624995179119,0.5058792918353961
GUIDED_NOGPS,0.6278753280639648,474.5224572915488,315.3923548702642,32.10358586975166,-25.06508456828333,-7.882599020009654,300,0,30,-1.8277776183590413,-1.8744882148757007,96.71217966601144,6.422641164874422,-3.0881230559295316,7.882599020009654,0.5059756775347091
GUIDED_NOGPS,0.6294071674346924,656.077584858439,315.8547789205914,33.4851721558159,-25.02975176420954,-3.5183829652975667,300,0,30,-1.8277776183590413,-1.8744882148757007,96.71217966601144,6.699024237955469,-3.180639028923886,3.5183829652975667,0.5059743074988998
GUIDED_NOGPS,0.6306548118591309,806.5969230769231,316.3538094536126,34.85198808975487,-24.240743242630618,1.8445161028488855,300,0,30,-1.8277776183590413,-1.8744882148757007,96.71217966601144,6.972433674649255,-3.2804668376516295,-1.8445161028488855,0.5058968462370859
GUIDED_NOGPS,0.6319262981414795,792.5744520030235,317.27423828188904,36.14049497151748,-22.824241563021815,1.2972747636400943,300,0,30,-1.8277776183590413,-1.8744882148757007,96.71217966601144,7.2301760055374045,-3.46457217853431,-1.2972747636400943,0.5057563932814403
GUIDED_NOGPS,0.6332323551177979,769.4558796551091,317.6201226476973,37.355865870690856,-21.013575832656134,-0.3896564334121753,300,0,30,-1.8277776183590413,-1.8744882148757007,96.71217966601144,7.473296810022519,-3.5337710437456735,0.3896564334121753,0.5055766001309763
GUIDED_NOGPS,0.635261058807373,494.3781235266384,318.1713513090311,38.559906538259675,-18.966807379151557,-3.0914004116570717,300,0,30,-1.8248519495167486,-1.837709567185886,96.79133472830272,7.7141622367934115,-3.644043775452944,3.0914004116570717,0.5053733784073509
GUIDED_NOGPS,0.641028642654419,174.44285476626186,317.9055311485337,39.638515728553195,-16.971205086825282,-5.927689518903388,300,0,30,-1.8248519495167486,-1.837709567185886,96.79133472830272,7.930122030467047,-3.590987232788857,5.927689518903388,0.5051794576738384
GUIDED_NOGPS,0.6433014869689941,438.322081722228,317.9327254290744,40.687364694756845,-15.277448305105922,-6.097992308805966,300,0,30,-1.8248519495167486,-1.837709567185886,96.79133472830272,8.139986831616078,-3.596467963094206,6.097992308805966,0.5050121965173069
GUIDED_NOGPS,0.645249605178833,514.8912349619445,317.85305477272755,41.641599636147866,-14.184203980659838,-8.659608307847654,300,0,30,-1.7834684736658761,-1.8463457010611324,96.86514175247387,8.330909253833747,-3.580566172711462,8.659608307847654,0.5049044728824289
GUIDED_NOGPS,0.6464564800262451,833.8576540755467,317.0291225933471,42.47204629429549,-13.758060110543992,-10.02026287576607,300,0,30,-1.7834684736658761,-1.8463457010611324,96.86514175247387,8.497075341490234,-3.4158105120841995,10.02026287576607,0.5048634400979699
GUIDED_NOGPS,0.6476871967315674,815.8537249562341,316.17002691184246,43.25288621085747,-14.102376917509785,-9.173961651764165,300,0,30,-1.7834684736658761,-1.8463457010611324,96.86514175247387,8.65328846170328,-3.244008250146168,9.173961651764165,0.504898792246538
GUIDED_NOGPS,0.6493570804595947,600.8170749176336,315.4008452864499,44.006036254595976,-15.123817523607991,-5.871477545959716,300,0,30,-1.7834684736658761,-1.8463457010611324,96.86514175247387,8.80397483270483,-3.0901916502332347,5.871477545959716,0.5050020921849656
GUIDED_NOGPS,0.6514749526977539,473.61156278229447,314.6111107024429,44.790723033529474,-16.652794856574804,-0.5723480355835875,300,0,30,-1.7834684736658761,-1.8463457010611324,96.86514175247387,8.961006718473211,-2.932275569907188,0.5723480355835875,0.5051569591152497
GUIDED_NOGPS,0.6536159515380859,476.95064816920626,313.46274952605904,45.42773039206213,-18.48226371335133,0.8003838921645468,300,0,30,-1.7834684736658761,-1.8463457010611324,96.86514175247387,9.088508689311494,-2.702633118082656,-0.8003838921645468,0.5053420511335882
GUIDED_NOGPS,0.6574356555938721,260.61289921709954,312.31473084942945,46.17496051680175,-20.418894427838968,2.1872467652260874,300,0,30,-1.626001450558994,-1.8334693003717775,96.92009745453579,9.238042995177631,-2.4730529270269397,-2.1872467652260874,0.5055376421011286
GUIDED_NOGPS,0.658867597579956,702.2106144316089,312.05480826340664,46.981917847607576,-22.19673570458075,2.4436669051917903,300,0,30,-1.626001450558994,-1.8334693003717775,96.92009745453579,9.399613111862879,-2.421114248687894,-2.4436669051917903,0.5057193958301371
GUIDED_NOGPS,0.6604950428009033,617.8998232174425,312.3126255332069,47.977040997422684,-23.640433706667313,2.395932591132374,300,0,30,-1.626001450558994,-1.8334693003717775,96.92009745453579,9.598692018068043,-2.4726916318739094,-2.395932591132374,0.5058649792946769
GUIDED_NOGPS,0.6792306900024414,53.3959338518924,313.35052832948617,49.07966073953196,-24.497488545896545,-0.18155755454336506,300,0,30,-1.626001450558994,-1.8334693003717775,96.92009745453579,9.820131691008317,-2.680521284255931,0.18155755454336506,0.5059710209772212
GUIDED_NOGPS,0.6816213130950928,419.64022011005505,313.65318502729434,50.02498300645323,-24.687308758823765,-7.975987436414054,300,0,30,-1.3868420566058801,-1.8114131254379253,96.96946606185665,10.0,-2.7410776300563557,7.975987436414054,0.5059920062291138
GUIDED_NOGPS,0.6827206611633301,915.5869897402314,314.48079472955675,51.08313288812894,-24.2652104596249,-9.69194866273106,300,0,30,-1.3868420566058801,-1.8114131254379253,96.96946606185665,10.0,-2.906632244878964,9.69194866273106,0.505952245272484
GUIDED_NOGPS,0.6856608390808105,340.83406468389404,315.05785223604744,52.12686576935064,-23.231931622218543,-9.532470958199283,300,0,30,-1.085471912310115,-1.7904417766433418,97.04228270859815,10.0,-3.0220815496324653,9.532470958199283,0.5058515902147472
GUIDED_NOGPS,0.6875302791595459,536.905273937532,316.162449925542,53.306546511484264,-21.694000402677744,-3.628058976884001,300,0,30,-1.085471912310115,-1.7904417766433418,97.04228270859815,10.0,-3.2430272060687027,3.628058976884001,0.5056994678440535
GUIDED_NOGPS,0.6921720504760742,216.02307375360527,316.6114847764399,54.20858134754775,-19.82873094719584,-8.354621193457595,300,0,30,-0.8020755708977971,-1.7733207335499412,97.11664297809209,10.0,-3.332912657250698,8.354621193457595,0.5055176492178473
GUIDED_NOGPS,0.6941804885864258,499.4408192426768,316.3106886050509,54.93527404796786,-17.839445009365896,-8.510562559744002,300,0,30,-0.8020755708977971,-1.7733207335499412,97.11664297809209,10.0,-3.272795223374546,8.510562559744002,0.5053211726456364
GUIDED_NOGPS,0.6976265907287598,293.7187675070028,315.55291859790157,55.462912453806496,-15.997111880558988,-8.63607230840148,300,0,30,-0.41433197493596147,-1.8327847873508953,97.1853341905749,10.0,-3.1212912479858965,8.63607230840148,0.5051398983316093
GUIDED_NOGPS,0.7104723453521729,77.92338275182998,314.82625337542095,56.03112498021519,-14.444548695282654,-4.1749811214075265,300,0,30,-0.029431085030386602,-1.9000741035065685,97.25088351603951,10.0,-2.9761451654666056,4.1749811214075265,0.5049958511034339
GUIDED_NOGPS,0.7126202583312988,467.95760348097735,314.0993916592286,56.53744037752202,-13.331521332841476,-3.3936713684037536,300,0,30,-0.029431085030386602,-1.9000741035065685,97.25088351603951,10.0,-2.8307967867674617,3.3936713684037536,0.5048860213668369
GUIDED_NOGPS,0.7184689044952393,171.16115078555396,313.92906249796897,57.15251306717008,-12.788404386964396,-4.424480890594026,300,0,30,0.3882708545492489,-2.00292437268909,97.28652344312864,10.0,-2.7968155689315086,4.424480890594026,0.5048369081783917
GUIDED_NOGPS,0.719597578048706,891.4567481402763,313.05242331128943,57.62408658913814,-12.771655774524767,-3.266587246256601,300,0,30,0.3882708545492489,-2.00292437268909,97.28652344312864,10.0,-2.6215110275800853,3.266587246256601,0.504836760095441
GUIDED_NOGPS,0.7206447124481201,961.5552498853737,312.3642222953975,58.123847124420564,-13.291615123959772,-2.319745164023042,300,0,30,0.3882708545492489,-2.00292437268909,97.28652344312864,10.0,-2.4838845378478673,2.319745164023042,0.5048897163451044
GUIDED_NOGPS,0.7224764823913574,547.4877953269809,312.0817534324756,58.65932889146262,-14.248130265934217,-2.6268913803158207,300,0,30,0.3882708545492489,-2.00292437268909,97.28652344312864,10.0,-2.4274035835529486,2.6268913803158207,0.5049863067715966
GUIDED_NOGPS,0.723740816116333,793.9246640166572,312.31756517321395,59.23769251407209,-15.454150290879717,-8.928257255045423,300,0,30,0.3882708545492489,-2.00292437268909,97.28652344312864,10.0,-2.474588659103518,8.928257255045423,0.5051085861425848
GUIDED_NOGPS,0.7255380153656006,558.7190622086054,311.96122922001905,59.78533160466867,-16.76623295697236,-8.594866905022167,300,0,30,0.3882708545492489,-2.00292437268909,97.28652344312864,10.0,-2.4033356047344037,8.594866905022167,0.5052408998141278
GUIDED_NOGPS,0.7266614437103271,895.6446722186632,311.35864638922243,60.35027786558948,-18.05037293700779,-7.181468003957913,300,0,30,0.3882708545492489,-2.00292437268909,97.28652344312864,10.0,-2.2828395958557968,7.181468003957913,0.5053710530774824
GUIDED_NOGPS,0.7287492752075195,481.550401836969,310.33189470982626,60.806357468828786,-19.061848770165412,-8.68110964520451,300,0,30,0.3882708545492489,-2.00292437268909,97.28652344312864,10.0,-2.0775010937449747,8.68110964520451,0.5054733245331808
GUIDED_NOGPS,0.7300674915313721,761.4931009440813,310.57731560989885,61.45592015802752,-19.757503122372174,-10.100278925873772,300,0,30,0.3882708545492489,-2.00292437268909,97.28652344312864,10.0,-2.126608479625887,10.100278925873772,0.5055450732557537
GUIDED_NOGPS,0.7320828437805176,498.07671297945615,311.26590814485667,62.17003216447702,-19.99075326440272,-14.96146193867503,300,0,30,0.9296158533520039,-2.167586573199757,97.32260733251381,10.0,-2.2643514292339417,14.96146193867503,0.5055705674777906
GUIDED_NOGPS,0.7341916561126709,475.5446712018141,312.4266913108211,62.99107090175098,-19.825064509659743,-11.63700815857168,300,0,30,0.9296158533520039,-2.167586573199757,97.32260733251381,10.0,-2.496521202241202,11.63700815857168,0.5055550522892265
GUIDED_NOGPS,0.7365908622741699,417.59299084030266,313.68324001894285,63.79516788154953,-19.27541641227103,-13.705059932899283,300,0,30,0.9296158533520039,-2.167586573199757,97.32260733251381,10.0,-2.747861985017734,13.705059932899283,0.5055023231571455
GUIDED_NOGPS,0.7507104873657227,70.87726650556804,313.7300522068547,64.26122653388416,-18.319042903732683,-13.461087251953325,300,0,30,0.9296158533520039,-2.167586573199757,97.32260733251381,10.0,-2.7574287642617694,13.461087251953325,0.5054210682621898
GUIDED_NOGPS,0.7541241645812988,293.80106472401235,313.8122487438288,64.74717601447652,-17.13250647502906,-15.255778024561755,300,0,30,0.9296158533520039,-2.167586573199757,97.32260733251381,10.0,-2.7738945843782785,15.0,0.5053042240437657
GUIDED_NOGPS,0.75630784034729,459.95218773988375,313.0719834442059,65.0184479508056,-15.788815568733876,-15.601093525033287,300,0,30,0.9296158533520039,-2.167586573199757,97.32260733251381,10.0,-2.6258863412151796,15.0,0.5051729946548263
GUIDED_NOGPS,0.7589015960693359,392.4311377245509,313.36145195632423,65.56544029463645,-14.574704397120762,-12.004784483314566,300,0,30,0.9296158533520039,-2.167586573199757,97.32260733251381,10.0,-2.683811345525148,12.004784483314566,0.5050536720417191
GUIDED_NOGPS,0.7716717720031738,78.20525059665871,313.0703670836148,65.94572461210959,-13.537164578564981,-6.776411838044254,300,0,30,0.9296158533520039,-2.167586573199757,97.32260733251381,10.0,-2.625763201460947,6.776411838044254,0.5049611654873392
GUIDED_NOGPS,0.772728681564331,952.6014081308199,312.21436671928547,66.17786392313717,-12.801758592802337,-4.741269005618435,300,0,30,0.9296158533520039,-2.167586573199757,97.32260733251381,10.0,-2.454585412228816,4.741269005618435,0.5048891866213256
GUIDED_NOGPS,0.7751033306121826,422.17453447408155,310.9054501096361,66.30728783149438,-12.400064993307156,-3.1602711299649777,300,0,30,0.9296158533520039,-2.167586573199757,97.32260733251381,10.0,-2.192821247555165,3.1602711299649777,0.5048505069182005
GUIDED_NOGPS,0.7762455940246582,885.4346632890015,310.86076568110576,66.70571513141093,-12.497464728749632,-4.682654935307255,300,0,30,0.9296158533520039,-2.167586573199757,97.32260733251381,10.0,-2.183902340111076,4.682654935307255,0.5048616538469756
