E-kp,E-ki,E-kd,E-I-Tot,E-P,E-I,E-D,E-PID,N-kp,N-ki,N-kd,N-I-Tot,N-P,N-I,N-D,N-PID,Y-kp,Y-ki,Y-kd,Y-I-Tot,Y-P,Y-I,Y-D,Y-PID,D-kp,D-ki,D-kd,D-I-Tot,D-P,D-I,D-D,D-PID,errorN,desiredN,actualN,errorE,desiredE,actualE,errorD,desiredD,actualD,errorY,desiredY,actualY,roll,pitch,yaw-rate,thrust,dt,Time,Mode
0.02,0.0,0.006,-0.0030048187458446562,-0.0017906360560317725,-0.0,-0.016006177525325443,-0.017796813581357214,0.025,0.002,0.006,-0.0028835582460383486,-0.002147967898298541,-5.7671164920766975e-06,-0.015360242695015448,-0.017513977709806065,0.25,0,0,-0.003025873345434108,-0.022539786804165147,-0.0,-0.0,-0.022539786804165147,0.002,8e-05,0.0,-0.004233306139318783,-0.0002522718090656095,-3.3866449114550266e-07,-0.0,-0.000252610473556755,-0.08591871593194164,0.0,0.08591871593194164,-0.08953180280158862,0.0,0.08953180280158862,-0.12613590453280477,0.0,0.12613590453280477,-0.09015914721666059,0,0.09015914721666059,-0.017824351075761826,0.0174859514352852,0.022539786804165147,0.4,0.03356146812438965,0.03379201889038086,STABILIZE
0.02,0.0,0.006,-0.006454878508467451,-0.0020651191229826447,-0.0,-0.0024644800503292584,-0.0045295991733119035,0.025,0.002,0.006,-0.006166337362917259,-0.0024562364122791866,-1.2332674725834518e-05,-0.002214261480795604,-0.004682830567800625,0.25,0,0,-0.0064569260946751045,-0.02567177502685205,-0.0,-0.0,-0.02567177502685205,0.002,8e-05,0.0,-0.009375422061464463,-0.00030779414427719275,-7.500337649171571e-07,-0.0,-0.0003085441780421099,-0.09824945649116745,0.0,0.09824945649116745,-0.10325595614913223,0.0,0.10325595614913223,-0.15389707213859638,0.0,0.15389707213859638,-0.1026871001074082,0,0.1026871001074082,-0.004537984594145763,0.00467470497688266,0.02567177502685205,0.4,0.03341269493103027,0.06714868545532227,STABILIZE
0.02,0.0,0.006,-0.010396281835507788,-0.0023566017919184872,-0.0,-0.0026142030753924395,-0.004970804867310927,0.025,0.002,0.006,-0.00987544453438408,-0.002772137193727677,-1.975088906876816e-05,-0.00226656026554578,-0.005058448348342225,0.25,0,0,-0.010369268407040678,-0.029240324254136123,-0.0,-0.0,-0.029240324254136123,0.002,8e-05,0.0,-0.015620072250702749,-0.00037337345622310777,-1.24960578005622e-06,-0.0,-0.000374623062003164,-0.11088548774910709,0.0,0.11088548774910709,-0.11783008959592435,0.0,0.11783008959592435,-0.18668672811155387,0.0,0.18668672811155387,-0.1169612970165445,0,0.1169612970165445,-0.004981120615855472,0.005048290614854477,0.029240324254136123,0.4,0.03344988822937012,0.1006014347076416,STABILIZE
0.02,0.0,0.006,-0.014885649052650603,-0.002595723947854812,-0.0,-0.0020738839460150743,-0.004669607893869886,0.025,0.002,0.006,-0.014110373995774658,-0.0030607620430423187,-2.8220747991549315e-05,-0.0020025729161593803,-0.005091555707193248,0.25,0,0,-0.014830621710620898,-0.03224408098574563,-0.0,-0.0,-0.03224408098574563,0.002,8e-05,0.0,-0.023144938945890856,-0.00043508306940295214,-1.8515951156712687e-06,-0.0,-0.00043693466451862344,-0.12243048172169274,0.0,0.12243048172169274,-0.12978619739274058,0.0,0.12978619739274058,-0.21754153470147608,0.0,0.21754153470147608,-0.12897632394298253,0,0.12897632394298253,-0.004681057458172802,0.005081031241315967,0.03224408098574563,0.4,0.03459048271179199,0.1351933479309082,STABILIZE
0.02,0.0,0.006,-0.019688980987776043,-0.002867991195123511,-0.0,-0.002438495023142992,-0.005306486218266503,0.025,0.002,0.006,-0.018572816314493614,-0.0033305644528859426,-3.714563262898723e-05,-0.0019331354475740443,-0.005300845533088974,0.25,0,0,-0.019549693656875703,-0.03522101161706333,-0.0,-0.0,-0.03522101161706333,0.002,8e-05,0.0,-0.032078901549166004,-0.0005334323430031015,-2.5663121239332807e-06,-0.0,-0.0005359986551270349,-0.1332225781154377,0.0,0.1332225781154377,-0.14339955975617555,0.0,0.14339955975617555,-0.26671617150155075,0.0,0.26671617150155075,-0.1408840464682533,0,0.1408840464682533,-0.005319504361842184,0.005287781452997433,0.03522101161706333,0.4,0.03349614143371582,0.16868066787719727,STABILIZE
0.02,0.0,0.006,-0.024804250507087504,-0.0030524624443786074,-0.0,-0.0016512078932291979,-0.0047036703376078055,0.025,0.002,0.006,-0.023208864510104604,-0.0034581176402354538,-4.641772902020921e-05,-0.0009133860397586563,-0.004417921409014319,0.25,0,0,-0.024547250371692392,-0.0372777380743064,-0.0,-0.0,-0.0372777380743064,0.002,8e-05,0.0,-0.04206603696100025,-0.0005959677326181473,-3.3652829568800204e-06,-0.0,-0.0005993330155750273,-0.13832470560941815,0.0,0.13832470560941815,-0.15262312221893037,0.0,0.15262312221893037,-0.29798386630907364,0.0,0.29798386630907364,-0.1491109522972256,0,0.1491109522972256,-0.00471515193508145,0.004405665267608996,0.0372777380743064,0.4,0.03351569175720215,0.20223474502563477,STABILIZE
0.02,0.0,0.006,-0.03074645393638831,-0.0035520633372759015,-0.0,-0.004479686793067921,-0.008031750130343823,0.025,0.002,0.006,-0.028492403666945387,-0.0039479180478604195,-5.6984807333890775e-05,-0.003513448352027519,-0.0075183512072218295,0.25,0,0,-0.030379315996723225,-0.04357783003757041,-0.0,-0.0,-0.04357783003757041,0.002,8e-05,0.0,-0.05450145348202429,-0.0007433503015106632,-4.360116278561944e-06,-0.0,-0.0007477104177892252,-0.15791672191441677,0.0,0.15791672191441677,-0.17760316686379507,0.0,0.17760316686379507,-0.3716751507553316,0.0,0.3716751507553316,-0.17431132015028164,0,0.17431132015028164,-0.0080545860540874,0.007493881406101429,0.04357783003757041,0.4,0.03345775604248047,0.2356736660003662,STABILIZE
0.02,0.0,0.006,-0.03668516534097538,-0.0035535210281763792,-0.0,-1.3083482883410612e-05,-0.0035666045110597897,0.025,0.002,0.006,-0.033682778286802086,-0.003882177483302083,-6.736555657360417e-05,0.000472042763448908,-0.0034775002764267787,0.25,0,0,-0.03624585456500619,-0.04387919100787406,-0.0,-0.0,-0.04387919100787406,0.002,8e-05,0.0,-0.06766459544085408,-0.0007876372256689065,-5.413167635268327e-06,-0.0,-0.0007930503933041748,-0.15528709933208332,0.0,0.15528709933208332,-0.17767605140881895,0.0,0.17767605140881895,-0.39381861283445324,0.0,0.39381861283445324,-0.17551676403149624,0,0.17551676403149624,-0.0035772405443130068,0.003466558235337111,0.04387919100787406,0.4,0.03342437744140625,0.26909518241882324,STABILIZE
0.02,0.0,0.006,-0.04261744160592296,-0.0035444621813949875,-0.0,8.11882447554354e-05,-0.003463273936639552,0.025,0.002,0.006,-0.03879542542065496,-0.0038184298074238317,-7.759085084130992e-05,0.00045706143721737345,-0.0034389592210477683,0.25,0,0,-0.04196671037631638,-0.04272676322455018,-0.0,0.0,-0.04272676322455018,0.002,8e-05,0.0,-0.08150569294825638,-0.0008269885702031011,-6.520455435860511e-06,-0.0,-0.0008335090256389616,-0.15273719229695326,0.0,0.15273719229695326,-0.17722310906974936,0.0,0.17722310906974936,-0.4134942851015505,0.0,0.4134942851015505,-0.1709070528982007,0,0.1709070528982007,-0.003473516553741598,0.003428613369150769,0.04272676322455018,0.4,0.03347349166870117,0.3025658130645752,STABILIZE
0.02,0.0,0.006,-0.04864285265819493,-0.003574597691398665,-0.0,-0.0002681700639684551,-0.00384276775536712,0.025,0.002,0.006,-0.0439803812538164,-0.0038449931030502776,-8.796076250763279e-05,-0.00018910529634939333,-0.0041220591619073035,0.25,0,0,-0.047795007428266284,-0.04322073839848252,-0.0,-0.0,-0.04322073839848252,0.002,8e-05,0.0,-0.09642597328597284,-0.0008851512235021994,-7.714077862877828e-06,-0.0,-0.0008928653013650773,-0.1537997241220111,0.0,0.1537997241220111,-0.17872988456993325,0.0,0.17872988456993325,-0.4425756117510997,0.0,0.4425756117510997,-0.17288295359393008,0,0.17288295359393008,-0.003855188048669032,0.004110445336621405,0.04322073839848252,0.4,0.03371238708496094,0.33640289306640625,STABILIZE
0.02,0.0,0.006,-0.05463255404593605,-0.003581732294864365,-0.0,-6.399544315293293e-05,-0.003645727738017298,0.025,0.002,0.006,-0.04912393309033886,-0.003844687850567702,-9.824786618067773e-05,2.190425072941597e-06,-0.003940745291675439,0.25,0,0,-0.05360989913503533,-0.04346499113440826,-0.0,-0.0,-0.04346499113440826,0.002,8e-05,0.0,-0.1130707604241546,-0.000995327943325934,-9.04566083393237e-06,-0.0,-0.0010043736041598663,-0.15378751402270807,0.0,0.15378751402270807,-0.17908661474321824,0.0,0.17908661474321824,-0.49766397166296694,0.0,0.49766397166296694,-0.17385996453763303,0,0.17385996453763303,-0.0036576688462691747,0.003929664464638526,0.04346499113440826,0.4,0.03344583511352539,0.3697333335876465,STABILIZE
0.02,0.0,0.006,-0.06091728305574573,-0.0037457372483620612,-0.0,-0.0014662194557792372,-0.0052119567041412984,0.025,0.002,0.006,-0.054483123174046875,-0.003992637925649723,-0.00010896624634809375,-0.0010581498860511226,-0.00515975405804894,0.25,0,0,-0.05983039158625906,-0.04634314829114914,-0.0,-0.0,-0.04634314829114914,0.002,8e-05,0.0,-0.13186080665722053,-0.001119898343489145,-1.0548864532577642e-05,-0.0,-0.0011304472080217226,-0.15970551702598892,0.0,0.15970551702598892,-0.18728686241810305,0.0,0.18728686241810305,-0.5599491717445725,0.0,0.5599491717445725,-0.18537259316459656,0,0.18537259316459656,-0.005228623069478263,0.005142864515298417,0.04634314829114914,0.4,0.03355669975280762,0.4032871723175049,STABILIZE
0.02,0.0,0.006,-0.067291033829886,-0.0036985699278477024,-0.0,0.00041055488223515926,-0.0032880150456125433,0.025,0.002,0.006,-0.059936997226173516,-0.003955978056379486,-0.00011987399445234703,0.00025527654565693687,-0.0038205755051748964,0.25,0,0,-0.06608535252167029,-0.045370479713129845,-0.0,0.0,-0.045370479713129845,0.002,8e-05,0.0,-0.15180938760629173,-0.001157579331479627,-1.2144751008503339e-05,-0.0,-0.0011697240824881303,-0.15823912225517942,0.0,0.15823912225517942,-0.18492849639238512,0.0,0.18492849639238512,-0.5787896657398134,0.0,0.5787896657398134,-0.18148191885251938,0,0.18148191885251938,-0.0033001000401108784,0.003810141710773636,0.045370479713129845,0.4,0.03446602821350098,0.43776750564575195,STABILIZE
0.02,0.0,0.006,-0.07336838955283345,-0.0036196983028047615,-0.0,0.0007046440104601781,-0.0029150542923445833,0.025,0.002,0.006,-0.06502758104790383,-0.0037899660764932988,-0.00013005516209580768,0.0011865290943631347,-0.002733492144225971,0.25,0,0,-0.07202513688846078,-0.04422200289822429,-0.0,0.0,-0.04422200289822429,0.002,8e-05,0.0,-0.17180008983697348,-0.0011906545253398478,-1.374400718695788e-05,-0.0,-0.0012043985325268056,-0.15159864305973195,0.0,0.15159864305973195,-0.18098491514023807,0.0,0.18098491514023807,-0.5953272626699239,0.0,0.5953272626699239,-0.17688801159289716,0,0.17688801159289716,-0.002923479437573609,0.0027244795480872988,0.04422200289822429,0.4,0.033579349517822266,0.4713435173034668,STABILIZE
0.02,0.0,0.006,-0.07968274007636385,-0.0035584988556671628,-0.0,0.0005173410039442508,-0.003041157851722912,0.025,0.002,0.006,-0.07016916699018505,-0.003621973396895866,-0.0001403383339803701,0.0011360821782957133,-0.002626229552580523,0.25,0,0,-0.07804257267986901,-0.042389629578650334,-0.0,0.0,-0.042389629578650334,0.002,8e-05,0.0,-0.1937066709548634,-0.0012345615522783215,-1.5496533676389073e-05,-0.0,-0.0012500580859547107,-0.14487893587583464,0.0,0.14487893587583464,-0.17792494278335813,0.0,0.17792494278335813,-0.6172807761391608,0.0,0.6172807761391608,-0.16955851831460134,0,0.16955851831460134,-0.003048916467527699,0.002617218201828351,0.042389629578650334,0.4,0.03548884391784668,0.5068304538726807,STABILIZE
0.02,0.0,0.006,-0.08545943068761125,-0.0034497571047729303,-0.0,0.00097408530154557,-0.00247567180322736,0.025,0.002,0.006,-0.07461930317659088,-0.003321947192474268,-0.00014923860635318177,0.0021500563557402593,-0.0013211294430871905,0.25,0,0,-0.08337120398747891,-0.0397772811225847,-0.0,0.0,-0.0397772811225847,0.002,8e-05,0.0,-0.21546400521587208,-0.0012993169186124446,-1.7237120417269768e-05,-0.0,-0.0013165540390297143,-0.13287788769897071,0.0,0.13287788769897071,-0.17248785523864651,0.0,0.17248785523864651,-0.6496584593062222,0.0,0.6496584593062222,-0.1591091244903388,0,0.1591091244903388,-0.002479331000334341,0.0013142494715494444,0.0397772811225847,0.4,0.03349041938781738,0.5403392314910889,STABILIZE
0.02,0.0,0.006,-0.09117238196807281,-0.003367084157583793,-0.0,0.0007308834534262373,-0.0026362007041575556,0.025,0.002,0.006,-0.07892015961613992,-0.0031685342808659943,-0.00015784031923227985,0.0010850171665457372,-0.002241357433552537,0.25,0,0,-0.08864419179497936,-0.038847245578849096,-0.0,0.0,-0.038847245578849096,0.002,8e-05,0.0,-0.23797470839962465,-0.0013267298869728964,-1.9037976671969974e-05,-0.0,-0.0013457678636448664,-0.12674137123463977,0.0,0.12674137123463977,-0.16835420787918964,0.0,0.16835420787918964,-0.6633649434864481,0.0,0.6633649434864481,-0.15538898231539638,0,0.15538898231539638,-0.0026422696738039645,0.0022341996930529497,0.038847245578849096,0.4,0.03393411636352539,0.5742545127868652,STABILIZE
0.02,0.0,0.006,-0.09668973583256787,-0.0032981485617141135,-0.0,0.0006181219528937098,-0.0026800266088204037,0.025,0.002,0.006,-0.08313452657066035,-0.003149065804676984,-0.00016626905314132072,0.0001396537434107701,-0.0031756811144075347,0.25,0,0,-0.09367702906762039,-0.03760644463761738,-0.0,0.0,-0.03760644463761738,0.002,8e-05,0.0,-0.26090743891696794,-0.0013708664339744183,-2.0872595113357437e-05,-0.0,-0.0013917390290877757,-0.12596263218707934,0.0,0.12596263218707934,-0.16490742808570566,0.0,0.16490742808570566,-0.6854332169872092,0.0,0.6854332169872092,-0.1504257785504695,0,0.1504257785504695,-0.002688354875684206,0.0031686339685698993,0.03760644463761738,0.4,0.033457279205322266,0.6077194213867188,STABILIZE
0.02,0.0,0.006,-0.10214295313944337,-0.003261273309202747,-0.0,0.00033079630798997766,-0.0029304770012127694,0.025,0.002,0.006,-0.087215172824982,-0.0030505163201405804,-0.00017443034564996402,0.0007072451775924044,-0.00251770148819814,0.25,0,0,-0.09857367427191868,-0.03660522176807296,-0.0,0.0,-0.03660522176807296,0.002,8e-05,0.0,-0.2844270183424912,-0.0014065783978097456,-2.2754161467399295e-05,-0.0,-0.001429332559277145,-0.12202065280562321,0.0,0.12202065280562321,-0.16306366546013734,0.0,0.16306366546013734,-0.7032891989048727,0.0,0.7032891989048727,-0.14642088707229184,0,0.14642088707229184,-0.0029369014782144303,0.0025102043633086946,0.03660522176807296,0.4,0.03344225883483887,0.641171932220459,STABILIZE
0.02,0.0,0.006,-0.10752339687585331,-0.0032183938398589844,-0.0,0.0003847350518466751,-0.0028336587880123092,0.025,0.002,0.006,-0.09117813627824008,-0.002963133198299711,-0.00018235627255648015,0.0006272344397258623,-0.002518255031130329,0.25,0,0,-0.10324764922476042,-0.0349476105801594,-0.0,0.0,-0.0349476105801594,0.002,8e-05,0.0,-0.3082143586693531,-0.0014228757575612827,-2.465714869354825e-05,-0.0,-0.001447532906254831,-0.11852532793198843,0.0,0.11852532793198843,-0.16091969199294923,0.0,0.16091969199294923,-0.7114378787806414,0.0,0.7114378787806414,-0.1397904423206376,0,0.1397904423206376,-0.0028397943954359527,0.002511333972283088,0.0349476105801594,0.4,0.03343558311462402,0.6746006011962891,STABILIZE
0.02,0.0,0.006,-0.11288302484713728,-0.0031940536140647215,-0.0,0.00021758222748441967,-0.0029764713865803017,0.025,0.002,0.006,-0.0950573490206254,-0.0028897559555270576,-0.00019011469804125082,0.0005247472743790882,-0.0025551233791892202,0.25,0,0,-0.10773902905981993,-0.033457797983300466,-0.0,0.0,-0.033457797983300466,0.002,8e-05,0.0,-0.33255620493307714,-0.001450644754602806,-2.6604496394646174e-05,-0.0,-0.0014772492509974523,-0.11559023822108229,0.0,0.11559023822108229,-0.15970268070323607,0.0,0.15970268070323607,-0.725322377301403,0.0,0.725322377301403,-0.13383119193320187,0,0.13383119193320187,-0.0029824315056982548,0.002548163988409899,0.033457797983300466,0.4,0.03356003761291504,0.7081613540649414,STABILIZE
0.02,0.0,0.006,-0.1180165361535082,-0.003069724343841632,-0.0,0.0011151916242462389,-0.001954532719595393,0.025,0.002,0.006,-0.09850013552973352,-0.00257338615981591,-0.00019700027105946704,0.0022701842982493074,-0.0005002021326260698,0.25,0,0,-0.1121111553038571,-0.032680414936004494,-0.0,0.0,-0.032680414936004494,0.002,8e-05,0.0,-0.35773515765111036,-0.00150564476238828,-2.861881261208883e-05,-0.0,-0.0015342635750003688,-0.1029354463926364,0.0,0.1029354463926364,-0.1534862171920816,0.0,0.1534862171920816,-0.75282238119414,0.0,0.75282238119414,-0.13072165974401798,0,0.13072165974401798,-0.0019556688544485924,0.0004957415225622741,0.032680414936004494,0.4,0.03344607353210449,0.7416157722473145,STABILIZE
0.02,0.0,0.006,-0.12303197743276162,-0.002999677081263359,-0.0,0.0006284167926472877,-0.002371260288616071,0.025,0.002,0.006,-0.10176330072239187,-0.002439576424033677,-0.00020352660144478375,0.0009603605553183598,-0.0016827424701601006,0.25,0,0,-0.11640704262440521,-0.032116502869953455,-0.0,0.0,-0.032116502869953455,0.002,8e-05,0.0,-0.3832418003782639,-0.0015255226279910592,-3.065934403026111e-05,-0.0,-0.0015561819720213202,-0.09758305696134707,0.0,0.09758305696134707,-0.14998385406316794,0.0,0.14998385406316794,-0.7627613139955296,0.0,0.7627613139955296,-0.12846601147981382,0,0.12846601147981382,-0.002375027294224661,0.0016774215120046521,0.032116502869953455,0.4,0.03343987464904785,0.7750515937805176,STABILIZE
0.02,0.0,0.006,-0.12794521433528036,-0.002939430045741457,-0.0,0.0005406576658937825,-0.0023987723798476746,0.025,0.002,0.006,-0.10472977585482589,-0.0022184321424006943,-0.0002094595517096518,0.0015876412852211465,-0.0008402504088891997,0.25,0,0,-0.12063743422379376,-0.031636323515461626,-0.0,0.0,-0.031636323515461626,0.002,8e-05,0.0,-0.4092661978805361,-0.001556955169437939,-3.274129583044289e-05,-0.0,-0.0015896964652683818,-0.08873728569602776,0.0,0.08873728569602776,-0.14697150228707284,0.0,0.14697150228707284,-0.7784775847189694,0.0,0.7784775847189694,-0.1265452940618465,0,0.1265452940618465,-0.0024006223316388044,0.0008349503582822242,0.031636323515461626,0.4,0.033429861068725586,0.8084921836853027,STABILIZE
0.02,0.0,0.006,-0.13277671486614337,-0.0028788064157800964,-0.0,0.0005418307224612978,-0.0023369756933187985,0.025,0.002,0.006,-0.1074113742262718,-0.0019972580327143816,-0.0002148227484525436,0.0015814154014525408,-0.0006306653797143846,0.25,0,0,-0.12482196788416178,-0.031166462343230554,-0.0,0.0,-0.031166462343230554,0.002,8e-05,0.0,-0.43589813187077137,-0.001586839987825206,-3.487185054966171e-05,-0.0,-0.0016217118383748676,-0.07989032130857526,0.0,0.07989032130857526,-0.14394032078900482,0.0,0.14394032078900482,-0.793419993912603,0.0,0.793419993912603,-0.12466584937292222,0,0.12466584937292222,-0.002338342380703891,0.000625579030129069,0.031166462343230554,0.4,0.03356599807739258,0.8420450687408447,STABILIZE
0.02,0.0,0.006,-0.13750600265467947,-0.002826899441150384,-0.0,0.00046540558790342143,-0.0023614938532469623,0.025,0.002,0.006,-0.10984721642863764,-0.001820010028066499,-0.00021969443285727527,0.0012713853950661403,-0.000768319065857634,0.25,0,0,-0.1289312152848271,-0.030703431731961744,-0.0,0.0,-0.030703431731961744,0.002,8e-05,0.0,-0.4628894890462343,-0.00161338992099749,-3.703115912369875e-05,-0.0,-0.0016504210801211888,-0.07280040112265995,0.0,0.07280040112265995,-0.1413449720575192,0.0,0.1413449720575192,-0.806694960498745,0.0,0.806694960498745,-0.12281372692784698,0,0.12281372692784698,-0.0023631353218327633,0.000763255433383802,0.030703431731961744,0.4,0.03345918655395508,0.875516414642334,STABILIZE
0.02,0.0,0.006,-0.14209740603919765,-0.0027478477778203232,-0.0,0.0007096586355719524,-0.0020381891422483708,0.025,0.002,0.006,-0.11223330314681561,-0.0017850215220525508,-0.00022446660629363123,0.0002512776520325786,-0.0017582104763136034,0.25,0,0,-0.13284561446261597,-0.029283456988493377,-0.0,0.0,-0.029283456988493377,0.002,8e-05,0.0,-0.490145417086476,-0.0016312036870981274,-3.9211633366918084e-05,-0.0,-0.0016704153204650455,-0.07140086088210203,0.0,0.07140086088210203,-0.13739238889101615,0.0,0.13739238889101615,-0.8156018435490637,0.0,0.8156018435490637,-0.11713382795397351,0,0.11713382795397351,-0.0020417793149336465,0.0017540399903386316,0.029283456988493377,0.4,0.03341817855834961,0.9089279174804688,STABILIZE
0.02,0.0,0.006,-0.1466824654753172,-0.0027414497798493006,-0.0,5.738133945755646e-05,-0.0026840684403917443,0.025,0.002,0.006,-0.11416455728088087,-0.0014433935629488625,-0.00022832911456176176,0.002451150497803296,0.0007794278202926718,0.25,0,0,-0.13657960353795986,-0.027907335965814448,-0.0,0.0,-0.027907335965814448,0.002,8e-05,0.0,-0.5174783785570257,-0.001634263246748336,-4.139827028456206e-05,-0.0,-0.001675661517032898,-0.0577357425179545,0.0,0.0577357425179545,-0.13707248899246502,0.0,0.13707248899246502,-0.8171316233741679,0.0,0.8171316233741679,-0.11162934386325779,0,0.11162934386325779,-0.0026825447882604147,-0.0007846557071289567,0.027907335965814448,0.4,0.03344988822937012,0.9424304962158203,STABILIZE
0.02,0.0,0.006,-0.15123271593139279,-0.002721005658528619,-0.0,0.00018338079519208478,-0.0025376248633365342,0.025,0.002,0.006,-0.11608429792174527,-0.0014349828644389913,-0.00023216859584349053,6.035419401667628e-05,-0.0016067972662658055,0.25,0,0,-0.14018180171293299,-0.026925994821219067,-0.0,0.0,-0.026925994821219067,0.002,8e-05,0.0,-0.5451526069787683,-0.0016548920297437774,-4.361220855830147e-05,-0.0,-0.0016985042383020788,-0.057399314577559646,0.0,0.057399314577559646,-0.13605028292643095,0.0,0.13605028292643095,-0.8274460148718886,0.0,0.8274460148718886,-0.10770397928487627,0,0.10770397928487627,-0.0025406408179910267,0.0016020242307346398,0.026925994821219067,0.4,0.03344535827636719,0.9758431911468506,STABILIZE
0.02,0.0,0.006,-0.1556940306293285,-0.002667328565109192,-0.0,0.0004813865001585309,-0.0021859420649506613,0.025,0.002,0.006,-0.11812529431045055,-0.001525337354983411,-0.0002362505886209011,-0.0006482531628442213,-0.0024098411064485334,0.25,0,0,-0.14372558190015494,-0.02648441872476204,-0.0,0.0,-0.02648441872476204,0.002,8e-05,0.0,-0.5729892931531668,-0.0016642983788009659,-4.583914345225335e-05,-0.0,-0.0017101375222532192,-0.06101349419933644,0.0,0.06101349419933644,-0.1333664282554596,0.0,0.1333664282554596,-0.8321491894004829,0.0,0.8321491894004829,-0.10593767489904816,0,0.10593767489904816,-0.00219039402869284,0.00240579526741504,0.02648441872476204,0.4,0.03345155715942383,1.0092921257019043,STABILIZE
0.02,0.0,0.006,-0.16001574560880996,-0.0025852282539362034,-0.0,0.0007366799237423251,-0.0018485483301938783,0.025,0.002,0.006,-0.12013564168994267,-0.001503224666123517,-0.00024027128337988536,0.0001587323966041565,-0.0015847635528992458,0.25,0,0,-0.14712390596226455,-0.025410755403550183,-0.0,0.0,-0.025410755403550183,0.002,8e-05,0.0,-0.601010368971696,-0.001676206720148903,-4.8080829517735684e-05,-0.0,-0.0017242875496666387,-0.06012898664494068,0.0,0.06012898664494068,-0.12926141269681016,0.0,0.12926141269681016,-0.8381033600744514,0.0,0.8381033600744514,-0.10164302161420073,0,0.10164302161420073,-0.0018513567990242005,0.0015814817262198393,0.025410755403550183,0.4,0.03343391418457031,1.042726993560791,STABILIZE
0.02,0.0,0.006,-0.1643167477792959,-0.002570729778004202,-0.0,0.00012998713673002422,-0.002440742641274178,0.025,0.002,0.006,-0.12214453150205648,-0.001500903933555437,-0.00024428906300411296,1.664535682540314e-05,-0.0017285476397341467,0.25,0,0,-0.150438222496158,-0.024762287571831593,-0.0,0.0,-0.024762287571831593,0.002,8e-05,0.0,-0.6292210618462569,-0.0016861667433795153,-5.033768494770056e-05,-0.0,-0.0017365044283272158,-0.060036157342217476,0.0,0.060036157342217476,-0.1285364889002101,0.0,0.1285364889002101,-0.8430833716897577,0.0,0.8430833716897577,-0.09904915028732637,0,0.09904915028732637,-0.0024437271914009885,0.0017243256646503802,0.024762287571831593,0.4,0.03346133232116699,1.076202392578125,STABILIZE
0.02,0.0,0.006,-0.16857514524917938,-0.002548278802622638,-0.0,0.0002015242062336486,-0.0023467545963889893,0.025,0.002,0.006,-0.12415060246128559,-0.0015005727324991429,-0.0002483012049225712,2.3783387167482185e-06,-0.0017464955987049658,0.25,0,0,-0.1536576317406085,-0.02408168915836634,-0.0,0.0,-0.02408168915836634,0.002,8e-05,0.0,-0.6573794459874658,-0.0016850332532512824,-5.2590355678997264e-05,0.0,-0.0017376236089302797,-0.06002290929996571,0.0,0.06002290929996571,-0.1274139401311319,0.0,0.1274139401311319,-0.8425166266256412,0.0,0.8425166266256412,-0.09632675663346536,0,0.09632675663346536,-0.0023496875201490536,0.001742547723772424,0.02408168915836634,0.4,0.03342175483703613,1.109616756439209,STABILIZE
0.02,0.0,0.006,-0.1727590606469923,-0.002502886475316214,-0.0,0.0004073164654252949,-0.0020955700098909194,0.025,0.002,0.006,-0.12584574646169788,-0.0012675785086868623,-0.00025169149292339574,0.0016725713677042118,0.00015330136609395376,0.25,0,0,-0.156717605291873,-0.022881576490196127,-0.0,0.0,-0.022881576490196127,0.002,8e-05,0.0,-0.6858766195051661,-0.0017047474291539363,-5.487012956041329e-05,-0.0,-0.0017596175587143495,-0.05070314034747449,0.0,0.05070314034747449,-0.1251443237658107,0.0,0.1251443237658107,-0.8523737145769681,0.0,0.8523737145769681,-0.09152630596078451,0,0.09152630596078451,-0.0020953224472303245,-0.0001566487067716322,0.022881576490196127,0.4,0.033432722091674805,1.1430528163909912,STABILIZE
0.02,0.0,0.006,-0.17686668909719766,-0.0024578989142178586,-0.0,0.0004037909425745279,-0.002054107971643331,0.025,0.002,0.006,-0.12755699460434033,-0.001279958436706928,-0.0002551139892086807,-8.889395525662202e-05,-0.0016239663811722308,0.25,0,0,-0.15947689567646478,-0.020638602427517607,-0.0,0.0,-0.020638602427517607,0.002,8e-05,0.0,-0.7146640517828201,-0.0017225656944417354,-5.717312414262561e-05,-0.0,-0.001779738818584361,-0.05119833746827712,0.0,0.05119833746827712,-0.12289494571089292,0.0,0.12289494571089292,-0.8612828472208677,0.0,0.8612828472208677,-0.08255440971007043,0,0.08255440971007043,-0.0020564457245201167,0.0016210050426970425,0.020638602427517607,0.4,0.03342390060424805,1.1764709949493408,STABILIZE
0.02,0.0,0.006,-0.18085020918713143,-0.002381546150005991,-0.0,0.0006847121172198427,-0.0016968340327861483,0.025,0.002,0.006,-0.12912991037795196,-0.0011754589597760578,-0.00025825982075590394,0.000749699726906087,-0.0006840190536258746,0.25,0,0,-0.1619551722539456,-0.0185204602603359,-0.0,0.0,-0.0185204602603359,0.002,8e-05,0.0,-0.7434122349962896,-0.0017187091694281806,-5.9472978799703177e-05,0.0,-0.0017781821482278839,-0.047018358391042306,0.0,0.047018358391042306,-0.11907730750029955,0.0,0.11907730750029955,-0.8593545847140903,0.0,0.8593545847140903,-0.0740818410413436,0,0.0740818410413436,-0.001697717031688729,0.000681824523509203,0.0185204602603359,0.4,0.03345322608947754,1.2099277973175049,STABILIZE
0.02,0.0,0.006,-0.1851100351711,-0.002312850987542332,-0.0,0.0005594653688016488,-0.0017533856187406834,0.025,0.002,0.006,-0.13087597214373872,-0.001185019263259781,-0.00026175194428747743,-6.228862146974517e-05,-0.0015090598290170036,0.25,0,0,-0.1645681851656575,-0.017734026918170664,-0.0,0.0,-0.017734026918170664,0.002,8e-05,0.0,-0.7752221866981532,-0.001727105249937652,-6.201777493585226e-05,-0.0,-0.0017891230248735042,-0.04740077053039123,0.0,0.04740077053039123,-0.1156425493771166,0.0,0.1156425493771166,-0.863552624968826,0.0,0.863552624968826,-0.07093610767268266,0,0.07093610767268266,-0.001755252594102911,0.0015068878612738501,0.017734026918170664,0.4,0.03683614730834961,1.2467756271362305,STABILIZE
0.02,0.0,0.006,-0.18886291219600546,-0.0022442960679630577,-0.0,0.0006149583456781334,-0.0016293377222849244,0.025,0.002,0.006,-0.1324779298393594,-0.0011975037196346845,-0.0002649558596787188,-8.959147715283825e-05,-0.0015520510564662417,0.25,0,0,-0.16683914338649344,-0.01697598459697363,-0.0,0.0,-0.01697598459697363,0.002,8e-05,0.0,-0.8042268789777235,-0.0017345390324149418,-6.433815031821788e-05,-0.0,-0.0017988771827331597,-0.04790014878538738,0.0,0.04790014878538738,-0.11221480339815287,0.0,0.11221480339815287,-0.867269516207471,0.0,0.867269516207471,-0.06790393838789452,0,0.06790393838789452,-0.0016311759867105998,0.0015501189617307771,0.01697598459697363,0.4,0.03344368934631348,1.2802343368530273,STABILIZE
0.02,0.0,0.006,-0.19252370610805952,-0.002188401657355589,-0.0,0.0005012003833684703,-0.001687201273987119,0.025,0.002,0.006,-0.1336269681645196,-0.0008586106714672799,-0.0002672539363290392,0.0024310599047943867,0.0013051952969980675,0.25,0,0,-0.16911949837846446,-0.017039789604642114,-0.0,-0.0,-0.017039789604642114,0.002,8e-05,0.0,-0.8337103842321769,-0.0017625070767038876,-6.669683073857416e-05,-0.0,-0.0018292039074424616,-0.03434442685869119,0.0,0.03434442685869119,-0.10942008286777946,0.0,0.10942008286777946,-0.8812535383519438,0.0,0.8812535383519438,-0.06815915841856846,0,0.06815915841856846,-0.0016856474179470819,-0.0013072014705537809,0.017039789604642114,0.4,0.03345632553100586,1.313676118850708,STABILIZE
0.02,0.0,0.006,-0.19617566438163328,-0.002184411798761228,-0.0,3.5797893360304023e-05,-0.002148613905400924,0.025,0.002,0.006,-0.13386688827909637,-0.00017938469232864205,-0.00026773377655819273,0.004875332514915006,0.0044282140460281715,0.25,0,0,-0.1734760315960139,-0.03257314928463535,-0.0,-0.0,-0.03257314928463535,0.002,8e-05,0.0,-0.8636217484880061,-0.0017891424847397922,-6.90897398790405e-05,-0.0,-0.0018582322246188327,-0.0071753876931456816,0.0,0.0071753876931456816,-0.1092205899380614,0.0,0.1092205899380614,-0.894571242369896,0.0,0.894571242369896,-0.1302925971385414,0,0.1302925971385414,-0.0021385384456978963,-0.00443308861497212,0.03257314928463535,0.4,0.03343653678894043,1.3471078872680664,STABILIZE
0.02,0.0,0.006,-0.19968768160787362,-0.00210028700160243,-0.0,0.0007546356122555664,-0.0013456513893468638,0.025,0.002,0.006,-0.13478263201907686,-0.000684551267114214,-0.00026956526403815374,-0.003625249156771262,-0.00457936568792363,0.25,0,0,-0.17817847792543304,-0.03515247173198313,-0.0,-0.0,-0.03515247173198313,0.002,8e-05,0.0,-0.8947696799531358,-0.0018627356122921988,-7.158157439625088e-05,-0.0,-0.0019343171866884497,-0.02738205068456856,0.0,0.02738205068456856,-0.1050143500801215,0.0,0.1050143500801215,-0.9313678061460994,0.0,0.9313678061460994,-0.14060988692793253,0,0.14060988692793253,-0.0013568855723506718,0.0045760495308650225,0.03515247173198313,0.4,0.03344321250915527,1.3805561065673828,STABILIZE
0.02,0.0,0.006,-0.20316332614407112,-0.002011106788907153,-0.0,0.0007740331152385627,-0.0012370736736685905,0.025,0.002,0.006,-0.13643992243709901,-0.0011986942192172409,-0.000272879844874198,-0.0035699728347055888,-0.005041546898797027,0.25,0,0,-0.18334811627325462,-0.037391247397501284,-0.0,-0.0,-0.037391247397501284,0.002,8e-05,0.0,-0.9280270001260663,-0.0019243631413991872,-7.424216001008531e-05,-0.0,-0.0019986053014092726,-0.04794776876868963,0.0,0.04794776876868963,-0.10055533944535765,0.0,0.10055533944535765,-0.9621815706995935,0.0,0.9621815706995935,-0.14956498959000514,0,0.14956498959000514,-0.0012502299055511892,0.0050383004664389846,0.037391247397501284,0.4,0.03456449508666992,1.4151089191436768,STABILIZE
0.02,0.0,0.006,-0.2064063016481729,-0.0019391020341510607,-0.0,0.0006458169337364148,-0.001293285100414646,0.025,0.002,0.006,-0.1378516083536841,-0.0010551278559498163,-0.0002757032167073682,0.0010301274000821341,-0.0003007036725750504,0.25,0,0,-0.18786895699450384,-0.033789846036300156,-0.0,0.0,-0.033789846036300156,0.002,8e-05,0.0,-0.9608574501730909,-0.0019630611575005715,-7.686859601384728e-05,-0.0,-0.0020399297535144186,-0.04220511423799265,0.0,0.04220511423799265,-0.09695510170755303,0.0,0.09695510170755303,-0.9815305787502858,0.0,0.9815305787502858,-0.13515938414520062,0,0.13515938414520062,-0.0012939908541693733,0.0002976520098716949,0.033789846036300156,0.4,0.033448219299316406,1.4485712051391602,STABILIZE
0.02,0.0,0.006,-0.2092964725420864,-0.0017280478034247902,-0.0,0.0018928558891349668,0.0001648080857101766,0.025,0.002,0.006,-0.13852722200173526,-0.0005049410239621423,-0.00027705444400347054,0.003947513893348359,0.0031655184253827464,0.25,0,0,-0.1927842162278093,-0.03673572962097289,-0.0,-0.0,-0.03673572962097289,0.002,8e-05,0.0,-0.9942183419125967,-0.001994664599666093,-7.953746735300774e-05,-0.0,-0.0020742020670191006,-0.020197640958485693,0.0,0.020197640958485693,-0.0864023901712395,0.0,0.0864023901712395,-0.9973322998330464,0.0,0.9973322998330464,-0.14694291848389157,0,0.14694291848389157,0.00017292594282974975,-0.0031650853424275245,0.03673572962097289,0.4,0.03345012664794922,1.4820222854614258,STABILIZE
0.02,0.0,0.006,-0.2127521261591086,-0.0020652695623383753,-0.0,-0.0030231060963913227,-0.005088375658729698,0.025,0.002,0.006,-0.13952726065385634,-0.0007470907165050837,-0.0002790545213077127,-0.0017366476329979412,-0.0027627928708107378,0.25,0,0,-0.19677131857510455,-0.02978612019747407,-0.0,0.0,-0.02978612019747407,0.002,8e-05,0.0,-1.0286188001569712,-0.0020559415733287663,-8.22895040125577e-05,-0.0,-0.002138231077341324,-0.02988362866020335,0.0,0.02988362866020335,-0.10326347811691877,0.0,0.10326347811691877,-1.0279707866643832,0.0,1.0279707866643832,-0.11914448078989628,0,0.11914448078989628,-0.005094109779961548,0.0027522058137166333,0.02978612019747407,0.4,0.03346443176269531,1.5155057907104492,STABILIZE
0.02,0.0,0.006,-0.2162299001239056,-0.0020785342023046873,-0.0,-0.00011891661791559106,-0.0021974508202202785,0.025,0.002,0.006,-0.14007442584132102,-0.00040877496926476365,-0.00028014885168264203,0.0024263825962305783,0.0017374587752831726,0.25,0,0,-0.20083990597687362,-0.03039551360742532,-0.0,-0.0,-0.03039551360742532,0.002,8e-05,0.0,-1.0626750689226343,-0.0020354146114393403,-8.501400551381074e-05,0.0,-0.002120428616953151,-0.016350998770590545,0.0,0.016350998770590545,-0.10392671011523437,0.0,0.10392671011523437,-1.0177073057196702,0.0,1.0177073057196702,-0.12158205442970128,0,0.12158205442970128,-0.0021937589755593066,-0.0017421178663478136,0.03039551360742532,0.4,0.03346371650695801,1.548949956893921,STABILIZE
0.02,0.0,0.006,-0.2190866598667444,-0.0017075599345067953,-0.0,0.003326115180035422,0.0016185552455286268,0.025,0.002,0.006,-0.1403040504724621,-0.00017156580155863158,-0.00028060810094492425,0.0017014334028812481,0.0012492595003776924,0.25,0,0,-0.20455888637332575,-0.02778664682126646,-0.0,0.0,-0.02778664682126646,0.002,8e-05,0.0,-1.0963567784739399,-0.0020132437773136905,-8.77085422779152e-05,0.0,-0.0021009523195916055,-0.006862632062345263,0.0,0.006862632062345263,-0.08537799672533976,0.0,0.08537799672533976,-1.0066218886568452,0.0,1.0066218886568452,-0.11114658728506584,0,0.11114658728506584,0.0016209756045080452,-0.0012461173587194475,0.02778664682126646,0.4,0.033460140228271484,1.582451343536377,STABILIZE
0.02,0.0,0.006,-0.2214833630303133,-0.0014286325726424137,-0.0,0.0024939553672176083,0.0010653227945751945,0.025,0.002,0.006,-0.13972444040076726,0.0004318692028917331,-0.00027944888080153453,0.004316363824780136,0.004468784146870334,0.25,0,0,-0.20894470097892714,-0.03267883617366059,-0.0,-0.0,-0.03267883617366059,0.002,8e-05,0.0,-1.1300803069740015,-0.0020102001788106652,-9.040642455792013e-05,0.0,-0.0021006066033685852,0.017274768115669324,0.0,-0.017274768115669324,-0.07143162863212069,0.0,0.07143162863212069,-1.0051000894053326,0.0,1.0051000894053326,-0.13071534469464235,0,0.13071534469464235,0.0010755151562192116,-0.004466342077886992,0.03267883617366059,0.4,0.03355240821838379,1.6159663200378418,STABILIZE
0.02,0.0,0.006,-0.2244205730496593,-0.0017560475708050724,-0.0,-0.0029362369819406287,-0.004692284552745701,0.025,0.002,0.006,-0.1395539890477741,0.00012738307883695954,-0.0002791079780955482,-0.0021844898320588974,-0.0023362147313174863,0.25,0,0,-0.2126237703053465,-0.027494717397330816,-0.0,0.0,-0.027494717397330816,0.002,8e-05,0.0,-1.1636537125827795,-0.0020072278446086472,-9.309229700662236e-05,0.0,-0.0021003201416152696,0.005095323153478382,0.0,-0.005095323153478382,-0.08780237854025362,0.0,0.08780237854025362,-1.0036139223043237,0.0,1.0036139223043237,-0.10997886958932326,0,0.10997886958932326,-0.004696760254454943,0.0023272036238655837,0.027494717397330816,0.4,0.033452510833740234,1.6494216918945312,STABILIZE
0.02,0.0,0.006,-0.22791236691583303,-0.0020886693402075024,-0.0,-0.0029844411709118498,-0.005073110511119352,0.025,0.002,0.006,-0.1398015296994888,-0.0001850877333783052,-0.0002796030593989776,-0.002242909737047869,-0.0027076005298251517,0.25,0,0,-0.21560211003823124,-0.022269237257463055,-0.0,0.0,-0.022269237257463055,0.002,8e-05,0.0,-1.197153473353855,-0.002003838883636719,-9.57722778683084e-05,0.0,-0.002099611161505027,-0.0074035093351322075,0.0,0.0074035093351322075,-0.10443346701037512,0.0,0.10443346701037512,-1.0019194418183595,0.0,1.0019194418183595,-0.08907694902985222,0,0.08907694902985222,-0.0050773138472150585,0.0026997101666692523,0.022269237257463055,0.4,0.03343558311462402,1.682856559753418,STABILIZE
0.02,0.0,0.006,-0.2312639217004403,-0.002005655614903546,-0.0,0.000745162864566378,-0.001260492750337168,0.025,0.002,0.006,-0.14033886452947641,-0.00040194353371361837,-0.0002806777290589528,-0.0015572643081275615,-0.0022398855709001328,0.25,0,0,-0.21817941515804823,-0.019279061573978868,-0.0,0.0,-0.019279061573978868,0.002,8e-05,0.0,-1.229990221781765,-0.0019650345314982053,-9.839921774254122e-05,0.0,-0.0020634337492407466,-0.016077741348544734,0.0,0.016077741348544734,-0.1002827807451773,0.0,0.1002827807451773,-0.9825172657491026,0.0,0.9825172657491026,-0.07711624629591547,0,0.07711624629591547,-0.0012635063422869299,0.0022381870045596894,0.019279061573978868,0.4,0.03342103958129883,1.716280460357666,STABILIZE
0.02,0.0,0.006,-0.23387230062102554,-0.0015597074768333996,-0.0,0.003999890351850493,0.0024401828750170934,0.025,0.002,0.006,-0.1405514118501593,-0.00015886861885446924,-0.0002811028237003186,0.0017441902745544012,0.0013042188319996133,0.25,0,0,-0.22095951964690425,-0.02077990722238468,-0.0,-0.0,-0.02077990722238468,0.002,8e-05,0.0,-1.2629159656117046,-0.0019688293148886274,-0.00010103327724893638,-0.0,-0.002069862592137564,-0.006354744754178769,0.0,0.006354744754178769,-0.07798537384166998,0.0,0.07798537384166998,-0.9844146574443137,0.0,0.9844146574443137,-0.08311962888953872,0,0.08311962888953872,0.0024420723514577474,-0.001300677460216311,0.02077990722238468,0.4,0.0334470272064209,1.749732255935669,STABILIZE
0.02,0.0,0.006,-0.2357192188748319,-0.0011049748408999316,-0.0,0.004080863793026892,0.0029758889521269605,0.025,0.002,0.006,-0.1404429071616513,8.114527448217636e-05,-0.0002808858143233026,0.0017231470622385517,0.0015234065223974254,0.25,0,0,-0.22394044785163056,-0.022292883442209543,-0.0,-0.0,-0.022292883442209543,0.002,8e-05,0.0,-1.2955479536609205,-0.0019523076199295104,-0.00010364383629287364,0.0,-0.002055951456222384,0.0032458109792870542,0.0,-0.0032458109792870542,-0.05524874204499658,0.0,0.05524874204499658,-0.9761538099647552,0.0,0.9761538099647552,-0.08917153376883817,0,0.08917153376883817,0.002978256280823231,-0.0015187731936043946,0.022292883442209543,0.4,0.03342914581298828,1.7831614017486572,STABILIZE
0.02,0.0,0.006,-0.23604348933785751,-0.00019380421356257643,-0.0,0.008168584267810464,0.007974780054247888,0.025,0.002,0.006,-0.1430143845545787,-0.001921093695908466,-0.0002860287691091574,-0.014359951704522646,-0.01656707416954027,0.25,0,0,-0.22704522814048517,-0.023195124547874344,-0.0,-0.0,-0.023195124547874344,0.002,8e-05,0.0,-1.3278229807083881,-0.0019289565186674201,-0.00010622583845667106,0.0,-0.002035182357124091,-0.07684374783633864,0.0,0.07684374783633864,-0.009690210678128822,0.0,0.009690210678128822,-0.96447825933371,0.0,0.96447825933371,-0.09278049819149738,0,0.09278049819149738,0.007947942129904503,0.01657996620480173,0.023195124547874344,0.4,0.03346371650695801,1.8166851997375488,STABILIZE
0.02,0.0,0.006,-0.23479124915155947,0.0007481608236673449,-0.0,0.008441767152552135,0.00918992797621948,0.025,0.002,0.006,-0.14687139295094906,-0.0028805002928901733,-0.00029374278590189813,-0.006878460899278678,-0.010052703978070749,0.25,0,0,-0.23002246259495965,-0.02223465400331212,-0.0,0.0,-0.02223465400331212,0.002,8e-05,0.0,-1.3608712080186753,-0.0019744925323235936,-0.00010886969664149403,-0.0,-0.002083362228965088,-0.11522001171560692,0.0,0.11522001171560692,0.03740804118336725,0.0,-0.03740804118336725,-0.9872462661617968,0.0,0.9872462661617968,-0.08893861601324848,0,0.08893861601324848,0.009174312382996288,0.010066957126064556,0.02223465400331212,0.4,0.03347516059875488,1.8500969409942627,STABILIZE
0.02,0.0,0.006,-0.23558722014747077,-0.0004759795456312369,-0.0,-0.010980282819862673,-0.011456262365493911,0.025,0.002,0.006,-0.15031785188329674,-0.0025761679211335903,-0.0003006357037665935,0.002183838126368854,-0.0006929654985313297,0.25,0,0,-0.2309889066970684,-0.0072240010465620865,-0.0,0.0,-0.0072240010465620865,0.002,8e-05,0.0,-1.3941487141903877,-0.0019899484213263103,-0.00011153189713523103,-0.0,-0.002101480318461541,-0.10304671684534361,0.0,0.10304671684534361,-0.023798977281561842,0.0,0.023798977281561842,-0.9949742106631551,0.0,0.9949742106631551,-0.028896004186248346,0,0.028896004186248346,-0.011456610392110305,0.000687187669110185,0.0072240010465620865,0.4,0.03344559669494629,1.883561372756958,STABILIZE
0.02,0.0,0.006,-0.235011399664809,0.0003441755892565103,-0.0,0.007353265088632051,0.007697440677888561,0.025,0.002,0.006,-0.1530430388853316,-0.0020361008128865986,-0.00030608607777066324,0.003873663841058177,0.001531476950400915,0.25,0,0,-0.23421603290649656,-0.024111205188480915,-0.0,-0.0,-0.024111205188480915,0.002,8e-05,0.0,-1.4279701136392087,-0.0020215501940758574,-0.0001142376090911367,-0.0,-0.002135787803166994,-0.08144403251546393,0.0,0.08144403251546393,0.017208779462825514,0.0,-0.017208779462825514,-1.0107750970379286,0.0,1.0107750970379286,-0.09644482075392366,0,0.09644482075392366,0.007700007675605995,-0.0015185178414597442,0.024111205188480915,0.4,0.03346085548400879,1.917057752609253,STABILIZE
0.02,0.0,0.006,-0.2372544628644875,-0.001340403192925393,-0.0,-0.015099985448657587,-0.01644038864158298,0.025,0.002,0.006,-0.1547362334928498,-0.0012647678955761813,-0.0003094724669856996,0.005531170616964463,0.003956930254402582,0.25,0,0,-0.2351816083802747,-0.007212572344417956,-0.0,0.0,-0.007212572344417956,0.002,8e-05,0.0,-1.4614899366281888,-0.002003067847894905,-0.00011691919493025512,0.0,-0.0021199870428251603,-0.05059071582304725,0.0,0.05059071582304725,-0.06702015964626966,0.0,0.06702015964626966,-1.0015339239474526,0.0,1.0015339239474526,-0.028850289377671826,0,0.028850289377671826,-0.016438394114337115,-0.003965208023070686,0.007212572344417956,0.4,0.03346848487854004,1.9505031108856201,STABILIZE
0.02,0.0,0.006,-0.24232277134729263,-0.0030310802316529874,-0.0,-0.015166532683189852,-0.01819761291484284,0.025,0.002,0.006,-0.15539220275126672,-0.0004903745151131801,-0.00031078440550253345,0.005557471827157329,0.004756312906541616,0.25,0,0,-0.23388518171085515,0.009691530376448118,-0.0,0.0,0.009691530376448118,0.002,8e-05,0.0,-1.4946743450009656,-0.001984579363293874,-0.00011957394760007726,0.0,-0.0021041533108939513,-0.019614980604527203,0.0,0.019614980604527203,-0.15155401158264936,0.0,0.15155401158264936,-0.992289681646937,0.0,0.992289681646937,0.03876612150579247,0,-0.03876612150579247,-0.018200826853788765,-0.004743999378350604,-0.009691530376448118,0.4,0.03344225883483887,1.9839375019073486,STABILIZE
0.02,0.0,0.006,-0.24713599852638193,-0.002877176146759917,-0.0,0.0013799758835413125,-0.0014972002632186046,0.025,0.002,0.006,-0.15550281008331748,-8.264641517851672e-05,-0.00031100562016663495,0.0029247044110252475,0.0025310523756800958,0.25,0,0,-0.23286139836247388,0.007649766258201784,-0.0,-0.0,0.007649766258201784,0.002,8e-05,0.0,-1.527353938287998,-0.0019534699442351118,-0.00012218831506303986,0.0,-0.0020756582592981517,-0.0033058566071406687,0.0,0.0033058566071406687,-0.14385880733799586,0.0,0.14385880733799586,-0.9767349721175559,0.0,0.9767349721175559,0.030599065032807137,0,-0.030599065032807137,-0.0014985517693840327,-0.0025302524283347103,-0.007649766258201784,0.4,0.03345799446105957,2.017421007156372,STABILIZE
0.02,0.0,0.006,-0.25082286515340824,-0.0022080159122157433,-0.0,0.00601126889781445,0.0038032529855987064,0.025,0.002,0.006,-0.15708034163742113,-0.001180953613818651,-0.00031416068327484226,-0.007893140760736963,-0.009388255057830456,0.25,0,0,-0.2313289850331189,0.011471777248816529,-0.0,0.0,0.011471777248816529,0.002,8e-05,0.0,-1.5583953481618957,-0.0018590291939705778,-0.00012467162785295168,0.0,-0.0019837008218235295,-0.04723814455274604,0.0,0.04723814455274604,-0.11040079561078717,0.0,0.11040079561078717,-0.9295145969852888,0.0,0.9295145969852888,0.045887108995266115,0,-0.045887108995266115,0.003810770641449158,0.009385206093720786,-0.011471777248816529,0.4,0.03339529037475586,2.050795316696167,STABILIZE
0.02,0.0,0.006,-0.25441421165424566,-0.00214804976739372,-0.0,0.0005380026547413737,-0.0016100471126523465,0.025,0.002,0.006,-0.15820902991473665,-0.0008438612756323637,-0.0003164180598294733,0.0024194528212604875,0.0012591734857986504,0.25,0,0,-0.2291521386348181,0.01627514359318848,-0.0,0.0,0.01627514359318848,0.002,8e-05,0.0,-1.589320434015544,-0.0018496857225853902,-0.00012714563472124353,0.0,-0.0019768313573066336,-0.03375445102529455,0.0,0.03375445102529455,-0.107402488369686,0.0,0.107402488369686,-0.9248428612926951,0.0,0.9248428612926951,0.06510057437275392,0,-0.06510057437275392,-0.001611476770365591,-0.001257343306686987,-0.01627514359318848,0.4,0.03343820571899414,2.0842320919036865,STABILIZE
0.02,0.0,0.006,-0.25754801697930885,-0.0018740653592445923,-0.0,0.002457705417335042,0.0005836400580904498,0.025,0.002,0.006,-0.159560775076474,-0.0010104563459471653,-0.000319121550152948,-0.001195517977332911,-0.0025250958734330245,0.25,0,0,-0.22858935176369574,0.004206943597345093,-0.0,-0.0,0.004206943597345093,0.002,8e-05,0.0,-1.6201121396521618,-0.001841392904151717,-0.00012960897117217295,0.0,-0.0019710018753238898,-0.04041825383788661,0.0,0.04041825383788661,-0.09370326796222961,0.0,0.09370326796222961,-0.9206964520758584,0.0,0.9206964520758584,0.016827774389380372,0,-0.016827774389380372,0.0005843816537394205,0.002524924349403184,-0.004206943597345093,0.4,0.03344392776489258,2.1176977157592773,STABILIZE
0.02,0.0,0.006,-0.2603391798797466,-0.0016684698740070262,-0.0,0.0018434782503930628,0.00017500837638603664,0.025,0.002,0.006,-0.161495770626893,-0.001445849766465333,-0.000322991541253786,-0.0031231748115948463,-0.004892016119313966,0.25,0,0,-0.22903451249209728,-0.003326289484539377,-0.0,-0.0,-0.003326289484539377,0.002,8e-05,0.0,-1.6509275633835299,-0.0018420496396854848,-0.0001320742050706824,-0.0,-0.0019741238447561673,-0.05783399065861332,0.0,0.05783399065861332,-0.0834234937003513,0.0,0.0834234937003513,-0.9210248198427424,0.0,0.9210248198427424,-0.013305157938157508,0,0.013305157938157508,0.0001738723534985914,0.004892056627648724,0.003326289484539377,0.4,0.03345775604248047,2.1511363983154297,STABILIZE
0.02,0.0,0.006,-0.26243824444523817,-0.0012553902942799029,-0.0,0.0037057656801986133,0.0024503753859187105,0.025,0.002,0.006,-0.16305961263736993,-0.0011691112996327286,-0.0003261192252747399,0.0019861120483496233,0.0004908815234421549,0.25,0,0,-0.22865405648301718,0.0028442477964451124,-0.0,0.0,0.0028442477964451124,0.002,8e-05,0.0,-1.6819007019947845,-0.0018524145581414564,-0.00013455205615958276,-0.0,-0.001986966614301039,-0.04676445198530914,0.0,0.04676445198530914,-0.06276951471399514,0.0,0.06276951471399514,-0.9262072790707282,0.0,0.9262072790707282,0.01137699118578045,0,-0.01137699118578045,0.0024502778652535397,-0.0004913680748906226,-0.0028442477964451124,0.4,0.03344082832336426,2.1845831871032715,STABILIZE
0.02,0.0,0.006,-0.26599940067030264,-0.002128945018053567,-0.0,-0.007833481008579253,-0.009962426026632821,0.025,0.002,0.006,-0.16185581025769635,0.0008995775939599084,-0.0003237116205153927,0.014840544931736123,0.015416410905180639,0.25,0,0,-0.22801228472969953,0.004795832766815689,-0.0,0.0,0.004795832766815689,0.002,8e-05,0.0,-1.7128350417542404,-0.001849329385050427,-0.00013702680334033924,0.0,-0.001986356188390766,0.035983103758396334,0.0,-0.035983103758396334,-0.10644725090267834,0.0,0.10644725090267834,-0.9246646925252134,0.0,0.9246646925252134,0.019183331067262756,0,-0.019183331067262756,-0.009967587071963584,-0.015413074498500549,-0.004795832766815689,0.4,0.03345465660095215,2.2180557250976562,STABILIZE
0.02,0.0,0.006,-0.2697815005270107,-0.002261852533349046,-0.0,-0.0011922630743303288,-0.0034541156076793745,0.025,0.002,0.006,-0.16016014218290872,0.0012675997712867722,-0.00032032028436581743,0.0026411102582783366,0.003588389745199291,0.25,0,0,-0.23312706125091087,-0.03823560545174734,-0.0,-0.0,-0.03823560545174734,0.002,8e-05,0.0,-1.7431367645624951,-0.0018121686654340838,-0.00013945094116499961,0.0,-0.0019516196065990834,0.050703990851470884,0.0,-0.050703990851470884,-0.11309262666745229,0.0,0.11309262666745229,-0.9060843327170419,0.0,0.9060843327170419,-0.15294242180698936,0,0.15294242180698936,-0.0034445246490889527,-0.003597597189303482,0.03823560545174734,0.4,0.03344249725341797,2.25148344039917,STABILIZE
0.02,0.0,0.006,-0.27246015329167955,-0.0016016942056399763,-0.0,0.005921102105374854,0.004319407899734878,0.025,0.002,0.006,-0.1583786464829559,0.001331551525464204,-0.0003167572929659118,0.00045887763635911786,0.00147367186885741,0.25,0,0,-0.23048792056479533,0.019725850624308927,-0.0,0.0,0.019725850624308927,0.002,8e-05,0.0,-1.7750103368912407,-0.0019058728621105846,-0.00014200082695129928,-0.0,-0.002047873689061884,0.05326206101856816,0.0,-0.05326206101856816,-0.08008471028199882,0.0,0.08008471028199882,-0.9529364310552922,0.0,0.9529364310552922,0.07890340249723571,0,-0.07890340249723571,0.004317374375419851,-0.001479618830585029,-0.019725850624308927,0.4,0.0334477424621582,2.2849349975585938,STABILIZE
0.02,0.0,0.006,-0.27454408877213743,-0.0012472846379260793,-0.0,0.003181837538797766,0.0019345529008716865,0.025,0.002,0.006,-0.15655466872101506,0.0013646172492632256,-0.0003131093374420301,0.00023748740624559504,0.0012889953180667906,0.25,0,0,-0.2270100158071672,0.026020102451818804,-0.0,0.0,0.026020102451818804,0.002,8e-05,0.0,-1.8081808133894122,-0.001985331415335695,-0.00014465446507115298,-0.0,-0.002129985880406848,0.05458468997052902,0.0,-0.05458468997052902,-0.06236423189630396,0.0,0.06236423189630396,-0.9926657076678476,0.0,0.9926657076678476,0.10408040980727522,0,-0.10408040980727522,0.0019322081912238062,-0.0012925073934166838,-0.026020102451818804,0.4,0.03341555595397949,2.3184216022491455,STABILIZE
0.02,0.0,0.006,-0.2757509525817204,-0.0007161334810303543,-0.0,0.004727647692151107,0.004011514211120753,0.025,0.002,0.006,-0.1549619378887574,0.0011813759205804874,-0.0003099238757775148,-0.0013047893179285244,-0.0004333372731255518,0.25,0,0,-0.22554461634669234,0.010869304477409355,-0.0,-0.0,0.010869304477409355,0.002,8e-05,0.0,-1.8415925779219888,-0.0019826001121327143,-0.0001473274062337591,0.0,-0.0021299275183664732,0.04725503682321949,0.0,-0.04725503682321949,-0.03580667405151772,0.0,0.03580667405151772,-0.9913000560663572,0.0,0.9913000560663572,0.04347721790963742,0,-0.04347721790963742,0.004011841881407366,0.00043029312902886273,-0.010869304477409355,0.4,0.03370499610900879,2.3520541191101074,STABILIZE
0.02,0.0,0.006,-0.2759160177961307,-9.864059683874258e-05,-0.0,0.005535072927807119,0.0054364323309683766,0.025,0.002,0.006,-0.15344324031522816,0.0011344397698030335,-0.0003068864806304563,-0.000336580419505715,0.0004909728696668621,0.25,0,0,-0.2261177803577603,-0.0042814320646097255,-0.0,-0.0,-0.0042814320646097255,0.002,8e-05,0.0,-1.8761524541343744,-0.002065248470697968,-0.00015009219633074997,-0.0,-0.002215340667028718,0.045377590792121336,0.0,-0.045377590792121336,-0.004932029841937129,0.0,0.004932029841937129,-1.032624235348984,0.0,1.032624235348984,-0.017125728258438902,0,0.017125728258438902,0.005436578840076998,-0.0004893478962601375,0.0042814320646097255,0.4,0.033468008041381836,2.385528087615967,STABILIZE
0.02,0.0,0.006,-0.2750624011783688,0.0005107348051532587,-0.0,0.005469010690377508,0.0059797454955307664,0.025,0.002,0.006,-0.15260642022765683,0.0006258564083116554,-0.00030521284045531365,-0.0036515393720877296,-0.003330895804231388,0.25,0,0,-0.22302119156611164,0.023159338165315936,-0.0,0.0,0.023159338165315936,0.002,8e-05,0.0,-1.9116246837860273,-0.002122369916718565,-0.0001529299747028822,-0.0,-0.0022752998914214472,0.025034256332466212,0.0,-0.025034256332466212,0.025536740257662935,0.0,-0.025536740257662935,-1.0611849583592825,0.0,1.0611849583592825,0.09263735266126374,0,-0.09263735266126374,0.005985123158925002,0.003321223241889405,-0.023159338165315936,0.4,0.03342700004577637,2.4189939498901367,STABILIZE
0.02,0.0,0.006,-0.2757723633196037,-0.0004239641569016557,-0.0,-0.008372534978735087,-0.008796499135636742,0.025,0.002,0.006,-0.15043722392793704,0.0016192086643613648,-0.0003008744478558741,0.007118335932841642,0.008436670149347132,0.25,0,0,-0.22215607055348627,0.006457744001983706,-0.0,-0.0,0.006457744001983706,0.002,8e-05,0.0,-1.9467376639300025,-0.0020968223738171603,-0.0001557390131144002,0.0,-0.0022525613869315607,0.06476834657445459,0.0,-0.06476834657445459,-0.021198207845082785,0.0,0.021198207845082785,-1.0484111869085802,0.0,1.0484111869085802,0.025830976007934825,0,-0.025830976007934825,-0.008800301792634658,-0.008432703517300615,-0.006457744001983706,0.4,0.03349161148071289,2.452442169189453,STABILIZE
0.02,0.0,0.006,-0.27532902050446656,0.00026496548748579883,-0.0,0.006176120583303269,0.006441086070789068,0.025,0.002,0.006,-0.14925307045804842,0.000884642173884054,-0.00029850614091609686,-0.005268196842567894,-0.004682060809599937,0.25,0,0,-0.22231472418524714,-0.0011852491865664543,-0.0,-0.0,-0.0011852491865664543,0.002,8e-05,0.0,-1.9810915038138333,-0.002053170057354516,-0.00015848732030510667,0.0,-0.002211657377659623,0.03538568695536216,0.0,-0.03538568695536216,0.01324827437428994,0.0,-0.01324827437428994,-1.026585028677258,0.0,1.026585028677258,-0.004740996746265817,0,0.004740996746265817,0.006440698626920745,0.0046825937676981755,0.0011852491865664543,0.4,0.03346419334411621,2.4859204292297363,STABILIZE
0.02,0.0,0.006,-0.2760164442664335,-0.0004064141061277943,-0.0,-0.0059539286937835495,-0.0063603427999113435,0.025,0.002,0.006,-0.1492173238885188,2.6417311464738744e-05,-0.0002984346477770376,-0.006088727965738809,-0.006360745302051107,0.25,0,0,-0.22138065131630086,0.0069029543909860675,-0.0,0.0,0.0069029543909860675,0.002,8e-05,0.0,-2.0140190928460577,-0.0019467230264464139,-0.00016112152742768463,0.0,-0.0021078445538740987,0.0010566924585895497,0.0,-0.0010566924585895497,-0.020320705306389714,0.0,0.020320705306389714,-0.973361513223207,0.0,0.973361513223207,0.02761181756394427,0,-0.02761181756394427,-0.0063572767093399525,0.006363809721450909,-0.0069029543909860675,0.4,0.0338287353515625,2.5197434425354004,STABILIZE
0.02,0.0,0.006,-0.2781512534355633,-0.001274442044353021,-0.0,-0.0077729521411853825,-0.009047394185538404,0.025,0.002,0.006,-0.1490870945351296,9.718067882136288e-05,-0.00029817418907025924,0.0005069332389800945,0.00030593972873119813,0.25,0,0,-0.21977474496805668,0.011983709124280116,-0.0,0.0,0.011983709124280116,0.002,8e-05,0.0,-2.045594853722892,-0.0018850151960082928,-0.00016364758829783135,0.0,-0.002048662784306124,0.003887227152854515,0.0,-0.003887227152854515,-0.06372210221765105,0.0,0.06372210221765105,-0.9425075980041464,0.0,0.9425075980041464,0.047934836497120464,0,-0.047934836497120464,-0.0090476469747354,-0.0002983703850780507,-0.011983709124280116,0.4,0.03350186347961426,2.5532727241516113,STABILIZE
0.02,0.0,0.006,-0.279565329214725,-0.0008462007970896177,-0.0,0.003843974525139388,0.0029977737280497702,0.025,0.002,0.006,-0.14808556776324164,0.0007491578290632927,-0.0002961711355264833,0.004681816284663389,0.005134802978200199,0.25,0,0,-0.21873648423123,0.007766354144846989,-0.0,-0.0,0.007766354144846989,0.002,8e-05,0.0,-2.0769436773274346,-0.0018759531782456581,-0.00016615549418619478,0.0,-0.0020421086724318528,0.029966313162531708,0.0,-0.029966313162531708,-0.04231003985448088,0.0,0.04231003985448088,-0.937976589122829,0.0,0.937976589122829,0.031065416579387956,0,-0.031065416579387956,0.0029949892291987906,-0.005136427597708575,-0.007766354144846989,0.4,0.03342175483703613,2.5866827964782715,STABILIZE
0.02,0.0,0.006,-0.28125935278222663,-0.0010096987104258011,-0.0,-0.0014617591698826364,-0.0024714578803084375,0.025,0.002,0.006,-0.14798835736230845,7.242610016265074e-05,-0.0002959767147246169,-0.004840276136060614,-0.00506382675062258,0.25,0,0,-0.21808312446006228,0.004867822761204716,-0.0,-0.0,0.004867822761204716,0.002,8e-05,0.0,-2.1078942507728526,-0.001844765013562746,-0.00016863154006182822,0.0,-0.0020133965536245743,0.0028970440065060298,0.0,-0.0028970440065060298,-0.050484935521290054,0.0,0.050484935521290054,-0.9223825067813729,0.0,0.9223825067813729,0.019471291044818866,0,-0.019471291044818866,-0.0024697368561714377,0.005064666353840886,-0.004867822761204716,0.4,0.033555030822753906,2.6202595233917236,STABILIZE
0.02,0.0,0.006,-0.28318540512310736,-0.0011518755846128587,-0.0,-0.001275433174347894,-0.0024273087589607527,0.025,0.002,0.006,-0.14789168507660577,7.22685744606385e-05,-0.00029578337015321156,-1.1304989355415328e-06,-0.00022464529462811456,0.25,0,0,-0.21582387891035637,0.01688927225078364,-0.0,0.0,0.01688927225078364,0.002,8e-05,0.0,-2.138422372636953,-0.0018257342997887555,-0.00017107378981095627,0.0,-0.001996808089599712,0.0028907429784255398,0.0,-0.0028907429784255398,-0.05759377923064293,0.0,0.05759377923064293,-0.9128671498943778,0.0,0.9128671498943778,0.06755708900313456,0,-0.06755708900313456,-0.0024270421938877066,0.0002275071621177904,-0.01688927225078364,0.4,0.033442020416259766,2.6536874771118164,STABILIZE
0.02,0.0,0.006,-0.2846989445473192,-0.0008974369268251428,-0.0,0.0022629999931726053,0.0013655630663474624,0.025,0.002,0.006,-0.1470487994311295,0.000624724975148211,-0.000294097598862259,0.003930876988125656,0.004261504364411608,0.25,0,0,-0.2150691946507158,0.005593523959970743,-0.0,-0.0,0.005593523959970743,0.002,8e-05,0.0,-2.168896801129404,-0.0018069484689676645,-0.00017351174409035232,0.0,-0.001980460213058017,0.02498899900592844,0.0,-0.02498899900592844,-0.04487184634125714,0.0,0.04487184634125714,-0.9034742344838322,0.0,0.9034742344838322,0.022374095839882972,0,-0.022374095839882972,0.0013638988378300505,-0.004262037294092733,-0.005593523959970743,0.4,0.033730268478393555,2.6874048709869385,STABILIZE
0.02,0.0,0.006,-0.28655338260617047,-0.0011084618737340927,-0.0,-0.0018920538241128599,-0.0030005156978469526,0.025,0.002,0.006,-0.1467685220263894,0.00020941439358184425,-0.0002935370440527788,-0.002978946273631703,-0.0030630689241026377,0.25,0,0,-0.2123071465130999,0.0206371482681256,-0.0,0.0,0.0206371482681256,0.002,8e-05,0.0,-2.198726177404457,-0.0017830051621484974,-0.0001758980941923566,0.0,-0.001958903256340854,0.00837657574327377,0.0,-0.00837657574327377,-0.05542309368670463,0.0,0.05542309368670463,-0.8915025810742486,0.0,0.8915025810742486,0.0825485930725024,0,-0.0825485930725024,-0.002996099484774093,0.003067388720746963,-0.0206371482681256,0.4,0.03345966339111328,2.720892906188965,STABILIZE
0.02,0.0,0.006,-0.28806779557569423,-0.0009054364568479473,-0.0,0.0018207709965658496,0.0009153345397179023,0.025,0.002,0.006,-0.1462323993933809,0.0004006709093192885,-0.0002924647987867618,0.001372180181575058,0.0014803862921075846,0.25,0,0,-0.21061725771140888,0.012629373227958568,-0.0,-0.0,0.012629373227958568,0.002,8e-05,0.0,-2.228342963325976,-0.0017707268920469541,-0.0001782674370660781,0.0,-0.0019489943291130323,0.01602683637277154,0.0,-0.01602683637277154,-0.04527182284239736,0.0,0.04527182284239736,-0.885363446023477,0.0,0.885363446023477,0.05051749291183427,0,-0.05051749291183427,0.0009140289325690483,-0.001481192763919441,-0.012629373227958568,0.4,0.03345155715942383,2.754373550415039,STABILIZE
