Mode,Time,Freq,time2delay,actualDelay,North-Desired,East-Desired,Down-Desired,Roll-UAV,Pitch-UAV,Yaw-UAV,Roll-Control,Pitch-Control,Yaw-Control,Thrust-Control,North-Pos,East-Pos,Down-Pos,Yaw-Ang,North-Vel,East-Vel,Down-Vel,Yaw-Vel,North-Acc,East-Acc,Down-Acc,North-Avg,East-Avg,Down-Avg,Yaw-Avg,North-Dif,East-Dif,Down-Dif,Yaw-Dif,North-One,East-One,Down-One,Yaw-One,North-Two,East-Two,Down-Two,Yaw-Two,Landing-State,Q-Size,Kalman-Time,Kalman-Dt
STABILIZE,0.03437638282775879,29.097811231745812,0.03267982800801595,0.03278708457946777,0.0,0.0,0.0,-0.1867987102085465,-1.6964480216585054,-163.66933689215767,0.33388680528175774,0.34686664787064053,0.0013888185831607252,0.4,0.07293121763903342,-0.0702190870681547,0.5451594696712568,0.006921300648793128,0.0482889503473416,0.04361575120128691,1.0951154865324497,-0.056090260516085184,1.3156580738723278,-5.991349369287491,14.850746095180511,0.0,0.0,0.0,0.0,0.0,0.0,0.0,0.0,0.0,0.0,0.0,0.0,0.0,0.0,0.0,0.0,False,0,3.5251171588897705,0.034917724609375
STABILIZE,0.06760597229003906,30.09387690674014,0.032284053166707356,0.03239130973815918,0.0,0.0,0.0,-0.18715249266321202,-1.6952493234591681,-163.6579851177571,0.1881745865631615,0.18525905504308934,0.003375694906326122,0.4,0.07474654555092936,-0.0760168266512691,0.5475137366492412,0.016799609520849718,0.24347049184143543,-0.4960651509463787,1.1091580614447594,0.6145361853707009,9.097930043935776,-9.765471518039703,18.49788874387741,0.0,0.0,0.0,0.0,0.0,0.0,0.0,0.0,0.0,0.0,0.0,0.0,0.0,0.0,0.0,0.0,False,0,3.5541727542877197,0.02992919921875
STABILIZE,0.10114669799804688,29.81577263744544,0.03250721295674642,0.032645463943481445,0.0,0.0,0.0,-0.1842372025068066,-1.6926161788124225,-163.66108602364028,0.1319149377181325,0.1267030588800035,0.0034731143190086934,0.4,0.07365392269233569,-0.07680598489912978,0.5410947935410921,0.01722902925672515,0.08950111805461347,-0.2110566245391965,0.7460895925760269,0.0502710460649401,-1.580839604139328,3.6598868668079376,10.2549709379673,0.0,0.0,0.0,0.0,0.0,0.0,0.0,0.0,0.0,0.0,0.0,0.0,0.0,0.0,0.0,0.0,False,0,3.582592010498047,0.0349169921875
STABILIZE,0.1346735954284668,29.824677171625236,0.03242162068684896,0.032599449157714844,0.0,0.0,0.0,-0.18236887896454365,-1.6920809694579286,-163.6658671560593,0.09432711091414345,0.10099515862641233,0.002629508848772195,0.4,0.07534331124563383,-0.07034720194369729,0.5450460876410059,0.01296753998906016,0.2344734501093626,0.24813010822981596,1.2033208273351192,-0.24009971890275417,-3.4736208617687225,5.832258984446526,24.585838615894318,0.0,0.0,0.0,0.0,0.0,0.0,0.0,0.0,0.0,0.0,0.0,0.0,0.0,0.0,0.0,0.0,False,0,3.6114230155944824,0.039905029296875
STABILIZE,0.16824102401733398,29.792476417774747,0.032399686177571614,0.032729387283325195,0.0,0.0,0.0,-0.18237880408318133,-1.686058343435564,-163.648941947296,0.07618264447118372,0.07561165461417184,0.003159604450397046,0.4,0.0677772708070502,-0.06837507199078256,0.549100425874806,0.015565694482601257,-0.3359009511768818,-0.013249440235085785,1.0543415322899818,0.16990663853490004,-2.8910458087921143,-6.068500131368637,10.940701514482498,0.0,0.0,0.0,0.0,0.0,0.0,0.0,0.0,0.0,0.0,0.0,0.0,0.0,0.0,0.0,0.0,False,0,3.639975070953369,0.02494091796875
STABILIZE,0.20263314247131348,29.075421472937002,0.03247550328572591,0.033487796783447266,0.0,0.0,0.0,-0.18336245804536896,-1.6885681177904264,-163.6512642116138,0.009424585922758478,0.0002058970575435726,0.003622332543181444,0.4,0.059416524626885084,-0.0657280802595625,0.5448545831190829,0.017818160298255753,-0.3359009511768818,-0.013249440235085785,1.0543415322899818,0.16990663853490004,-2.8910458087921143,-6.068500131368637,10.940701514482498,0.0,0.0,0.0,0.0,0.0,0.0,0.0,0.0,0.0,0.0,0.0,0.0,0.0,0.0,0.0,0.0,False,1,3.668618679046631,0.02494091796875
STABILIZE,0.23608732223510742,29.892696276868694,0.032413514455159505,0.032538414001464844,0.0,0.0,0.0,-0.18358190455288206,-1.6924500131165208,-163.66331266530972,0.0021284510744019945,0.004520282669767511,0.0026367891409063075,0.4,0.06480960829947142,-0.06379899431396313,0.5572608003405851,0.012847472921860198,0.2222936600446701,-0.3279004245996475,0.692423339933157,0.1489252445597597,3.2503336668014526,-11.648540943861008,10.588354617357254,0.0,0.0,0.0,0.0,0.0,0.0,0.0,0.0,0.0,0.0,0.0,0.0,0.0,0.0,0.0,0.0,False,0,3.7260243892669678,0.02993017578125
STABILIZE,0.2750680446624756,25.653235474006117,0.0323977788289388,0.038021087646484375,0.0,0.0,0.0,-0.18421049539993478,-1.691390693464934,-163.6548842118739,0.004457026917939836,0.006750864204505356,0.003077649367946119,0.4,0.06605904910590786,-0.06688865551499609,0.548114896463355,0.014993369926948403,0.2222936600446701,-0.3279004245996475,0.692423339933157,0.1489252445597597,3.2503336668014526,-11.648540943861008,10.588354617357254,0.0,0.0,0.0,0.0,0.0,0.0,0.0,0.0,0.0,0.0,0.0,0.0,0.0,0.0,0.0,0.0,False,0,3.754594564437866,0.02993017578125
STABILIZE,0.30852270126342773,29.89163109245494,0.03234079678853353,0.03247785568237305,0.0,0.0,0.0,-0.1825608179523916,-1.6888879627426534,-163.65772557056866,0.010035766038384077,0.0026198699498064353,0.0035099289586531077,0.4,0.06364118272564159,-0.06667269341866239,0.5439571119590279,0.017097590084814825,0.009403367585036904,-0.1374172861687839,0.9536875411868095,0.14833040445216034,-1.244121789932251,4.042084887623787,14.354589581489563,0.0,0.0,0.0,0.0,0.0,0.0,0.0,0.0,0.0,0.0,0.0,0.0,0.0,0.0,0.0,0.0,False,0,3.7833456993103027,0.034916748046875
STABILIZE,0.34192967414855957,29.933870495792863,0.032358678181966145,0.03250002861022949,0.0,0.0,0.0,-0.18382152146278785,-1.6911021179725012,-163.66118164628867,0.009861147635297305,0.007274637826705819,0.0034269867371915664,0.4,0.06170015858195766,-0.06487994874432514,0.5383609250145313,0.016627244381071476,0.02019612438743934,-0.02819979563355446,0.7098924368619919,-0.006986536468982574,-2.639368548989296,-1.9828995689749718,9.796363115310669,0.0,0.0,0.0,0.0,0.0,0.0,0.0,0.0,0.0,0.0,0.0,0.0,0.0,0.0,0.0,0.0,False,0,3.811924695968628,0.034917236328125
STABILIZE,0.37537312507629395,29.90164682398232,0.03241542180379232,0.032540321350097656,0.0,0.0,0.0,-0.18421468422688672,-1.6921888651024737,-163.65633221197797,0.01023110032972033,0.012487707477523497,0.00333712148817876,0.4,0.05976583988308813,-0.06308171395915443,0.5327472826427688,0.01612401041124647,0.02019612438743934,-0.02819979563355446,0.7098924368619919,-0.006986536468982574,-2.639368548989296,-1.9828995689749718,9.796363115310669,0.0,0.0,0.0,0.0,0.0,0.0,0.0,0.0,0.0,0.0,0.0,0.0,0.0,0.0,0.0,0.0,False,1,3.840714931488037,0.034917236328125
STABILIZE,0.40882396697998047,29.893761537200568,0.03241017659505208,0.03254222869873047,0.0,0.0,0.0,-0.18373110149756453,-1.6928095585432985,-163.66358587287652,0.006380183934517989,0.003629205745745638,0.0030908576337953537,0.4,0.05607525880585629,-0.057964512259511804,0.5367104353518195,0.014843041331975585,0.14656208222731948,-0.06955024437047541,1.421844493597746,-0.07554530731492604,-5.056463927030563,-3.7281543016433716,18.19937229156494,0.0,0.0,0.0,0.0,0.0,0.0,0.0,0.0,0.0,0.0,0.0,0.0,0.0,0.0,0.0,0.0,False,0,3.898057699203491,0.069833984375
STABILIZE,0.44231104850769043,29.862261934427398,0.03241613705952962,0.03255462646484375,0.0,0.0,0.0,-0.1815392511042251,-1.6931185178815358,-163.67129032626028,0.004156899516627082,0.004372812973263093,0.002833896840543357,0.4,0.05760508398671483,-0.0580804768164236,0.5617090263900393,0.013513023887001279,0.14656208222731948,-0.06955024437047541,1.421844493597746,-0.07554530731492604,-5.056463927030563,-3.7281543016433716,18.19937229156494,0.0,0.0,0.0,0.0,0.0,0.0,0.0,0.0,0.0,0.0,0.0,0.0,0.0,0.0,0.0,0.0,False,0,3.9267160892486572,0.069833984375
STABILIZE,0.4756946563720703,29.953965363327978,0.03238538106282552,0.03250455856323242,0.0,0.0,0.0,-0.1706991005611802,-1.6699240492338188,-163.6631350803913,0.006138173504398647,-0.0037976720045026623,0.005071486927833338,0.4,0.04815883224124587,-0.05967981913313038,0.5821669885694472,0.024618664491855242,-0.38610612973570824,-0.15071516390889883,1.2197154574096203,0.5449431744740294,-13.70692104101181,0.09892164962366223,12.6122385263443,0.0,0.0,0.0,0.0,0.0,0.0,0.0,0.0,0.0,0.0,0.0,0.0,0.0,0.0,0.0,0.0,False,0,3.9555270671844482,0.0349169921875
STABILIZE,0.5092957019805908,29.76414652492939,0.03244164784749349,0.032576560974121094,0.0,0.0,0.0,-0.1661031303017021,-1.668319381665689,-163.66096308023523,-0.0035245309616520047,-0.005656595172106707,0.006235121467852956,0.4,0.04486015776775594,-0.04937846953398469,0.5741677816769799,0.030335333294860184,-0.030819358653388917,0.36434733774513006,0.8184622041881084,0.31019755014819833,-1.9274158403277397,15.875163674354553,16.73388183116913,0.0,0.0,0.0,0.0,0.0,0.0,0.0,0.0,0.0,0.0,0.0,0.0,0.0,0.0,0.0,0.0,False,0,3.9840400218963623,0.029929931640625
STABILIZE,0.5426146984100342,30.009902406914513,0.032274516423543294,0.03238868713378906,0.0,0.0,0.0,-0.16936299816564934,-1.6773735444624813,-163.66048496699332,-0.015753451857873777,-0.018393467027010807,0.0056272885858722164,0.4,0.0316647047374831,-0.03674440763069683,0.5760289212937504,0.027205238366648312,-0.5324567202478647,0.49693756736814976,1.4150033704936504,-0.10332454044301415,9.918736666440964,0.2595472615212202,15.634740889072418,0.0,0.0,0.0,0.0,0.0,0.0,0.0,0.0,0.0,0.0,0.0,0.0,0.0,0.0,0.0,0.0,False,0,4.012810707092285,0.0349169921875
STABILIZE,0.5760643482208252,29.89567919713752,0.0324125607808431,0.03253483772277832,0.0,0.0,0.0,-0.18948542915159447,-1.693268355156453,-163.65756164602857,-0.024691524451901856,-0.029281828816611,0.005089897163419914,0.4,0.01871778900934658,-0.024400099703989715,0.5809788053746866,0.024436566846393462,-0.5324567202478647,0.49693756736814976,1.4150033704936504,-0.10332454044301415,9.918736666440964,0.2595472615212202,15.634740889072418,0.0,0.0,0.0,0.0,0.0,0.0,0.0,0.0,0.0,0.0,0.0,0.0,0.0,0.0,0.0,0.0,False,1,4.041383981704712,0.0349169921875
STABILIZE,0.6096465587615967,29.779573289786644,0.03239420255025228,0.03252410888671875,0.0,0.0,0.0,-0.18545249593139285,-1.6870393293551071,-163.66201492936742,-0.026150674052593765,-0.008984718617824015,-0.001576675436191328,0.4,0.038448659128206455,-0.023166241439294577,0.5702468029554737,-0.008866625339386505,0.539140310138464,0.2272193320095539,0.2910991199314594,-1.0854666829465318,-21.208256483078003,27.016666531562805,-9.220971167087555,0.0,0.0,0.0,0.0,0.0,0.0,0.0,0.0,0.0,0.0,0.0,0.0,0.0,0.0,0.0,0.0,False,0,4.0988147258758545,0.034917236328125
STABILIZE,0.6429071426391602,30.063678197170177,0.03225735028584798,0.03237128257751465,0.0,0.0,0.0,-0.19389306228079478,-1.7102628263067967,-163.65992489148138,-0.03487846892248689,0.009634355693210247,-0.006213005515522437,0.4,0.047655724509220024,-0.016507021839358257,0.5507224353230267,-0.03194149424147093,0.539140310138464,0.2272193320095539,0.2910991199314594,-1.0854666829465318,-21.208256483078003,27.016666531562805,-9.220971167087555,0.0,0.0,0.0,0.0,0.0,0.0,0.0,0.0,0.0,0.0,0.0,0.0,0.0,0.0,0.0,0.0,False,0,4.127710819244385,0.034917236328125
STABILIZE,0.6764469146728516,29.816196542311193,0.032427104314168294,0.03256630897521973,0.0,0.0,0.0,-0.20367666793660336,-1.7285428671249838,-163.66271160866276,-0.0166300313688617,0.004290968720000031,-0.004275620309992616,0.4,0.04008139983922976,-0.024715692443318036,0.5624904599755796,-0.022180375107000355,-0.270387576892972,-0.48557380214333534,1.779657043516636,0.4847051215018953,8.351369202136993,-20.908348262310028,66.61261320114136,0.0,0.0,0.0,0.0,0.0,0.0,0.0,0.0,0.0,0.0,0.0,0.0,0.0,0.0,0.0,0.0,False,0,4.156217336654663,0.034916748046875
STABILIZE,0.7099041938781738,29.88886196821777,0.0323522408803304,0.032498836517333984,0.0,0.0,0.0,-0.19953482521565177,-1.7145146190651297,-163.67809319467364,-0.008678410368939219,0.027202727148253857,-0.0060668826421481055,0.4,0.050152583101042994,-0.021604280808767612,0.5573725094326443,-0.03103285778925641,0.5929495673626661,0.06967696244828403,0.9430639445781708,-0.43083888797344266,15.933623909950256,5.440326035022736,15.963417291641235,0.0,0.0,0.0,0.0,0.0,0.0,0.0,0.0,0.0,0.0,0.0,0.0,0.0,0.0,0.0,0.0,False,0,4.184873342514038,0.02993017578125
STABILIZE,0.7432675361633301,29.972373677102166,0.03236106236775716,0.03247237205505371,0.0,0.0,0.0,-0.24117968920440955,-1.7430992809067503,-163.63205771966773,-0.0006637528895004846,0.049227596798712796,-0.007671308219020678,0.4,0.059612586053808134,-0.018790947711493367,0.5501690458863051,-0.038924899253962385,0.5929495673626661,0.06967696244828403,0.9430639445781708,-0.43083888797344266,15.933623909950256,5.440326035022736,15.963417291641235,0.0,0.0,0.0,0.0,0.0,0.0,0.0,0.0,0.0,0.0,0.0,0.0,0.0,0.0,0.0,0.0,False,0,4.213809251785278,0.02993017578125
STABILIZE,0.7771401405334473,29.52404550061944,0.03243068059285482,0.03290891647338867,0.0,0.0,0.0,-0.24800926472461404,-1.7508493044588935,-163.6228369642882,0.015825414868758693,0.1667308964331922,-0.012318441111939634,0.4,0.18383794235664153,-0.032783738382028214,0.6091347809152654,-0.061951191548481256,4.73981574177742,-0.4189321305602789,3.4703563898801804,2.001152152042883,82.95540809631348,1.5068583190441132,58.660608530044556,0.0,0.0,0.0,0.0,0.0,0.0,0.0,0.0,0.0,0.0,0.0,0.0,0.0,0.0,0.0,0.0,False,0,4.2709057331085205,0.029928955078125
STABILIZE,0.8105618953704834,29.918923738667086,0.03235629399617513,0.03248929977416992,0.0,0.0,0.0,-0.2380143500913582,-1.7407886492548763,-163.62592420979306,0.029184899606679308,0.2564280817536333,-0.0038231952409619203,0.4,0.27302198827063995,-0.03958284589346545,0.6506179768731933,-0.019410029844684096,4.73981574177742,-0.4189321305602789,3.4703563898801804,2.001152152042883,82.95540809631348,1.5068583190441132,58.660608530044556,0.0,0.0,0.0,0.0,0.0,0.0,0.0,0.0,0.0,0.0,0.0,0.0,0.0,0.0,0.0,0.0,False,0,4.299822807312012,0.029928955078125
STABILIZE,0.8439810276031494,29.9229792394949,0.03239396413167318,0.03252363204956055,0.0,0.0,0.0,-0.2297841855849044,-1.7384895435472265,-163.64308164498814,0.025515144162264684,0.24012812274807105,-0.008894867559702863,0.4,0.25186344203530736,-0.04283798808676343,0.6216588117095674,-0.04461915257357972,-0.6798206828534603,-0.25374458637088537,-0.046623870730400085,-1.353466230504907,-61.5435004234314,-11.429519206285477,37.53620684146881,0.0,0.0,0.0,0.0,0.0,0.0,0.0,0.0,0.0,0.0,0.0,0.0,0.0,0.0,0.0,0.0,False,0,4.328233480453491,0.0349169921875
STABILIZE,0.8774244785308838,29.90164682398232,0.03241899808247884,0.032532453536987305,0.0,0.0,0.0,-0.2426889475675708,-1.743458292724999,-163.64024028629342,0.02797111253006669,0.2388078587922714,-0.006329539673277077,0.4,0.25876624899277084,-0.04256437638073549,0.6259479401916332,-0.031686599632984404,0.5726585630327463,-0.06000942084938288,1.416137907654047,0.5943379286127981,16.92836731672287,3.957519307732582,22.110721468925476,0.0,0.0,0.0,0.0,0.0,0.0,0.0,0.0,0.0,0.0,0.0,0.0,0.0,0.0,0.0,0.0,False,0,4.356985569000244,0.06484619140625
STABILIZE,0.9108755588531494,29.893761537200568,0.03240993817647298,0.03255343437194824,0.0,0.0,0.0,-0.2706604131681977,-1.766926822713163,-163.62479039839084,0.03865967684884543,0.28669265225349116,-0.009226546293095257,0.4,0.31007628977618684,-0.04989991725448563,0.6636823299512251,-0.04601755859275926,1.866396702826023,-0.34737789537757635,1.977769285440445,-0.7293607900244595,40.06745517253876,-7.732516527175903,28.68937849998474,0.0,0.0,0.0,0.0,0.0,0.0,0.0,0.0,0.0,0.0,0.0,0.0,0.0,0.0,0.0,0.0,False,0,4.39085578918457,0.034917724609375
STABILIZE,0.9443957805633545,29.835072519436917,0.03242638905843099,0.03255653381347656,0.0,0.0,0.0,-0.266652933074825,-1.761675474458481,-163.61074752945729,0.03595158509401027,0.1916746276968986,-0.01025724867741703,0.4,0.32383048660070174,-0.05877946539130435,0.6477139990122431,-0.05100054721085215,1.077503152191639,-0.5234295036643744,0.5452611483633518,-0.3244359065663097,-21.91881388425827,-6.994922459125519,2.969847619533539,0.0,0.0,0.0,0.0,0.0,0.0,0.0,0.0,0.0,0.0,0.0,0.0,0.0,0.0,0.0,0.0,False,0,4.419561386108398,0.034917236328125
STABILIZE,0.9778900146484375,29.85375992028186,0.032346518834431966,0.03247261047363281,0.0,0.0,0.0,-0.25345818153712396,-1.7531764779751637,-163.62816451184082,0.03935017191222037,0.1262661303525753,-0.011266572217437976,0.4,0.3369630423959888,-0.06744757873734275,0.6323039377224545,-0.05586035659239463,1.077503152191639,-0.5234295036643744,0.5452611483633518,-0.3244359065663097,-21.91881388425827,-6.994922459125519,2.969847619533539,0.0,0.0,0.0,0.0,0.0,0.0,0.0,0.0,0.0,0.0,0.0,0.0,0.0,0.0,0.0,0.0,False,0,4.448192596435547,0.034917236328125
STABILIZE,1.0116174221038818,29.649267658202795,0.03230431874593099,0.03286123275756836,0.0,0.0,0.0,-0.26540124754856725,-1.7558789917306674,-163.58014828197565,0.041324077925944204,0.07994502333020963,-0.005150218215475164,0.4,0.27669595121271007,-0.07200028414755566,0.6303396440956384,-0.025193297174873154,-1.0043828748166561,-0.470995856449008,1.7241956666111946,0.3440566388133763,7.063528895378113,-8.006830513477325,40.10809659957886,0.0,0.0,0.0,0.0,0.0,0.0,0.0,0.0,0.0,0.0,0.0,0.0,0.0,0.0,0.0,0.0,False,0,4.505516529083252,0.034916748046875
STABILIZE,1.045114517211914,29.853334946653664,0.032451899846394856,0.032567739486694336,0.0,0.0,0.0,-0.2701993487187954,-1.76455696051458,-163.637371606842,0.004250867470112151,0.11911903177005928,-0.013540905322529292,0.4,0.3179058294024184,-0.0378612208486476,0.6272351488002623,-0.06692284622179792,2.5902794674038887,1.684044487774372,1.0918336920440197,-2.255434118426934,85.52416563034058,50.37810206413269,0.5226046312600374,0.0,0.0,0.0,0.0,0.0,0.0,0.0,0.0,0.0,0.0,0.0,0.0,0.0,0.0,0.0,0.0,False,0,4.534342050552368,0.034917236328125
STABILIZE,1.0785741806030273,29.886732221747184,0.032396825154622395,0.03254890441894531,0.0,0.0,0.0,-0.2639324367118972,-1.7560832570755331,-163.6076466235741,0.03590875313273279,0.06714454951384582,-0.004252648814135686,0.4,0.3122965597982342,-0.07280879040705587,0.6173584652042255,-0.02041323054942111,0.15896371332928538,-1.9389132037758827,0.724930502474308,2.3716931161672483,-43.8153475522995,-90.9376323223114,15.101772546768188,0.0,0.0,0.0,0.0,0.0,0.0,0.0,0.0,0.0,0.0,0.0,0.0,0.0,0.0,0.0,0.0,False,0,4.5668370723724365,0.029928955078125
STABILIZE,1.1121160984039307,29.815136802746718,0.03240850766499837,0.032557010650634766,0.0,0.0,0.0,-0.2710220396682382,-1.7585262236425763,-163.56251273353865,0.0359375264340903,0.0006406155969986071,-0.0038195253023720816,0.4,0.26276917986766746,-0.08008737937088639,0.5954592303776344,-0.01818673952565474,-2.0721953362226486,-0.5271149799227715,0.2258115215227008,0.048759439824251655,-63.289278745651245,45.610857009887695,8.560478687286377,0.0,0.0,0.0,0.0,0.0,0.0,0.0,0.0,0.0,0.0,0.0,0.0,0.0,0.0,0.0,0.0,False,0,4.595515012741089,0.03491796875
STABILIZE,1.1454854011535645,29.966163694558755,0.03232863744099935,0.032454490661621094,0.0,0.0,0.0,-0.2580141044765076,-1.7620520953581837,-163.61656685063014,0.03679949123187854,-0.06206487153692189,-0.003380423062505819,0.4,0.21626076912345643,-0.08793499610162939,0.57739035678394,-0.01593794268549139,-2.0721953362226486,-0.5271149799227715,0.2258115215227008,0.048759439824251655,-63.289278745651245,45.610857009887695,8.560478687286377,0.0,0.0,0.0,0.0,0.0,0.0,0.0,0.0,0.0,0.0,0.0,0.0,0.0,0.0,0.0,0.0,False,0,4.624285697937012,0.03491796875
STABILIZE,1.17893385887146,29.89567919713752,0.03240564664204915,0.03257346153259277,0.0,0.0,0.0,-0.25821759608900635,-1.755858714606569,-163.5941638301525,0.006840372895069775,-0.005512675011867282,-0.010807344310378468,0.4,0.21902727039161096,-0.06424070064835426,0.5807864673694845,-0.05289544526083041,0.6079129874706268,1.190620567649603,1.3834339566528797,-2.092059835461637,29.075336456298828,-53.367453813552856,36.13579273223877,0.0,0.0,0.0,0.0,0.0,0.0,0.0,0.0,0.0,0.0,0.0,0.0,0.0,0.0,0.0,0.0,False,0,4.65290641784668,0.0349169921875
STABILIZE,1.212399959564209,29.882686539516527,0.032431634267171223,0.03256678581237793,0.0,0.0,0.0,-0.26920528939029414,-1.7579208981273837,-163.5349460900485,0.08896968105188383,-0.030039187486474203,-0.003262020704521987,0.4,0.23026346543793658,-0.11113855150786534,0.5697743868416306,-0.01511828305640317,1.0701068677008152,-2.6930859312415123,0.5798245780169964,2.012585888713484,17.92154461145401,-97.19480276107788,1.165037788450718,0.0,0.0,0.0,0.0,0.0,0.0,0.0,0.0,0.0,0.0,0.0,0.0,0.0,0.0,0.0,0.0,False,0,4.682211875915527,0.029928955078125
STABILIZE,1.2463719844818115,29.435984532139322,0.03240922292073568,0.03304481506347656,0.0,0.0,0.0,-0.2693151860668226,-1.752437003275804,-163.64899658880938,0.037572514897193564,-0.06273913347834142,-0.004073822192096705,0.4,0.19535410202289355,-0.09258332139925471,0.5598377994361761,-0.0191124200597036,-1.4449703507125378,0.866354163736105,0.7634494919329882,-0.28662056422653415,-50.14075040817261,104.54878807067871,11.75307184457779,0.0,0.0,0.0,0.0,0.0,0.0,0.0,0.0,0.0,0.0,0.0,0.0,0.0,0.0,0.0,0.0,False,1,4.711076259613037,0.034917236328125
STABILIZE,1.2798423767089844,29.87630084978168,0.0323975404103597,0.03254413604736328,0.0,0.0,0.0,-0.26858859801343604,-1.7514259218352306,-163.52782903293334,0.08490098020227094,-0.06331846296495272,0.0035811364049811757,0.4,0.1542217800968031,-0.14160722056114616,0.531780375008679,0.019098440135272114,0.08715486037544906,-4.1041698306798935,0.5535830743610859,3.855234536442936,31.89569115638733,-74.6658980846405,46.78686261177063,0.0,0.0,0.0,0.0,0.0,0.0,0.0,0.0,0.0,0.0,0.0,0.0,0.0,0.0,0.0,0.0,False,0,4.768429756164551,0.034918212890625
STABILIZE,1.3136005401611328,29.624138320714206,0.03239038785298665,0.03283977508544922,0.0,0.0,0.0,-0.24939069716467557,-1.7412766876154149,-163.52210533440888,0.047086505849602056,-0.02410740064063268,-0.009822217797777791,0.4,0.15189749536638963,-0.11333100568226154,0.5250548770026703,-0.04775714568409399,0.29009138233959675,1.4849700033664703,0.7476818282157183,-3.8614295180201377,0.3904879093170166,136.09458208084106,22.611844539642334,0.0,0.0,0.0,0.0,0.0,0.0,0.0,0.0,0.0,0.0,0.0,0.0,0.0,0.0,0.0,0.0,False,0,4.797258615493774,0.029928955078125
STABILIZE,1.3489718437194824,28.27131485113812,0.032383235295613606,0.03443765640258789,0.0,0.0,0.0,-0.23951443038782225,-1.7373828394582729,-163.63519960668594,0.021267622469302534,-0.06675492074909245,-0.022463731500636953,0.4,0.11350734221942993,-0.06849930080668554,0.5254913144416589,-0.1105734643546761,-1.7925059422850609,2.3898040875792503,1.2630652636289597,-3.6951878362639046,-60.581767559051514,-19.690200686454773,56.84685707092285,0.0,0.0,0.0,0.0,0.0,0.0,0.0,0.0,0.0,0.0,0.0,0.0,0.0,0.0,0.0,0.0,False,0,4.825937509536743,0.034916748046875
STABILIZE,1.3823974132537842,29.915722803914296,0.03240063985188802,0.03251075744628906,0.0,0.0,0.0,-0.24045291438803787,-1.7438719460566081,-163.54362043029442,-0.06934125518045689,-0.11830653033576484,-0.035259361676226966,0.4,0.07545871070792101,-0.02448297815180356,0.5285142894703374,-0.17397009369517544,-1.7925059422850609,2.3898040875792503,1.2630652636289597,-3.6951878362639046,-60.581767559051514,-19.690200686454773,56.84685707092285,0.0,0.0,0.0,0.0,0.0,0.0,0.0,0.0,0.0,0.0,0.0,0.0,0.0,0.0,0.0,0.0,False,0,4.855358362197876,0.034916748046875
STABILIZE,1.4158575534820557,29.887158146759965,0.03241089185078939,0.03253173828125,0.0,0.0,0.0,-0.24631895298759457,-1.7496508197029677,-163.48516767137744,0.04530164935597436,-0.16602806765272654,-0.007697715021284347,0.4,0.004043947203241555,-0.113755646760598,0.48007205279075393,-0.036041318081571294,-3.7333324551582336,-5.310628563165665,-1.7202403396368027,7.919530064322561,-38.50184977054596,-150.8207082748413,-25.098222494125366,0.0,0.0,0.0,0.0,0.0,0.0,0.0,0.0,0.0,0.0,0.0,0.0,0.0,0.0,0.0,0.0,False,0,4.8841493129730225,0.034917236328125
STABILIZE,1.4494564533233643,29.762668085861275,0.032390864690144856,0.032685041427612305,0.0,0.0,0.0,-0.23490557348237104,-1.743315285639252,-163.65700157051663,-0.0556657010733367,-0.10259685065070688,-0.032840024302999635,0.4,0.028174092551638986,-0.061707817822517885,0.47824635715552777,-0.16121118190613865,1.7724281176924706,2.884349972009659,0.9730974212288857,-7.339974852868639,78.89776229858398,163.13892602920532,-2.8933871537446976,0.0,0.0,0.0,0.0,0.0,0.0,0.0,0.0,0.0,0.0,0.0,0.0,0.0,0.0,0.0,0.0,False,1,4.912953853607178,0.039905029296875
STABILIZE,1.4954946041107178,21.72302815916636,0.03240516980489095,0.0449678897857666,0.0,0.0,0.0,-0.2570210856846376,-1.7438320321386458,-163.4258679690034,-0.003341977320746152,-0.1373546090847675,-0.013033533314731097,0.4,-0.014772048553622852,-0.09331958219385035,0.49482124107766895,-0.06189465345761691,-3.7765659391880035,-5.872960761189461,1.7126070335507393,8.43533314383723,-112.22255229949951,-170.43606042861938,1.412852481007576,0.0,0.0,0.0,0.0,0.0,0.0,0.0,0.0,0.0,0.0,0.0,0.0,0.0,0.0,0.0,0.0,False,0,4.97233247756958,0.034918212890625
STABILIZE,1.5290679931640625,29.781053408881125,0.032212050755818684,0.03261280059814453,0.0,0.0,0.0,-0.2270912767829211,-1.7440531595130249,-163.65836760835063,-0.0072895541824131195,-0.11102530496688746,-0.03373259205222788,0.4,-0.020483589926184452,-0.054962062625525096,0.5015808520646211,-0.16483440820600626,-0.03758608072530478,2.1313052624464035,1.4036335982382298,-6.1873420106149055,119.04571056365967,132.1013331413269,21.983222663402557,0.0,0.0,0.0,0.0,0.0,0.0,0.0,0.0,0.0,0.0,0.0,0.0,0.0,0.0,0.0,0.0,False,0,5.001141309738159,0.039905029296875
STABILIZE,1.5625495910644531,29.86757815281635,0.032392056783040364,0.03253674507141113,0.0,0.0,0.0,-0.2230204306767406,-1.722547668581005,-163.78810022144586,-0.010822677397421387,-0.08411593714289432,-0.05529788714423229,0.4,-0.027099937252581557,-0.01577974720544871,0.5108684370384485,-0.27175156671775424,-0.03758608072530478,2.1313052624464035,1.4036335982382298,-6.1873420106149055,119.04571056365967,132.1013331413269,21.983222663402557,0.0,0.0,0.0,0.0,0.0,0.0,0.0,0.0,0.0,0.0,0.0,0.0,0.0,0.0,0.0,0.0,False,0,5.030015230178833,0.039905029296875
STABILIZE,1.5959887504577637,29.905910873440284,0.032378228505452473,0.03250694274902344,0.0,0.0,0.0,-0.21390287518671405,-1.7364086837278998,-163.6743639113868,-0.0811771497141998,-0.04460888062382182,-0.034816458359884346,0.4,-0.04963288249775638,-0.024388139572020663,0.5074980186613883,-0.16877981595785424,-4.630731418728828,-4.373717680573463,1.4009000733494759,11.533250819261138,-211.2205982208252,-141.39621257781982,4.482222720980644,0.0,0.0,0.0,0.0,0.0,0.0,0.0,0.0,0.0,0.0,0.0,0.0,0.0,0.0,0.0,0.0,False,0,5.088032484054565,0.034916748046875
STABILIZE,1.6294703483581543,29.86672743067918,0.03237799008687337,0.03253531455993652,0.0,0.0,0.0,-0.22394605471140955,-1.7352558758620484,-163.67202798669067,-0.028057722732509328,-0.1257274566105342,-0.03388192412262414,0.4,-0.1037817991937881,-0.030646656911817772,0.5025090566019024,-0.16355968848068553,-2.986219897866249,-0.47884127125144005,0.6818592548370361,0.0741469328040717,61.284637451171875,129.2447328567505,-36.46584749221802,0.0,0.0,0.0,0.0,0.0,0.0,0.0,0.0,0.0,0.0,0.0,0.0,0.0,0.0,0.0,0.0,False,0,5.116854667663574,0.029928955078125
STABILIZE,1.6628742218017578,29.934938692778736,0.03237942059834798,0.03249359130859375,0.0,0.0,0.0,-0.19390867033026532,-1.7360733641283344,-163.74241991627682,-0.09227825737742429,-0.042970506531900134,-0.057722196605845696,0.4,-0.05423015586776249,0.009203041615261531,0.5137414459255265,-0.28181810372703764,2.977849915623665,2.26187314838171,1.7748966813087463,-7.313475426436282,61.67259216308594,-16.775129735469818,3.9281822741031647,0.0,0.0,0.0,0.0,0.0,0.0,0.0,0.0,0.0,0.0,0.0,0.0,0.0,0.0,0.0,0.0,False,0,5.1461591720581055,0.034918212890625
STABILIZE,1.6963112354278564,29.908683157797157,0.032413514455159505,0.032538652420043945,0.0,0.0,0.0,-0.18368454415341737,-1.734038821529317,-163.67059364696496,-0.011080040769739624,-0.01680250468526616,-0.03691576202042278,0.4,-0.034627851220877054,-0.03349627783256925,0.5355522927725597,-0.17719387408943213,1.2812980450689793,-2.6381051167845726,2.2374721243977547,5.991173428123439,-152.40097045898438,-144.35137510299683,19.47658658027649,0.0,0.0,0.0,0.0,0.0,0.0,0.0,0.0,0.0,0.0,0.0,0.0,0.0,0.0,0.0,0.0,False,0,5.174259424209595,0.034916748046875
STABILIZE,1.729755163192749,29.899941544647056,0.03241685231526693,0.03254508972167969,0.0,0.0,0.0,-0.19360280592149567,-1.7006022707777542,-163.5622531863502,0.07176220942625697,0.011227866833707153,-0.015687322263782475,0.4,-0.01436198004992114,-0.07690125787471777,0.557556689591009,-0.07081479554157658,1.2812980450689793,-2.6381051167845726,2.2374721243977547,5.991173428123439,-152.40097045898438,-144.35137510299683,19.47658658027649,0.0,0.0,0.0,0.0,0.0,0.0,0.0,0.0,0.0,0.0,0.0,0.0,0.0,0.0,0.0,0.0,False,0,5.206686496734619,0.034916748046875
STABILIZE,1.7631640434265137,29.93194793331811,0.03242185910542806,0.032535552978515625,0.0,0.0,0.0,-0.19873067716258855,-1.7337317831817836,-163.65474760809053,0.05775234235946047,-0.035660866758343845,-0.017382677590399184,0.4,-0.07545930477409558,-0.07119623845637234,0.5494255963751369,-0.07902747674178286,-3.531681001186371,0.275976350530982,0.46085137873888016,-0.8130068617775794,61.059874296188354,137.18478679656982,33.502769470214844,0.0,0.0,0.0,0.0,0.0,0.0,0.0,0.0,0.0,0.0,0.0,0.0,0.0,0.0,0.0,0.0,False,0,5.235443353652954,0.029928955078125
STABILIZE,1.7965893745422363,29.917003095621904,0.03244450887044271,0.03257441520690918,0.0,0.0,0.0,-0.20135765863082536,-1.7409764794570515,-163.68316119503777,-0.011312940533348808,0.07809311820036538,-0.034607692646493736,0.4,-0.016095344461368066,-0.013090933638738637,0.5649292094190278,-0.16460198377280497,3.525945544242859,3.346674144268036,2.0530154928565025,-5.372657536983295,94.32380795478821,47.84999191761017,45.77554762363434,0.0,0.0,0.0,0.0,0.0,0.0,0.0,0.0,0.0,0.0,0.0,0.0,0.0,0.0,0.0,0.0,False,0,5.264096736907959,0.034917236328125
STABILIZE,1.8300912380218506,29.849935593147965,0.03247264226277669,0.032602548599243164,0.0,0.0,0.0,-0.19695237337915225,-1.7118438016562432,-163.61576088830807,0.12646007184141023,-0.025677350681136225,-0.014131634891542035,0.4,-0.07000575934938562,-0.10629646383152211,0.5534960755856912,-0.06201427862866975,-1.8695896491408348,-2.9561202973127365,1.2148545123636723,3.098998339416651,6.063584610819817,-16.47302210330963,47.23834991455078,0.0,0.0,0.0,0.0,0.0,0.0,0.0,0.0,0.0,0.0,0.0,0.0,0.0,0.0,0.0,0.0,False,0,5.322157144546509,0.02992822265625
STABILIZE,1.8635690212249756,29.870768792507924,0.03237870534261068,0.032518625259399414,0.0,0.0,0.0,-0.19464147492301365,-1.7189047231541554,-163.61638926571172,0.06459367376193807,-0.0400505135743441,-0.023581771633546286,0.4,-0.06704522790063397,-0.08484553454737465,0.5361140673096325,-0.10890057947268139,0.14891749015077949,1.1591779068112373,0.10125413537025452,-3.0669826814558627,-42.94969439506531,-28.135234117507935,-36.63144409656525,0.0,0.0,0.0,0.0,0.0,0.0,0.0,0.0,0.0,0.0,0.0,0.0,0.0,0.0,0.0,0.0,False,0,5.35110330581665,0.034917236328125
STABILIZE,1.896967887878418,29.941135739015596,0.03238800366719564,0.0325016975402832,0.0,0.0,0.0,-0.1899116756444856,-1.7343936712010402,-163.67096247718013,0.002902341254501753,-0.05583306869998806,-0.03313055345226179,0.4,-0.06493987544212008,-0.06414403167988561,0.5216462130172718,-0.1561226286216114,0.14891749015077949,1.1591779068112373,0.10125413537025452,-3.0669826814558627,-42.94969439506531,-28.135234117507935,-36.63144409656525,0.0,0.0,0.0,0.0,0.0,0.0,0.0,0.0,0.0,0.0,0.0,0.0,0.0,0.0,0.0,0.0,False,0,5.384502172470093,0.034917236328125
STABILIZE,1.930612325668335,29.72196317975028,0.03242519696553548,0.032579660415649414,0.0,0.0,0.0,-0.18524321466635543,-1.7135850730077733,-163.63338277636672,0.060018030278544264,-0.06980623328853672,-0.02889727202520109,0.4,-0.12756720686319134,-0.1115541199162538,0.5232747185167883,-0.13450574328357687,-3.7117615342140198,-2.9072504490613937,1.07174227014184,1.0570506414000458,-94.86031532287598,-89.46502208709717,-5.90847060084343,0.0,0.0,0.0,0.0,0.0,0.0,0.0,0.0,0.0,0.0,0.0,0.0,0.0,0.0,0.0,0.0,False,0,5.413244962692261,0.029928955078125
STABILIZE,1.9639427661895752,30.005179345571086,0.032250197728474934,0.03237509727478027,0.0,0.0,0.0,-0.1822347297803764,-1.7209622109199159,-163.63237190836955,0.08975360942964791,-0.11487588338402355,-0.02163532703100152,0.4,-0.12005460819371135,-0.09115467477171701,0.5234362385277619,-0.09786895342972035,0.3654249245300889,1.081992033869028,1.1315634474158287,1.913124460576347,69.6463942527771,84.36086177825928,49.46258366107941,0.0,0.0,0.0,0.0,0.0,0.0,0.0,0.0,0.0,0.0,0.0,0.0,0.0,0.0,0.0,0.0,False,0,5.441969394683838,0.034916748046875
STABILIZE,1.998112440109253,29.264287458573172,0.03235677083333333,0.033271074295043945,0.0,0.0,0.0,-0.18070943648092147,-1.73938728653626,-163.68413108189992,-0.03795364122796161,-0.0355962875911031,-0.03734792551540131,0.4,-0.09153043374367409,-0.05007224867405057,0.5226322232416567,-0.17583002110852314,1.7015084624290466,2.360733039677143,0.9109652601182461,-4.916478593828252,22.599953413009644,24.735455214977264,-11.479782313108444,0.0,0.0,0.0,0.0,0.0,0.0,0.0,0.0,0.0,0.0,0.0,0.0,0.0,0.0,0.0,0.0,False,0,5.470703840255737,0.034918212890625
STABILIZE,2.031630754470825,29.83316262660749,0.03233912785847982,0.03246951103210449,0.0,0.0,0.0,-0.20233530949706277,-1.7249003485849572,-163.6854561385989,0.02574397617877124,-0.08339936578828136,-0.02274902018702397,0.4,-0.1324787849036791,-0.09060079234900853,0.5155416736789412,-0.10249270394621693,-2.4807261303067207,-2.5351259857416153,0.5403314717113972,4.15289119226433,-45.489540696144104,-65.60470461845398,-22.624075412750244,0.0,0.0,0.0,0.0,0.0,0.0,0.0,0.0,0.0,0.0,0.0,0.0,0.0,0.0,0.0,0.0,False,0,5.499344348907471,0.034916748046875
STABILIZE,2.065048933029175,29.924473648537774,0.032358678181966145,0.032498836517333984,0.0,0.0,0.0,-0.18600299317024002,-1.7036703063755592,-163.62802790805742,0.11136047792264175,-0.1369522835593661,0.004169179866404515,0.4,-0.17961966405266397,-0.15147282115932137,0.5231790073017386,0.031991221211478196,-0.39721978828310966,-1.2570948339998722,1.8490508198738098,3.2544303930376928,28.895282745361328,21.0185244679451,61.74827218055725,0.0,0.0,0.0,0.0,0.0,0.0,0.0,0.0,0.0,0.0,0.0,0.0,0.0,0.0,0.0,0.0,False,0,5.557201385498047,0.029928955078125
STABILIZE,2.0987324714660645,29.69019388542426,0.03239610989888509,0.032531023025512695,0.0,0.0,0.0,-0.18473017674623757,-1.726345360481238,-163.65906428764598,0.018192640099626945,-0.06651041328396931,-0.012822759288242542,0.4,-0.166398003122505,-0.10533794862388135,0.4931554699136079,-0.05279193521617269,0.5938484333455563,2.565293200314045,-0.6816285662353039,-5.250062471570736,-26.44752562046051,47.97080457210541,-35.50292253494263,0.0,0.0,0.0,0.0,0.0,0.0,0.0,0.0,0.0,0.0,0.0,0.0,0.0,0.0,0.0,0.0,False,0,5.585958242416382,0.034917236328125
STABILIZE,2.1319267749786377,30.12413634600744,0.032157214482625325,0.0322873592376709,0.0,0.0,0.0,-0.1809456649766687,-1.7133223241681392,-163.6423166638011,0.05277023410989062,-0.09746454173767809,-0.0038927068434593034,0.4,-0.18838383878284073,-0.1200626311328177,0.48852472739917147,-0.008114542899162733,-1.4072024263441563,-1.0087823495268822,0.6883560214191675,2.4396261776521952,-68.46556067466736,-71.22909426689148,-31.946834921836853,0.0,0.0,0.0,0.0,0.0,0.0,0.0,0.0,0.0,0.0,0.0,0.0,0.0,0.0,0.0,0.0,False,0,5.6145548820495605,0.034916748046875
STABILIZE,2.1654045581817627,29.870768792507924,0.03240683873494466,0.03255152702331543,0.0,0.0,0.0,-0.1869896353401895,-1.713978342493578,-163.61018745394534,0.09958834912689404,-0.14813636463424218,0.0034716128564667493,0.4,-0.21175540314906705,-0.12978765161317937,0.4998493631605721,0.028611307439482342,-1.4997503720223904,-0.7098392583429813,1.6326675191521645,1.9506533618578052,-9.74922850728035,7.693071663379669,-13.384425640106201,0.0,0.0,0.0,0.0,0.0,0.0,0.0,0.0,0.0,0.0,0.0,0.0,0.0,0.0,0.0,0.0,False,0,5.64478325843811,0.029930419921875
STABILIZE,2.198931932449341,29.825525499900447,0.032407553990681966,0.03261518478393555,0.0,0.0,0.0,-0.18602804609067222,-1.721072561163694,-163.62954421005318,0.027831413032265447,-0.0904140322209372,-0.005493331273502818,0.4,-0.1924302773725272,-0.09747989495788936,0.5164446425113572,-0.01615920328243787,0.8964377455413342,1.7317697405815125,2.0774511620402336,-2.8190220551486584,56.49043917655945,66.19061827659607,39.26754891872406,0.0,0.0,0.0,0.0,0.0,0.0,0.0,0.0,0.0,0.0,0.0,0.0,0.0,0.0,0.0,0.0,False,0,5.6735451221466064,0.034916748046875
STABILIZE,2.2324249744415283,29.856947608200457,0.03240493138631185,0.03256344795227051,0.0,0.0,0.0,-0.18679107960658312,-1.7237609876540345,-163.67063462809998,-0.02638331689144024,-0.04199758944321839,-0.00020750481058923057,0.4,-0.1867282220254049,-0.09772070556113585,0.49414687836225807,0.01023568589645595,0.18179569160565734,-0.17635441618040204,-0.40424903854727745,1.4015928106138746,-2.160484716296196,-63.966864347457886,-3.062453866004944,0.0,0.0,0.0,0.0,0.0,0.0,0.0,0.0,0.0,0.0,0.0,0.0,0.0,0.0,0.0,0.0,False,0,5.7021684646606445,0.0349169921875
STABILIZE,2.265793800354004,29.96830477714743,0.03238943417867025,0.03249835968017578,0.0,0.0,0.0,-0.18381413098466248,-1.7128781484286768,-163.6477125132454,0.07145643160671045,-0.1067417196922549,0.003686782837465196,0.4,-0.2348185836149165,-0.1490188983975137,0.48435832783496124,0.029608218395052448,-1.6750501468777657,-1.714012585580349,0.7078671827912331,0.4432261030439219,-2.657341957092285,-26.231032609939575,17.6725372672081,0.0,0.0,0.0,0.0,0.0,0.0,0.0,0.0,0.0,0.0,0.0,0.0,0.0,0.0,0.0,0.0,False,0,5.759561538696289,0.03041650390625
STABILIZE,2.2993478775024414,29.80433176055938,0.032449992497762044,0.032666683197021484,0.0,0.0,0.0,-0.1836535681783143,-1.7255814465112544,-163.6563185515996,0.033924614681482626,-0.07550086554518466,0.008432215970833266,0.4,-0.22419013762082396,-0.12672458023158242,0.4890008066769431,0.05315707742555744,0.33295927569270134,1.1352009139955044,1.3246728107333183,1.3366605500520907,37.84361183643341,66.29859209060669,35.03287732601166,0.0,0.0,0.0,0.0,0.0,0.0,0.0,0.0,0.0,0.0,0.0,0.0,0.0,0.0,0.0,0.0,False,0,5.788259267807007,0.03491796875
STABILIZE,2.3328771591186523,29.82319271325877,0.032430442174275716,0.032578468322753906,0.0,0.0,0.0,-0.1845167066542482,-1.7168820266644795,-163.66874949588905,0.004084958963870275,-0.019260299778165426,-0.0009480783029397805,0.4,-0.19188032229305624,-0.10746842149530611,0.48434463595995897,0.006234734291636013,1.7284559085965157,0.9939216077327728,0.633333483710885,-2.959447115946124,6.283894181251526,-9.34438481926918,-10.863857716321945,0.0,0.0,0.0,0.0,0.0,0.0,0.0,0.0,0.0,0.0,0.0,0.0,0.0,0.0,0.0,0.0,False,0,5.81681489944458,0.0349169921875
STABILIZE,2.3662526607513428,29.96188244706689,0.0323674996693929,0.032488346099853516,0.0,0.0,0.0,-0.18447185685739356,-1.713966069497413,-163.65086806064195,0.01141623943759038,-0.00019547330153483737,-0.010591892034475222,0.4,-0.1586839908792557,-0.08778654901432635,0.4796116857064449,-0.041844472818359416,1.7284559085965157,0.9939216077327728,0.633333483710885,-2.959447115946124,6.283894181251526,-9.34438481926918,-10.863857716321945,0.0,0.0,0.0,0.0,0.0,0.0,0.0,0.0,0.0,0.0,0.0,0.0,0.0,0.0,0.0,0.0,False,0,5.845557689666748,0.0349169921875
STABILIZE,2.3997116088867188,29.88843599464128,0.03244140942891439,0.03255748748779297,0.0,0.0,0.0,-0.18248184389011332,-1.7160322017213419,-163.6292846628647,0.031780894996738654,-0.05429646859017293,-0.012344205977243294,0.4,-0.20323526794367883,-0.10654459462245994,0.48009744560090795,-0.050437327829312706,-2.9452970251441,-1.3154404237866402,0.9473837912082672,-0.5553092138391402,-64.19464349746704,-47.47725427150726,10.235783457756042,0.0,0.0,0.0,0.0,0.0,0.0,0.0,0.0,0.0,0.0,0.0,0.0,0.0,0.0,0.0,0.0,False,0,5.8743085861206055,0.029928955078125
STABILIZE,2.4332447052001953,29.82064827125296,0.0324132760365804,0.03255486488342285,0.0,0.0,0.0,-0.18357224623850885,-1.7181467855996955,-163.65980194807634,-0.04988419849517398,0.019574113511491516,-0.021545145056572276,0.4,-0.17527965798892026,-0.07397952330315287,0.4772900903817475,-0.09612043270222184,1.3305717147886753,1.7437338829040527,0.872588250786066,-2.82007795970566,27.3573637008667,25.273454189300537,9.141021966934204,0.0,0.0,0.0,0.0,0.0,0.0,0.0,0.0,0.0,0.0,0.0,0.0,0.0,0.0,0.0,0.0,False,0,5.902897119522095,0.069833984375
STABILIZE,2.4668660163879395,29.743672658936994,0.032340081532796223,0.0326695442199707,0.0,0.0,0.0,-0.17973285283174187,-1.7112914101071184,-163.6423166638011,-0.016906371016174072,-0.0199559631280695,-0.020019380904799485,0.4,-0.20263165576903608,-0.0859396399442156,0.4898298786481686,-0.08819494388952723,-1.4262675307691097,-0.8364170789718628,0.8003588765859604,0.8465612332923249,-50.099748373031616,-43.4006541967392,-2.7195721864700317,0.0,0.0,0.0,0.0,0.0,0.0,0.0,0.0,0.0,0.0,0.0,0.0,0.0,0.0,0.0,0.0,False,0,5.934218168258667,0.029929931640625
STABILIZE,2.500352382659912,29.864175555017585,0.032367976506551106,0.03251957893371582,0.0,0.0,0.0,-0.18013890224181384,-1.7105046576920975,-163.61858858662447,-0.015442124988643594,-0.03590448366031544,-0.019624931438675986,0.4,-0.19067752608526709,-0.07152214386782689,0.4906415977401569,-0.08593504196777396,0.6093893200159073,0.8269014768302441,1.437571458518505,-1.3682838990224266,3.8144297897815704,23.659051954746246,7.474243640899658,0.0,0.0,0.0,0.0,0.0,0.0,0.0,0.0,0.0,0.0,0.0,0.0,0.0,0.0,0.0,0.0,False,0,5.992481231689453,0.034916748046875
STABILIZE,2.533735513687134,29.952468007312614,0.03231957753499349,0.032440900802612305,0.0,0.0,0.0,-0.179752569666885,-1.7122562810490884,-163.63420239906714,-0.01775637083728364,-0.047096235093635995,-0.02423105657156058,0.4,-0.17365322759628463,-0.05332157377012864,0.4992731115625979,-0.10860256158121018,0.6093893200159073,0.8269014768302441,1.437571458518505,-1.3682838990224266,3.8144297897815704,23.659051954746246,7.474243640899658,0.0,0.0,0.0,0.0,0.0,0.0,0.0,0.0,0.0,0.0,0.0,0.0,0.0,0.0,0.0,0.0,False,0,6.021066427230835,0.034916748046875
STABILIZE,2.567235231399536,29.85206009836089,0.03242162068684896,0.032540321350097656,0.0,0.0,0.0,-0.17662911882335286,-1.7097457596422856,-163.66301213698623,-0.04301527197532679,-0.007598416474784747,-0.02415499996879433,0.4,-0.17403440548969307,-0.045542124150747564,0.5000757074908324,-0.10786150874239814,-0.3651812206953764,0.24861791171133518,0.9947061538696289,-0.06729086362040695,-27.570495009422302,-39.123958349227905,0.9532826021313667,0.0,0.0,0.0,0.0,0.0,0.0,0.0,0.0,0.0,0.0,0.0,0.0,0.0,0.0,0.0,0.0,False,0,6.0500195026397705,0.029928955078125
STABILIZE,2.6006011962890625,29.97087448015663,0.032354148228963216,0.032494544982910156,0.0,0.0,0.0,-0.1789600809601784,-1.7089513232644484,-163.62638866265664,-0.004147789134283422,-0.04977486321020533,-0.019072719665681498,0.4,-0.18947912829735586,-0.05438356427838461,0.49311080588415385,-0.08217520270412348,-1.2558677233755589,-0.6606957875192165,0.6905815098434687,1.274543287923704,1.3095073401927948,4.557333141565323,19.433443248271942,0.0,0.0,0.0,0.0,0.0,0.0,0.0,0.0,0.0,0.0,0.0,0.0,0.0,0.0,0.0,0.0,False,0,6.078595161437988,0.034917236328125
STABILIZE,2.637605905532837,27.023065226915445,0.03244927724202474,0.03611350059509277,0.0,0.0,0.0,-0.176083850948089,-1.7119211748929346,-163.64469356963227,-0.034083866100618865,-0.006741582387110848,-0.019584684987872133,0.4,-0.1709989003787457,-0.03525017684640086,0.49078927182733534,-0.08442286849342645,0.7106085307896137,0.9133778512477875,0.8034530095756054,-0.2574629669074257,19.186320900917053,35.8950138092041,20.311829447746277,0.0,0.0,0.0,0.0,0.0,0.0,0.0,0.0,0.0,0.0,0.0,0.0,0.0,0.0,0.0,0.0,False,0,6.107247591018677,0.03491796875
STABILIZE,2.671077251434326,29.876726477522848,0.032430203755696614,0.03255271911621094,0.0,0.0,0.0,-0.1731562077542394,-1.71171840365195,-163.6695554582111,-0.020328698112914757,-0.020400068352777617,-0.019482074976347862,0.4,-0.17358529159600472,-0.03601183958827332,0.48545777924012906,-0.08363010657251577,-0.9236992336809635,-0.9320558048784733,0.6016589235514402,1.3766033895966194,-2.791980095207691,-16.998077929019928,10.350465774536133,0.0,0.0,0.0,0.0,0.0,0.0,0.0,0.0,0.0,0.0,0.0,0.0,0.0,0.0,0.0,0.0,False,0,6.164592742919922,0.029928955078125
STABILIZE,2.7047345638275146,29.711225552352147,0.032398494084676106,0.0327610969543457,0.0,0.0,0.0,-0.17286712533370388,-1.710089830421725,-163.64707047546344,-0.004001943841595627,-0.03578717364687542,-0.019538411741855652,0.4,-0.17358529159600472,-0.03601183958827332,0.48545777924012906,-0.08363010657251577,-0.9236992336809635,-0.9320558048784733,0.6016589235514402,1.3766033895966194,-2.791980095207691,-16.998077929019928,10.350465774536133,0.0,0.0,0.0,0.0,0.0,0.0,0.0,0.0,0.0,0.0,0.0,0.0,0.0,0.0,0.0,0.0,False,1,6.164592742919922,0.029928955078125
STABILIZE,2.7383322715759277,29.76372409877945,0.032422574361165364,0.032544612884521484,0.0,0.0,0.0,-0.17633784860784885,-1.711567499159975,-163.62306919072,-0.028803894003764638,-0.014564767991679967,-0.02279134052724456,0.4,-0.1545223872858869,-0.007017097009857498,0.48757431790278977,-0.09956180283636207,0.1902192714624107,0.7964048534631729,1.3506981544196606,-1.472701696619466,-6.880044192075729,6.782243400812149,15.527306497097015,0.0,0.0,0.0,0.0,0.0,0.0,0.0,0.0,0.0,0.0,0.0,0.0,0.0,0.0,0.0,0.0,False,0,6.2274298667907715,0.0349169921875
STABILIZE,2.7716267108917236,30.0352605874855,0.03226331075032552,0.03239774703979492,0.0,0.0,0.0,-0.17318883791578207,-1.7131131496248078,-163.6606079103984,-0.029542979931149353,-0.005724622220112653,-0.02028717401720329,0.4,-0.15901237153136358,-0.013550171251033655,0.48283224446240736,-0.08675080429351553,-0.5870210938155651,-0.5027512554079294,0.6454163230955601,0.5929350717903009,-16.94107949733734,-22.631242871284485,10.305272042751312,0.0,0.0,0.0,0.0,0.0,0.0,0.0,0.0,0.0,0.0,0.0,0.0,0.0,0.0,0.0,0.0,False,0,6.256157875061035,0.029928955078125
STABILIZE,2.8050761222839355,29.895892285651154,0.03242019017537435,0.03255152702331543,0.0,0.0,0.0,-0.17569730492974858,-1.7098994388986108,-163.62690775703354,-0.006277794201857202,-0.025112430706051316,-0.017680212110756124,0.4,-0.1629102593137372,-0.020619729676595235,0.47588246325576034,-0.07347024985835593,-0.5870210938155651,-0.5027512554079294,0.6454163230955601,0.5929350717903009,-16.94107949733734,-22.631242871284485,10.305272042751312,0.0,0.0,0.0,0.0,0.0,0.0,0.0,0.0,0.0,0.0,0.0,0.0,0.0,0.0,0.0,0.0,False,0,6.285176992416382,0.029928955078125
STABILIZE,2.8386240005493164,29.80814441048966,0.032428773244222005,0.032564401626586914,0.0,0.0,0.0,-0.17791853047260434,-1.7113947167183148,-163.61025575583704,-0.007464814112400225,-0.026846993653693814,-0.013302663887647908,0.4,-0.16652938570480572,-0.020143755271486045,0.4715549193025369,-0.05141053372777836,-0.5709306802600622,-0.06440287106670439,0.7794114761054516,1.1260819759591894,5.395025759935379,8.707614243030548,9.194447845220566,0.0,0.0,0.0,0.0,0.0,0.0,0.0,0.0,0.0,0.0,0.0,0.0,0.0,0.0,0.0,0.0,False,0,6.314073085784912,0.034917236328125
STABILIZE,2.871975898742676,29.983515265893185,0.03233221371968587,0.03244757652282715,0.0,0.0,0.0,-0.17520563803121345,-1.712142729154137,-163.6373033049503,-0.01959949292377322,-0.014293699224670353,-0.017757543013259082,0.4,-0.1550356804679285,-0.009076197407001293,0.4731544253487502,-0.07343940842631261,0.3631113562732935,0.5488436203449965,0.986599363386631,-1.4470148492549288,-4.8699624836444855,3.0155837535858154,12.894798815250397,0.0,0.0,0.0,0.0,0.0,0.0,0.0,0.0,0.0,0.0,0.0,0.0,0.0,0.0,0.0,0.0,False,0,6.342519521713257,0.03491796875
STABILIZE,2.908449411392212,27.4164395202144,0.032392056783040364,0.03558063507080078,0.0,0.0,0.0,-0.1746404932382478,-1.710745635303752,-163.6411555316422,0.0014551225096857904,-0.03665385091631192,-0.018890065691927936,0.4,-0.16006913241908075,-0.004255572278018785,0.47514352914287933,-0.0788143758353856,-0.6091329734772444,0.1854933798313141,1.0083317756652832,-0.45544347051965,-14.964170753955841,-10.71857437491417,9.94771346449852,0.0,0.0,0.0,0.0,0.0,0.0,0.0,0.0,0.0,0.0,0.0,0.0,0.0,0.0,0.0,0.0,False,1,6.371296167373657,0.029928955078125
STABILIZE,2.941988945007324,29.815984588371613,0.03245595296223958,0.03261899948120117,0.0,0.0,0.0,-0.1766416586237822,-1.7093059594927602,-163.61373915231377,-0.011273992375520776,-0.024807603085383476,-0.016853323878207635,0.4,-0.15287650251968013,0.0020324124517841725,0.4751163946847677,-0.06840154959963665,0.03163597721140832,0.5596216302365065,0.794582162052393,-0.8837003335434163,2.0737096667289734,14.77770060300827,12.145066261291504,0.0,0.0,0.0,0.0,0.0,0.0,0.0,0.0,0.0,0.0,0.0,0.0,0.0,0.0,0.0,0.0,False,0,6.428645372390747,0.029928955078125
STABILIZE,2.9755122661590576,29.82955571833951,0.03239563306172689,0.032523393630981445,0.0,0.0,0.0,-0.174067851245451,-1.7105392355247706,-163.65141447577557,-0.030809768623329202,-0.01643764521757622,-0.020074193072109794,0.4,-0.14839513128058188,0.014058113504272574,0.4700324392323423,-0.08422424072361466,-0.08263004710897803,0.6557811051607132,0.7247551809996367,-1.0860748899477801,-9.461330622434616,-6.821107119321823,4.71244603395462,0.0,0.0,0.0,0.0,0.0,0.0,0.0,0.0,0.0,0.0,0.0,0.0,0.0,0.0,0.0,0.0,False,0,6.46110200881958,0.029929931640625
STABILIZE,3.008887529373169,29.96316669286051,0.032316001256306966,0.032449960708618164,0.0,0.0,0.0,-0.17380488896240548,-1.7105296305712503,-163.65357281555328,-0.022964058534036377,-0.01355201230755734,-0.015768102829514942,0.4,-0.14863659326649908,0.0073162153552265505,0.4646022816061873,-0.062485402241141366,-0.35430598072707653,-0.44488683342933655,0.68766581825912,1.1363995103090225,1.014172751456499,-6.977233290672302,0.6927371025085449,0.0,0.0,0.0,0.0,0.0,0.0,0.0,0.0,0.0,0.0,0.0,0.0,0.0,0.0,0.0,0.0,False,0,6.489854335784912,0.0349169921875
STABILIZE,3.0424511432647705,29.793534547056023,0.032392295201619466,0.032659292221069336,0.0,0.0,0.0,-0.17677543428197923,-1.707847500661551,-163.61270096355992,-0.021058113007265178,-0.020728635965400317,-0.014992117038298176,0.4,-0.1456974278092422,0.01464244967718941,0.4674471266880127,-0.058409375999753335,-0.12546556536108255,0.37211014423519373,1.0400130413472652,0.10374200907560473,-1.3216586783528328,14.924454689025879,11.090128123760223,0.0,0.0,0.0,0.0,0.0,0.0,0.0,0.0,0.0,0.0,0.0,0.0,0.0,0.0,0.0,0.0,False,0,6.518850803375244,0.0349169921875
STABILIZE,3.07588529586792,29.91060273269247,0.032419474919637044,0.03255200386047363,0.0,0.0,0.0,-0.1739994693124715,-1.709364229544117,-163.63499470101084,-0.025050011010772873,-0.013446227989040067,-0.01421252756440719,0.4,-0.142766416711946,0.02189343371500198,0.47031655605292905,-0.05432965380002704,-0.12546556536108255,0.37211014423519373,1.0400130413472652,0.10374200907560473,-1.3216586783528328,14.924454689025879,11.090128123760223,0.0,0.0,0.0,0.0,0.0,0.0,0.0,0.0,0.0,0.0,0.0,0.0,0.0,0.0,0.0,0.0,False,0,6.5474700927734375,0.0349169921875
STABILIZE,3.1102027893066406,29.139252466305404,0.03243449529012044,0.03338742256164551,0.0,0.0,0.0,-0.17254367852390676,-1.7098804424349818,-163.6525892683128,-0.02903320916442585,-0.012366195408232151,-0.01719676902381228,0.4,-0.1357179468805124,0.030816775914377998,0.47373261878037937,-0.06901437154953857,0.11861207894980907,0.4764231387525797,1.0716209188103676,-1.0028462601468244,0.8682579733431339,5.0838325172662735,11.242003738880157,0.0,0.0,0.0,0.0,0.0,0.0,0.0,0.0,0.0,0.0,0.0,0.0,0.0,0.0,0.0,0.0,False,1,6.5760626792907715,0.0349169921875
STABILIZE,3.1638364791870117,18.645411667429794,0.032398255666097005,0.05268979072570801,0.0,0.0,0.0,-0.1752103071058414,-1.7076845366168227,-163.6202688131603,-0.020199723936199166,-0.017701918129186946,-0.014829045961026388,0.4,-0.13728495384231845,0.033351713958500284,0.4746827094569697,-0.056870819754877795,-0.3892890177667141,0.10607020230963826,0.9262825362384319,0.5891469848435884,-2.6934098452329636,-8.61164927482605,7.131665945053101,0.0,0.0,0.0,0.0,0.0,0.0,0.0,0.0,0.0,0.0,0.0,0.0,0.0,0.0,0.0,0.0,False,0,6.604798316955566,0.02993017578125
STABILIZE,3.197251558303833,29.92596820685522,0.03237298329671224,0.03249406814575195,0.0,0.0,0.0,-0.17261806355283643,-1.7083831369028681,-163.6410189278588,-0.03283265772034511,-0.013175690493324939,-0.010598379562077875,0.4,-0.1332970920026468,0.039328582073955655,0.47853863463454743,-0.035598457150454454,-0.005343649536371231,0.2624490298330784,1.3104164972901344,0.4091625622708932,-0.7456792518496513,-4.3282680213451385,14.720185101032257,0.0,0.0,0.0,0.0,0.0,0.0,0.0,0.0,0.0,0.0,0.0,0.0,0.0,0.0,0.0,0.0,False,0,6.689573049545288,0.06484619140625
STABILIZE,3.230762481689453,29.840803665442955,0.032395156224568684,0.03253817558288574,0.0,0.0,0.0,-0.17238519679082132,-1.7083399146120266,-163.6420844373693,-0.035799697170274196,-0.013448314942974918,-0.008507013645218494,0.4,-0.13108659740930326,0.04798339567556446,0.5009413667642051,-0.025057795183157025,-0.005343649536371231,0.2624490298330784,1.3104164972901344,0.4091625622708932,-0.7456792518496513,-4.3282680213451385,14.720185101032257,0.0,0.0,0.0,0.0,0.0,0.0,0.0,0.0,0.0,0.0,0.0,0.0,0.0,0.0,0.0,0.0,False,0,6.719125747680664,0.06484619140625
STABILIZE,3.264157295227051,29.942845720567973,0.03234413464864095,0.03247809410095215,0.0,0.0,0.0,-0.17275229277828305,-1.706560757054944,-163.61612971852327,-0.03194066599566617,-0.020220867246068835,-0.004990349965929188,0.4,-0.13479290691089715,0.05037254077168751,0.5135337177931679,-0.007449558098136414,-0.36035142838954926,-0.050449970876798034,0.8275439962744713,0.7062341430207666,-5.95681369304657,-2.3979706689715385,13.625377416610718,0.0,0.0,0.0,0.0,0.0,0.0,0.0,0.0,0.0,0.0,0.0,0.0,0.0,0.0,0.0,0.0,False,0,6.7478954792022705,0.03491796875
STABILIZE,3.2975990772247314,29.903991900697996,0.0323973019917806,0.032524824142456055,0.0,0.0,0.0,-0.1718070319497503,-1.706625216965236,-163.62847870054264,-0.02889486555351059,-0.019279435958516177,-0.007797906932359783,0.4,-0.12825711835584436,0.05468822929670514,0.5095330271707429,-0.021415720858736692,0.03712979378178716,0.27339921798557043,0.8212374523282051,-0.8157409651579943,7.262004911899567,13.270273804664612,12.640304863452911,0.0,0.0,0.0,0.0,0.0,0.0,0.0,0.0,0.0,0.0,0.0,0.0,0.0,0.0,0.0,0.0,False,0,6.782919406890869,0.0349169921875
STABILIZE,3.3309905529022217,29.947121529091728,0.03240993817647298,0.032501220703125,0.0,0.0,0.0,-0.17316837402869847,-1.7080397064536634,-163.63104685167056,-0.041092846773155445,-0.007893154272675298,-0.0087803191507861,0.4,-0.1186406419796798,0.06705946611718519,0.5034020290159529,-0.026240140977081033,0.20402276422828436,0.6962278857827187,0.7016901858150959,-0.3375761233123565,2.7553847059607506,5.337924510240555,8.856908977031708,0.0,0.0,0.0,0.0,0.0,0.0,0.0,0.0,0.0,0.0,0.0,0.0,0.0,0.0,0.0,0.0,False,0,6.810334205627441,0.029928955078125
STABILIZE,3.3644661903381348,29.873109028232815,0.03242615063985189,0.03255462646484375,0.0,0.0,0.0,-0.1731670933682291,-1.706954880314395,-163.61838368094936,-0.03065371946285264,-0.009296800554523338,-0.00555439172059884,0.4,-0.11659263010173478,0.06240409142334513,0.4956142366250142,-0.01007679417925016,-0.19285734742879868,-0.1444992725737393,0.7240674924105406,0.773356332985186,-7.061532884836197,-2.292211540043354,11.58730834722519,0.0,0.0,0.0,0.0,0.0,0.0,0.0,0.0,0.0,0.0,0.0,0.0,0.0,0.0,0.0,0.0,False,0,6.838963747024536,0.0349169921875
STABILIZE,3.397918701171875,29.893548479060353,0.03239920934041341,0.03253650665283203,0.0,0.0,0.0,-0.17161237155840495,-1.7063037711874223,-163.62099281321233,-0.028983691298118584,-0.009774877503554807,-0.0067745013122157745,0.4,-0.11517093701219329,0.06792591393364251,0.4981767826246629,-0.016123398018821174,-0.20353663712739944,0.357162207365036,1.1269062757492065,-0.40089675271470837,6.62282258272171,11.384651064872742,11.160918325185776,0.0,0.0,0.0,0.0,0.0,0.0,0.0,0.0,0.0,0.0,0.0,0.0,0.0,0.0,0.0,0.0,False,0,6.867638826370239,0.03491796875
STABILIZE,3.431384325027466,29.88140918320094,0.03240469296773275,0.032607078552246094,0.0,0.0,0.0,-0.1708446156070132,-1.708224441726371,-163.6303774931319,-0.04255343573736001,0.003993629937521607,-0.008848646762243995,0.4,-0.1055995396695011,0.08223432585869268,0.5028619774860096,-0.026405670167102987,0.1774344826117158,0.5551505833864212,1.0883095674216747,-0.29066307571982963,8.520437777042389,5.58212623000145,11.787719279527664,0.0,0.0,0.0,0.0,0.0,0.0,0.0,0.0,0.0,0.0,0.0,0.0,0.0,0.0,0.0,0.0,False,0,6.925045967102051,0.029928955078125
STABILIZE,3.4649178981781006,29.82086029150373,0.032465489705403645,0.03260207176208496,0.0,0.0,0.0,-0.17078517161689294,-1.7076745047764792,-163.6229325869366,-0.03841085668753291,-0.0055808581082017715,-0.008503087043954907,0.4,-0.10893391456125692,0.08194533831539716,0.5029829614638412,-0.024595503136161555,-0.4546339623630047,0.11227974900975823,1.1174634099006653,0.030273983067808406,-4.13711853325367,7.649882882833481,14.355406165122986,0.0,0.0,0.0,0.0,0.0,0.0,0.0,0.0,0.0,0.0,0.0,0.0,0.0,0.0,0.0,0.0,False,0,6.95377254486084,0.0698349609375
STABILIZE,3.498375415802002,29.889287953936492,0.03237799008687337,0.03249692916870117,0.0,0.0,0.0,-0.17038333771419933,-1.7066728148460146,-163.61819243565262,-0.03385003157408576,-0.020923441004522293,-0.00818457561118395,0.4,-0.11498724778234533,0.0878682515203824,0.5233254615358013,-0.022926323269954745,-0.4546339623630047,0.11227974900975823,1.1174634099006653,0.030273983067808406,-4.13711853325367,7.649882882833481,14.355406165122986,0.0,0.0,0.0,0.0,0.0,0.0,0.0,0.0,0.0,0.0,0.0,0.0,0.0,0.0,0.0,0.0,False,0,6.982415199279785,0.0698349609375
STABILIZE,3.5318386554718018,29.88247363921345,0.03236368497212728,0.03251218795776367,0.0,0.0,0.0,-0.1685640261153165,-1.7066777240444806,-163.625760285253,-0.0566565917140561,-0.020464343563382476,-0.009186393664134965,0.4,-0.11285366834714856,0.10481836241486923,0.5355930548944887,-0.02784219276063255,-0.031854648841544986,0.6793999578803778,0.8170997723937035,-0.28502165963051646,2.5541922077536583,11.512041836977005,11.1579068005085,0.0,0.0,0.0,0.0,0.0,0.0,0.0,0.0,0.0,0.0,0.0,0.0,0.0,0.0,0.0,0.0,False,0,7.0111048221588135,0.02992919921875
STABILIZE,3.567173480987549,28.300118752024183,0.03237012227376302,0.03444099426269531,0.0,0.0,0.0,-0.16785395324589963,-1.7076771728191238,-163.62447620968902,-0.04914660196938722,-0.01576719016369199,-0.009098111482795698,0.4,-0.10709904423615829,0.10232819255781823,0.5290380457630787,-0.027304226680308435,-0.007717829430475831,0.09679921204224229,0.9592860005795956,-0.041880158669579434,-6.801687180995941,-4.150744900107384,8.830928802490234,0.0,0.0,0.0,0.0,0.0,0.0,0.0,0.0,0.0,0.0,0.0,0.0,0.0,0.0,0.0,0.0,False,0,7.039722919464111,0.0349169921875
STABILIZE,3.607008218765259,25.104318419871316,0.03242615063985189,0.038932085037231445,0.0,0.0,0.0,-0.16651830441761836,-1.705930885547422,-163.61761869976232,-0.03381794177195344,-0.02440047145710314,-0.008040635593261736,0.4,-0.1070854447762007,0.09962545934821491,0.5206284901336061,-0.021929489073754596,-0.25581754744052887,0.037527718814089894,0.7157968822866678,0.1997688792566437,-7.147494703531265,-0.09436833206564188,11.500191688537598,0.0,0.0,0.0,0.0,0.0,0.0,0.0,0.0,0.0,0.0,0.0,0.0,0.0,0.0,0.0,0.0,False,0,7.068394422531128,0.0349169921875
STABILIZE,3.6404850482940674,29.870343334496535,0.03241899808247884,0.0326077938079834,0.0,0.0,0.0,-0.16635563385758098,-1.7058758171472388,-163.6204054169437,-0.039083439023535296,-0.019627944943862403,-0.0069364513119551385,0.4,-0.10540581017695465,0.104150622869146,0.5119246972044577,-0.016353790728025053,-0.15825761947780848,0.5281565245240927,1.053429115563631,-0.03650345243124391,-3.0526023358106613,4.0603432804346085,16.515760123729706,0.0,0.0,0.0,0.0,0.0,0.0,0.0,0.0,0.0,0.0,0.0,0.0,0.0,0.0,0.0,0.0,False,0,7.132516384124756,0.064846923828125
STABILIZE,3.674010992050171,29.828919295650444,0.032433303197224934,0.03257870674133301,0.0,0.0,0.0,-0.16778442405458302,-1.705966957483976,-163.6231374926117,-0.035180273406152714,-0.015666509244378395,-0.006092972019841625,0.4,-0.10669638664601097,0.10539365899562401,0.5215067334478696,-0.012095910798303987,-0.20170065108686686,0.015827518654987216,0.8688542991876602,0.13801240319486438,-4.219463467597961,-5.974740162491798,10.161075741052628,0.0,0.0,0.0,0.0,0.0,0.0,0.0,0.0,0.0,0.0,0.0,0.0,0.0,0.0,0.0,0.0,False,0,7.161260366439819,0.0349169921875
