E-kp,E-ki,E-kd,E-I-Tot,E-P,E-I,E-D,E-PID,N-kp,N-ki,N-kd,N-I-Tot,N-P,N-I,N-D,N-PID,Y-kp,Y-ki,Y-kd,Y-I-Tot,Y-P,Y-I,Y-D,Y-PID,D-kp,D-ki,D-kd,D-I-Tot,D-P,D-I,D-D,D-PID,errorN,desiredN,actualN,errorE,desiredE,actualE,errorD,desiredD,actualD,errorY,desiredY,actualY,roll,pitch,yaw-rate,thrust,dt,Time,Mode
0.025,0.001,0.005,-0.0009871176904107362,-0.000735812838089236,-9.871176904107363e-07,-0.004387890424467243,-0.00512469038024689,0.03,0.001,0.006,-0.0009716198902224908,-0.0008691126449221059,-9.716198902224909e-07,-0.005182800373992135,-0.006052884638804464,0.2,0,0,-0.0009934781975736127,-0.0059244324703146296,-0.0,-0.0,-0.0059244324703146296,0.002,8e-05,0.0,-0.0011455658202394752,-6.831380254629576e-05,-9.164526561915802e-08,-0.0,-6.840544781191492e-05,-0.028970421497403528,0.0,0.028970421497403528,-0.029432513523569438,0.0,0.029432513523569438,-0.034156901273147876,0.0,0.034156901273147876,-0.029622162351573146,0,0.029622162351573146,-0.005127819062380878,0.006050234343193109,0.0059244324703146296,0.4,0.0335383415222168,0.033753395080566406,STABILIZE
0.025,0.001,0.005,-0.0026739407295920652,-0.0012607629426504541,-2.673940729592065e-06,-0.0031388598481200563,-0.004402296731500103,0.03,0.001,0.006,-0.0026119959809932205,-0.001471257154460458,-2.6119959809932206e-06,-0.0036004321312321334,-0.0050743012816735844,0.2,0,0,-0.00267477025167213,-0.01005303185144466,-0.0,-0.0,-0.01005303185144466,0.002,8e-05,0.0,-0.0032421095162464652,-0.00012535966313838756,-2.5936876129971724e-07,-0.0,-0.00012561903189968728,-0.04904190514868193,0.0,0.04904190514868193,-0.05043051770601816,0.0,0.05043051770601816,-0.06267983156919378,0.0,0.06267983156919378,-0.050265159257223295,0,0.050265159257223295,-0.004406746683432184,0.00507043722744204,0.01005303185144466,0.4,0.03344845771789551,0.06718659400939941,STABILIZE
0.025,0.001,0.005,-0.006017199678146035,-0.0022759451637910082,-6.017199678146035e-06,-0.005528734931096612,-0.007810697294565766,0.03,0.001,0.006,-0.005841455270045138,-0.0026381703710112153,-5.841455270045138e-06,-0.006355069787032101,-0.008999081613313361,0.2,0,0,-0.005990931616847326,-0.018059986468437896,-0.0,-0.0,-0.018059986468437896,0.002,8e-05,0.0,-0.00802609499155157,-0.00026053832559697857,-6.420875993241256e-07,-0.0,-0.0002611804131963027,-0.0879390123670405,0.0,0.0879390123670405,-0.09103780655164033,0.0,0.09103780655164033,-0.13026916279848927,0.0,0.13026916279848927,-0.09029993234218948,0,0.09029993234218948,-0.00782487042109917,0.008986760540006552,0.018059986468437896,0.4,0.03672385215759277,0.10392594337463379,STABILIZE
0.025,0.001,0.005,-0.009489072807574325,-0.00259596032356665,-9.489072807574324e-06,-0.0019142327539006724,-0.004519682150274897,0.03,0.001,0.006,-0.009131202769224873,-0.002951739420442297,-9.131202769224872e-06,-0.0018756740944750857,-0.004836544717686608,0.2,0,0,-0.009403014467340463,-0.020410035437120846,-0.0,-0.0,-0.020410035437120846,0.002,8e-05,0.0,-0.013299972151188371,-0.0003154671924324831,-1.0639977720950698e-06,-0.0,-0.00031653119020457816,-0.09839131401474324,0.0,0.09839131401474324,-0.10383841294266599,0.0,0.10383841294266599,-0.15773359621624153,0.0,0.15773359621624153,-0.10205017718560423,0,0.10205017718560423,-0.004528289402568263,0.004828486992038367,0.020410035437120846,0.4,0.03343534469604492,0.13732194900512695,STABILIZE
0.025,0.001,0.005,-0.013463428327223293,-0.0029554449487769747,-1.3463428327223294e-05,-0.0021385847632165063,-0.005107493140320704,0.03,0.001,0.006,-0.012789215809946113,-0.0032642443114041606,-1.2789215809946113e-05,-0.0018591009221901001,-0.005136134449404207,0.2,0,0,-0.013300165731099833,-0.02318426916797768,-0.0,-0.0,-0.02318426916797768,0.002,8e-05,0.0,-0.019750737365372105,-0.0003837579476471078,-1.5800589892297686e-06,-0.0,-0.0003853380066363376,-0.10880814371347203,0.0,0.10880814371347203,-0.11821779795107898,0.0,0.11821779795107898,-0.1918789738235539,0.0,0.1918789738235539,-0.1159213458398884,0,0.1159213458398884,-0.00511787415404781,0.005125790417497493,0.02318426916797768,0.4,0.033618927001953125,0.1709585189819336,STABILIZE
0.025,0.001,0.005,-0.01783097281084668,-0.003255797419690945,-1.783097281084668e-05,-0.0017911882586953932,-0.0050648166511971845,0.03,0.001,0.006,-0.016731706890947384,-0.0035267283033224004,-1.6731706890947385e-05,-0.0015653550076973196,-0.005108815017910668,0.2,0,0,-0.017555456365575532,-0.02537693996195724,-0.0,-0.0,-0.02537693996195724,0.002,8e-05,0.0,-0.027304948096539085,-0.00045050448641898133,-2.184395847723127e-06,-0.0,-0.00045268888226670444,-0.11755761011074668,0.0,0.11755761011074668,-0.1302318967876378,0.0,0.1302318967876378,-0.22525224320949067,0.0,0.22525224320949067,-0.1268846998097862,0,0.1268846998097862,-0.0050761179782101385,0.005097586180611922,0.02537693996195724,0.4,0.033536672592163086,0.20447230339050293,STABILIZE
0.025,0.001,0.005,-0.02241359754684529,-0.003425456455071631,-2.241359754684529e-05,-0.0010145445833095973,-0.004462414635928074,0.03,0.001,0.006,-0.020794880786972822,-0.003644607896662763,-2.079488078697282e-05,-0.0007049085398714801,-0.004370311317321215,0.2,0,0,-0.02205730760278726,-0.026920633948734098,-0.0,-0.0,-0.026920633948734098,0.002,8e-05,0.0,-0.03578361132916813,-0.0005070158413354569,-2.8626889063334505e-06,-0.0,-0.0005098785302417903,-0.12148692988875877,0.0,0.12148692988875877,-0.13701825820286523,0.0,0.13701825820286523,-0.2535079206677284,0.0,0.2535079206677284,-0.13460316974367048,0,0.13460316974367048,-0.004472669347011069,0.00435981585684058,0.026920633948734098,0.4,0.03344535827636719,0.23792552947998047,STABILIZE
0.025,0.001,0.005,-0.02729081373092617,-0.0036426737686091346,-2.7290813730926172e-05,-0.0012978744927377838,-0.004967839075077845,0.03,0.001,0.006,-0.02508101558226597,-0.003841451401354158,-2.508101558226597e-05,-0.0011761408869277925,-0.005042673303864216,0.2,0,0,-0.026798386520603176,-0.02832796932841051,-0.0,-0.0,-0.02832796932841051,0.002,8e-05,0.0,-0.04545742090611938,-0.0005780105873263996,-3.6365936724895507e-06,-0.0,-0.0005816471809988892,-0.1280483800451386,0.0,0.1280483800451386,-0.14570695074436538,0.0,0.14570695074436538,-0.2890052936631998,0.0,0.2890052936631998,-0.14163984664205254,0,0.14163984664205254,-0.004980289782962017,0.0050303770040722885,0.02832796932841051,0.4,0.03347277641296387,0.27141261100769043,STABILIZE
0.025,0.001,0.005,-0.03259932942732742,-0.00397000389047196,-3.259932942732742e-05,-0.0019583656623941574,-0.005960968882293445,0.03,0.001,0.006,-0.029634515476104004,-0.004086433193984303,-2.9634515476104006e-05,-0.0014656883022812607,-0.005581756011741668,0.2,0,0,-0.03186865285927298,-0.030334621941713727,-0.0,-0.0,-0.030334621941713727,0.002,8e-05,0.0,-0.05749655137350806,-0.0007202826179955954,-4.599724109880645e-06,-0.0,-0.000724882342105476,-0.13621443979947678,0.0,0.13621443979947678,-0.1588001556188784,0.0,0.1588001556188784,-0.36014130899779767,0.0,0.36014130899779767,-0.15167310970856862,0,0.15167310970856862,-0.005975723976328915,0.005565956624787221,0.030334621941713727,0.4,0.03342890739440918,0.30483293533325195,STABILIZE
0.025,0.001,0.005,-0.03798846565932165,-0.0040256451836176346,-3.798846565932165e-05,-0.0003325090984820084,-0.004396142747758965,0.03,0.001,0.006,-0.03419194804483676,-0.004085242386947507,-3.419194804483676e-05,7.116192882766798e-06,-0.004112318142109577,0.2,0,0,-0.03711442968615956,-0.03134845408749214,-0.0,-0.0,-0.03134845408749214,0.002,8e-05,0.0,-0.07041423318222856,-0.0007719530747514636,-5.633138654578285e-06,-0.0,-0.0007775862134060419,-0.13617474623158357,0.0,0.13617474623158357,-0.16102580734470537,0.0,0.16102580734470537,-0.3859765373757318,0.0,0.3859765373757318,-0.15674227043746072,0,0.15674227043746072,-0.004407376223637685,0.004100276378966487,0.03134845408749214,0.4,0.03346753120422363,0.3383064270019531,STABILIZE
0.025,0.001,0.005,-0.04352108532142026,-0.004132472981304778,-4.352108532142026e-05,-0.0006383420723729384,-0.004814336138999137,0.03,0.001,0.006,-0.038568634235287544,-0.003922887572465537,-3.856863423528755e-05,0.0009701398978537377,-0.0029913163088470867,0.2,0,0,-0.04239026270338587,-0.03152537312032537,-0.0,-0.0,-0.03152537312032537,0.002,8e-05,0.0,-0.0844768623808462,-0.0008403026234751407,-6.758148990467697e-06,-0.0,-0.0008470607724656084,-0.13076291908218457,0.0,0.13076291908218457,-0.1652989192521911,0.0,0.1652989192521911,-0.4201513117375703,0.0,0.4201513117375703,-0.15762686560162684,0,0.15762686560162684,-0.004822547343364345,0.002978060247855502,0.03152537312032537,0.4,0.03347039222717285,0.3718090057373047,STABILIZE
0.025,0.001,0.005,-0.04921220233062337,-0.004251162036717479,-4.9212202330623375e-05,-0.0007092687157595254,-0.005009642954807628,0.03,0.001,0.006,-0.042928865470351796,-0.003908417163345665,-4.29288654703518e-05,8.647308260461818e-05,-0.003864872946211399,0.2,0,0,-0.04767679623971778,-0.03159156367953139,-0.0,-0.0,-0.03159156367953139,0.002,8e-05,0.0,-0.09970946813027884,-0.0009102785998257279,-7.976757450422308e-06,-0.0,-0.0009182553572761502,-0.13028057211152216,0.0,0.13028057211152216,-0.17004648146869916,0.0,0.17004648146869916,-0.45513929991286395,0.0,0.45513929991286395,-0.15795781839765696,0,0.15795781839765696,-0.00502027891008108,0.0038510472718476987,0.03159156367953139,0.4,0.033468008041381836,0.40526628494262695,STABILIZE
0.025,0.001,0.005,-0.055010916214239425,-0.0043130078517404045,-5.501091621423943e-05,-0.0003680008928115259,-0.004736019660766169,0.03,0.001,0.006,-0.047330391281752836,-0.003928557076323105,-4.733039128175284e-05,-0.00011983843941739567,-0.004095725907022253,0.2,0,0,-0.05296762020654856,-0.031481967579869506,-0.0,0.0,-0.031481967579869506,0.002,8e-05,0.0,-0.11593442969463069,-0.0009654332050278377,-9.274754375570455e-06,-0.0,-0.0009747079594034082,-0.1309519025441035,0.0,0.1309519025441035,-0.17252031406961618,0.0,0.17252031406961618,-0.48271660251391885,0.0,0.48271660251391885,-0.1574098378993475,0,0.1574098378993475,-0.004747254042915554,0.0040826991053271216,0.031481967579869506,0.4,0.03361177444458008,0.4388692378997803,STABILIZE
0.025,0.001,0.005,-0.060778192209116386,-0.004306732180777468,-6.077819220911639e-05,3.7491022265705194e-05,-0.0043300193507208795,0.03,0.001,0.006,-0.05167561802306195,-0.003893774708793696,-5.167561802306195e-05,0.00020779077220594097,-0.0037376595546108173,0.2,0,0,-0.058133711551392284,-0.03086236464277144,-0.0,0.0,-0.03086236464277144,0.002,8e-05,0.0,-0.13274799810976048,-0.0010044469691613974,-1.061983984878084e-05,-0.0,-0.0010150668090101783,-0.1297924902931232,0.0,0.1297924902931232,-0.17226928723109872,0.0,0.17226928723109872,-0.5022234845806987,0.0,0.5022234845806987,-0.1543118232138572,0,0.1543118232138572,-0.0043400700837781395,0.0037259841910138067,0.03086236464277144,0.4,0.0334782600402832,0.4723689556121826,STABILIZE
0.025,0.001,0.005,-0.06651848820378647,-0.004286645833029839,-6.651848820378648e-05,0.00011999807529522474,-0.004233166245938401,0.03,0.001,0.006,-0.05579700009585461,-0.0036932392277466706,-5.579700009585461e-05,0.0011980212658065504,-0.0025510149620359746,0.2,0,0,-0.06319783452130408,-0.030253633815509547,-0.0,0.0,-0.030253633815509547,0.002,8e-05,0.0,-0.15137973174878286,-0.0011130804883928628,-1.2110378539902629e-05,-0.0,-0.0011251908669327655,-0.12310797425822236,0.0,0.12310797425822236,-0.17146583332119356,0.0,0.17146583332119356,-0.5565402441964314,0.0,0.5565402441964314,-0.15126816907754773,0,0.15126816907754773,-0.00423988648997817,0.002539829985330556,0.030253633815509547,0.4,0.033477783203125,0.5058207511901855,STABILIZE
0.025,0.001,0.005,-0.07230684731019248,-0.004325248302803983,-7.230684731019248e-05,-0.0002307600669625038,-0.00462831521707668,0.03,0.001,0.006,-0.05981510215944661,-0.0036029462882102353,-5.9815102159446615e-05,0.0005397583340023785,-0.0031230030563673032,0.2,0,0,-0.06817658664182588,-0.02976227115630964,-0.0,0.0,-0.02976227115630964,0.002,8e-05,0.0,-0.17094733892753997,-0.0011697236910707715,-1.3675787114203199e-05,-0.0,-0.0011833994781849746,-0.12009820960700784,0.0,0.12009820960700784,-0.17300993211215931,0.0,0.17300993211215931,-0.5848618455353857,0.0,0.5848618455353857,-0.1488113557815482,0,0.1488113557815482,-0.0046364108111837206,0.0031109716534616296,0.02976227115630964,0.4,0.03345680236816406,0.5393102169036865,STABILIZE
0.025,0.001,0.005,-0.07799278668017971,-0.0042489592081127,-7.799278668017972e-05,0.0004560713440992434,-0.0038708806506936363,0.03,0.001,0.006,-0.06370765303039277,-0.003490566210421821,-6.370765303039277e-05,0.000671830401636625,-0.002882443461815589,0.2,0,0,-0.07299366345889784,-0.028797440938073182,-0.0,0.0,-0.028797440938073182,0.002,8e-05,0.0,-0.19112928421038994,-0.0012065167307246112,-1.5290342736831196e-05,-0.0,-0.0012218070734614423,-0.11635220701406071,0.0,0.11635220701406071,-0.16995836832450797,0.0,0.16995836832450797,-0.6032583653623056,0.0,0.6032583653623056,-0.1439872046903659,0,0.1439872046903659,-0.00387811214680374,0.0028727066504067402,0.028797440938073182,0.4,0.03345489501953125,0.5727343559265137,STABILIZE
0.025,0.001,0.005,-0.0837192438285267,-0.004201712649857671,-8.371924382852671e-05,0.0002773323279503722,-0.004008099565735825,0.03,0.001,0.006,-0.0675661236986884,-0.0033973225530753875,-6.75661236986884e-05,0.0005473304620181737,-0.002917558214755902,0.2,0,0,-0.07776317109521419,-0.027996508207365836,-0.0,0.0,-0.027996508207365836,0.002,8e-05,0.0,-0.21252141306022063,-0.0012556954649932503,-1.700171304481765e-05,-0.0,-0.001272697178038068,-0.11324408510251292,0.0,0.11324408510251292,-0.16806850599430684,0.0,0.16806850599430684,-0.6278477324966252,0.0,0.6278477324966252,-0.13998254103682917,0,0.13998254103682917,-0.004015215646999988,0.002907757103581353,0.027996508207365836,0.4,0.034072160720825195,0.6068146228790283,STABILIZE
0.025,0.001,0.005,-0.08931178105865212,-0.0041787749984793215,-8.931178105865212e-05,0.00013711312795538924,-0.004130973651582584,0.03,0.001,0.006,-0.07144561031579366,-0.0034785288355706208,-7.144561031579366e-05,-0.00048542229624519705,-0.0040353967421316115,0.2,0,0,-0.08236555524374295,-0.027511416763998143,-0.0,0.0,-0.027511416763998143,0.002,8e-05,0.0,-0.2343549796520981,-0.0013051330149085104,-1.874839837216785e-05,-0.0,-0.0013238814132806782,-0.11595096118568736,0.0,0.11595096118568736,-0.16715099993917285,0.0,0.16715099993917285,-0.6525665074542552,0.0,0.6525665074542552,-0.1375570838199907,0,0.1375570838199907,-0.004140650014343236,0.004025467380962779,0.027511416763998143,0.4,0.03345799446105957,0.6402769088745117,STABILIZE
0.025,0.001,0.005,-0.09482375198422671,-0.004117460462100655,-9.482375198422672e-05,0.0003664172873188659,-0.0038458669267660162,0.03,0.001,0.006,-0.07539281412536843,-0.003538289118261178,-7.539281412536842e-05,-0.0003571290262663027,-0.003970810958652849,0.2,0,0,-0.08685158445717753,-0.026808628953310126,-0.0,0.0,-0.026808628953310126,0.002,8e-05,0.0,-0.25675840022117025,-0.0013388343248468945,-2.0540672017693622e-05,-0.0,-0.001359374996864588,-0.11794297060870594,0.0,0.11794297060870594,-0.16469841848402622,0.0,0.16469841848402622,-0.6694171624234473,0.0,0.6694171624234473,-0.13404314476655063,0,0.13404314476655063,-0.0038551460829036816,0.003961802716847804,0.026808628953310126,0.4,0.03346705436706543,0.6737570762634277,STABILIZE
0.025,0.001,0.005,-0.1002199671736358,-0.004035561676924809,-0.0001002199671736358,0.0004899843126953407,-0.003645797331403104,0.03,0.001,0.006,-0.07921818079888616,-0.00343296238700015,-7.921818079888617e-05,0.0006301491031224928,-0.0028820314646765435,0.2,0,0,-0.09127058830756311,-0.02643803030509185,-0.0,0.0,-0.02643803030509185,0.002,8e-05,0.0,-0.27966426765810354,-0.0013704129662824745,-2.2373141412648285e-05,-0.0,-0.0013927861076951228,-0.11443207956667167,0.0,0.11443207956667167,-0.16142246707699234,0.0,0.16142246707699234,-0.6852064831412372,0.0,0.6852064831412372,-0.13219015152545924,0,0.13219015152545924,-0.0036524369109408555,0.0028736123880315585,0.02643803030509185,0.4,0.03342914581298828,0.7071702480316162,STABILIZE
0.025,0.001,0.005,-0.10553833599092319,-0.003976975504336569,-0.00010553833599092319,0.0003504770447944998,-0.003732036795532992,0.03,0.001,0.006,-0.08279682409118892,-0.003211250035759384,-8.279682409118892e-05,0.001326338387104369,-0.0019677084727462036,0.2,0,0,-0.09561917287677608,-0.026014313643056897,-0.0,0.0,-0.026014313643056897,0.002,8e-05,0.0,-0.30340070941314323,-0.0014199729377633078,-2.427205675305146e-05,-0.0,-0.0014442449945163591,-0.10704166785864613,0.0,0.10704166785864613,-0.15907902017346276,0.0,0.15907902017346276,-0.7099864688816538,0.0,0.7099864688816538,-0.13007156821528448,0,0.13007156821528448,-0.003736494221563865,0.0019592310249557624,0.026014313643056897,0.4,0.0334322452545166,0.7406113147735596,STABILIZE
0.025,0.001,0.005,-0.11072679332606004,-0.0038503944447854294,-0.00011072679332606005,0.000751494291314866,-0.0032096269467966235,0.03,0.001,0.006,-0.08579128312965537,-0.0026666535431486824,-8.579128312965537e-05,0.0032331942608024747,0.00048074943452413666,0.2,0,0,-0.09995825355114175,-0.025760523477235384,-0.0,0.0,-0.025760523477235384,0.002,8e-05,0.0,-0.32825708628690925,-0.001475688810762355,-2.6260566902952742e-05,-0.0,-0.0015019493776653077,-0.08888845143828941,0.0,0.08888845143828941,-0.15401577779141717,0.0,0.15401577779141717,-0.7378444053811775,0.0,0.7378444053811775,-0.1288026173861769,0,0.1288026173861769,-0.0032085380985290633,-0.0004879635505709342,0.025760523477235384,0.4,0.03368782997131348,0.7742893695831299,STABILIZE
0.025,0.001,0.005,-0.11564261567357983,-0.0036698871069956746,-0.00011564261567357984,0.001078056129521378,-0.0027074735931478765,0.03,0.001,0.006,-0.08853277257644637,-0.00245597730678428,-8.853277257644638e-05,0.0012582358741652711,-0.0012862742051954555,0.2,0,0,-0.10437074406478973,-0.02635301424828351,-0.0,-0.0,-0.02635301424828351,0.002,8e-05,0.0,-0.3534992988390837,-0.0015075576593040656,-2.82799439071267e-05,-0.0,-0.0015358376032111923,-0.08186591022614267,0.0,0.08186591022614267,-0.14679548427982697,0.0,0.14679548427982697,-0.7537788296520328,0.0,0.7537788296520328,-0.13176507124141754,0,0.13176507124141754,-0.0027104245198806246,0.0012800443393000732,0.02635301424828351,0.4,0.033487558364868164,0.8078198432922363,STABILIZE
0.025,0.001,0.005,-0.12074496134742099,-0.0038152198250723207,-0.00012074496134742099,-0.0008693668405578563,-0.004805331626977598,0.03,0.001,0.006,-0.09121386102385369,-0.002405703364967078,-9.121386102385369e-05,0.00030073405726135444,-0.002196183168729577,0.2,0,0,-0.10835358238329594,-0.023824969430396345,-0.0,0.0,-0.023824969430396345,0.002,8e-05,0.0,-0.3793684086729125,-0.001547466157786932,-3.0349472693833003e-05,-0.0,-0.0015778156304807648,-0.08019011216556927,0.0,0.08019011216556927,-0.15260879300289282,0.0,0.15260879300289282,-0.773733078893466,0.0,0.773733078893466,-0.11912484715198171,0,0.11912484715198171,-0.004809887367698974,0.002186187564206714,0.023824969430396345,0.4,0.033434152603149414,0.841240644454956,STABILIZE
0.025,0.001,0.005,-0.12580198444725033,-0.0037785281528938453,-0.00012580198444725032,0.00021932352463693424,-0.0036850066127041615,0.03,0.001,0.006,-0.09360606027198612,-0.00214489640121397,-9.360606027198612e-05,0.001558966902951491,-0.000679535558534465,0.2,0,0,-0.11235912236382058,-0.02394301198183572,-0.0,-0.0,-0.02394301198183572,0.002,8e-05,0.0,-0.40553578611636537,-0.0015641482414557,-3.244286288930923e-05,-0.0,-0.0015965911043450093,-0.07149654670713233,0.0,0.07149654670713233,-0.1511411261157538,0.0,0.1511411261157538,-0.78207412072785,0.0,0.78207412072785,-0.11971505990917859,0,0.11971505990917859,-0.0036864184044049157,0.0006718345470804986,0.02394301198183572,0.4,0.03345894813537598,0.8746905326843262,STABILIZE
0.025,0.001,0.005,-0.13083581301859515,-0.0037621894711521568,-0.00013083581301859515,9.768980496634543e-05,-0.0037953354792044066,0.03,0.001,0.006,-0.0957079486233415,-0.0018850945230883703,-9.570794862334151e-05,0.0015533685768064362,-0.0004274338949052754,0.2,0,0,-0.11640359216806313,-0.02418208963337675,-0.0,-0.0,-0.02418208963337675,0.002,8e-05,0.0,-0.43216861792377814,-0.0015923904915346907,-3.4573489433902256e-05,-0.0,-0.001626963980968593,-0.06283648410294568,0.0,0.06283648410294568,-0.15048757884608627,0.0,0.15048757884608627,-0.7961952457673453,0.0,0.7961952457673453,-0.12091044816688375,0,0.12091044816688375,-0.003796229035162344,0.0004194237079756172,0.02418208963337675,0.4,0.03345012664794922,0.9081475734710693,STABILIZE
0.025,0.001,0.005,-0.13543198949134272,-0.003409121052768124,-0.00013543198949134272,0.002095050936912369,-0.0014495021053470974,0.03,0.001,0.006,-0.09760671829008687,-0.0016900488526428174,-9.760671829008687e-05,0.0011573694879817556,-0.0006302860829511486,0.2,0,0,-0.11987370995567398,-0.020591118161757294,-0.0,0.0,-0.020591118161757294,0.002,8e-05,0.0,-0.45960033402513123,-0.0016277537023077137,-3.67680267220105e-05,-0.0,-0.0016645217290297241,-0.05633496175476058,0.0,0.05633496175476058,-0.13636484211072494,0.0,0.13636484211072494,-0.8138768511538569,0.0,0.8138768511538569,-0.10295559080878647,0,0.10295559080878647,-0.0014506323345030347,0.0006276804360993303,0.020591118161757294,0.4,0.03370499610900879,0.9418618679046631,STABILIZE
0.025,0.001,0.005,-0.13996667670512983,-0.003386220137930965,-0.00013996667670512983,0.00013680774058745423,-0.0033893790740486406,0.03,0.001,0.006,-0.09938334721682668,-0.001592010129668749,-9.938334721682668e-05,0.0005856733792310647,-0.001105720097654511,0.2,0,0,-0.1229836388608941,-0.018578399593907398,-0.0,0.0,-0.018578399593907398,0.002,8e-05,0.0,-0.4874331141282977,-0.0016627020305770724,-3.8994649130263816e-05,-0.0,-0.0017016966797073361,-0.05306700432229164,0.0,0.05306700432229164,-0.1354488055172386,0.0,0.1354488055172386,-0.8313510152885362,0.0,0.8313510152885362,-0.09289199796953698,0,0.09289199796953698,-0.0033911672909026614,0.001100223544134474,0.018578399593907398,0.4,0.03347897529602051,0.975327730178833,STABILIZE
0.025,0.001,0.005,-0.14401799152534936,-0.003028718951758867,-0.00014401799152534937,0.0021381120271014393,-0.0010346249161827773,0.03,0.001,0.006,-0.1007765071656018,-0.0012498134932277599,-0.0001007765071656018,0.0020465799060479916,0.00069598990565463,0.2,0,0,-0.12600393736489185,-0.018063538826205053,-0.0,0.0,-0.018063538826205053,0.002,8e-05,0.0,-0.515739106983341,-0.0016929002225262828,-4.1259128558667285e-05,-0.0,-0.00173415935108495,-0.041660449774258666,0.0,0.041660449774258666,-0.12114875807035468,0.0,0.12114875807035468,-0.8464501112631414,0.0,0.8464501112631414,-0.09031769413102526,0,0.09031769413102526,-0.0010335265136747294,-0.000697619962078723,0.018063538826205053,0.4,0.03344082832336426,1.0087671279907227,STABILIZE
0.025,0.001,0.005,-0.1475824269609211,-0.002664296321241265,-0.00014758242696092112,0.0021791498629501584,-0.0006327288852520279,0.03,0.001,0.006,-0.10178586408877825,-0.0009053526660859489,-0.00010178586408877826,0.0020597836176958267,0.0010526450875210996,0.2,0,0,-0.1289410037253991,-0.017562871295573247,-0.0,0.0,-0.017562871295573247,0.002,8e-05,0.0,-0.5445270679272421,-0.0017214430689009167,-4.356216543417938e-05,-0.0,-0.001765005234335096,-0.030178422202864964,0.0,0.030178422202864964,-0.1065718528496506,0.0,0.1065718528496506,-0.8607215344504583,0.0,0.8607215344504583,-0.08781435647786623,0,0.08781435647786623,-0.0006311148066129142,-0.0010536136025073525,0.017562871295573247,0.4,0.033446311950683594,1.0422356128692627,STABILIZE
0.025,0.001,0.005,-0.15128387417611824,-0.002765820831846972,-0.00015128387417611823,-0.0006068947415453108,-0.0035239994475684006,0.03,0.001,0.006,-0.1024845340531704,-0.000626477968131291,-0.0001024845340531704,0.0016670613502982469,0.0009380988481137854,0.2,0,0,-0.131521965724108,-0.015428513329436722,-0.0,0.0,-0.015428513329436722,0.002,8e-05,0.0,-0.5737100687338682,-0.0017445057973082508,-4.589680549870946e-05,-0.0,-0.0017904026028069603,-0.0208825989377097,0.0,0.0208825989377097,-0.11063283327387888,0.0,0.11063283327387888,-0.8722528986541254,0.0,0.8722528986541254,-0.07714256664718361,0,0.07714256664718361,-0.003522733205269514,-0.0009428426802952754,0.015428513329436722,0.4,0.033457040786743164,1.0756871700286865,STABILIZE
0.025,0.001,0.005,-0.15482694365831076,-0.002600918241512935,-0.00015482694365831075,0.000968421663595766,-0.0017873235215754794,0.03,0.001,0.006,-0.10301106673114174,-0.0004638244168017348,-0.00010301106673114175,0.0009552137564925519,0.00038837827295967536,0.2,0,0,-0.13371161076563454,-0.012859104817601351,-0.0,0.0,-0.012859104817601351,0.002,8e-05,0.0,-0.6035262289616267,-0.0017510104256890987,-4.8282098316930134e-05,-0.0,-0.0017992925240060288,-0.01546081389339116,0.0,0.01546081389339116,-0.10403672966051739,0.0,0.10403672966051739,-0.8755052128445493,0.0,0.8755052128445493,-0.06429552408800675,0,0.06429552408800675,-0.0017868865704136535,-0.00039038370631910884,0.012859104817601351,0.4,0.03405594825744629,1.109727144241333,STABILIZE
0.025,0.001,0.005,-0.1582878552735479,-0.002568260304352277,-0.0001582878552735479,0.0001938774356732641,-0.0025326707239525605,0.03,0.001,0.006,-0.10349241601299004,-0.00042863744257095194,-0.00010349241601299004,0.0002088913423834872,-0.0003232385162004548,0.2,0,0,-0.1360319732723392,-0.013775087214456078,-0.0,-0.0,-0.013775087214456078,0.002,8e-05,0.0,-0.6334092047639706,-0.0017740357237945974,-5.067273638111765e-05,-0.0,-0.001824708460175715,-0.014287914752365065,0.0,0.014287914752365065,-0.10273041217409107,0.0,0.10273041217409107,-0.8870178618972987,0.0,0.8870178618972987,-0.06887543607228039,0,0.06887543607228039,-0.0025330574599719204,0.00032019375197286297,0.013775087214456078,0.4,0.033689260482788086,1.1434388160705566,STABILIZE
0.025,0.001,0.005,-0.1619050218336699,-0.0026728827239548975,-0.00016190502183366988,-0.00061848068812131,-0.0034532684339098774,0.03,0.001,0.006,-0.10393993890287012,-0.0003968331060412562,-0.00010393993890287012,0.000188012932761834,-0.00031276011218229235,0.2,0,0,-0.1375501887532606,-0.00897500706754044,-0.0,0.0,-0.00897500706754044,0.002,8e-05,0.0,-0.6644152905442505,-0.001832940333646763,-5.3153223243540045e-05,-0.0,-0.001886093556890303,-0.013227770201375208,0.0,0.013227770201375208,-0.1069153089581959,0.0,0.1069153089581959,-0.9164701668233814,0.0,0.9164701668233814,-0.0448750353377022,0,0.0448750353377022,-0.0034535123337911654,0.000310055357578216,0.00897500706754044,0.4,0.03383207321166992,1.1773111820220947,STABILIZE
0.025,0.001,0.005,-0.16538353427317776,-0.002599423214083194,-0.00016538353427317777,0.0004391586543417866,-0.002325648094014585,0.03,0.001,0.006,-0.10412346513348895,-0.00016457460568906787,-0.00010412346513348895,0.001388497291259466,0.001119799220436909,0.2,0,0,-0.13870683463235398,-0.006914707826117305,-0.0,0.0,-0.006914707826117305,0.002,8e-05,0.0,-0.695174255633179,-0.0018388450645793223,-5.561394045065433e-05,-0.0,-0.0018944590050299767,-0.005485820189635596,0.0,0.005485820189635596,-0.10397692856332776,0.0,0.10397692856332776,-0.9194225322896612,0.0,0.9194225322896612,-0.03457353913058652,0,0.03457353913058652,-0.0023249719590620814,-0.001121202363920005,0.006914707826117305,0.4,0.03345465660095215,1.210721731185913,STABILIZE
0.025,0.001,0.005,-0.16883823343503526,-0.002585276031675412,-0.00016883823343503526,8.469477631716858e-05,-0.0026694194887932786,0.03,0.001,0.006,-0.10425543207300816,-0.00011850674680308567,-0.00010425543207300816,0.00027579392781511795,5.303174893902412e-05,0.2,0,0,-0.13943203741630505,-0.004341563273937668,-0.0,0.0,-0.004341563273937668,0.002,8e-05,0.0,-0.72601602798177,-0.0018464008839329522,-5.808128223854161e-05,-0.0,-0.0019044821661714938,-0.003950224893436189,0.0,0.003950224893436189,-0.10341104126701647,0.0,0.10341104126701647,-0.9232004419664761,0.0,0.9232004419664761,-0.02170781636968834,0,0.02170781636968834,-0.0026693992049124445,-5.4043115729084916e-05,0.004341563273937668,0.4,0.03340744972229004,1.2441253662109375,STABILIZE
0.025,0.001,0.005,-0.17200494855729415,-0.002359830770897597,-0.00017200494855729414,0.0013440114263439718,-0.0011878242931109193,0.03,0.001,0.006,-0.1040943409445766,0.000144053804822302,-0.0001040943409445766,0.0015652774437315779,0.0016052369076093032,0.2,0,0,-0.14008969613836506,-0.003920689368380725,-0.0,0.0,-0.003920689368380725,0.002,8e-05,0.0,-0.7586437353571575,-0.0019451290027846734,-6.0691498828572604e-05,-0.0,-0.002005820501613246,0.004801793494076734,0.0,-0.004801793494076734,-0.09439323083590387,0.0,0.09439323083590387,-0.9725645013923366,0.0,0.9725645013923366,-0.019603446841903623,0,0.019603446841903623,-0.0011872750003089525,-0.0016056432214215305,0.003920689368380725,0.4,0.03354811668395996,1.277686595916748,STABILIZE
0.025,0.001,0.005,-0.17478713343920618,-0.002077043554377017,-0.0001747871334392062,0.0016889211616465411,-0.0005629095261696824,0.03,0.001,0.006,-0.10373075837917595,0.0003257196150517451,-0.00010373075837917594,0.0010849826771495616,0.0013069715338221307,0.2,0,0,-0.14081970711578357,-0.004359924763100652,-0.0,-0.0,-0.004359924763100652,0.002,8e-05,0.0,-0.7915893785838966,-0.001967648846165126,-6.332715028671173e-05,-0.0,-0.0020309759964518377,0.010857320501724837,0.0,-0.010857320501724837,-0.08308174217508069,0.0,0.08308174217508069,-0.9838244230825629,0.0,0.9838244230825629,-0.02179962381550326,0,0.02179962381550326,-0.0005624122151674352,-0.001307185612338358,0.004359924763100652,0.4,0.03348731994628906,1.3111674785614014,STABILIZE
0.025,0.001,0.005,-0.17750276812727467,-0.0020305843550919626,-0.00017750276812727466,0.0002779146212348039,-0.0019301725019844336,0.03,0.001,0.006,-0.103121161635216,0.0005469826777388077,-0.000103121161635216,0.0013235751198086006,0.001767436635912192,0.2,0,0,-0.14114970712638622,-0.001974029457361291,-0.0,0.0,-0.001974029457361291,0.002,8e-05,0.0,-0.8244682680319837,-0.0019667846730465712,-6.59574614425587e-05,0.0,-0.00203274213448913,0.018232755924626923,0.0,-0.018232755924626923,-0.0812233742036785,0.0,0.0812233742036785,-0.9833923365232855,0.0,0.9833923365232855,-0.009870147286806456,0,0.009870147286806456,-0.0019298680031031687,-0.0017677691138777269,0.001974029457361291,0.4,0.033434152603149414,1.3446261882781982,STABILIZE
0.025,0.001,0.005,-0.17969278736757227,-0.0016337983543315772,-0.00017969278736757228,0.0023680826291773926,0.000554591487478243,0.03,0.001,0.006,-0.10279678725893908,0.0002903877622973933,-0.00010279678725893908,-0.0015313996986476364,-0.0013438087236091823,0.2,0,0,-0.14169838379110197,-0.003274590525518621,-0.0,-0.0,-0.003274590525518621,0.002,8e-05,0.0,-0.8573888300292293,-0.0019647520542316987,-6.859110640233835e-05,0.0,-0.0020333431606340373,0.009679592076579778,0.0,-0.009679592076579778,-0.06535193417326308,0.0,0.06535193417326308,-0.9823760271158493,0.0,0.9823760271158493,-0.016372952627593106,0,0.016372952627593106,0.0005542074554629393,0.0013439671498741196,0.003274590525518621,0.4,0.03351116180419922,1.3781282901763916,STABILIZE
0.025,0.001,0.005,-0.18189809722305225,-0.0016484423916593818,-0.00018189809722305225,-8.756992349609317e-05,-0.0019179104123785273,0.03,0.001,0.006,-0.10227818271123999,0.00046518073756041334,-0.00010227818271123999,0.001045245046075828,0.0014081476009250014,0.2,0,0,-0.14206235500337622,-0.002176512562769793,-0.0,0.0,-0.002176512562769793,0.002,8e-05,0.0,-0.8901562655735334,-0.001959460877861666,-7.121250124588269e-05,0.0,-0.0020306733791075485,0.015506024585347111,0.0,-0.015506024585347111,-0.06593769566637527,0.0,0.06593769566637527,-0.9797304389308329,0.0,0.9797304389308329,-0.010882562813848964,0,0.010882562813848964,-0.0019176429190847217,-0.001408511856813792,0.002176512562769793,0.4,0.03344535827636719,1.4115796089172363,STABILIZE
0.025,0.001,0.005,-0.18438980622138448,-0.001861208766720971,-0.0001843898062213845,-0.001271425010843965,-0.00331702358378632,0.03,0.001,0.006,-0.10178141286764422,0.0004452810766723955,-0.00010178141286764423,-0.00011891412143020916,0.0002245855423745421,0.2,0,0,-0.14237950546195324,-0.0018951914987448337,-0.0,0.0,-0.0018951914987448337,0.002,8e-05,0.0,-0.923163500376942,-0.001972408650366161,-7.385308003015537e-05,-0.0,-0.002046261730396316,0.014842702555746518,0.0,-0.014842702555746518,-0.07444835066883884,0.0,0.07444835066883884,-0.9862043251830803,0.0,0.9862043251830803,-0.009475957493724168,0,0.009475957493724168,-0.0033169863949693386,-0.00022513413074570277,0.0018951914987448337,0.4,0.03346896171569824,1.4451699256896973,STABILIZE
0.025,0.001,0.005,-0.18649802784739766,-0.001577185562322724,-0.00018649802784739768,0.0016998489791177213,-6.383461105240055e-05,0.03,0.001,0.006,-0.1010919072207639,0.0006189928068176451,-0.0001010919072207639,0.0010396464182346854,0.0015575473178315665,0.2,0,0,-0.14321840242643039,-0.005020710021466894,-0.0,-0.0,-0.005020710021466894,0.002,8e-05,0.0,-0.9559993549195689,-0.0019651913279761196,-7.647994839356551e-05,0.0,-0.002041671276369685,0.02063309356058817,0.0,-0.02063309356058817,-0.06308742249290895,0.0,0.06308742249290895,-0.9825956639880599,0.0,0.9825956639880599,-0.025103550107334466,0,0.025103550107334466,-6.315218178321197e-05,-0.001557575136803531,0.005020710021466894,0.4,0.033417463302612305,1.4784557819366455,STABILIZE
0.025,0.001,0.005,-0.18887688083453094,-0.001777049006779516,-0.00018887688083453095,-0.0011944147448690592,-0.003160340632483106,0.03,0.001,0.006,-0.10019881201745728,0.0008005911853719709,-0.00010019881201745728,0.0010852598962212514,0.001785652269575765,0.2,0,0,-0.14347964942361807,-0.0015612523157590118,-0.0,0.0,-0.0015612523157590118,0.002,8e-05,0.0,-0.9887878864342025,-0.001959493173457677,-7.91030309147362e-05,0.0,-0.0020385962043724132,0.026686372845732366,0.0,-0.026686372845732366,-0.07108196027118063,0.0,0.07108196027118063,-0.9797465867288386,0.0,0.9797465867288386,-0.007806261578795059,0,0.007806261578795059,-0.0031600973170174216,-0.0017860828335057959,0.0015612523157590118,0.4,0.033466339111328125,1.5120065212249756,STABILIZE
0.025,0.001,0.005,-0.1915254144317923,-0.0019795633176864992,-0.0001915254144317923,-0.0012109037290447902,-0.003381992461163082,0.03,0.001,0.006,-0.09909206498237162,0.0009926440056698274,-9.909206498237162e-05,0.0011483508263228823,0.002041902767010338,0.2,0,0,-0.14316152890027423,0.001902153612144888,-0.0,0.0,0.001902153612144888,0.002,8e-05,0.0,-1.0216505621774097,-0.001964974051740808,-8.173204497419278e-05,-0.0,-0.0020467060967150007,0.03308813352232758,0.0,-0.03308813352232758,-0.07918253270745997,0.0,0.07918253270745997,-0.9824870258704039,0.0,0.9824870258704039,0.009510768060724439,0,-0.009510768060724439,-0.0033823313586187885,-0.0020413413476908695,-0.001902153612144888,0.4,0.03344845771789551,1.5454204082489014,STABILIZE
0.025,0.001,0.005,-0.19312010648482342,-0.0011917326364621684,-0.00019312010648482342,0.0047100430859320745,0.0033251903429850826,0.03,0.001,0.006,-0.09772793314291908,0.0012233186441904524,-9.772793314291909e-05,0.001379087552893333,0.0025046782639408663,0.2,0,0,-0.14380086914558368,-0.003822293512735725,-0.0,-0.0,-0.003822293512735725,0.002,8e-05,0.0,-1.0544419191194623,-0.001960430175215116,-8.435535352955699e-05,0.0,-0.002044785528744673,0.04077728813968175,0.0,-0.04077728813968175,-0.04766930545848673,0.0,0.04766930545848673,-0.9802150876075579,0.0,0.9802150876075579,-0.019111467563678625,0,0.019111467563678625,0.003326025613544862,-0.0025035689806719146,0.003822293512735725,0.4,0.03345322608947754,1.5788309574127197,STABILIZE
0.025,0.001,0.005,-0.19500135488745565,-0.0014062605061760814,-0.00019500135488745564,-0.0012829015890964807,-0.0028841634501600177,0.03,0.001,0.006,-0.09688694605294776,0.0007543800781497183,-9.688694605294777e-05,-0.0028043071157353985,-0.002146813983638628,0.2,0,0,-0.14381623472067429,-9.188792452656942e-05,-0.0,0.0,-9.188792452656942e-05,0.002,8e-05,0.0,-1.0867336191572479,-0.0019310811853186093,-8.693868953257984e-05,0.0,-0.002018019874851189,0.02514600260499061,0.0,-0.02514600260499061,-0.05625042024704325,0.0,0.05625042024704325,-0.9655405926593046,0.0,0.9655405926593046,-0.00045943962263284704,0,0.00045943962263284704,-0.0028841806647978505,0.0021467908562297165,9.188792452656942e-05,0.4,0.03344416618347168,1.6122825145721436,STABILIZE
0.025,0.001,0.005,-0.19675362576875627,-0.001309092017178222,-0.00019675362576875626,0.0005807435123224903,-0.0009251021306244879,0.03,0.001,0.006,-0.0956816334885817,0.0010805624219778574,-9.568163348858171e-05,0.0019494826148475863,0.002934363403336862,0.2,0,0,-0.14391247355827466,-0.0005751872973049117,-0.0,-0.0,-0.0005751872973049117,0.002,8e-05,0.0,-1.1188858881093542,-0.0019216334217973664,-8.951087104874834e-05,0.0,-0.002011144292846115,0.03601874739926191,0.0,-0.03601874739926191,-0.05236368068712888,0.0,0.05236368068712888,-0.9608167108986831,0.0,0.9608167108986831,-0.0028759364865245584,0,0.0028759364865245584,-0.0009249548403769907,-0.0029344098347353995,0.0005751872973049117,0.4,0.033463478088378906,1.6457569599151611,STABILIZE
0.025,0.001,0.005,-0.19842651797840447,-0.0012435521208167214,-0.00019842651797840447,0.00038975506801166573,-0.0010522235707834601,0.03,0.001,0.006,-0.09368022118319161,0.0017853108545612334,-9.36802211831916e-05,0.004191023918585262,0.005882654551963304,0.2,0,0,-0.14452947118632084,-0.0036691842043167855,-0.0,-0.0,-0.0036691842043167855,0.002,8e-05,0.0,-1.1510504655646807,-0.0019127749309398234,-9.208403724517447e-05,0.0,-0.002004858968184998,0.05951036181870779,0.0,-0.05951036181870779,-0.04974208483266885,0.0,0.04974208483266885,-0.9563874654699117,0.0,0.9563874654699117,-0.018345921021583927,0,0.018345921021583927,-0.0010503399101470035,-0.0058829911689377255,0.0036691842043167855,0.4,0.033631324768066406,1.6793773174285889,STABILIZE
0.025,0.001,0.005,-0.20037334316783548,-0.0014077803775190444,-0.00020037334316783548,-0.0009500485959389557,-0.0025582023166258357,0.03,0.001,0.006,-0.0918603786252343,0.0015791486511524625,-9.18603786252343e-05,-0.0011926334469908166,0.0002946548255364117,0.2,0,0,-0.14445501621497295,0.00043071662824721097,-0.0,0.0,0.00043071662824721097,0.002,8e-05,0.0,-1.184120593840936,-0.001913083020379711,-9.47296475072749e-05,-0.0,-0.002007812667886986,0.052638288371748755,0.0,-0.052638288371748755,-0.05631121510076177,0.0,0.05631121510076177,-0.9565415101898554,0.0,0.9565415101898554,0.0021535831412360547,0,-0.0021535831412360547,-0.0025582133900439934,-0.00029455866987970904,-0.00043071662824721097,0.4,0.034572601318359375,1.713953971862793,STABILIZE
0.025,0.001,0.005,-0.20202133080077214,-0.0012310171185711104,-0.00020202133080077215,0.0010563117991926703,-0.0003767266501792123,0.03,0.001,0.006,-0.09029954918825779,0.0013990938167397992,-9.029954918825779e-05,-0.0010759817805113044,0.0002328124870402369,0.2,0,0,-0.14493453845964585,-0.002865555930786184,-0.0,-0.0,-0.002865555930786184,0.002,8e-05,0.0,-1.2161074203407551,-0.0019114867225004108,-9.728859362726042e-05,0.0,-0.0020087753161276713,0.04663646055799331,0.0,-0.04663646055799331,-0.04924068474284441,0.0,0.04924068474284441,-0.9557433612502054,0.0,0.9557433612502054,-0.014327779653930919,0,0.014327779653930919,-0.00037666841969703253,-0.00023290668663662544,0.002865555930786184,0.4,0.033468008041381836,1.7474486827850342,STABILIZE
0.025,0.001,0.005,-0.20343465263276764,-0.0010548392826023468,-0.00020343465263276763,0.0010519291382704177,-0.00020634479696469673,0.03,0.001,0.006,-0.08894524623508425,0.0012129483234839275,-8.894524623508425e-05,-0.0011114443950162299,1.2558682232613472e-05,0.2,0,0,-0.14597371134356107,-0.006204731885143262,-0.0,-0.0,-0.006204731885143262,0.002,8e-05,0.0,-1.2480896492037095,-0.0019096067483619081,-9.984717193629676e-05,0.0,-0.002009453920298205,0.040431610782797583,0.0,-0.040431610782797583,-0.04219357130409387,0.0,0.04219357130409387,-0.9548033741809541,0.0,0.9548033741809541,-0.03102365942571631,0,0.03102365942571631,-0.0002063379666295845,-1.2670408872256193e-05,0.006204731885143262,0.4,0.03349614143371582,1.7809109687805176,STABILIZE
0.025,0.001,0.005,-0.2045664697616679,-0.0007682971416989133,-0.0002045664697616679,0.0015560782901124929,0.0005832146786519117,0.03,0.001,0.006,-0.08746447662440766,0.0012062065826865661,-8.746447662440767e-05,-3.661128677012015e-05,0.0010821308192920382,0.2,0,0,-0.14766324410750603,-0.009175073677189135,-0.0,-0.0,-0.009175073677189135,0.002,8e-05,0.0,-1.2833755753752714,-0.0019162160054001962,-0.00010267004603002172,-0.0,-0.002018886051430218,0.0402068860895522,0.0,-0.0402068860895522,-0.03073188566795653,0.0,0.03073188566795653,-0.9581080027000981,0.0,0.9581080027000981,-0.04587536838594568,0,0.04587536838594568,0.0005840809280331647,-0.001081663506347805,0.009175073677189135,0.4,0.03682875633239746,1.8177440166473389,STABILIZE
0.025,0.001,0.005,-0.20572670692054723,-0.000867226123140622,-0.00020572670692054723,-0.0005915604159743445,-0.0016645132460355136,0.03,0.001,0.006,-0.08780002105814512,-0.00030096560467959875,-8.780002105814512e-05,-0.009012358088702587,-0.00940112371444033,0.2,0,0,-0.1483971452625981,-0.0043884700546130565,-0.0,0.0,-0.0043884700546130565,0.002,8e-05,0.0,-1.3151166179556257,-0.0018980023930962532,-0.00010520932943645007,0.0,-0.0020032117225327033,-0.010032186822653293,0.0,0.010032186822653293,-0.03468904492562488,0.0,0.03468904492562488,-0.9490011965481266,0.0,0.9490011965481266,-0.02194235027306528,0,0.02194235027306528,-0.001668113437055016,0.009400485572647645,0.0043884700546130565,0.4,0.0334467887878418,1.851224660873413,STABILIZE
0.025,0.001,0.005,-0.20518389154806002,0.0004059620644060579,-0.00020518389154806002,0.007617560315221588,0.007818338488079586,0.03,0.001,0.006,-0.09079306978119465,-0.0026861381605526613,-9.079306978119465e-05,-0.014270628634706944,-0.0170475598650408,0.2,0,0,-0.14836110483554005,0.00021563200914546666,-0.0,0.0,0.00021563200914546666,0.002,8e-05,0.0,-1.3471384603469392,-0.0019158857913249825,-0.00010777107682775514,-0.0,-0.0020236568681527376,-0.0895379386850887,0.0,0.0895379386850887,0.016238482576242316,0.0,-0.016238482576242316,-0.9579428956624912,0.0,0.9579428956624912,0.0010781600457273333,0,-0.0010781600457273333,0.007818659278175624,0.017047412740886364,-0.00021563200914546666,0.4,0.03342771530151367,1.8846266269683838,STABILIZE
0.025,0.001,0.005,-0.2043114665242161,0.0006516579464472816,-0.0002043114665242161,0.0014681804814455413,0.0019155269613686068,0.03,0.001,0.006,-0.0949883484617863,-0.003760396524697845,-9.49883484617863e-05,-0.006419339018481993,-0.010274723891641625,0.2,0,0,-0.1460848112565052,0.013602221474017446,-0.0,0.0,0.013602221474017446,0.002,8e-05,0.0,-1.3794047222353993,-0.001928102966980095,-0.00011035237777883196,-0.0,-0.002038455344758927,-0.12534655082326152,0.0,0.12534655082326152,0.026066317857891264,0.0,-0.026066317857891264,-0.9640514834900475,0.0,0.9640514834900475,0.06801110737008723,0,-0.06801110737008723,0.0019277218886567373,0.01027244288906952,-0.013602221474017446,0.4,0.033469438552856445,1.9180958271026611,STABILIZE
0.025,0.001,0.005,-0.20425133104992507,4.4931000270914077e-05,-0.00020425133104992507,-0.003626591312952484,-0.003785911643731495,0.03,0.001,0.006,-0.09837876212079023,-0.0030398298939614513,-9.837876212079024e-05,0.004307045698069958,0.001168837041987717,0.2,0,0,-0.1439845186470037,0.012554087106693718,-0.0,-0.0,0.012554087106693718,0.002,8e-05,0.0,-1.411453831429609,-0.0019156726386403114,-0.00011291630651436872,0.0,-0.0020285889451546802,-0.10132766313204838,0.0,0.10132766313204838,0.0017972400108365628,0.0,-0.0017972400108365628,-0.9578363193201557,0.0,0.9578363193201557,0.06277043553346859,0,-0.06277043553346859,-0.003787189891815196,-0.0011646886829522773,-0.012554087106693718,0.4,0.03345990180969238,1.9516022205352783,STABILIZE
0.025,0.001,0.005,-0.20495587052077094,-0.0005269502554863674,-0.00020495587052077094,-0.0034218434742043836,-0.004153749600211522,0.03,0.001,0.006,-0.10108431435955403,-0.002428295082011464,-0.00010108431435955404,0.0036591099716127137,0.0011297305752416957,0.2,0,0,-0.14198225535868017,0.011980514307495966,-0.0,-0.0,0.011980514307495966,0.002,8e-05,0.0,-1.4436073518163923,-0.0019239013833827927,-0.0001154885881453114,-0.0,-0.002039389971528104,-0.08094316940038214,0.0,0.08094316940038214,-0.021078010219454695,0.0,0.021078010219454695,-0.9619506916913964,0.0,0.9619506916913964,0.059902571537479826,0,-0.059902571537479826,-0.004154928459883497,-0.001125387225422195,-0.011980514307495966,0.4,0.033425331115722656,1.9849917888641357,STABILIZE
0.025,0.001,0.005,-0.20615589235702797,-0.0008973088146607476,-0.00020615589235702797,-0.002215466350304266,-0.003318931057322042,0.03,0.001,0.006,-0.10525376445836562,-0.0037412162474854175,-0.00010525376445836563,-0.007853828649711998,-0.01170029866165578,0.2,0,0,-0.1397933589813215,0.013093868490987795,-0.0,0.0,0.013093868490987795,0.002,8e-05,0.0,-1.4766782985732403,-0.0019782874702783215,-0.00011813426388585923,-0.0,-0.0020964217341641806,-0.12470720824951392,0.0,0.12470720824951392,-0.0358923525864299,0.0,0.0358923525864299,-0.9891437351391608,0.0,0.9891437351391608,0.06546934245493898,0,-0.06546934245493898,-0.0033055594819194982,0.011704083417623653,-0.013093868490987795,0.4,0.03343391418457031,2.018425703048706,STABILIZE
0.025,0.001,0.005,-0.20452998528982042,0.001200793864561357,-0.00020452998528982041,0.012396225468195507,0.013392489347467043,0.03,0.001,0.006,-0.11473088385288174,-0.008399053342350308,-0.00011473088385288175,-0.027519910914692476,-0.03603369514089567,0.2,0,0,-0.13718027757936066,0.015438875583279341,-0.0,0.0,0.015438875583279341,0.002,8e-05,0.0,-1.5073253250718919,-0.0018107190566474195,-0.00012058602600575136,0.0,-0.001931305082653171,-0.27996844474501026,0.0,0.27996844474501026,0.04803175458245428,0.0,-0.04803175458245428,-0.9053595283237097,0.0,0.9053595283237097,0.0771943779163967,0,-0.0771943779163967,0.013441025233156073,0.03601561879394394,-0.015438875583279341,0.4,0.033850669860839844,2.0523016452789307,STABILIZE
0.025,0.001,0.005,-0.20627699500928026,-0.0013068933891648268,-0.00020627699500928027,-0.015007494726478917,-0.016520665110653025,0.03,0.001,0.006,-0.11690205893300844,-0.0019490408054381953,-0.00011690205893300844,0.03860071824730059,0.03653477538292939,0.2,0,0,-0.13256284937338697,0.027633441669441778,-0.0,0.0,0.027633441669441778,0.002,8e-05,0.0,-1.5310059381485286,-0.0014171889869414288,-0.0001224804750518823,0.0,-0.001539669461993311,-0.06496802684793984,0.0,0.06496802684793984,-0.05227573556659307,0.0,0.05227573556659307,-0.7085944934707143,0.0,0.7085944934707143,0.1381672083472089,0,-0.1381672083472089,-0.016608719603377217,-0.03649483006010364,-0.027633441669441778,0.4,0.033419132232666016,2.085693120956421,STABILIZE
0.025,0.001,0.005,-0.2079606684382546,-0.0012383106891072423,-0.0002079606684382546,0.00040353046669331115,-0.0010427408908521858,0.03,0.001,0.006,-0.11769126369912855,-0.0006965346231374086,-0.00011769126369912855,0.007369561184609552,0.006555335297773014,0.2,0,0,-0.1299417998608157,0.015421867790945818,-0.0,-0.0,0.015421867790945818,0.002,8e-05,0.0,-1.5550117779624364,-0.0014124681202894343,-0.00012440094223699493,0.0,-0.0015368690625264293,-0.023217820771246955,0.0,0.023217820771246955,-0.04953242756428969,0.0,0.04953242756428969,-0.7062340601447171,0.0,0.7062340601447171,0.07710933895472909,0,-0.07710933895472909,-0.001051562191794627,-0.0065539260286085095,-0.015421867790945818,0.4,0.033991336822509766,2.119689464569092,STABILIZE
0.025,0.001,0.005,-0.20893896484792387,-0.0007305096215526989,-0.00020893896484792387,0.0030334656205779475,0.0020940170341773247,0.03,0.001,0.006,-0.11997917237809767,-0.002050101731992497,-0.00011997917237809767,-0.008085842177588511,-0.010255923081959106,0.2,0,0,-0.12792311937768194,0.012059048780672689,-0.0,-0.0,0.012059048780672689,0.002,8e-05,0.0,-1.5781802184614675,-0.0013840196924884956,-0.00012625441747691742,0.0,-0.001510274109965413,-0.0683367243997499,0.0,0.0683367243997499,-0.029220384862107953,0.0,0.029220384862107953,-0.6920098462442478,0.0,0.6920098462442478,0.06029524390336344,0,-0.06029524390336344,0.0021048086987693893,0.010253713763513738,-0.012059048780672689,0.4,0.033479928970336914,2.153204917907715,STABILIZE
0.025,0.001,0.005,-0.21046513467638936,-0.0011409073147113592,-0.00021046513467638936,-0.00245438336589928,-0.003805755815287029,0.03,0.001,0.006,-0.12232149782303256,-0.0021012415659515896,-0.00012232149782303255,-0.0003058417722526594,-0.0025294048360272815,0.2,0,0,-0.12248100355615575,0.032546573166256386,-0.0,0.0,0.032546573166256386,0.002,8e-05,0.0,-1.6012682431908025,-0.0013807792975396606,-0.0001281014594552642,0.0,-0.0015088807569949248,-0.07004138553171965,0.0,0.07004138553171965,-0.04563629258845437,0.0,0.04563629258845437,-0.6903896487698303,0.0,0.6903896487698303,0.16273286583128194,0,-0.16273286583128194,-0.003798556397574597,0.002540203819490541,-0.032546573166256386,0.4,0.033442020416259766,2.186617374420166,STABILIZE
0.025,0.001,0.005,-0.2125409415003332,-0.0015515519618383084,-0.0002125409415003332,-0.0024554751454481504,-0.004219568048786792,0.03,0.001,0.006,-0.12472398734537456,-0.002154875273761928,-0.00012472398734537457,-0.0003207060834907251,-0.002600305344598028,0.2,0,0,-0.11361012410640285,0.05304397405282901,-0.0,0.0,0.05304397405282901,0.002,8e-05,0.0,-1.624339790073734,-0.0013795774603282789,-0.00012994718320589872,0.0,-0.0015095246435341775,-0.07182917579206427,0.0,0.07182917579206427,-0.06206207847353233,0.0,0.06206207847353233,-0.6897887301641394,0.0,0.6897887301641394,0.26521987026414506,0,-0.26521987026414506,-0.004207486175569909,0.0026198096277927426,-0.05304397405282901,0.4,0.033447265625,2.220066785812378,STABILIZE
0.025,0.001,0.005,-0.21471638712742191,-0.0016069657869351526,-0.0002147163871274219,-0.0003274662255677898,-0.0021491483996303644,0.03,0.001,0.006,-0.12586135815158472,-0.001008188455668939,-0.00012586135815158473,0.006776309045134548,0.0056422592313140245,0.2,0,0,-0.10653640642687746,0.04180190819164799,-0.0,-0.0,0.04180190819164799,0.002,8e-05,0.0,-1.6472477929696454,-0.0013537410980941863,-0.00013177982343757166,0.0,-0.001485520921531758,-0.0336062818556313,0.0,0.0336062818556313,-0.0642786314774061,0.0,0.0642786314774061,-0.6768705490470931,0.0,0.6768705490470931,0.20900954095823993,0,-0.20900954095823993,-0.0021697164781447854,-0.005634381818926462,-0.04180190819164799,0.4,0.033843994140625,2.2539217472076416,STABILIZE
0.025,0.001,0.005,-0.21638803514146462,-0.0012506689032506253,-0.00021638803514146464,0.002132551489337435,0.0006654945509453451,0.03,0.001,0.006,-0.12741780180409498,-0.0013973724081892647,-0.000127417801804095,-0.0023293911779152967,-0.0038541813879086565,0.2,0,0,-0.10080606593460592,0.03429793161487301,-0.0,-0.0,0.03429793161487301,0.002,8e-05,0.0,-1.6699073668141384,-0.001356248403020299,-0.00013359258934513108,-0.0,-0.0014898409923654302,-0.04657908027297549,0.0,0.04657908027297549,-0.05002675613002501,0.0,0.05002675613002501,-0.6781242015101495,0.0,0.6781242015101495,0.17148965807436506,0,-0.17148965807436506,0.0006770273457721143,0.0038521722626741668,-0.03429793161487301,0.4,0.03341507911682129,2.2873265743255615,STABILIZE
0.025,0.001,0.005,-0.21794434215391686,-0.0011632128344886206,-0.00021794434215391688,0.0005229303515253814,-0.000858226825117156,0.03,0.001,0.006,-0.13017717697019215,-0.0024748900436932777,-0.00013017717697019215,-0.00644285392523508,-0.009047921145898549,0.2,0,0,-0.09360269140318689,0.04307148982576314,-0.0,0.0,0.04307148982576314,0.002,8e-05,0.0,-1.693032598116248,-0.001382738271351573,-0.00013544260784929986,-0.0,-0.001518180879200873,-0.08249633478977593,0.0,0.08249633478977593,-0.04652851337954482,0.0,0.04652851337954482,-0.6913691356757865,0.0,0.6913691356757865,0.21535744912881571,0,-0.21535744912881571,-0.000824212452723146,0.009051083038980744,-0.04307148982576314,0.4,0.03344845771789551,2.3207836151123047,STABILIZE
0.025,0.001,0.005,-0.21946872262870343,-0.001139415319335485,-0.00021946872262870344,0.00014230176140978261,-0.001216582280554406,0.03,0.001,0.006,-0.13205742322876746,-0.0016864934390692084,-0.00013205742322876745,0.004714367227231926,0.00289581636493395,0.2,0,0,-0.08817845952286518,0.0324352246819843,-0.0,-0.0,0.0324352246819843,0.002,8e-05,0.0,-1.7164606897819652,-0.001400927235069816,-0.00013731685518255724,-0.0,-0.0015382440902523733,-0.05621644796897361,0.0,0.05621644796897361,-0.0455766127734194,0.0,0.0455766127734194,-0.7004636175349079,0.0,0.7004636175349079,0.1621761234099215,0,-0.1621761234099215,-0.0012247740255460255,-0.0028923612241775784,-0.0324352246819843,0.4,0.033446550369262695,2.35424542427063,STABILIZE
0.025,0.001,0.005,-0.22123369786072777,-0.001319589208404454,-0.00022123369786072777,-0.0010776605374976402,-0.002618483443762822,0.03,0.001,0.006,-0.1347465047370886,-0.0024126001597182317,-0.0001347465047370886,-0.004343007540652812,-0.006890354205108132,0.2,0,0,-0.08093991069115625,0.043295387944344836,-0.0,0.0,0.043295387944344836,0.002,8e-05,0.0,-1.7405857308392385,-0.0014429729439309482,-0.00013924685846713908,-0.0,-0.0015822198023980874,-0.08042000532394106,0.0,0.08042000532394106,-0.05278356833617816,0.0,0.05278356833617816,-0.7214864719654741,0.0,0.7214864719654741,0.21647693972172416,0,-0.21647693972172416,-0.0025924314363648263,0.006900198248228723,-0.043295387944344836,0.4,0.03343796730041504,2.387673854827881,STABILIZE
0.025,0.001,0.005,-0.22259624936596753,-0.001018519780403118,-0.00022259624936596753,0.0018004173288997624,0.0005593012991306767,0.03,0.001,0.006,-0.1377538751157172,-0.00269764441712698,-0.0001377538751157172,-0.0017045856297963208,-0.004539983922039018,0.2,0,0,-0.07317788001893673,0.04641751446664147,-0.0,0.0,0.04641751446664147,0.002,8e-05,0.0,-1.7648089415021797,-0.0014485658184780971,-0.00014118471532017439,-0.0,-0.0015897505337982714,-0.08992148057089934,0.0,0.08992148057089934,-0.04074079121612472,0.0,0.04074079121612472,-0.7242829092390486,0.0,0.7242829092390486,0.23208757233320734,0,-0.23208757233320734,0.0005776867381783812,0.00453768112455193,-0.04641751446664147,0.4,0.03344440460205078,2.421133279800415,STABILIZE
0.025,0.001,0.005,-0.22355709480712257,-0.000718532773236578,-0.0002235570948071226,0.0017946736235555064,0.0008525837555118058,0.03,0.001,0.006,-0.1410489956027329,-0.002956960976580603,-0.00014104899560273291,-0.0015513624866566854,-0.004649372458840021,0.2,0,0,-0.06498469593828742,0.04901576072030711,-0.0,0.0,0.04901576072030711,0.002,8e-05,0.0,-1.789031368752103,-0.0014491078028521307,-0.00014312250950016824,-0.0,-0.001592230312352299,-0.0985653658860201,0.0,0.0985653658860201,-0.028741310929463117,0.0,0.028741310929463117,-0.7245539014260653,0.0,0.7245539014260653,0.24507880360153556,0,-0.24507880360153556,0.0008724632700281794,0.004645683067497659,-0.04901576072030711,0.4,0.03343081474304199,2.454554796218872,STABILIZE
0.025,0.001,0.005,-0.22472378683957955,-0.0008704871740209895,-0.00022472378683957955,-0.0009070044415427293,-0.0020022154024032985,0.03,0.001,0.006,-0.1433394398602402,-0.002050723543320639,-0.0001433394398602402,0.0054092633896483545,0.0032152004064674752,0.2,0,0,-0.058091816768643605,0.041143079697667125,-0.0,-0.0,0.041143079697667125,0.002,8e-05,0.0,-1.8133632061683953,-0.0014523491582704299,-0.00014506905649347163,-0.0,-0.0015974182147639015,-0.06835745144402129,0.0,0.06835745144402129,-0.03481948696083958,0.0,0.03481948696083958,-0.7261745791352149,0.0,0.7261745791352149,0.20571539848833562,0,-0.20571539848833562,-0.0020137463632733943,-0.0032079909220215693,-0.041143079697667125,0.4,0.03350687026977539,2.4880776405334473,STABILIZE
0.025,0.001,0.005,-0.22525360611740905,-0.00039666688972222184,-0.00022525360611740905,0.002837930990054633,0.0022160104942150023,0.03,0.001,0.006,-0.14722878948238868,-0.0034942697230199156,-0.00014722878948238868,-0.008646072307787451,-0.012287570820289756,0.2,0,0,-0.04893083681998765,0.05486938773428837,-0.0,0.0,0.05486938773428837,0.002,8e-05,0.0,-1.8386044725200386,-0.0015118173362621045,-0.0001470883578016031,-0.0,-0.0016589056940637076,-0.1164756574339972,0.0,0.1164756574339972,-0.015866675588888872,0.0,0.015866675588888872,-0.7559086681310522,0.0,0.7559086681310522,0.27434693867144183,0,-0.27434693867144183,0.0022748209173197214,0.012276819171439805,-0.05486938773428837,0.4,0.03339195251464844,2.5214524269104004,STABILIZE
0.025,0.001,0.005,-0.22582761679957405,-0.00042882758735650263,-0.00022582761679957407,-0.00019221097868344457,-0.0008468661828395212,0.03,0.001,0.006,-0.15100246753700217,-0.0033830532550715078,-0.00015100246753700216,0.0006646941056183192,-0.0028693616169901907,0.2,0,0,-0.03997191294469521,0.05354372425630827,-0.0,-0.0,0.05354372425630827,0.002,8e-05,0.0,-1.864701073709703,-0.0015596842183019705,-0.00014917608589677626,-0.0,-0.0017088603041987467,-0.11276844183571692,0.0,0.11276844183571692,-0.017153103494260104,0.0,0.017153103494260104,-0.7798421091509852,0.0,0.7798421091509852,0.26771862128154134,0,-0.26771862128154134,-0.0008334496898034553,0.0028732873220860223,-0.05354372425630827,0.4,0.03346395492553711,2.5549356937408447,STABILIZE
0.025,0.001,0.005,-0.22658089604366377,-0.0005634607415007806,-0.00022658089604366376,-0.0008056560428014462,-0.0015956976803458904,0.03,0.001,0.006,-0.15428683803544274,-0.002948092120049205,-0.00015428683803544275,0.0026028437723367936,-0.0004995351857478543,0.2,0,0,-0.03196816068638219,0.047895122215478925,-0.0,-0.0,0.047895122215478925,0.002,8e-05,0.0,-1.8905936090328137,-0.0015494309465675289,-0.0001512474887226251,0.0,-0.001700678435290154,-0.09826973733497352,0.0,0.09826973733497352,-0.022538429660031223,0.0,0.022538429660031223,-0.7747154732837644,0.0,0.7747154732837644,0.23947561107739462,0,-0.23947561107739462,-0.0015935958723357444,0.0005062002415407129,-0.047895122215478925,0.4,0.033421993255615234,2.588371753692627,STABILIZE
0.025,0.001,0.005,-0.2271931396431609,-0.0004512148276177911,-0.0002271931396431609,0.0006617891404677827,-1.6618826793169338e-05,0.03,0.001,0.006,-0.15713753300986635,-0.002521105996107271,-0.00015713753300986637,0.0025174616177990453,-0.00016078191131809177,0.2,0,0,-0.02345547866851715,0.0501898048738878,-0.0,0.0,0.0501898048738878,0.002,8e-05,0.0,-1.9167002122874486,-0.0015392156320655653,-0.0001533360169829959,0.0,-0.0016925516490485612,-0.08403686653690903,0.0,0.08403686653690903,-0.018048593104711644,0.0,0.018048593104711644,-0.7696078160327826,0.0,0.7696078160327826,0.250949024369439,0,-0.250949024369439,-1.591446308227776e-05,0.00016085315749429015,-0.0501898048738878,0.4,0.03392195701599121,2.622286558151245,STABILIZE
0.025,0.001,0.005,-0.22765482302626086,-0.0003448519860932439,-0.00022765482302626087,0.0006355773413368872,6.307053221738239e-05,0.03,0.001,0.006,-0.1594826637139942,-0.002102019723222263,-0.0001594826637139942,0.002504274380913053,0.00024277199397679597,0.2,0,0,-0.014733889911375416,0.05211636051692468,-0.0,0.0,0.05211636051692468,0.002,8e-05,0.0,-1.942185375740012,-0.001522880754081583,-0.000155374830059201,0.0,-0.0016782555841407842,-0.07006732410740876,0.0,0.07006732410740876,-0.013794079443729755,0.0,0.013794079443729755,-0.7614403770407915,0.0,0.7614403770407915,0.2605818025846234,0,-0.2605818025846234,6.19657541771383e-05,-0.00024305632763397004,-0.05211636051692468,0.4,0.03346967697143555,2.655759572982788,STABILIZE
0.025,0.001,0.005,-0.22819273936953346,-0.0004020859477925612,-0.00022819273936953348,-0.00034225354218889815,-0.0009725322293509928,0.03,0.001,0.006,-0.16095355965274138,-0.0013193722667816745,-0.0001609535596527414,0.004680155912658377,0.003199830086223961,0.2,0,0,-0.007134991333598922,0.04544067678979507,-0.0,-0.0,0.04544067678979507,0.002,8e-05,0.0,-1.9675322403276403,-0.0015157179288187621,-0.00015740257922621125,0.0,-0.0016731205080449734,-0.04397907555938915,0.0,0.04397907555938915,-0.016083437911702445,0.0,0.016083437911702445,-0.757858964409381,0.0,0.757858964409381,0.22720338394897532,0,-0.22720338394897532,-0.0009852133066881386,-0.003195948412937086,-0.04544067678979507,0.4,0.03344535827636719,2.6892073154449463,STABILIZE
