Mode,Time,Freq,North-Vision,East-Vision,Down-Vision,Yaw-Vision,North-Desired,East-Desired,Down-Desired,Roll-UAV,Pitch-UAV,Yaw-UAV,Roll-Control,Pitch-Control,Yaw-Control,Thrust-Control,northVraw,eastVraw,downVraw,yawVraw,zGyro
GUIDED_NOGPS,0.019481658935546875,51.39385622036245,17.537397260258643,-6.427388114472179,58.21493353424215,2.7782206056587824,17.89514222748043,-6.896365941845254,60.62115380889352,-0.11338330133675374,-0.1380720606283962,-91.77286006582501,0.021104002231788363,-0.01788724836108937,-10.0,0.5036093304119771,19.702470990938984,-8.392286766894555,69.06800294298417,5.829715944063152,6.64631042351755
GUIDED_NOGPS,0.028809309005737305,107.28766562643884,21.8628221138619,-9.116754275750266,73.23190202340382,4.9204628708532265,17.89511859992661,-6.896285449902805,60.621177772287886,-0.11338330133675374,-0.1380720606283962,-91.77286006582501,-0.10181121326792567,0.202137846816096,-10.0,0.4810839136233261,20.584693121376635,-8.58784368935612,70.48914032981621,6.06508878488004,6.64631042351755
GUIDED_NOGPS,0.0401148796081543,88.52851534467474,21.44078793307311,-8.952321194293752,72.41065075217969,4.959403804754214,17.894955113758357,-6.895728501885767,60.62134455334356,-0.03100851188311576,-0.2622133101143167,-91.6482296040398,-0.0941832627243127,0.18042685912849651,-5.308710079145245,0.48231604070174583,20.584693121376635,-8.58784368935612,70.48914032981621,6.06508878488004,6.359831525952138
GUIDED_NOGPS,0.0760805606842041,27.811289477697546,21.30076215280308,-9.430820151892535,73.09174153683156,5.0175523745076696,17.89451711897791,-6.894236385904042,60.621794331011706,-0.039207593692760716,-0.10289210409118771,-91.20439025139403,-0.11628136640052077,0.17349792887190008,-4.4364041476907765,0.48129507919127024,20.64901488739736,-10.505346934289607,73.77664080943987,6.485888086224542,6.589014644004467
GUIDED_NOGPS,0.12778782844543457,19.34445766573503,21.442943053211884,-10.075691496588519,74.74159440061413,5.2183708085903335,17.89367557734789,-6.891369507640919,60.62266442328361,0.09778607077914038,-0.33830396534578594,-90.96295672461241,-0.1463292367977797,0.18122176321539032,-5.776752387520432,0.4788216050340042,20.615513207199356,-11.260420831888956,75.39470334206015,6.700563512564123,5.500394833255903
GUIDED_NOGPS,0.14861488342285156,48.036465670274296,21.914416001650885,-10.857024523479984,76.8247058954153,5.41410507986336,17.892306984987727,-6.886707126662397,60.62408930658706,0.04676573161790873,-0.3212069346361862,-90.83575811169926,-0.1830059901738127,0.2059924992874651,-8.850908779359067,0.47569907511675763,22.134062024119483,-11.806961094827807,76.73057768002658,6.954460273245305,4.698253920072751
GUIDED_NOGPS,0.20354366302490234,18.206815123496984,22.207015882519133,-11.450395653710004,77.75714603787175,5.48884881042076,17.890293294970046,-6.879847092726529,60.62620063518266,0.12504452866344146,-0.1911291835444668,-90.5503996383653,-0.2109597879497083,0.22138234479989372,-4.737187418989844,0.4743035818959664,22.650522055176875,-12.821467857405613,78.32376929299625,7.163419522142052,4.583662361046586
GUIDED_NOGPS,0.21373772621154785,98.19506484993211,22.823477089781864,-12.254822994566558,79.96779804609855,5.653493643949416,17.88752183991708,-6.870405582092749,60.62912726056017,0.12504452866344146,-0.1911291835444668,-90.5503996383653,-0.24932738817186464,0.2539568735124355,-10.0,0.47099199382169243,23.532793717377228,-12.882926263366752,79.68172024252334,7.294402892761709,4.469070802020421
GUIDED_NOGPS,0.25160837173461914,26.41498882136222,22.934676267958825,-12.739367989516325,80.58738746218842,5.661103545594552,17.883885254597082,-6.858016833831203,60.63299525083484,0.15151975594901249,-0.30382773173650035,-90.46918868913386,-0.2725825201751241,0.2600984605324521,-4.317840137832965,0.47006841168296964,23.05854279447971,-14.08756041067932,81.39027343562965,7.595478416683642,1.776169164905552
GUIDED_NOGPS,0.28755903244018555,27.822358427361312,23.361349235344733,-13.393463591646249,82.34919058127954,5.761257423927911,17.879281398520742,-6.842332886132087,60.63792791014376,0.10315143783623663,-0.13688680936398742,-90.43826159257203,-0.3044016308171117,0.2830300879501698,-5.75984298068043,0.46743310599329635,23.26388609975044,-13.770205366626085,82.90970325402242,7.572927475383046,0.7448451336700702
GUIDED_NOGPS,0.3339555263519287,21.55656517895689,23.957219577265153,-14.120820998284943,84.04067753388462,5.828973005442195,17.873613278537572,-6.823023312614972,60.64404579804219,0.1283547424920911,-0.029392865319503622,-90.44448389490591,-0.3399261080882142,0.3148555071511676,-5.159942667020919,0.46490505239623636,24.542240769384634,-14.724177249349104,84.52992211277717,7.824790848883618,0.5729577951308232
GUIDED_NOGPS,0.3479959964752197,71.27472938297619,24.46630809630021,-14.573234900341413,86.05677204627808,5.856994990077706,17.86678897143234,-6.799774958638147,60.65146674889991,0.15278432812124332,-0.08252191866527094,-90.47892170870112,-0.363136078181571,0.34255066610713014,-5.489802988817214,0.46189204205393275,24.979467559116156,-14.546425822223403,85.98478361022582,7.781988437996067,-0.34377467707849396
GUIDED_NOGPS,0.39838337898254395,19.849337693498086,26.521201785831526,-14.452169778715207,86.4415468333377,5.8419401762916126,17.858721546521462,-6.7722916776079405,60.66030589129752,0.18538927666093058,-0.3274627475856832,-90.64709462644518,-0.35895929772161184,0.44987372373090184,-4.315468759595345,0.4613281385869397,34.325361238067096,-13.29306027821618,85.87359539030109,7.488424163767366,-2.177239621497128
GUIDED_NOGPS,0.4192061424255371,48.04802162806149,33.765479433967634,-13.933934618223898,86.4345679314889,5.798940219399153,17.84932898824942,-6.740294067288063,60.670675667422834,0.18538927666093058,-0.3274627475856832,-90.64709462644518,-0.33622401695161175,0.8265621711865719,-3.371759353897392,0.4613541616039009,57.87651593635437,-9.988079681184217,80.02777559021719,4.85887335670806,-2.864788975654116
GUIDED_NOGPS,0.4492220878601074,33.325154934053714,37.17649756850916,-15.050870011187335,86.37363248633626,5.752649169318846,17.838534118785166,-6.70351920610893,60.68268585246718,0.18471511564550916,-0.4773057854749501,-90.86519622702203,-0.3901062519530814,1.0041589665107926,-3.6367201864854923,0.46146358004919635,48.025535898022895,-18.809225487152332,83.59636039338235,5.895637019791978,-3.8388172273765155
GUIDED_NOGPS,0.49213552474975586,23.307515767830846,40.594558587034875,-16.114759999902528,86.59129604300915,5.668756224080559,17.826264520618523,-6.661720389477005,60.69644357402174,0.20630163503264357,-0.47948269482948014,-91.02645699332602,-0.4419097744305924,1.1826333245073455,-3.387003143233267,0.4611577212965189,48.025535898022895,-18.809225487152332,83.59636039338235,5.895637019791978,-5.042028597151244
GUIDED_NOGPS,0.5242888927459717,31.120324684478806,44.2088624730774,-14.363877960808365,89.16234725727972,5.528647151236511,17.81245245915661,-6.614666866084124,60.71205333147391,0.13734804723616162,-0.3829087291639658,-91.35986584747103,-0.3635960442629072,1.3761444224571995,-2.0107390976510717,0.4573245591112913,51.469941487584975,-4.902615565828585,95.41709908758321,4.226543809641005,-7.104676659622208
GUIDED_NOGPS,0.5437836647033691,51.31211998874494,46.72039143816977,-12.814395931714376,91.22694871795687,5.4015103504519075,17.797034805320237,-6.562143574216831,60.72961701540361,0.06303839051119965,-0.22227719403725216,-91.53560661481545,-0.29422205453473,1.512324221731221,-0.9550747278771641,0.4542540024461701,51.469941487584975,-4.902615565828585,95.41709908758321,4.226543809641005,-7.563042895726867
GUIDED_NOGPS,0.5727856159210205,34.489228036706905,47.13517033878769,-11.813224226903873,93.55966933243704,5.301949884737257,17.779952958140324,-6.503950878065711,60.74923392697964,0.055884007479449306,-0.23677704531495453,-91.71087609910715,-0.25067577169040034,1.5399976788084349,-2.4229203833094406,0.4507843468918139,43.010392459597035,-6.549754890364261,100.99245118139957,5.770546922828456,-7.906817572805361
GUIDED_NOGPS,0.6124136447906494,25.241194205898815,38.1530887420089,-15.405167726846003,94.17854222593446,5.133820985495369,17.761152767354297,-6.439904304034724,60.771000797356024,-0.061494367552380094,0.057419052474770006,-92.13472348805229,-0.42365360414856645,1.0706901321738944,-1.827942332794707,0.4498886878571323,-16.24564942546343,-33.35490241853356,91.20663404512815,6.307826810546771,-9.11002894258009
GUIDED_NOGPS,0.6515398025512695,25.584852717812332,42.77430496471275,-15.149178184847829,94.2979770032264,4.872680003176016,17.740584456002505,-6.369834277050531,60.79501180706832,-0.10103727417459951,0.1564123992103498,-92.375999920483,-0.4149245244545708,1.3145888154555372,0.46499964018549456,0.44974555220576284,58.2861030773734,-11.921006202499983,87.36483000232023,3.5715307222607486,-8.88084582452776
GUIDED_NOGPS,0.6849992275238037,29.881196301098555,45.75552751080408,-17.564197540733684,94.40638818109629,4.662190277765331,17.71820254302463,-6.293585856871839,60.82135860542999,-0.16220375929628594,0.3722459500959296,-92.8474810486998,-0.5327278840786217,1.4724888275088805,-1.2173971872539542,0.44962245563650055,53.4546253780562,-28.120760625763086,89.23153020882886,5.195622730960277,-8.88084582452776
GUIDED_NOGPS,0.7136738300323486,34.884798682558035,34.406953773423105,-19.463859547515945,96.93315535893876,4.402593051421081,17.69396576585609,-6.211018474398718,60.850130329928724,-0.20714704436520454,0.390266550447362,-93.13301027676302,-0.6286565235301831,0.8808785377223448,1.1346066206728445,0.44587546245648496,-29.007852051462418,-25.505708932301452,101.86625583156462,6.919717473119432,-10.026761414789407
GUIDED_NOGPS,0.7400057315826416,37.98844307580835,29.326397733394582,-25.752516827937292,97.72606431119291,4.201789182137696,17.667837003024445,-6.122005667981949,60.88141362562276,-0.26530274341413096,0.5014976751849006,-93.388479842289,-0.9321943567345632,0.6151447063390314,0.4932206368087799,0.44473302397164477,1.5486273116230878,-54.89578041139876,96.41972339444328,6.415221093361148,-10.485127650894066
GUIDED_NOGPS,0.7860534191131592,21.732482888335053,25.435058673072476,-32.017803259088616,98.03766981174893,4.009718866087036,17.639783196745817,-6.026434819732344,60.91529266453726,-0.3217801369179384,0.6618306029788378,-93.6656762395648,-1.2347397230410417,0.41146721053122853,-1.1662085901075403,0.4443164342791825,4.422764666041494,-61.004303675048746,94.59183993855893,6.427402969683559,-10.59971920992023
GUIDED_NOGPS,0.8165769577026367,32.75290295879243,21.203245244233134,-37.44428320249779,98.63172351290844,3.74136090205844,17.60977527552129,-5.924206891830088,60.951849165060615,-0.5278207439984537,0.9042609104924472,-94.17830242734176,-1.498571328730433,0.1898286107026292,1.3357083540747308,0.4434801884782283,-0.36750485871810756,-58.88801528911347,95.61191735687315,5.654624646073617,-11.172677005051053
GUIDED_NOGPS,0.837216854095459,48.469451666955564,12.988758721044668,-37.87394315189703,99.24380830033212,3.6179803286919334,17.57778807673332,-5.815236162834067,60.99116241134081,-0.6898751996283514,1.0653114350360589,-94.46053267403586,-1.5254191142203635,-0.2426171564032334,0.046895729411749354,0.442621031166513,-34.150049509546264,-34.782061083190044,99.21346526494455,5.770325775707184,-11.229972784564136
GUIDED_NOGPS,0.87528395652771,26.275984338292872,6.024617788389162,-38.3327458361864,99.82663408881025,3.4859734361242647,17.54380026924214,-5.699449963991198,61.03330927268173,-0.9569504838538064,0.9569906112151804,-95.01531478937015,-1.5539502123936695,-0.609474178112348,-1.2115844052206932,0.4418100127758072,-34.150049509546264,-34.782061083190044,99.21346526494455,5.770325775707184,-10.255944532841736
GUIDED_NOGPS,0.9078259468078613,30.736058389881432,-1.186802198776812,-39.512820528667405,100.83792214189296,3.1672011950327965,17.507794275982175,-5.576788415545771,61.07836422293953,-1.1202826117453197,0.7010166789076703,-95.2981734134679,-1.6181979554084998,-0.9904764905861727,2.3463394495178638,0.44036066312156985,-34.150049509546264,-34.782061083190044,99.21346526494455,5.770325775707184,-10.485127650894066
GUIDED_NOGPS,0.9346756935119629,37.25786364645792,-7.469405203209376,-40.25420075400484,101.54152860283335,2.9056931588940316,17.469756196558446,-5.447204163048769,61.12639935991894,-1.2993424241395508,0.6264713539759164,-95.53355539264487,-1.6612690720332526,-1.3225520273270053,2.5443586945277565,0.43937730613562836,-34.150049509546264,-34.782061083190044,99.21346526494455,5.770325775707184,-10.427831871380983
GUIDED_NOGPS,0.9596304893493652,40.08931029209359,-12.559092577305478,-40.58429525561966,101.9635763907944,2.712782337548452,17.429675729842984,-5.310662113667213,61.17748442476965,-1.5353302624402516,0.5487935335360654,-95.81657794128269,-1.684423962445846,-1.5911727650166607,1.6157832901628582,0.4388208620509629,-34.150049509546264,-34.782061083190044,99.21346526494455,5.770325775707184,-11.058085446024888
GUIDED_NOGPS,0.9857742786407471,38.25977177155263,-16.760849449558982,-40.76345873017926,102.26494418729095,2.5541774955608374,17.387546096571228,-5.167139172493486,61.23168682138261,-1.7171366646544741,0.44303936673923083,-96.04979475049277,-1.7004271036599108,-1.8125112700373005,0.798558154684962,0.4384501139511375,-34.150049509546264,-34.782061083190044,99.21346526494455,5.770325775707184,-10.714310768946394
GUIDED_NOGPS,1.0254106521606445,25.25228783354205,-20.64217603916597,-40.990041261450536,102.56134003264845,2.391854447855125,17.343363961938444,-5.016623978854669,61.28907163578635,-1.8990357013093149,0.4091791308157158,-96.29221865470403,-1.7190213337104883,-2.01685820521462,-0.08728384511131626,0.4380915974047069,-34.150049509546264,-34.782061083190044,99.21346526494455,5.770325775707184,-9.396507840145501
GUIDED_NOGPS,1.0416052341461182,61.731779112210056,-24.232284284318716,-41.19934250328591,102.82487508874436,2.2275362016595204,17.29712935819613,-4.859116642621872,61.34970165554339,-2.0861359270171205,-0.22188936735844236,-96.73928868682722,-1.737047322716542,-2.205653654630926,3.0645981790941117,0.4377872398501985,-34.150049509546264,-34.782061083190044,99.21346526494455,5.770325775707184,-8.766254265501596
GUIDED_NOGPS,1.0812499523162842,25.22859273873397,-26.09098563280097,-40.83714151344247,102.79367534594586,2.204934493588175,17.24884560724842,-4.694628480519574,61.4136373891465,-2.248904457580402,-0.44036833588693275,-96.95760202326834,-1.7273646393595916,-2.301496851634059,-1.862253135951931,0.437929943064801,-34.150049509546264,-34.782061083190044,99.21346526494455,5.770325775707184,-8.36518380891002
GUIDED_NOGPS,1.0999839305877686,53.427901762967494,-28.978095412592705,-41.435878313825704,103.26728102148854,2.0601658508498164,17.1985192432485,-4.523181752434939,61.48093708541509,-2.3495321405183187,-0.5740602175449409,-97.13489324355436,-1.7651864930658328,-2.4535471254279986,2.18402458286157,0.4373204840958898,-34.150049509546264,-34.782061083190044,99.21346526494455,5.770325775707184,-8.307888029396937
GUIDED_NOGPS,1.1191890239715576,52.08956669688653,-30.753149675056942,-41.209973690265066,103.17981106211609,2.012627236688439,17.146159935195012,-4.344809397727167,61.551656752891525,-2.4131288856539537,-0.7684561525033778,-97.31906246433458,-1.7625198336410217,-2.544512469394665,-0.7461790329098137,0.4375577685361631,-34.150049509546264,-34.782061083190044,99.21346526494455,5.770325775707184,-6.932789321082962
GUIDED_NOGPS,1.149888277053833,32.58268597352557,-32.5876349332989,-41.09048522264662,103.15184075499255,1.9480355898095851,17.09178040952846,-4.1595547715368175,61.62585017923746,-2.3852930900218015,-1.1981534917509293,-97.48813013685991,-1.7654094295159404,-2.6386947871415134,-0.8731250201551544,0.43771101413636737,-34.150049509546264,-34.782061083190044,99.21346526494455,5.770325775707184,-6.245239966925974
GUIDED_NOGPS,1.181471347808838,31.67090022199737,-31.91245222693172,-34.24953412789775,103.75972797934912,1.8214603210401927,17.03539637272763,-3.9674713810951436,61.7035689506302,-2.385329375401767,-1.389727598086799,-97.61675625930958,-1.448657262751427,-2.6017843178445372,0.2275911079423314,0.4369157614569216,-0.9333724126620841,29.934538913262486,102.85617751336301,7.727605418936823,-5.443099053742821
GUIDED_NOGPS,1.2157609462738037,29.17107029342829,-27.03371732826215,-36.05288894270854,102.98162129859693,1.6739727665064617,16.977026433905973,-3.7686226220334205,61.784862471159016,-2.4788239929686635,-1.582682469852069,-97.84679703055562,-1.5425674659439006,-2.3365196878523715,0.4869131012110095,0.4382048617588431,38.374153021033074,-46.32328407824931,91.37916944796532,2.1462163350431647,-4.640958140559668
GUIDED_NOGPS,1.2590880393981934,23.08545512587651,-30.151819370350253,-38.67736148373829,96.11830747818722,1.416809253678065,16.916692027408054,-3.5630815146922856,61.869777982221486,-2.4221925466825605,-1.8573922513831587,-97.98855760677922,-1.6613189392014094,-2.474327617458215,1.569948209350947,0.4486272057560514,-35.69226359647866,-53.9975693449961,39.63804564952082,-13.03494923910339,-4.411775022507339
GUIDED_NOGPS,1.2831778526306152,41.52694006059286,-25.15681399588841,-39.64774174058473,95.94878142802244,1.3106791424274433,16.854417335405923,-3.350930440431071,61.958360581919855,-2.401965368342391,-2.0101891326450447,-98.13164323970183,-1.7166342211807208,-2.2076600240557416,0.743865954910512,0.4490143687308461,35.76692201003574,-41.11375453654326,93.6076370867781,1.178394037688529,-2.635605857601787
GUIDED_NOGPS,1.3220186233520508,25.79935291005942,-17.547971556590436,-39.89711704423627,93.01994722348181,1.225703707519383,16.790229210495536,-3.1322608779371244,62.05065324445734,-2.3865891184168113,-2.005654740809802,-98.21028603780536,-1.7312727880964316,-1.7966672759242974,-0.2960204245907523,0.4535460590314633,58.065808863712824,-37.35016454288595,71.25525392447672,-3.908946856048686,-2.177239621497128
GUIDED_NOGPS,1.3586676120758057,27.24405500379986,-13.39970889050009,-40.802880067580425,93.00155112433443,1.1333235033635851,16.724157098293173,-2.907173139535154,62.14669683953448,-2.3434955339524968,-2.1081406620887857,-98.33121453706043,-1.784232301543729,-1.5759033616080924,-0.08353563531525143,0.4537177185728001,33.00893294249631,-40.87927375016617,93.76991670435181,1.0784977675416652,-1.948056503444799
GUIDED_NOGPS,1.388625144958496,33.38776030057951,-7.411429355579603,-31.95602759900988,90.19462382299663,1.0815621547566536,16.65623296003183,-2.675776107496562,62.246530151745496,-2.370395380224946,-1.9802912602137832,-98.36033846368136,-1.3728484038877755,-1.253831511843928,-0.4589642384100998,0.4580778594931233,48.24610823142905,40.60201526098058,71.24071146947992,-0.15267948325553093,-0.9740282517223995
GUIDED_NOGPS,1.418565034866333,33.40930199214612,-3.294577887793791,-33.22985353101551,90.24683790008682,1.059087613667893,16.586491195157645,-2.4381869703487657,62.350189899974595,-2.3481396357012825,-1.9068660863059115,-98.39259061694216,-1.4436064343581363,-1.0356495931030476,-0.9415023714453881,0.45815502799983165,33.8260962374322,-42.09170354406002,92.45741932374948,0.8306247853868286,-0.2291831180523293
GUIDED_NOGPS,1.4541161060333252,28.137039049554897,0.8335560518553615,-34.14547271528897,90.5072095233886,1.0497678675916016,16.514968563926292,-2.194530959184539,62.457710756792345,-2.352526965025958,-1.7857568004812419,-98.39300725848153,-1.4982864123678117,-0.8170598076722332,-1.2020710212658754,0.45792575185010564,36.047282132296495,-39.75645952484801,94.08729145561762,0.16257588508194523,0.6302535746439055
GUIDED_NOGPS,1.4848668575286865,32.52886203767615,5.807432171599215,-33.85063023957275,91.8967777718802,1.039918812308274,16.441704109999396,-1.9449410839713455,62.56912536785196,-2.3663911818240257,-1.5009011998249213,-98.40732333498188,-1.498917041887549,-0.5551044642434575,-1.167982527334393,0.45600852139395764,44.89043583291343,-29.631413401541675,103.31439501831618,-1.3534775720865437,1.0313240312354819
GUIDED_NOGPS,1.5181591510772705,30.045588045674005,10.464084559689576,-33.52725541699609,93.23259301780082,1.039001550213059,16.36673908304094,-1.689557869860665,62.6844643712857,-2.3475626981598277,-1.3654926995294185,-98.40102590056713,-1.4983456800534087,-0.3086563548977136,-1.3261066141545594,0.4541778070302273,44.89043583291343,-29.631413401541675,103.31439501831618,-1.3534775720865437,0.9740282517223995
GUIDED_NOGPS,1.5517146587371826,29.829980015219725,14.924951861916687,-33.22255514441501,94.49370818827298,1.0480108942356743,16.290116861313678,-1.428529093497331,62.80375641710116,-2.3094666777338473,-0.9503481455256372,-98.35151385927371,-1.498740875062431,-0.0715029009441432,-1.494028230294302,0.4524650723432423,44.89043583291343,-29.631413401541675,103.31439501831618,-1.3534775720865437,1.3178029288008934
GUIDED_NOGPS,1.5831336975097656,31.825179070049774,18.998743628289848,-32.91302807737273,95.6635609384848,1.0812394332173478,16.21188287427553,-1.1620095193288629,62.927028186577644,-2.24474295138516,-0.7149142995996479,-98.31180996962843,-1.4989565675898717,0.14618544957687543,-1.9385144118320297,0.45089520087213925,44.89043583291343,-29.631413401541675,103.31439501831618,-1.3534775720865437,2.864788975654116
GUIDED_NOGPS,1.6086163520812988,39.25523411981619,22.802867748122043,-32.619495163072415,96.75260317465991,1.1242270352567538,16.132084525176012,-0.890160635914798,63.05430441166246,-2.1828659198164875,-0.6194612320099562,-98.25940875831608,-1.4999927138472822,0.3503987145995535,-2.3020638446905695,0.4494525518555038,44.89043583291343,-29.631413401541675,103.31439501831618,-1.3534775720865437,3.0366763141933633
GUIDED_NOGPS,1.6425666809082031,29.46203718662855,26.081260637255173,-32.33145949489791,97.70779220781847,1.1660444733865596,16.05077111365262,-0.6131503922360242,63.18560789436731,-2.1840138184838724,-0.04990349651022879,-98.14388976888365,-1.50123541824412,0.5274950567867238,-2.1030304441519387,0.4482167235298232,44.89043583291343,-29.631413401541675,103.31439501831618,-1.3534775720865437,3.2658594322456924
GUIDED_NOGPS,1.67189359664917,34.10918376474989,29.49787021804697,-32.073069473625935,98.65548750974668,1.2342431032836951,15.967993758327264,-0.33115293400410817,63.320959526164586,-2.098179044627734,0.09391424731402907,-98.08358602870162,-1.5040932748629534,0.7123492078645134,-2.7385739801609708,0.44699820802462686,44.89043583291343,-29.631413401541675,103.31439501831618,-1.3534775720865437,3.495042550298022
GUIDED_NOGPS,1.710310697555542,26.038315888801975,32.4276119346262,-31.820689219671106,99.48325203398352,1.3011409681363046,15.883805319402653,-0.04434833997063592,63.460378307383735,-2.067715974042654,0.2419899737555552,-98.01384979727578,-1.507200909849213,0.8718869900104885,-2.7284454033622842,0.44596568941010034,44.89043583291343,-29.631413401541675,103.31439501831618,-1.3534775720865437,4.010704565915763
GUIDED_NOGPS,1.7384214401245117,35.58747316708949,35.16444406068269,-31.583178353906373,100.24986065539206,1.3818934391261113,15.798260321258716,0.2470776417634566,63.60388136660758,-2.0959603003645375,0.5245521249546324,-97.9016707703475,-1.5110969556883893,1.0215361445875282,-2.819735176789804,0.4450310310668233,44.89043583291343,-29.631413401541675,103.31439501831618,-1.3534775720865437,4.469070802020421
GUIDED_NOGPS,1.7546896934509277,61.49645182100757,37.69303786756224,-31.357646869221487,100.99361608644224,1.469080060006187,15.711414875049014,0.5429338574385518,63.75148398006866,-2.0441240737626067,0.7301523449162406,-97.82024808525178,-1.5157192135139326,1.1604793376806368,-4.487518290061461,0.44413680184043963,44.89043583291343,-29.631413401541675,103.31439501831618,-1.3534775720865437,4.870141258611998
GUIDED_NOGPS,1.8017778396606445,21.23945573408549,39.111322599015566,-31.16151321670734,101.44244837378771,1.498889574746025,15.623326601297133,0.8430240113270298,63.90319959104559,-2.006354621756317,1.055490263339815,-97.6016068997305,-1.5213004495111777,1.2405289292734019,-2.0655706801338423,0.4436911268258868,44.89043583291343,-29.631413401541675,103.31439501831618,-1.3534775720865437,4.583662361046586
GUIDED_NOGPS,1.8353140354156494,29.85375992028186,41.352890728879466,-30.96749284699958,102.09219632499301,1.594552597606855,15.534054552493112,1.1471469294239078,64.05903982925936,-2.013949792113371,1.1597872519659098,-97.52006810141889,-1.527604715567463,1.3645896965818838,-3.3654234686678333,0.4429502652563995,44.89043583291343,-29.631413401541675,103.31439501831618,-1.3534775720865437,4.5263665815335035
GUIDED_NOGPS,1.870309591293335,28.571553133514985,42.81212235939263,-30.7989375233561,102.6177152466115,1.6536163038823146,15.443659135689835,1.455096823137536,64.21901453026969,-1.9398285792403929,1.1278650822193859,-97.45397919100984,-1.5350311738863929,1.4472416683146276,-2.726734600059868,0.4424019489254873,44.89043583291343,-29.631413401541675,103.31439501831618,-1.3534775720865437,4.870141258611998
GUIDED_NOGPS,1.8974018096923828,36.92526565072322,44.08250649951026,-30.644757667743374,103.13966365555862,1.709716431673578,15.352202035099447,1.7666635529802495,64.38313175487141,-1.9318761046123825,1.2581853050266407,-97.42789469856956,-1.5433043688654753,1.5200267453323952,-3.006668587152072,0.4418652021489692,44.89043583291343,-29.631413401541675,103.31439501831618,-1.3534775720865437,5.271211715203574
GUIDED_NOGPS,1.9365942478179932,25.51823076689076,44.51194114559357,-30.530832992448257,103.26998557860377,1.7156064811212555,15.259746134689767,2.081632892259041,64.55139780849072,-1.873617792643347,1.3326046983455724,-97.33518171077581,-1.5527937968479162,1.5475550265450506,-1.9983580677590695,0.4419221183448304,44.89043583291343,-29.631413401541675,103.31439501831618,-1.3534775720865437,5.271211715203574
GUIDED_NOGPS,1.9861104488372803,20.19861981286088,45.19909239334665,-30.420668840400616,103.46692248484527,1.7436852036376471,15.166355440780682,2.399786790766223,64.72381726058157,-1.8720833479576215,1.4226325680218643,-97.24505053448833,-1.5627512331093016,1.5889039592227407,-2.248883568230642,0.4418853421636044,44.89043583291343,-29.631413401541675,103.31439501831618,-1.3534775720865437,5.500394833255903
GUIDED_NOGPS,1.9944195747375488,120.43599609487164,45.72240638551634,-30.324570239584215,104.05475165924673,1.7633024994580462,15.072095004640573,2.7209036384700998,64.90039296402203,-1.8720833479576215,1.4226325680218643,-97.24505053448833,-1.574382842292008,1.6225225654883235,-3.212423099748255,0.44126846195716296,44.89043583291343,-29.631413401541675,103.31439501831618,-1.3534775720865437,5.156620156177409
GUIDED_NOGPS,2.012667417526245,54.828219976731724,45.90451996030606,-30.252077274191283,104.06267623245495,1.754024007813811,14.977030845082712,3.044758529205632,65.08112607451058,-1.8205258784511917,1.4154356830707864,-97.16397618904027,-1.585970064713401,1.6367945658764942,-1.691948680574538,0.44152767476308347,44.89043583291343,-29.631413401541675,103.31439501831618,-1.3534775720865437,4.5263665815335035
GUIDED_NOGPS,2.0472583770751953,28.917060794506572,46.68489886244831,-30.164147378479743,104.19180879106831,1.7954409650401073,14.881229871061674,3.3711235243651174,65.26601606996243,-1.7748242289409901,1.5501833625640906,-97.05450874721248,-1.597200813398712,1.683032176589035,-2.638600827173687,0.44161131091834116,44.89043583291343,-29.631413401541675,103.31439501831618,-1.3534775720865437,4.755549699585833
GUIDED_NOGPS,2.0861685276031494,25.707638182330804,48.280801118762206,-30.043071928313996,104.49414514049495,1.9056716497908432,14.784759804269742,3.6997679165888293,65.45506076990593,-1.684040129257531,1.5914180683571038,-96.89625326414328,-1.6073448391041965,1.7728761744464139,-3.5793992910503594,0.4414413734441165,44.89043583291343,-29.631413401541675,103.31439501831618,-1.3534775720865437,4.297183463481175
GUIDED_NOGPS,2.119696617126465,29.852909985124448,49.99300090243709,-29.917330557513758,104.7991143384348,2.040292811979513,14.687689101733321,4.030458493455708,65.64825635487884,-1.6261436038710948,1.637115022112251,-96.79344525675624,-1.617363749382966,1.8689330836632774,-4.32470409948188,0.44127371302466606,44.89043583291343,-29.631413401541675,103.31439501831618,-1.3534775720865437,4.92743703812508
GUIDED_NOGPS,2.1798126697540283,16.633832365013582,51.213057756557035,-29.812653658130312,104.98785378305855,2.138306307506365,14.590086878409346,4.362959801174023,65.84559738582473,-1.4830814497237697,1.6030242673042479,-96.54667052204368,-1.6281980728262824,1.9386614726179507,-3.146565834907107,0.44128661540414926,44.89043583291343,-29.631413401541675,103.31439501831618,-1.3534775720865437,3.9534087864026803
GUIDED_NOGPS,2.2275938987731934,20.93321222163441,52.873247723659546,-29.652635581801363,105.38334316077834,2.2783998919052344,14.492022829781686,4.697034408272046,66.04707682348925,-1.4261040116675232,1.7029320056149633,-96.3710117169693,-1.636940323847911,2.0322943010521657,-3.95216134607158,0.4409956004940664,44.89043583291343,-29.631413401541675,103.31439501831618,-1.3534775720865437,3.380450991271857
GUIDED_NOGPS,2.2692606449127197,24.005036457081374,53.92865278899483,-29.54036066521456,105.54651625631334,2.3803310437954357,14.393567154457552,5.032443169288687,66.25268604781652,-1.3284459669146809,1.7437534849631906,-96.15895483380791,-1.6474747797027094,2.093265652392006,-3.7750876623478824,0.44105925468725476,44.89043583291343,-29.631413401541675,103.31439501831618,-1.3534775720865437,3.323155211758775
GUIDED_NOGPS,2.310397148132324,24.312550719933224,54.80789253616641,-29.45840300282789,105.58715120229071,2.46692130566315,14.294790476763913,5.368945488464213,66.46241487734545,-1.2639546804411859,1.7698209019305442,-96.03698131560982,-1.6592069129049127,2.144534935653604,-3.669692915478066,0.4413128955125821,44.89043583291343,-29.631413401541675,103.31439501831618,-1.3534775720865437,2.3491269600363753
GUIDED_NOGPS,2.3542494773864746,22.81670710345653,55.43996967641305,-29.39020119254484,105.57888578426956,2.5405207958919744,14.1957637693439,5.706299583430873,66.67625158860606,-1.1200117520560464,1.6648848637302303,-95.98899923669049,-1.6715034122773105,2.1825484144854577,-3.533306319726861,0.44164604870650476,44.89043583291343,-29.631413401541675,103.31439501831618,-1.3534775720865437,2.177239621497128
GUIDED_NOGPS,2.3831090927124023,34.65650898574675,55.73653636349664,-29.338605017475256,105.53663828735486,2.6021358027830166,14.096558275753212,6.044262748903581,66.89418293551589,-1.114402672643585,1.633232913342745,-95.95283338503528,-1.6845205094191043,2.20267922894521,-3.7755368730883747,0.44203631697224155,44.89043583291343,-29.631413401541675,103.31439501831618,-1.3534775720865437,2.3491269600363753
GUIDED_NOGPS,2.424834966659546,23.97087583940563,55.451801908693525,-29.32088320928096,105.39379564572684,2.607713170453959,13.997245433056525,6.382591620370594,67.11619416877619,-1.122152696195728,1.8396459258155846,-95.87826137967707,-1.6989047955431626,2.1917363981952134,-2.7619361226252286,0.442583597784574,44.89043583291343,-29.631413401541675,103.31439501831618,-1.3534775720865437,0.6875493541569879
GUIDED_NOGPS,2.4845831394195557,16.73878375250425,55.543820251215614,-29.28436209036877,105.31809257619769,2.615271921343238,13.897896794423911,6.721042437784131,67.34226905526845,-1.0130403174830684,1.7994967932137804,-95.91168832547511,-1.712538308717735,2.200911540806679,-2.779364397325117,0.44303626471860613,44.89043583291343,-29.631413401541675,103.31439501831618,-1.3534775720865437,-0.17188733853924698
GUIDED_NOGPS,2.5198566913604736,28.358286456079618,55.60427167522076,-29.23197320853561,105.28346303519398,2.6000722725955647,13.798583951727228,7.059371309251137,67.57238989745058,-1.0330495701000324,1.9075384330523346,-95.9890880291497,-1.7254900277483716,2.2085246872232513,-2.4838318336894334,0.4434333902933849,44.89043583291343,-29.631413401541675,103.31439501831618,-1.3534775720865437,-0.6875493541569879
GUIDED_NOGPS,2.551218271255493,31.89415012128632,55.12751344835218,-29.23551078760169,105.11503911007856,2.5450381655843364,13.699378458136536,7.397334474723856,67.80653755275333,-1.0561890770692721,1.9255564720828282,-96.07829712989924,-1.7407314049096638,2.187328372420748,-1.747871162156146,0.44403724766401215,44.89043583291343,-29.631413401541675,103.31439501831618,-1.3534775720865437,-1.8907607239317168
GUIDED_NOGPS,2.5982472896575928,21.270692287016892,54.54841890283386,-29.246780298242598,104.94751405211744,2.4795627386257664,13.600351750716525,7.734688569690508,68.0446914529766,-1.040053715650469,1.9176296106642052,-96.26812174731222,-1.7562847385504963,2.1607358019477885,-1.9032369762835302,0.4446457661012887,44.89043583291343,-29.631413401541675,103.31439501831618,-1.3534775720865437,-2.119943841984046
GUIDED_NOGPS,2.6306772232055664,30.840470588235295,54.147817813739486,-29.24788074019798,104.82948121159998,2.3794466751467263,13.501575073022885,8.071190888866035,68.28682962368578,-1.0907488737741846,1.9142922094810078,-96.38986303907853,-1.7714105269763385,2.1437112485482146,-0.9458641162536627,0.4451860226181287,44.89043583291343,-29.631413401541675,103.31439501831618,-1.3534775720865437,-3.2658594322456924
GUIDED_NOGPS,2.673396587371826,23.412900164671075,53.547133262967634,-29.26315796334544,104.67437645109018,2.2739293412273733,13.403119397698752,8.40659964988269,68.5329287036081,-1.1540164891691895,1.8943997104101689,-96.56897791987295,-1.7870362640048851,2.1160154017248805,-1.199563003490144,0.4457878283787769,44.89043583291343,-29.631413401541675,103.31439501831618,-1.3534775720865437,-3.724225668350351
GUIDED_NOGPS,2.7212767601013184,20.88900841675382,53.12630622100849,-29.26800918732873,104.54796135168142,2.1293445359307466,13.305055349071091,8.740674256980693,68.782963964029,-1.1962444538779107,1.8892787760799516,-96.75296272554559,-1.802148936320258,2.097878063602462,-0.8149220213993074,0.4463525039185213,44.89043583291343,-29.631413401541675,103.31439501831618,-1.3534775720865437,-3.8388172273765155
GUIDED_NOGPS,2.773494005203247,19.154784467207687,52.62670714321829,-29.27811682031796,104.42250799902013,1.9775939280649715,13.207453125747115,9.073175564699014,69.03690932818833,-1.250687678308671,1.8772269072894643,-96.95146851339366,-1.81741128958273,2.0755782435659946,-0.5148362597251546,0.4469216019937523,44.89043583291343,-29.631413401541675,103.31439501831618,-1.3534775720865437,-3.8388172273765155
GUIDED_NOGPS,2.805068016052246,31.707291997399494,52.066225373413495,-29.293506435381982,104.29463095564448,1.8021949231641534,13.110382423210693,9.403866141565906,69.29473739067686,-1.2809505389737048,1.7896399764678057,-97.10902731716752,-1.8328040306596576,2.050050924284442,0.21963318229934226,0.4475001596525486,44.89043583291343,-29.631413401541675,103.31439501831618,-1.3534775720865437,-5.099324376664327
GUIDED_NOGPS,2.8493614196777344,22.572715579641898,51.38755007415828,-29.318562760933204,104.16861309262526,1.675158874437191,13.013912356418764,9.7325105337896,69.55641943683256,-1.285001054594934,1.6075304846091638,-97.3867974503336,-1.8485342217782126,2.018296569384248,-0.601940627561343,0.44808170951631093,44.89043583291343,-29.631413401541675,103.31439501831618,-1.3534775720865437,-4.411775022507339
GUIDED_NOGPS,2.8745651245117188,39.6857164484142,50.803751612858775,-29.33954992804409,104.05694882882828,1.5324461943018102,12.918111382397722,10.058875528949088,69.82192546213685,-1.3254162444092514,1.56965665877462,-97.5344593100001,-1.8639735516535367,1.9915581949144452,0.9804719847781453,0.4486474649499628,44.89043583291343,-29.631413401541675,103.31439501831618,-1.3534775720865437,-4.297183463481175
GUIDED_NOGPS,2.918680191040039,22.73397111032819,50.19297258119422,-29.36535497098901,103.95552054110559,1.4272051839067421,12.823047222839861,10.382730419684634,70.09122419161106,-1.3966061321895307,1.6548585729154748,-97.66079731907783,-1.879521606232462,1.9634092349347532,-0.6378159840665298,0.4492035554757582,44.89043583291343,-29.631413401541675,103.31439501831618,-1.3534775720865437,-4.698253920072751
GUIDED_NOGPS,2.9460487365722656,36.4750632658208,49.69849394725461,-29.383683715049088,103.86497304592552,1.2703048111530406,12.728786786699754,10.703847267388511,70.36428309921273,-1.486775301404277,1.6928643067783644,-97.90212156283272,-1.894588690576294,1.9413736603032317,1.1264575316858543,0.4497489650799308,44.89043583291343,-29.631413401541675,103.31439501831618,-1.3534775720865437,-4.8128454790989155
GUIDED_NOGPS,2.988022804260254,23.833033121764675,49.20186164194337,-29.404540991581467,103.78359128758183,1.1603591574739747,12.63539609279067,11.022001165895688,70.6410684272319,-1.5630973292938806,1.704386835908176,-98.10202753946065,-1.9096334349257604,1.9192161464865092,-0.35471244723254625,0.45028621570947513,44.89043583291343,-29.631413401541675,103.31439501831618,-1.3534775720865437,-4.239887683968092
GUIDED_NOGPS,3.0260794162750244,26.282405724812953,48.77790119131252,-29.419272681662513,103.70623663325723,0.9918521694822982,12.54294019238099,11.33697050517447,70.9215452056875,-1.5644534420092455,1.5561311766707022,-98.27146404220116,-1.924223151230017,1.9008444510895766,0.7182450096919906,0.45082296285864537,44.89043583291343,-29.631413401541675,103.31439501831618,-1.3534775720865437,-4.010704565915763
GUIDED_NOGPS,3.0594570636749268,29.969803717015242,48.34924074066307,-29.43629955618175,103.63608488376622,0.8525750925913429,12.451483091790603,11.648537235017187,71.20567727172367,-1.6065325299384015,1.5618728044417443,-98.36468929418267,-1.938754520861318,1.8822013009119674,0.687819516407755,0.45135438858193616,44.89043583291343,-29.631413401541675,103.31439501831618,-1.3534775720865437,-3.666929888837269
GUIDED_NOGPS,3.098480463027954,25.63097493308564,47.939634075608836,-29.45431050678048,103.57527095514142,0.7464416491256013,12.36108767498732,11.956487128730828,71.49342728900612,-1.716593771337164,1.6469009756455868,-98.54900194893546,-1.9531619882666986,1.864534222293057,-0.010511098562455468,0.45187723450079703,44.89043583291343,-29.631413401541675,103.31439501831618,-1.3534775720865437,-3.151267873219528
GUIDED_NOGPS,3.141289234161377,23.365554738507477,47.55798098297055,-29.470391373582423,103.51790614703533,0.622796867071567,12.271815626183304,12.260610046827694,71.78475676711841,-1.7820416044595782,1.4787272041278865,-98.68884324200229,-1.967282350793155,1.8482888545627156,0.1949653285747588,0.4524002759301246,44.89043583291343,-29.631413401541675,103.31439501831618,-1.3534775720865437,-3.2658594322456924
GUIDED_NOGPS,3.186347723007202,22.196664920274554,47.19665522048624,-29.486181720954047,103.46458148348098,0.5262023927821867,12.183727352431424,12.560700200716177,72.07962608095836,-1.8433685923566532,1.4665079957027336,-98.81177298668419,-1.9811853536652162,1.8330623318765393,-0.16688012924275597,0.45292256689621607,44.89043583291343,-29.631413401541675,103.31439501831618,-1.3534775720865437,-2.177239621497128
GUIDED_NOGPS,3.211221933364868,40.21847192390304,46.864160767917014,-29.501773277114026,103.42114086516375,0.45654221797502154,12.096881906221716,12.856556416391264,72.37799449013434,-1.9763346596936417,1.5063365363003705,-98.8795557840074,-1.9948830046569517,1.8193103725921451,0.23871402485385462,0.4534352804374559,44.89043583291343,-29.631413401541675,103.31439501831618,-1.3534775720865437,-1.432394487827058
GUIDED_NOGPS,3.2540860176086426,23.333448304636867,46.57996053783206,-29.51679480895963,103.39009628761832,0.41232392960686515,12.011336908077784,13.147982398125372,72.67982015836162,-1.9416185156897594,1.3757800316365156,-98.9635329598527,-2.0083566528278642,1.8080520797685713,-0.6519102328931566,0.45393458580611495,44.89043583291343,-29.631413401541675,103.31439501831618,-1.3534775720865437,-1.604281826366305
GUIDED_NOGPS,3.3174190521240234,15.791450494341243,46.28450160786673,-29.529724193897884,103.35089981498611,0.3484979161961789,11.92714846915317,13.434786992158827,72.98506017285874,-2.0025166957730045,1.3938522852935462,-99.05016024909597,-2.02146711171858,1.7961143976310374,-0.6210263790563252,0.45445124053680896,44.89043583291343,-29.631413401541675,103.31439501831618,-1.3534775720865437,-0.6875493541569879
GUIDED_NOGPS,3.3417410850524902,41.130305169843886,45.981144809668926,-29.542602195770264,103.30298305967486,0.30246515691621395,11.844371113827812,13.716784450390755,73.29367056374376,-1.967950175600628,1.2805484115863204,-99.06255021225037,-2.0342998496039155,1.783670268000159,-0.12515934782945937,0.4549860312561034,44.89043583291343,-29.631413401541675,103.31439501831618,-1.3534775720865437,0.2291831180523293
GUIDED_NOGPS,3.388385534286499,21.44392977289692,45.78277821944605,-29.55475167667462,103.28916293708936,0.298006870834192,11.763057702304426,13.993794694069528,73.6056063234307,-1.9517709515607486,1.238677857870261,-99.08456391194532,-2.046940199244087,1.7767229983534376,-1.0610772515785893,0.455474665079512,44.89043583291343,-29.631413401541675,103.31439501831618,-1.3534775720865437,0.34377467707849396
GUIDED_NOGPS,3.42167067527771,30.04946267373549,45.54934013144584,-29.56619185326534,103.26391461191322,0.287863993034433,11.683259353204907,14.26564357748358,73.92082142602584,-1.9872672312338935,1.2813014399423142,-99.08558844032083,-2.059248504513526,1.7678342062208,-0.9473663519534786,0.4559853602211689,44.89043583291343,-29.631413401541675,103.31439501831618,-1.3534775720865437,0.057295779513082325
GUIDED_NOGPS,3.464629888534546,23.283191686604532,45.37228026005851,-29.576369226676185,103.25048748524698,0.28651936848460396,11.60502536616676,14.532163151652064,74.23926884672402,-1.9398618764125968,1.145046423076553,-99.09861361106805,-2.071259810698785,1.7618349357857943,-1.0879068219460655,0.45648317204221556,44.89043583291343,-29.631413401541675,103.31439501831618,-1.3534775720865437,0.4583662361046586
GUIDED_NOGPS,3.5136427879333496,20.4060678596102,45.18252219453826,-29.586262405218633,103.23455027606694,0.300447580416548,11.528403144439494,14.79319192801541,74.56090058120503,-1.953056094341769,1.2965489834907213,-99.05900534407114,-2.0829706075815504,1.7550799340373164,-1.2634723574425184,0.45698952545770716,44.89043583291343,-29.631413401541675,103.31439501831618,-1.3534775720865437,1.1459155902616465
GUIDED_NOGPS,3.5462257862091064,30.698714758321866,45.03791511694201,-29.595754187475254,103.21906022149324,0.31990249883145266,11.453438117481042,15.048575142126062,74.88566766502993,-1.9128106987613498,1.2245521728930286,-99.04773553194062,-2.094377278143364,1.7505910127702415,-1.4418137392253918,0.45749991116530503,44.89043583291343,-29.631413401541675,103.31439501831618,-1.3534775720865437,1.1459155902616465
GUIDED_NOGPS,3.57397198677063,36.051503326399754,44.93055846365111,-29.603034097898806,103.21676371641273,0.3260158543901331,11.380173663554146,15.298165017339265,75.21352019303738,-1.9490546707051992,1.3216209003865458,-99.03087862506902,-2.105427057084515,1.7479832096943535,-1.2498221848887314,0.45799513471493697,44.89043583291343,-29.631413401541675,103.31439501831618,-1.3534775720865437,1.1459155902616465
GUIDED_NOGPS,3.6095521450042725,28.1223239129706,44.88596020532954,-29.60798435814251,103.22290227692154,0.33732383649176145,11.30865103232279,15.541821028503485,75.54440733874,-1.9275724451050398,1.2582465632857593,-98.99565533951927,-2.1160945519392262,1.7485681622990497,-1.3101299271206652,0.4584822575927277,44.89043583291343,-29.631413401541675,103.31439501831618,-1.3534775720865437,1.7188733853924698
GUIDED_NOGPS,3.6502699851989746,24.57868829403216,44.78361676230526,-29.614056154609482,103.2190337569875,0.3740401540877601,11.238909267448605,15.779410165651292,75.87827737372066,-1.8695856331555125,1.1084987211580495,-98.94160805261696,-2.1264796744353984,1.7460207004101942,-1.641349015045015,0.45898886542509976,44.89043583291343,-29.631413401541675,103.31439501831618,-1.3534775720865437,2.119943841984046
GUIDED_NOGPS,3.687981605529785,26.515516838092587,44.69759415967446,-29.619417616852402,103.2144725117104,0.4181981745318325,11.170985129187265,16.01080719768988,76.21507768702888,-1.9076957408466564,1.2346198717296273,-98.87097023622069,-2.1365193374146125,1.744220313100374,-1.8182308204919517,0.4595009077629777,44.89043583291343,-29.631413401541675,103.31439501831618,-1.3534775720865437,2.2345354010102105
GUIDED_NOGPS,3.7254679203033447,26.680644258415818,44.64729177523908,-29.624449439713914,103.21345307146977,0.4520161697468119,11.104913016984899,16.235894936091846,76.55475480457713,-1.8185248464677897,1.1794468842747337,-98.83199034662742,-2.146239450022561,1.744183649497969,-1.6944438393628274,0.46001195259966104,44.89043583291343,-29.631413401541675,103.31439501831618,-1.3534775720865437,2.177239621497128
GUIDED_NOGPS,3.7560088634490967,32.754949199928156,44.60594591708289,-29.628764864263818,103.21379001942152,0.4805593382816835,11.040724892074511,16.454564498585803,76.89725440853718,-1.7874084255999156,1.1349936652787636,-98.76089490755676,-2.155610687859808,1.7445100763298071,-1.7401562742015684,0.46052519658367347,44.89043583291343,-29.631413401541675,103.31439501831618,-1.3534775720865437,1.8334649444186344
GUIDED_NOGPS,3.8010687828063965,22.196899856582643,44.55718546103137,-29.6319641944149,103.21770274814862,0.5273921819587206,10.978450200072377,16.666715572847018,77.24252135673643,-1.692466554980917,1.0767829511905067,-98.69376780839387,-2.1646172103735704,1.7443527934952714,-1.8279557790362673,0.4610372279128817,44.89043583291343,-29.631413401541675,103.31439501831618,-1.3534775720865437,2.5783100780887045
GUIDED_NOGPS,3.823955535888672,43.70796773722932,44.502999948290935,-29.635210234585777,103.2202913334723,0.5869940970859799,10.918115793574454,16.87225668018815,77.59049970205423,-1.5857508256149915,1.0381866194078224,-98.64791674849558,-2.1732944374921512,1.7438022264496262,-2.682913806311673,0.4615553125528729,44.89043583291343,-29.631413401541675,103.31439501831618,-1.3534775720865437,2.5783100780887045
GUIDED_NOGPS,3.865893840789795,23.848617176128094,44.48899672058665,-29.63686689846781,103.22653700141731,0.6139135781903908,10.85974585475281,17.071105439249884,77.9411327118183,-1.6366966730255876,1.0831623478752987,-98.52806741912937,-2.181578277774492,1.745237233599114,-1.6867136350771539,0.46207189356560147,44.89043583291343,-29.631413401541675,103.31439501831618,-1.3534775720865437,2.0053522829578814
GUIDED_NOGPS,3.9099323749542236,22.78262475488998,44.427109038502465,-29.640156528698355,103.22759251176662,0.6827707053404419,10.80336181795198,17.26318882969155,78.29436288720093,-1.645829489719541,1.1427162613525208,-98.4741225850646,-2.1895885430262667,1.74406350679915,-2.222460793005993,0.4626001555631515,44.89043583291343,-29.631413401541675,103.31439501831618,-1.3534775720865437,1.8907607239317168
GUIDED_NOGPS,3.9481239318847656,26.096314178342997,44.3800485284802,-29.642918581018773,103.22981511715076,0.747785016128078,10.748982292285422,17.448443455881893,78.65013198261548,-1.610205891051399,1.054845237350072,-98.43646092198115,-2.1972419177742775,1.743551383176907,-2.3337411499250575,0.46313047529819706,44.89043583291343,-29.631413401541675,103.31439501831618,-1.3534775720865437,1.948056503444799
GUIDED_NOGPS,3.9773707389831543,34.20068820430861,44.3634953364818,-29.644515890207327,103.23426103950803,0.7989732350367986,10.696622984231926,17.626815810589697,79.00838102511258,-1.5814919892240769,1.0265774322529164,-98.38302152191498,-2.204510225204399,1.7445143383674113,-2.4025967542894406,0.46366117997840683,44.89043583291343,-29.631413401541675,103.31439501831618,-1.3534775720865437,2.119943841984046
GUIDED_NOGPS,4.010995149612427,29.747891769211673,44.37047908719195,-29.645094490282055,103.24039012425125,0.839166294689356,10.646296620232018,17.7982625386743,79.36905033377651,-1.6505512848701354,1.1813582700252794,-98.32575721591358,-2.2113972798126706,1.7465872297598546,-2.145921902112588,0.4641929903142879,44.89043583291343,-29.631413401541675,103.31439501831618,-1.3534775720865437,2.2345354010102105
GUIDED_NOGPS,4.048212051391602,26.875538240721756,44.370778805977764,-29.645834126932815,103.24549648076525,0.881594365806364,10.598012869284307,17.962750700776617,79.73207953912161,-1.737604927328004,1.3254966058537048,-98.2763271368902,-2.217948551338174,1.748196781340324,-2.1477500755270134,0.46472987458753456,44.89043583291343,-29.631413401541675,103.31439501831618,-1.3534775720865437,1.776169164905552
GUIDED_NOGPS,4.101547956466675,18.75379050395482,44.368485267229076,-29.646642037940694,103.25007975101771,0.9209024692168725,10.55177826554199,18.1202580370094,80.09740760248852,-1.7079130277889008,1.258637378172331,-98.24618551208295,-2.2241608713193686,1.7495563848608244,-1.9770866975833479,0.4652709917772062,44.89043583291343,-29.631413401541675,103.31439501831618,-1.3534775720865437,1.260507149287811
GUIDED_NOGPS,4.1354711055755615,29.48399024301089,44.36024253518717,-29.64766599576863,103.25362742577525,0.9797257096392562,10.507596130909207,18.27077323064824,80.46497283544055,-1.7600980209253254,1.4844030913281672,-98.19790290484012,-2.2300395464913754,1.7504915401545849,-2.5244990927624005,0.46581701811449794,44.89043583291343,-29.631413401541675,103.31439501831618,-1.3534775720865437,2.0053522829578814
GUIDED_NOGPS,4.16101336479187,39.16396504071114,44.38852801453266,-29.647550174136487,103.25933846937832,0.9982917667155601,10.465466497637454,18.414296171821952,80.83471291916003,-1.7862578588898859,1.4869119051876774,-98.17270633699195,-2.235532486828447,1.7532064722472647,-2.02618668366741,0.46636306167467256,44.89043583291343,-29.631413401541675,103.31439501831618,-1.3534775720865437,1.3178029288008934
GUIDED_NOGPS,4.190906286239624,33.46154275730572,44.415912794771096,-29.6468801385526,103.26508719998024,1.0116164797537608,10.425386030921995,18.5508382212035,81.20656492384467,-1.7776655876357155,1.51006752713449,-98.15910743035445,-2.240661331165612,1.7557598975773014,-1.8956272388585922,0.4669122165857966,44.89043583291343,-29.631413401541675,103.31439501831618,-1.3534775720865437,1.1459155902616465
GUIDED_NOGPS,4.222303867340088,31.858296304735862,44.4356431590619,-29.64649695644371,103.26992987646912,1.0229008951776728,10.38734795149826,18.68042247370048,81.58046532810383,-1.6986507576658345,1.433958729213038,-98.16498139304066,-2.2454638622420364,1.7578014572659366,-1.859864393044754,0.46746580317745207,44.89043583291343,-29.631413401541675,103.31439501831618,-1.3534775720865437,0.6302535746439055
GUIDED_NOGPS,4.275429725646973,18.825759887969262,44.45292451316845,-29.646156831730103,103.2743168577515,1.0424035476484421,10.35134195823829,18.80308402214596,81.95635003835494,-1.7228620707262372,1.526732761822498,-98.12322844664438,-2.249932491778405,1.7596023581511266,-1.883404952730124,0.46802304977090514,44.89043583291343,-29.631413401541675,103.31439501831618,-1.3534775720865437,1.2032113697747289
GUIDED_NOGPS,4.293022155761719,56.858812205999975,45.0497079171496,-32.161757350998634,99.32011396659603,1.0824966121361244,10.31735415074711,18.9188702209888,82.33415440821976,-1.6910039340031822,1.475301010485479,-98.10324331313292,-2.357194850244847,1.7808648650533738,-2.8747444111953016,0.4745210606624356,49.532299157754814,-47.43900721711323,76.82601669815496,-0.829903805645516,1.4896902673401404
GUIDED_NOGPS,4.349799394607544,17.616908318072614,45.58732252774224,-34.24997715269507,96.0705339221319,1.0803537443501594,10.285366951959137,19.027840949984842,82.71381325792078,-1.6562282392874739,1.4016745594405033,-98.07702221690924,-2.4455359576653364,1.8004616557536146,-1.6902266741647125,0.4799649190036833,49.532299157754814,-47.43900721711323,76.82601669815496,-0.829903805645516,0.5156620156177409
GUIDED_NOGPS,4.38948655128479,25.200096130737805,46.16930735561214,-35.88932457541572,92.70248477309184,1.100996520074146,10.255359030734606,19.13006887788709,83.0952608936775,-1.7097634754454454,1.4676345500289627,-98.06355308386597,-2.5115521004651704,1.8215749168901882,-1.982420341710963,0.4855891641808785,49.8853939241286,-43.61664772077749,78.72367906261118,-1.289232857381265,0.5156620156177409
GUIDED_NOGPS,4.417691469192505,35.48030283804932,47.26816456722371,-36.62189292378081,89.80815455584701,1.097043942093727,10.227305224455993,19.225639726136684,83.47843112710288,-1.699944011296494,1.3377405737145989,-98.04670983737272,-2.5370001811662797,1.8696273467785913,-1.639538966308427,0.4905054148568838,54.76062223382877,-39.349488890056215,78.29171570120548,-3.2777938651248277,0.7448451336700702
GUIDED_NOGPS,4.4435248374938965,38.7139125538808,48.223864819517516,-37.20766332892887,87.67417338115891,1.0933922580800526,10.201176461624346,19.31465253255343,83.86325729459946,-1.7209911325021827,1.3454864351202165,-98.01939591088184,-2.5580438354534167,1.9120020134984586,-1.6342323812016175,0.49428362587016084,54.76062223382877,-39.349488890056215,78.29171570120548,-3.2777938651248277,1.0313240312354819
GUIDED_NOGPS,4.491702556610107,20.759770342506435,48.83369970401256,-37.60597391878727,86.03230683746169,1.0898536670168018,10.1769396844558,19.397219915026547,84.249672276756,-1.8132711503355805,1.4605354221603806,-97.99545609784094,-2.5720027933010385,1.9380063167090207,-1.6660964753442886,0.4973260481589415,52.37712632428473,-38.020154090545866,80.38140045636167,-3.130277167207334,0.7448451336700702
GUIDED_NOGPS,4.522481918334961,32.498365126838266,49.50485404862232,-38.142079207911834,84.16533738115473,1.093006993581555,10.154557771477922,19.473468335205276,84.63760851774353,-1.7774591878567343,1.2537715087189316,-98.00975851396295,-2.59269963944027,1.9675148138572198,-1.7551657851735791,0.5007084067048833,52.37712632428473,-38.020154090545866,80.38140045636167,-3.130277167207334,0.40107045659157625
GUIDED_NOGPS,4.560182332992554,26.52926926458403,49.6982689131053,-38.61849999937496,82.57307517016942,1.0866315482236124,10.133989460126134,19.54353836218946,85.02699804471186,-1.8337751647805471,1.3774282416606043,-97.99710900362008,-2.617291726270399,1.9782139726489583,-1.6191271887453451,0.5036808843118137,49.53373324487746,-39.19436031813358,78.8359249706724,-2.3295337684588984,0.2864788975654116
GUIDED_NOGPS,4.578172206878662,55.61630975270172,49.83940067172743,-38.99309428829559,81.29135785811523,1.086063749233852,10.115189269340117,19.60758493622044,85.41777248718587,-1.8136860843276588,1.330438247718209,-97.98730768216112,-2.6370305651032218,1.9862105701193657,-1.689086984180165,0.506189621943606,49.53373324487746,-39.19436031813358,78.8359249706724,-2.3295337684588984,0.9167324722093172
GUIDED_NOGPS,4.634441137313843,17.774809402930046,50.13866754144668,-39.28788731448082,80.00286033408112,1.0677522909160653,10.098107422160194,19.66577763237158,85.80986309646184,-1.9031331744810878,1.6319787198564013,-97.96213160488045,-2.652914922608358,2.0020280059643243,-1.5353179394553955,0.5087105041435711,51.61393793521566,-39.809332096923825,75.27613508811041,-3.2549896106716085,0.11459155902616465
GUIDED_NOGPS,4.674773693084717,24.826446476664003,48.643617186147566,-40.998855950991576,77.73008220343362,1.0861928495466824,10.082689768323814,19.718300924238896,86.20320076500383,-1.8655726835747184,1.8439071100840263,-97.98352375736093,-2.7322720593853718,1.9280463708911875,-1.9461453431302913,0.5127096778423553,34.447427109260175,-47.60364325364543,75.31907540790344,1.4832345573093664,0.0
GUIDED_NOGPS,4.70504093170166,33.04188626032976,47.39918111369346,-41.90044162876062,76.38795103974587,1.0886709726807597,10.068877706861901,19.76535444763173,86.59771604583992,-1.8760062244187359,1.9529587641460961,-97.98271779503887,-2.774960823437656,1.866515170341578,-1.7608157725594145,0.515314647509141,37.31112671707678,-44.27981302966803,75.95456170103411,-0.18803710162667034,0.34377467707849396
GUIDED_NOGPS,4.745970964431763,24.540004797650322,45.53777243559169,-42.898679485261546,75.39024901813906,1.098844829692426,10.056608108695261,19.807153264263725,86.99333917195867,-1.837896116727592,1.9918242480707613,-97.97850356832097,-2.8217624737286378,1.7740582163448217,-1.858149631378768,0.5174046352307294,31.552935695524763,-46.417094109380656,75.77731212253083,1.8275095309060392,0.2864788975654116
GUIDED_NOGPS,4.788763999938965,23.365554738507477,45.598848809029384,-42.48851580927451,74.57800020462241,1.0738749946488313,10.045813239231013,19.843928125442808,87.39000007570539,-1.7896890684524651,2.1578674274542404,-98.02957972293433,-2.8049599770622797,1.7776517784899184,-1.4321464634591057,0.5192179998066244,46.75300814723728,-35.091426005900715,78.49657459769239,-3.483656783621964,-0.6302535746439055
GUIDED_NOGPS,4.820635080337524,31.38579884313476,43.412316820100166,-43.35820035867501,74.34816075879215,1.0568359415995594,10.036420680958965,19.875925735762657,87.78762840817848,-1.7088486569834866,2.2539417220932862,-98.10384436977988,-2.8455356742496956,1.6687948069570604,-1.441897224074319,0.5201592014740795,28.70525566083229,-45.29494178029144,80.86164789252479,1.6130017927675486,-1.088619810748564
GUIDED_NOGPS,4.857930660247803,26.82037279790261,40.32976590520834,-38.29568583445016,75.59814613578212,1.0514753984813578,10.028353256048089,19.903409016792928,88.18615355862576,-1.6390524479590074,2.1165546013725955,-98.1983878482712,-2.6189592683059395,1.5150706324580128,-1.639024292583719,0.5188820111342655,20.016896158292916,-1.589907413875223,89.53038928991265,6.770650188194145,-1.5469860468532228
GUIDED_NOGPS,4.886946678161621,34.47448711204629,37.394567330112714,-33.5406918289906,76.69477906158207,1.035877869116301,10.021528948942855,19.92665737076971,88.58550467384086,-1.6730671101907881,2.127928147001136,-98.24768815370034,-2.4060307139892143,1.3686519190584931,-1.4336592757163595,0.5178360884183881,20.016896158292916,-1.589907413875223,89.53038928991265,6.770650188194145,-1.7188733853924698
GUIDED_NOGPS,4.934840679168701,20.884431918898194,34.83542573117889,-29.222286605013636,77.90867625726395,1.0189201334065032,10.015860828959692,19.94596694428683,88.98561067755949,-1.8830876364841582,2.211416537433964,-98.35219687819071,-2.2125714097185214,1.2409782451109599,-1.5187905321470518,0.5166154016304433,20.016896158292916,-1.589907413875223,89.53038928991265,6.770650188194145,-2.119943841984046
GUIDED_NOGPS,4.96131157875061,37.792651060532336,32.35430690361842,-25.132029017488872,78.94693565852887,0.9926445095258825,10.011256972883363,19.961650891985933,89.38640028985586,-2.0996680258667966,2.1397097964325846,-98.46270250877235,-2.0292155959263662,1.117152496536753,-1.1836821751584559,0.5156591969469905,20.016896158292916,-1.589907413875223,89.53038928991265,6.770650188194145,-2.0053522829578814
GUIDED_NOGPS,4.9935386180877686,31.06017565426028,30.331351867614384,-21.628271141607406,80.04160468044665,0.9784821674398672,10.007620387563353,19.974039640247447,89.78780204653887,-2.116836987006093,2.0329804066883193,-98.52062251293405,-1.8721039851834687,1.0161865740025515,-1.451282485788533,0.5146192960491384,20.016896158292916,-1.589907413875223,89.53038928991265,6.770650188194145,-2.119943841984046
GUIDED_NOGPS,5.045964002609253,19.072040160240817,28.535008280871633,-18.496309959648872,81.0202680293325,0.9671885784928551,10.00484893251038,19.983481150881325,90.18974431854869,-2.2658217689374656,1.9689401261434567,-98.57613146031875,-1.7315905999738592,0.9265079674180626,-1.5636674678494868,0.5137542144338243,20.016896158292916,-1.589907413875223,89.53038928991265,6.770650188194145,-1.8334649444186344
GUIDED_NOGPS,5.0751824378967285,34.23502428274089,26.563567898343717,-15.297676910524565,81.82435861274395,0.9381937068532297,10.002835242492711,19.99034118481712,90.59215533135281,-2.3576231399204337,1.8788781055213148,-98.61487912348024,-1.587960814290376,0.8280366327925504,-1.1556585336976717,0.5131516950779133,20.016896158292916,-1.589907413875223,89.53038928991265,6.770650188194145,-1.7188733853924698
