Mode,Time,Freq,time2delay,actualDelay,North-Desired,East-Desired,Down-Desired,Roll-UAV,Pitch-UAV,Yaw-UAV,Roll-Control,Pitch-Control,Yaw-Control,Thrust-Control,North-Pos,East-Pos,Down-Pos,Yaw-Ang,North-Vel,East-Vel,Down-Vel,Yaw-Vel,North-Acc,East-Acc,Down-Acc,North-Avg,East-Avg,Down-Avg,Yaw-Avg,North-Dif,East-Dif,Down-Dif,Yaw-Dif,North-One,East-One,Down-One,Yaw-One,North-Two,East-Two,Down-Two,Yaw-Two,Landing-State,Q-Size,Kalman-Time,Kalman-Dt,CH1-Thrust,CH2-Roll,CH3-Pitch,CH4-Yaw
STABILIZE,0.03439021110534668,29.086712898751735,0.032757075627644856,0.03289175033569336,-10,40,10,1.763154530578906,-1.281127697005302,1.1285977267295755,3.9995610174011964,4.00043893442766,0.001261676246854142,0.5188551355460056,-0.06123933774346002,0.017970679200397008,0.5848689067666369,0.006287617559996799,-0.325374910607934,0.032416588510386646,1.0849164798855782,0.04118762151044378,-8.029384911060333,0.24650597479194403,12.419360876083374,0.0,0.0,0.0,0.0,0.0,0.0,0.0,0.0,0.0,0.0,0.0,0.0,0.0,0.0,0.0,0.0,False,0,3.512507438659668,0.06484619140625,0,0,0,0
STABILIZE,0.06912922859191895,28.786273635084587,0.032247336705525716,0.03385806083679199,-10,40,10,1.7640312493919006,-1.2801852376215461,1.1288305934915905,3.9997426457340626,4.000257337709198,0.0007439673202257445,0.51884145387576,-0.06371739919078198,0.01785112105908736,0.6048236868542878,0.003686209743107979,-0.14330744743347168,-0.015999487368389964,1.2517004273831844,-0.157773861351217,-3.6034181714057922,0.2641389612108469,13.085460662841797,0.0,0.0,0.0,0.0,0.0,0.0,0.0,0.0,0.0,0.0,0.0,0.0,0.0,0.0,0.0,0.0,False,0,3.5415592193603516,0.034916015625,0,0,0,0
STABILIZE,0.1026601791381836,29.823404769692402,0.032479317982991536,0.03261113166809082,-10,40,10,1.7648653862442885,-1.2801860913951923,1.1284492768368335,3.9999551193302723,4.000044880166165,0.000135728569350437,0.5188637380238437,-0.06413633275160041,0.016965961527772824,0.606256133594145,0.0006428646327865262,-0.14330744743347168,-0.015999487368389964,1.2517004273831844,-0.157773861351217,-3.6034181714057922,0.2641389612108469,13.085460662841797,0.0,0.0,0.0,0.0,0.0,0.0,0.0,0.0,0.0,0.0,0.0,0.0,0.0,0.0,0.0,0.0,False,0,3.5714528560638428,0.034916015625,0,0,0,0
STABILIZE,0.1361522674560547,29.85673507449406,0.03240063985188802,0.03252863883972168,-10,40,10,1.7650569517061663,-1.2814189405403795,1.1297159567627535,3.999764932378238,4.000235053808376,0.0006828119488653001,0.5189089177329212,-0.06838430248079093,0.020336411139293603,0.5962732650010485,0.0033669967276382805,-0.3529474139213562,0.21762843243777752,0.6195628084242344,0.158878310944136,-4.891012609004974,0.36820503883063793,14.84127938747406,0.0,0.0,0.0,0.0,0.0,0.0,0.0,0.0,0.0,0.0,0.0,0.0,0.0,0.0,0.0,0.0,False,0,3.5989584922790527,0.0349169921875,0,0,0,0
STABILIZE,0.17930126190185547,23.175895279510655,0.032337458928426106,0.03256988525390625,-10,40,10,1.764931980588696,-1.2812925820407344,1.130456498679171,3.9999525678102605,3.7119431680457393,0.00015647199022633895,0.5189610721270339,-0.0677113378719599,0.018332283596706463,0.5864032483034461,0.0007321456372547347,-0.1580443582497537,-0.05880274693481624,1.2134267017245293,-0.091260532058494,0.995342805981636,0.36025168374180794,14.65110331773758,0.0,0.0,0.0,0.0,0.0,0.0,0.0,0.0,0.0,0.0,0.0,0.0,0.0,0.0,0.0,0.0,False,0,3.6564364433288574,0.034916015625,0,0,0,0
STABILIZE,0.20342397689819336,41.45634253859687,0.022684129079182942,0.02305769920349121,-10,40,10,1.7642440524732288,-1.281438684055949,1.1317420683470143,3.9998621414340345,1.7179145671033993,0.0009319185998193447,0.5189931466206743,-0.06518449354825694,0.019169612336999278,0.5794612609620294,0.004598279917367111,0.022324030578602105,0.07965456461533904,0.7519893813878298,0.22380606251385074,3.3124588429927826,-1.6527798026800156,12.399408221244812,0.0,0.0,0.0,0.0,0.0,0.0,0.0,0.0,0.0,0.0,0.0,0.0,0.0,0.0,0.0,0.0,False,0,3.6849968433380127,0.0348681640625,0,0,0,0
STABILIZE,0.23681259155273438,29.9492598913222,0.03232744534810384,0.03244638442993164,-10,40,10,1.7655881056358405,-1.2825303403843875,1.1325399198194366,3.999780552868176,1.7253704691218301,0.001474823335539147,0.5190272289341495,-0.06341389979524266,0.021281297813447213,0.5750254647685905,0.007288433944533719,-0.021546967036556453,0.1509973662905395,0.890534371137619,0.15675013338850843,-3.5979311913251877,0.3400440327823162,13.08099776506424,0.0,0.0,0.0,0.0,0.0,0.0,0.0,0.0,0.0,0.0,0.0,0.0,0.0,0.0,0.0,0.0,False,0,3.713683843612671,0.0349169921875,0,0,0,0
STABILIZE,0.2702915668487549,29.868854326895686,0.0323827584584554,0.03257322311401367,-10,40,10,1.7662377206589321,-1.2836588157013207,1.1328474917754987,3.9996983708476175,1.7319047130362686,0.002019957513689037,0.5190611680376214,-0.061636674222740336,0.02339240279134191,0.5706943134767638,0.009980661335081995,-0.021546967036556453,0.1509973662905395,0.890534371137619,0.15675013338850843,-3.5979311913251877,0.3400440327823162,13.08099776506424,0.0,0.0,0.0,0.0,0.0,0.0,0.0,0.0,0.0,0.0,0.0,0.0,0.0,0.0,0.0,0.0,False,0,3.7432138919830322,0.0349169921875,0,0,0,0
STABILIZE,0.3041226863861084,29.559834240126293,0.032421382268269856,0.03297019004821777,-10,40,10,1.7668069742375705,-1.282642504897164,1.1346162973271203,3.999909894098917,1.7396947486986447,0.0006193867310376992,0.519089587281482,-0.059763871944865044,0.01912027281638097,0.5692567787780763,0.0029677593058265363,-0.016289373161271214,-0.2060475293546915,1.0480266064405441,-0.38645557169475936,-3.0687011778354645,0.19101083744317293,7.794361561536789,0.0,0.0,0.0,0.0,0.0,0.0,0.0,0.0,0.0,0.0,0.0,0.0,0.0,0.0,0.0,0.0,False,0,3.7720227241516113,0.029928955078125,0,0,0,0
STABILIZE,0.3376579284667969,29.818740224655198,0.032454522450764973,0.032572031021118164,-10,40,10,1.7664827536954064,-1.281825016630878,1.1358939695887358,3.999861350809117,1.7433606155580739,0.0009403122143948273,0.5191229850168392,-0.06158813650172949,0.01777880879104422,0.5651842617209483,0.004557139989413192,-0.23900861851871014,-0.03547237429302186,1.034734770655632,0.09946789147044363,-7.217232882976532,0.35809949040412903,16.34969711303711,0.0,0.0,0.0,0.0,0.0,0.0,0.0,0.0,0.0,0.0,0.0,0.0,0.0,0.0,0.0,0.0,False,0,3.801323890686035,0.034916015625,0,0,0,0
STABILIZE,0.37149953842163086,29.54942159473588,0.03235796292622884,0.03284049034118652,-10,40,10,1.7676474076705992,-1.2811137164618447,1.1374584030737862,3.9998125086834606,1.745468155974488,0.0012640928239277714,0.5191509253968379,-0.06370954041872144,0.016537179543446152,0.563967675134252,0.006155244690118265,-0.23900861851871014,-0.03547237429302186,1.034734770655632,0.09946789147044363,-7.217232882976532,0.35809949040412903,16.34969711303711,0.0,0.0,0.0,0.0,0.0,0.0,0.0,0.0,0.0,0.0,0.0,0.0,0.0,0.0,0.0,0.0,False,1,3.8301005363464355,0.034916015625,0,0,0,0
STABILIZE,0.4049251079559326,29.918710321706257,0.03231790860493978,0.032450199127197266,-10,40,10,1.768132457823376,-1.2809669741163952,1.1381516672745424,3.999782152775661,1.7492259793226232,0.0014651384731811457,0.5191369854988926,-0.06440611740431706,0.019564792740203295,0.5835439843423519,0.007136587518939924,-0.14356246683746576,-0.012220782809890807,1.300197746604681,-0.09128481124655928,0.43747397139668465,-1.6321105882525444,13.11599314212799,0.0,0.0,0.0,0.0,0.0,0.0,0.0,0.0,0.0,0.0,0.0,0.0,0.0,0.0,0.0,0.0,False,0,3.8872592449188232,0.034916748046875,0,0,0,0
STABILIZE,0.43840789794921875,29.865664096155626,0.03232863744099935,0.032460689544677734,-10,40,10,1.7684772756547558,-1.2800922830158104,1.1387901832402327,3.9997325642807415,1.7516363332071125,0.0017935351517628648,0.5191612327684982,-0.06723816812750241,0.020588374487377988,0.5840163791881045,0.008749310407123121,-0.2792022190988064,0.09306943393312395,1.2091070413589478,0.09801624281808452,-2.9154259711503983,0.39874641224741936,15.864625573158264,0.0,0.0,0.0,0.0,0.0,0.0,0.0,0.0,0.0,0.0,0.0,0.0,0.0,0.0,0.0,0.0,False,0,3.916093349456787,0.034917236328125,0,0,0,0
STABILIZE,0.4718906879425049,29.865664096155626,0.03229883511861165,0.03242802619934082,-10,40,10,1.7671251116425049,-1.2809036881448668,1.1390844149830723,3.9996831022496506,1.7540033151128094,0.0021213631703723237,0.5191850862809979,-0.07007724315746847,0.021612580260466592,0.5846839514333395,0.010353826200868643,-0.2792022190988064,0.09306943393312395,1.2091070413589478,0.09801624281808452,-2.9154259711503983,0.39874641224741936,15.864625573158264,0.0,0.0,0.0,0.0,0.0,0.0,0.0,0.0,0.0,0.0,0.0,0.0,0.0,0.0,0.0,0.0,False,0,3.9449005126953125,0.034917236328125,0,0,0,0
STABILIZE,0.5054090023040771,29.835496973275195,0.03226593335469564,0.03241443634033203,-10,40,10,1.7675027997592654,-1.2808892807145862,1.1396689297656373,3.9997325038796205,1.7609224493830595,0.0017974556840582238,0.5192183697142506,-0.06827000589226115,0.020469636659414172,0.5806663710851863,0.008705121461932459,-0.030709055135957897,-0.022801281011197716,0.9496783837676048,-0.07550083104404161,-0.30973125249147415,0.33704142551869154,15.333889424800873,0.0,0.0,0.0,0.0,0.0,0.0,0.0,0.0,0.0,0.0,0.0,0.0,0.0,0.0,0.0,0.0,False,0,3.974823474884033,0.029927978515625,0,0,0,0
STABILIZE,0.5387706756591797,29.97344462389412,0.03220704396565755,0.03236103057861328,-10,40,10,1.7669921363971013,-1.2808421097206308,1.140037226372289,3.9997217295744227,1.765734163563369,0.0018686961699528153,0.5192628784451452,-0.07011428432475106,0.017539421064532934,0.5710232584328487,0.009031126072214202,-0.24851702619343996,-0.11552253272384405,0.7785718888044357,0.03473180874925905,-1.1923877522349358,0.33674752339720726,16.903014481067657,0.0,0.0,0.0,0.0,0.0,0.0,0.0,0.0,0.0,0.0,0.0,0.0,0.0,0.0,0.0,0.0,False,0,4.0031678676605225,0.034916748046875,0,0,0,0
STABILIZE,0.5723259449005127,29.80009662659505,0.03234127362569173,0.03260469436645508,-10,40,10,1.7676209406875656,-1.2808671893214896,1.141909978865342,3.999682339626887,1.7710739881337523,0.0021251088648501027,0.5192974357127305,-0.07024163095654165,0.016185461568698163,0.5664169174664364,0.010278670762948756,-0.1328061451204121,-0.03593777073547244,0.8838970214128494,0.08186726104158108,-1.3625886291265488,-1.8031515181064606,10.492762923240662,0.0,0.0,0.0,0.0,0.0,0.0,0.0,0.0,0.0,0.0,0.0,0.0,0.0,0.0,0.0,0.0,False,0,4.033536911010742,0.034917236328125,0,0,0,0
STABILIZE,0.605792760848999,29.88183495650563,0.032353909810384114,0.0324864387512207,-10,40,10,1.768350810433405,-1.280941574350419,1.1427892589992752,3.999759498707935,1.7785235281585856,0.0016243622798490008,0.5193261969604135,-0.06825568115561848,0.01304789395019183,0.5646620833096613,0.007749014699122296,-0.18959552980959415,-0.07086788536980748,1.1118264868855476,-0.20207768329930634,-3.357752040028572,0.16575707122683525,14.460217952728271,0.0,0.0,0.0,0.0,0.0,0.0,0.0,0.0,0.0,0.0,0.0,0.0,0.0,0.0,0.0,0.0,False,0,4.090967416763306,0.034917236328125,0,0,0,0
STABILIZE,0.6395654678344727,29.60970823067637,0.03235462506612142,0.032835960388183594,-10,40,10,1.768868410706445,-1.2823222330581137,1.1438814489362426,3.999807584669284,1.7870273153909229,0.001312723316303695,0.5193557098594689,-0.0648048032864784,0.013710714854207108,0.562658576512721,0.0061699757305879776,0.06831628270447254,0.07352590910159051,0.9907783940434456,-0.07353480378013576,2.185298502445221,0.2220550086349249,17.539241909980774,0.0,0.0,0.0,0.0,0.0,0.0,0.0,0.0,0.0,0.0,0.0,0.0,0.0,0.0,0.0,0.0,False,0,4.119758129119873,0.034916748046875,0,0,0,0
STABILIZE,0.6731643676757812,29.76372409877945,0.03239324887593587,0.03264427185058594,-10,40,10,1.7693027680489755,-1.2821037737263792,1.1447662785988766,3.999856326224162,1.7932975355450993,0.0009999676087123588,0.51938494146621,-0.06134397093683022,0.01439721769734926,0.5607217261961454,0.004590781210138773,0.06831628270447254,0.07352590910159051,0.9907783940434456,-0.07353480378013576,2.185298502445221,0.2220550086349249,17.539241909980774,0.0,0.0,0.0,0.0,0.0,0.0,0.0,0.0,0.0,0.0,0.0,0.0,0.0,0.0,0.0,0.0,False,0,4.1485395431518555,0.034916748046875,0,0,0,0
STABILIZE,0.706578254699707,29.925327663582074,0.032358439763387044,0.032488346099853516,-10,40,10,1.7696690369432173,-1.2825639577217087,1.1445149489817614,3.999946832901232,1.7981795518507107,0.0004217709351928188,0.5194071815567508,-0.06255476576997605,0.017293184592871637,0.5622308139912519,0.0016941303491989634,-0.19462158670648932,0.19695619121193886,1.1811544187366962,-0.1480843575594812,-5.153417587280273,0.08931130869314075,14.481282234191895,0.0,0.0,0.0,0.0,0.0,0.0,0.0,0.0,0.0,0.0,0.0,0.0,0.0,0.0,0.0,0.0,False,0,4.177096366882324,0.029928955078125,0,0,0,0
STABILIZE,0.7400703430175781,29.8582228739838,0.03240969975789388,0.032540321350097656,-10,40,10,1.7701854632774938,-1.2825620367310047,1.144901815165219,4.000098780222669,1.8057623970538343,-0.0005459635301526874,0.519434291354935,-0.05813082292500079,0.01720096788241909,0.5613169825077993,-0.0031340485328079093,0.11238966835662723,0.032216316321864724,1.190088875591755,-0.2642397151832684,-3.540261462330818,0.17836481565609574,15.722696483135223,0.0,0.0,0.0,0.0,0.0,0.0,0.0,0.0,0.0,0.0,0.0,0.0,0.0,0.0,0.0,0.0,False,0,4.205832481384277,0.034916259765625,0,0,0,0
STABILIZE,0.7735307216644287,29.885667462324985,0.032361777623494466,0.03248476982116699,-10,40,10,1.7701820481829087,-1.2823676965047766,1.1457474779618313,4.000253439689382,1.812131499454862,-0.0015269066097879187,0.5194554188798368,-0.054008963932750335,0.017203338748559043,0.5633659849609793,-0.008011992368159873,0.11238966835662723,0.032216316321864724,1.190088875591755,-0.2642397151832684,-3.540261462330818,0.17836481565609574,15.722696483135223,0.0,0.0,0.0,0.0,0.0,0.0,0.0,0.0,0.0,0.0,0.0,0.0,0.0,0.0,0.0,0.0,False,0,4.234469890594482,0.034916259765625,0,0,0,0
STABILIZE,0.8070275783538818,29.85354743195536,0.03234580357869466,0.032558441162109375,-10,40,10,1.7705481036337392,-1.2809067830743344,1.14650114664806,4.000412389316469,1.8142437559182774,-0.002537323358853125,0.5194516531594352,-0.05540385138211728,0.016538629819039165,0.5778800404669948,-0.013020438455031431,-0.28105531819164753,-0.07617194787599146,1.0686016641557217,0.027553369978014896,-6.759467720985413,-0.07777783903293312,14.079244434833527,0.0,0.0,0.0,0.0,0.0,0.0,0.0,0.0,0.0,0.0,0.0,0.0,0.0,0.0,0.0,0.0,False,0,4.292017698287964,0.029928955078125,0,0,0,0
STABILIZE,0.8405046463012695,29.873109028232815,0.032384665807088216,0.03250765800476074,-10,40,10,1.7701155605602068,-1.2815121085895267,1.146364329421248,4.000344334562661,1.8152510212761488,-0.002113739594659524,0.5194942417081171,-0.0592376720711366,0.01808383353921174,0.5692108652509232,-0.010866153043389204,-0.33929243218153715,0.12276060879230499,0.8589506149291992,0.10170295748451791,-0.7414956111460924,-0.1437754835933447,12.14909702539444,0.0,0.0,0.0,0.0,0.0,0.0,0.0,0.0,0.0,0.0,0.0,0.0,0.0,0.0,0.0,0.0,False,0,4.320743799209595,0.034916015625,0,0,0,0
STABILIZE,0.8739254474639893,29.92105807574601,0.03233960469563802,0.032468318939208984,-10,40,10,1.769715994493761,-1.2820038822097677,1.1464460782478767,4.00031945107808,1.821374131028981,-0.001956664425722209,0.5195258527270866,-0.058466138882214046,0.018875590241059517,0.5660238351043815,-0.010047180511189375,-0.07728791097179055,0.07800649618729949,0.9828421287238598,0.03906724130944489,0.5390410777181387,-0.17492783954367042,10.345382988452911,0.0,0.0,0.0,0.0,0.0,0.0,0.0,0.0,0.0,0.0,0.0,0.0,0.0,0.0,0.0,0.0,False,0,4.349501609802246,0.029928955078125,0,0,0,0
STABILIZE,0.9074153900146484,29.860348559061396,0.03237107594807943,0.03251314163208008,-10,40,10,1.7703623011439735,-1.282195234228234,1.1470666649669958,4.000289612563275,1.824972182026557,-0.0017714980200535914,0.5195621872685767,-0.05745561600811715,0.0195551030846018,0.560490906388555,-0.009090929023131173,-0.07728791097179055,0.07800649618729949,0.9828421287238598,0.03906724130944489,0.5390410777181387,-0.17492783954367042,10.345382988452911,0.0,0.0,0.0,0.0,0.0,0.0,0.0,0.0,0.0,0.0,0.0,0.0,0.0,0.0,0.0,0.0,False,0,4.378115892410278,0.029928955078125,0,0,0,0
STABILIZE,0.9408779144287109,29.883964005044422,0.03232744534810384,0.03245735168457031,-10,40,10,1.7713080689006089,-1.2825878633838037,1.1468305965538073,4.0002324743678255,1.8287414187593152,-0.0014146997967744404,0.5196003253657161,-0.056488133694943335,0.018406524891296752,0.5540612923299818,-0.0072825762080459926,-0.07612034096382558,-0.02326538524357602,0.9052780456840992,0.08791203181789525,-4.073857888579369,-2.1837087348103523,8.792412281036377,0.0,0.0,0.0,0.0,0.0,0.0,0.0,0.0,0.0,0.0,0.0,0.0,0.0,0.0,0.0,0.0,False,0,4.406773328781128,0.034917236328125,0,0,0,0
STABILIZE,0.9745798110961914,29.67255028191832,0.03233078320821126,0.032547950744628906,-10,40,10,1.7706708335953878,-1.2833490025894372,1.1476439226735677,4.000168097130103,1.8355079230673554,-0.0010110352187458545,0.5196282331699217,-0.05500860962757396,0.015404935371010654,0.5527753039348472,-0.005246665004491434,-0.030636705923825502,-0.13342173770070076,1.025618240237236,0.10542599088145005,-0.25154133327305317,-0.11485251598060131,9.86468493938446,0.0,0.0,0.0,0.0,0.0,0.0,0.0,0.0,0.0,0.0,0.0,0.0,0.0,0.0,0.0,0.0,False,0,4.435365200042725,0.029928955078125,0,0,0,0
STABILIZE,1.0080320835113525,29.891418064681652,0.032167943318684895,0.03230476379394531,-10,40,10,1.7708949491775288,-1.2838150562785846,1.1484761385352513,4.000249867776551,1.8519102705608677,-0.0015127906509917154,0.5196621271632589,-0.03996173676122627,0.02079289147885082,0.5485320163550105,-0.007729469235181196,0.3077194560319185,0.1881602220237255,1.0324779897928238,-0.08028321744309347,4.64741438627243,0.07118070498108864,17.600518465042114,0.0,0.0,0.0,0.0,0.0,0.0,0.0,0.0,0.0,0.0,0.0,0.0,0.0,0.0,0.0,0.0,False,0,4.493446588516235,0.034916015625,0,0,0,0
STABILIZE,1.0414929389953613,29.887158146759965,0.0321836789449056,0.03238320350646973,-10,40,10,1.7714550246894698,-1.2838770615896438,1.1481207552549992,4.000227722763613,1.8574842562662257,-0.0013762652901983703,0.5196919959935061,-0.038569335624700274,0.020590046114014715,0.5462262423387879,-0.007023387290515156,-0.032171461498364806,0.021077202109154314,0.9348870255053043,0.03118434923360392,-5.579907074570656,-0.2226842101663351,9.115193039178848,0.0,0.0,0.0,0.0,0.0,0.0,0.0,0.0,0.0,0.0,0.0,0.0,0.0,0.0,0.0,0.0,False,0,4.525426149368286,0.034917236328125,0,0,0,0
STABILIZE,1.0749294757843018,29.906124107836774,0.0322299321492513,0.03237462043762207,-10,40,10,1.7717013383864135,-1.2832153870137988,1.1490863732489096,4.000379367613935,1.8608597584565687,-0.002315033868119869,0.5197159274879122,-0.039827971787025754,0.016504435623554664,0.5469136407624331,-0.011678151580029203,-0.17883654218167067,-0.19866807851940393,1.1014225892722607,-0.27412323903611485,2.0111780613660812,-0.12793029891327024,14.003665745258331,0.0,0.0,0.0,0.0,0.0,0.0,0.0,0.0,0.0,0.0,0.0,0.0,0.0,0.0,0.0,0.0,False,0,4.554444789886475,0.034916748046875,0,0,0,0
STABILIZE,1.1082773208618164,29.98544445874262,0.032270224889119466,0.0323944091796875,-10,40,10,1.7705627245074311,-1.2830340668356761,1.1489731415190756,4.000397145260451,1.8627013100536378,-0.0024302088337465623,0.5197499589247965,-0.04391477278683383,0.01848442251767042,0.5425442893458242,-0.012213198147620029,-0.33530276268720627,0.14754538424313068,0.809977576136589,-0.0394353811685913,-1.4091704972088337,-0.24434756487607956,7.9043857753276825,0.0,0.0,0.0,0.0,0.0,0.0,0.0,0.0,0.0,0.0,0.0,0.0,0.0,0.0,0.0,0.0,False,0,4.58278226852417,0.029927978515625,0,0,0,0
STABILIZE,1.1416640281677246,29.952254111530852,0.03236082394917806,0.03248333930969238,-10,40,10,1.771090676785932,-1.2830525296907762,1.1501698120060029,4.000445977905988,1.8687242534885673,-0.002730780013392164,0.5197771702735551,-0.04108227924861762,0.016624513496848785,0.5415855423942101,-0.013670357165109507,0.05659395828843117,-0.06775262299925089,1.145165879279375,-0.10141015981459989,-0.5656103603541851,-0.4692628048360348,0.15899259597063065,0.0,0.0,0.0,0.0,0.0,0.0,0.0,0.0,0.0,0.0,0.0,0.0,0.0,0.0,0.0,0.0,False,0,4.611536502838135,0.034917236328125,0,0,0,0
STABILIZE,1.175187587738037,29.83019216818628,0.03240850766499837,0.03254222869873047,-10,40,10,1.7722518089448343,-1.2831594648399691,1.152842763849005,4.000496232217589,1.870659964860216,-0.003045807909820097,0.5197971772394794,-0.0345972030098828,0.014403525539002806,0.5442485115115887,-0.01519461179099206,0.27683270163834095,-0.0939495803322643,1.1904716491699219,-0.09838823466379899,3.7818267941474915,-0.2479430753737688,10.84911823272705,0.0,0.0,0.0,0.0,0.0,0.0,0.0,0.0,0.0,0.0,0.0,0.0,0.0,0.0,0.0,0.0,False,0,4.640420198440552,0.029928955078125,0,0,0,0
STABILIZE,1.208658218383789,29.877577769388033,0.03234723409016927,0.032514333724975586,-10,40,10,1.7730022759798894,-1.283459352833215,1.1530556736520392,4.000542075088667,1.8790610810551103,-0.003322691566699383,0.5198223160732093,-0.028186231556624027,0.012171323588795552,0.5443390229706426,-0.016523722165458003,0.27683270163834095,-0.0939495803322643,1.1904716491699219,-0.09838823466379899,3.7818267941474915,-0.2479430753737688,10.84911823272705,0.0,0.0,0.0,0.0,0.0,0.0,0.0,0.0,0.0,0.0,0.0,0.0,0.0,0.0,0.0,0.0,False,0,4.669066905975342,0.029928955078125,0,0,0,0
STABILIZE,1.2420742511749268,29.925541174959687,0.03235939343770345,0.0325016975402832,-10,40,10,1.7739792064746127,-1.2832737637868612,1.154291190839871,4.000657844468171,1.8860760298861727,-0.0040266730979885415,0.5198484221177577,-0.02564170199115525,0.014911701540429955,0.5439379890306483,-0.019976808573077362,0.058529130183160305,0.1967952586710453,1.1480395682156086,-0.22625076330861285,1.7501790076494217,1.918729580938816,16.674916446208954,0.0,0.0,0.0,0.0,0.0,0.0,0.0,0.0,0.0,0.0,0.0,0.0,0.0,0.0,0.0,0.0,False,1,4.697633266448975,0.044892822265625,0,0,0,0
STABILIZE,1.2761168479919434,29.37907750499072,0.03240946133931478,0.03288578987121582,-10,40,10,1.774671403458311,-1.2823037702030136,1.154489479769213,4.000751202676392,1.8985759937483295,-0.004578740294397033,0.5198746982986973,-0.01682861549067014,0.017333139245385484,0.5435817767234795,-0.022660570991359364,0.09490752127021551,0.10127485729753971,0.95787663012743,0.02812757277575876,5.548139661550522,-0.0425624632043764,16.845226287841797,0.0,0.0,0.0,0.0,0.0,0.0,0.0,0.0,0.0,0.0,0.0,0.0,0.0,0.0,0.0,0.0,False,0,4.75874137878418,0.034916015625,0,0,0,0
STABILIZE,1.3093624114990234,30.074887783052013,0.032138856252034505,0.032257080078125,-10,40,10,1.7756992402066922,-1.2839620120674458,1.1552330098933923,4.000728177941305,1.9042659418582024,-0.00444140708702477,0.5199015248580949,-0.013766651808286939,0.018542469359049605,0.5428111701222885,-0.02190071102365368,0.09490752127021551,0.10127485729753971,0.95787663012743,0.02812757277575876,5.548139661550522,-0.0425624632043764,16.845226287841797,0.0,0.0,0.0,0.0,0.0,0.0,0.0,0.0,0.0,0.0,0.0,0.0,0.0,0.0,0.0,0.0,False,0,4.787363052368164,0.034916015625,0,0,0,0
STABILIZE,1.3427884578704834,29.918070089091465,0.032350810368855794,0.032488346099853516,-10,40,10,1.7762493905999956,-1.2834821912782524,1.155138988070599,4.000695725465236,1.9079601841658849,-0.004252153880678194,0.519920262903095,-0.011131742754911852,0.017008093005700668,0.5460964771982001,-0.02088455849329489,0.07455589366145432,-0.060474377823993564,1.198664028197527,0.03956616528397316,4.470705986022949,-0.031214009504765272,16.74102693796158,0.0,0.0,0.0,0.0,0.0,0.0,0.0,0.0,0.0,0.0,0.0,0.0,0.0,0.0,0.0,0.0,False,0,4.816134929656982,0.064845947265625,0,0,0,0
STABILIZE,1.3762426376342773,29.890778999579535,0.0323672612508138,0.03245830535888672,-10,40,10,1.7762044607618617,-1.2829991688378855,1.1561313932126605,4.000585811758284,1.9105423573436606,-0.0035994665367814465,0.5199158537797367,-0.01050366960882783,0.016161902919871334,0.5609179759090788,-0.017562433831168546,-0.10339849395677447,-0.04213882202748209,0.9549975395202637,0.2129010918747568,-1.2684784829616547,-0.11988839833065867,13.792258501052856,0.0,0.0,0.0,0.0,0.0,0.0,0.0,0.0,0.0,0.0,0.0,0.0,0.0,0.0,0.0,0.0,False,0,4.844735860824585,0.0349169921875,0,0,0,0
STABILIZE,1.409667730331421,29.91721648822728,0.032340319951375325,0.032466888427734375,-10,40,10,1.7770469219073004,-1.2832514589503528,1.1566426969050594,4.000435711798664,1.9141093576298958,-0.002703546342038637,0.5199466654185929,-0.011339446431948697,0.014752854978207832,0.5581415390165575,-0.013039229836329798,-0.10339849395677447,-0.04213882202748209,0.9549975395202637,0.2129010918747568,-1.2684784829616547,-0.11988839833065867,13.792258501052856,0.0,0.0,0.0,0.0,0.0,0.0,0.0,0.0,0.0,0.0,0.0,0.0,0.0,0.0,0.0,0.0,False,0,4.873493432998657,0.0349169921875,0,0,0,0
STABILIZE,1.4444003105163574,28.792004173645626,0.03236535390218099,0.033802032470703125,-10,40,10,1.7768824637586913,-1.2833610621421905,1.1570830306631137,4.00039884473343,1.915797207953105,-0.0024891211337067652,0.5199757360882434,-0.010425386856787242,0.014615406265661176,0.5567315310771151,-0.011925664687050088,-0.003210059367120266,0.026793719734996557,1.022015418857336,0.026574671905039503,-2.042485401034355,-0.04303984751459211,16.282919049263,0.0,0.0,0.0,0.0,0.0,0.0,0.0,0.0,0.0,0.0,0.0,0.0,0.0,0.0,0.0,0.0,False,1,4.90239405632019,0.029927978515625,0,0,0,0
STABILIZE,1.4777939319610596,29.94455589745054,0.03239467938741048,0.032530784606933594,-10,40,10,1.778000266905046,-1.2832055686168669,1.1574316904759017,4.000222931506342,1.9187708742892542,-0.0014396556080951,0.5200104087860922,-0.011873077673838089,0.014812766926623472,0.552033635617571,-0.006656077631892708,0.012359760876279324,0.07991695892997086,0.8881967514753342,0.07831385512588195,0.45822770334780216,-0.17067526932805777,12.493827193975449,0.0,0.0,0.0,0.0,0.0,0.0,0.0,0.0,0.0,0.0,0.0,0.0,0.0,0.0,0.0,0.0,False,0,4.960694789886475,0.0349169921875,0,0,0,0
STABILIZE,1.5114006996154785,29.757600266763156,0.032460721333821614,0.032602548599243164,-10,40,10,1.7785822203666724,-1.2825192413269864,1.157900305485988,4.000146153696381,1.9223741288039828,-0.0009825013790438653,0.5200496187725767,-0.012357367831656486,0.016729363980758236,0.5450918007699362,-0.004355722209586755,-0.07088585989549756,0.1382836140692234,0.6826969794929028,0.09667576483261663,-2.0348045974969864,-0.26730478275567293,6.562913954257965,0.0,0.0,0.0,0.0,0.0,0.0,0.0,0.0,0.0,0.0,0.0,0.0,0.0,0.0,0.0,0.0,False,0,4.990398645401001,0.029928955078125,0,0,0,0
STABILIZE,1.544832706451416,29.90974955787552,0.03230455716451009,0.032445430755615234,-10,40,10,1.7782796643307819,-1.2829324677717722,1.1579980625684838,4.0001491671651,1.9227909516258006,-0.0010032442970741118,0.5200817411706432,-0.018973915932749386,0.01362538393329751,0.5416942514764834,-0.004444559835906981,-0.41318079456686974,-0.13935622991994023,1.0165625251829624,-0.029599118356139497,-4.471156746149063,-0.12029202189296484,11.9793601334095,0.0,0.0,0.0,0.0,0.0,0.0,0.0,0.0,0.0,0.0,0.0,0.0,0.0,0.0,0.0,0.0,False,0,5.019062280654907,0.04489306640625,0,0,0,0
STABILIZE,1.5788342952728271,29.41204025104309,0.03234270413716634,0.03297567367553711,-10,40,10,1.7791194574335762,-1.2832848628442624,1.1588458597992117,4.000145519969944,1.9294978464277497,-0.0009814299963403516,0.520092594297102,-0.017075987973645863,0.012591222701099549,0.5490942111011433,-0.0043208280444049845,0.07512194570153952,-0.029909342993050814,1.1784025467932224,-0.028920271590823613,2.8548769652843475,-0.14095862861722708,9.94504690170288,0.0,0.0,0.0,0.0,0.0,0.0,0.0,0.0,0.0,0.0,0.0,0.0,0.0,0.0,0.0,0.0,False,0,5.0480546951293945,0.02493994140625,0,0,0,0
STABILIZE,1.6122016906738281,29.968733030380978,0.0322909673055013,0.032418012619018555,-10,40,10,1.778948169095797,-1.283007706574348,1.1603133899754123,4.000152896186696,1.9354436178294498,-0.001025469053161096,0.5201245116722054,-0.014961888159249424,0.011464512182533514,0.545786391201132,-0.004525882898029934,0.07512194570153952,-0.029909342993050814,1.1784025467932224,-0.028920271590823613,2.8548769652843475,-0.14095862861722708,9.94504690170288,0.0,0.0,0.0,0.0,0.0,0.0,0.0,0.0,0.0,0.0,0.0,0.0,0.0,0.0,0.0,0.0,False,0,5.076475143432617,0.02493994140625,0,0,0,0
STABILIZE,1.6488337516784668,27.299024361669584,0.032375367482503255,0.03564095497131348,-10,40,10,1.763904143840315,-1.2829724884114402,1.188196890210049,4.000051908667901,1.9431447616767235,-0.0004275203088642416,0.5201623050964636,-0.012786800336268873,0.010676988071775811,0.5407251999766585,-0.0015305425915883167,-0.1302177319303155,0.06572596030309796,1.0332785546779633,-0.02065152385267651,0.001682719448581338,-0.11311679845675826,11.854111403226852,0.0,0.0,0.0,0.0,0.0,0.0,0.0,0.0,0.0,0.0,0.0,0.0,0.0,0.0,0.0,0.0,False,0,5.133785247802734,0.034916748046875,0,0,0,0
STABILIZE,1.6901240348815918,24.218213733053098,0.032230408986409505,0.04026341438293457,-10,40,10,1.760716900097152,-1.2783932734597696,1.1892600518430438,4.000051834468359,1.947564975487699,-0.00042765084306177676,0.5202048065118267,-0.016392648285967343,0.01734904827651736,0.5351382672724317,-0.0015248862756719393,-0.24867651518434286,0.42176106944680214,0.6601090542972088,-0.021868294705877176,-5.06754070520401,11.522175371646881,5.375711619853973,0.0,0.0,0.0,0.0,0.0,0.0,0.0,0.0,0.0,0.0,0.0,0.0,0.0,0.0,0.0,0.0,False,0,5.162499189376831,0.034917236328125,0,0,0,0
STABILIZE,1.7236964702606201,29.786763818167614,0.03229215939839681,0.03243660926818848,-10,40,10,1.7738078114151277,-1.275430465463865,1.1844654724891064,4.0000531632507785,1.953356594040621,-0.0004355848618791844,0.5202415489900438,-0.02006059588341302,0.024106886321927534,0.5294421146860523,-0.0015593389484811694,-0.24867651518434286,0.42176106944680214,0.6601090542972088,-0.021868294705877176,-5.06754070520401,11.522175371646881,5.375711619853973,0.0,0.0,0.0,0.0,0.0,0.0,0.0,0.0,0.0,0.0,0.0,0.0,0.0,0.0,0.0,0.0,False,0,5.191154956817627,0.034917236328125,0,0,0,0
STABILIZE,1.7572112083435059,29.838680762061948,0.032286675771077473,0.032486915588378906,-10,40,10,1.7727142340959852,-1.2723450342280176,1.2069341268158038,4.00083562327951,1.9568540488675783,-0.005031306312619299,0.5202674142833551,-0.018556537557400794,0.04406264827091438,0.5292044721638067,-0.0244559919150433,0.05698991590179503,1.1926899664103985,0.9846629574894905,-1.3603077321757326,8.425001800060272,9.776417165994644,13.59931081533432,0.0,0.0,0.0,0.0,0.0,0.0,0.0,0.0,0.0,0.0,0.0,0.0,0.0,0.0,0.0,0.0,False,0,5.219767093658447,0.034916748046875,0,0,0,0
STABILIZE,1.7910706996917725,29.53464823642906,0.032289775212605794,0.03281736373901367,-10,40,10,1.7701297545470758,-1.2679331589110125,1.2008464005529127,4.000170775940338,1.9569649790300097,-0.0011433959076271013,0.5202838491524115,-0.026808317975944972,0.04696818051024724,0.5338083966032405,-0.004999511084664843,0.26089351158589125,0.5062888842076063,1.4474167488515377,-0.7084680951270368,-0.32316986471414566,0.38613625802099705,20.759068429470062,0.0,0.0,0.0,0.0,0.0,0.0,0.0,0.0,0.0,0.0,0.0,0.0,0.0,0.0,0.0,0.0,False,0,5.277263164520264,0.064845703125,0,0,0,0
STABILIZE,1.8244318962097168,29.973016235993597,0.0322141965230306,0.03234410285949707,-10,40,10,1.7778607816355898,-1.2769879620380395,1.194371167776329,4.000603274001088,1.9627906148125813,-0.0036761980012622714,0.5202615047906103,-0.022717772742968538,0.05869476306667014,0.5576118392084483,-0.017604646379566134,0.26089351158589125,0.5062888842076063,1.4474167488515377,-0.7084680951270368,-0.32316986471414566,0.38613625802099705,20.759068429470062,0.0,0.0,0.0,0.0,0.0,0.0,0.0,0.0,0.0,0.0,0.0,0.0,0.0,0.0,0.0,0.0,False,0,5.30598258972168,0.064845703125,0,0,0,0
STABILIZE,1.8578834533691406,29.89418766259221,0.032372506459554036,0.03252005577087402,-10,40,10,1.7753076782681803,-1.2766177444406837,1.2165847572262087,4.000810276818689,1.9759243320504931,-0.004868149492319469,0.5202570318719977,-0.011707266904327863,0.03949283608820908,0.5724675992874327,-0.02348581102270677,0.5453279241919518,-1.097706612199545,1.0127531364560127,-0.24634112442197068,1.2793146073818207,-36.91146671772003,26.05120539665222,0.0,0.0,0.0,0.0,0.0,0.0,0.0,0.0,0.0,0.0,0.0,0.0,0.0,0.0,0.0,0.0,False,0,5.3348541259765625,0.034917236328125,0,0,0,0
STABILIZE,1.8926026821136475,28.800703142166558,0.03239014943440755,0.03390145301818848,-10,40,10,1.7766162998244723,-1.2801525807795768,1.188237444458246,4.001317066439811,1.9753653605986163,-0.007832756953140079,0.5202912078163123,-0.02202612167382723,0.04890114511694204,0.5685120559267124,-0.038175957565710385,-0.5712878424674273,0.5614580120891333,0.9637315757572651,-0.7696587460449761,-0.07581338286399841,42.70996153354645,-0.45714639127254486,0.0,0.0,0.0,0.0,0.0,0.0,0.0,0.0,0.0,0.0,0.0,0.0,0.0,0.0,0.0,0.0,False,0,5.363483905792236,0.034916748046875,0,0,0,0
STABILIZE,1.9261906147003174,29.775133815115073,0.03251531918843587,0.032636404037475586,-10,40,10,1.7741292571929415,-1.2840778051182187,1.2164168839830145,4.001815040014066,1.9719714199476202,-0.010770212319920485,0.5203238672216982,-0.03230638869854712,0.05824534331418792,0.5648083071746735,-0.05268697319620548,-0.5712878424674273,0.5614580120891333,0.9637315757572651,-0.7696587460449761,-0.07581338286399841,42.70996153354645,-0.45714639127254486,0.0,0.0,0.0,0.0,0.0,0.0,0.0,0.0,0.0,0.0,0.0,0.0,0.0,0.0,0.0,0.0,False,0,5.39199686050415,0.034916748046875,0,0,0,0
STABILIZE,1.959676742553711,29.860348559061396,0.03235009511311849,0.03249549865722656,-10,40,10,1.7555440990179252,-1.2915554748772073,1.2005073456936448,4.001868414324308,1.9914863074360227,-0.011009652777922506,0.5203613186380122,-0.015833746739389348,0.05906709033653161,0.5587255166303648,-0.05370438511003848,0.8037417195737362,0.12753814226016402,0.8295183070003986,-0.08590864528685928,10.276000201702118,-27.804136276245117,0.6395300850272179,0.0,0.0,0.0,0.0,0.0,0.0,0.0,0.0,0.0,0.0,0.0,0.0,0.0,0.0,0.0,0.0,False,0,5.420962572097778,0.034916259765625,0,0,0,0
STABILIZE,1.9931132793426514,29.908469886906545,0.032347949345906575,0.03247880935668945,-10,40,10,1.7829218450888635,-1.292349697811633,1.1897588690958663,4.001720066578178,2.0079427561725027,-0.010109485575585261,0.5204017507607145,0.004321638232735195,0.059338215413179775,0.5511499918982345,-0.0490395381137412,1.123241614550352,-1.2493989430367947,1.2534326873719692,1.0508253508584022,35.31742990016937,-51.53040885925293,2.9819805175065994,0.0,0.0,0.0,0.0,0.0,0.0,0.0,0.0,0.0,0.0,0.0,0.0,0.0,0.0,0.0,0.0,False,0,5.478205919265747,0.0349169921875,0,0,0,0
STABILIZE,2.026632070541382,29.840803665442955,0.032355340321858723,0.03249549865722656,-10,40,10,1.7917861499710706,-1.253776204473986,1.225187700650957,4.0034444480508355,1.975206935145322,-0.02031609488359075,0.5204129749145221,-0.040307999276671204,0.07827410264491357,0.5581747268119488,-0.09973886177955296,-2.393558993935585,1.096146460622549,1.486072689294815,-2.728877005039419,-117.5861120223999,70.01809477806091,126.1313796043396,0.0,0.0,0.0,0.0,0.0,0.0,0.0,0.0,0.0,0.0,0.0,0.0,0.0,0.0,0.0,0.0,False,0,5.507056713104248,0.029928955078125,0,0,0,0
STABILIZE,2.060030221939087,29.934297765438885,0.032291444142659505,0.03243517875671387,-10,40,10,1.7769038080998476,-1.2576155178394737,1.2594389649044555,4.004763293473262,1.9810771227356034,-0.027946023591523098,0.5204320814537415,-0.04221549238345228,0.1245585942196629,0.5612538778807865,-0.1374286834001947,-0.16555603360757232,2.6313306763768196,1.419670321047306,-2.1615681093239183,84.75631475448608,63.42707872390747,38.35430145263672,0.0,0.0,0.0,0.0,0.0,0.0,0.0,0.0,0.0,0.0,0.0,0.0,0.0,0.0,0.0,0.0,False,0,5.535650968551636,0.0349169921875,0,0,0,0
STABILIZE,2.100929021835327,24.451165339458313,0.0323670228322347,0.03995370864868164,-10,40,10,1.7832671965287723,-1.2523183859730114,1.201440520288998,4.001883836752072,1.98750747322274,-0.011355768233477483,0.5205323193202032,-0.06074486843747951,0.12118653218372069,0.5266370675181267,-0.05425544883212775,-1.0450277477502823,-0.07913209265097976,-0.7866309024393559,4.434983127627734,14.148634672164917,-115.43833017349243,-3.387580066919327,0.0,0.0,0.0,0.0,0.0,0.0,0.0,0.0,0.0,0.0,0.0,0.0,0.0,0.0,0.0,0.0,False,0,5.564408779144287,0.034916015625,0,0,0,0
STABILIZE,2.1344223022460938,29.857797773285117,0.03235963185628255,0.032576560974121094,-10,40,10,1.7690394856008125,-1.2751935432770303,1.2781579520985216,3.999005981005269,1.9785479136106494,0.005274616204076796,0.5206265558860205,-0.07908941007900155,0.11757489673174852,0.4922675619632119,0.028799929859081475,-1.0450277477502823,-0.07913209265097976,-0.7866309024393559,4.434983127627734,14.148634672164917,-115.43833017349243,-3.387580066919327,0.0,0.0,0.0,0.0,0.0,0.0,0.0,0.0,0.0,0.0,0.0,0.0,0.0,0.0,0.0,0.0,False,1,5.593029499053955,0.034916015625,0,0,0,0
STABILIZE,2.168050765991211,29.73650291742586,0.032422812779744466,0.032572031021118164,-10,40,10,1.7241414505351453,-1.3014696011791866,1.3651702932562528,3.9977101747731,1.9974591538435398,0.012710189676485368,0.5206458840691259,-0.04671391771935257,0.08559104294810013,0.4953320946648007,0.0657576411057765,0.5673313979059458,1.1844802647829056,2.5434112176299095,-4.480011576617866,72.23742008209229,77.58501172065735,5.430363863706589,0.0,0.0,0.0,0.0,0.0,0.0,0.0,0.0,0.0,0.0,0.0,0.0,0.0,0.0,0.0,0.0,False,0,5.650459051132202,0.034916748046875,0,0,0,0
STABILIZE,2.2013885974884033,29.995094148019422,0.032219918568929036,0.03234362602233887,-10,40,10,1.7186437885835197,-1.3133831586389815,1.4113778036518585,3.995355387229556,2.1231367153687497,0.024762766995929275,0.520743272804869,0.09994705403328714,0.10410739735137776,0.4594010038983754,0.12560046144337603,8.141030371189117,1.1714702472090721,-0.9773667901754379,3.298953408029244,54.60970997810364,-35.97253859043121,-125.91780424118042,0.0,0.0,0.0,0.0,0.0,0.0,0.0,0.0,0.0,0.0,0.0,0.0,0.0,0.0,0.0,0.0,False,0,5.684964179992676,0.034917236328125,0,0,0,0
STABILIZE,2.2348525524139404,29.884176926584587,0.03236964543660482,0.03249406814575195,-10,40,10,1.740094851445591,-1.281870480077541,1.5173998419302044,4.000121108557798,2.190459527129316,-0.0009929781482883333,0.5207751077194327,0.20830941204899672,0.07718180767459176,0.45624785638640564,-0.0031676727525825066,5.999413877725601,-1.374977733939886,0.84964819252491,-7.264719828593439,28.23498845100403,36.92249357700348,-66.71168208122253,0.0,0.0,0.0,0.0,0.0,0.0,0.0,0.0,0.0,0.0,0.0,0.0,0.0,0.0,0.0,0.0,False,0,5.714011192321777,0.029895263671875,0,0,0,0
STABILIZE,2.2682290077209473,29.95995628477753,0.03233912785847982,0.03246617317199707,-10,40,10,1.7382434432936944,-1.3065535030774975,1.6119379843362318,3.9961375807641084,2.217377500644477,0.019699377594970154,0.5207904925791109,0.21964149431341634,0.1213805149067637,0.46131123589796774,0.0999599222664869,0.7713019382208586,2.691000886261463,1.3886594213545322,5.889405743924365,27.659249305725098,-29.241517186164856,-59.88487005233765,0.0,0.0,0.0,0.0,0.0,0.0,0.0,0.0,0.0,0.0,0.0,0.0,0.0,0.0,0.0,0.0,False,0,5.742323637008667,0.039905029296875,0,0,0,0
STABILIZE,2.3017797470092773,29.80666159739051,0.032424243291219075,0.03257489204406738,-10,40,10,1.7276037161141071,-1.3114002693455622,1.5704773486920793,3.991934382737467,2.2501432733441282,0.041052177571754576,0.520798242052109,0.23735415454573514,0.16773369932469523,0.4702043185755555,0.20603382272938564,0.7713019382208586,2.691000886261463,1.3886594213545322,5.889405743924365,27.659249305725098,-29.241517186164856,-59.88487005233765,0.0,0.0,0.0,0.0,0.0,0.0,0.0,0.0,0.0,0.0,0.0,0.0,0.0,0.0,0.0,0.0,False,0,5.7711501121521,0.039905029296875,0,0,0,0
STABILIZE,2.335212469100952,29.909109708703248,0.032331021626790364,0.03248453140258789,-10,40,10,1.743091596943934,-1.2944851991443198,1.5238557580780416,3.9987877860127723,2.2424872393652366,0.006063579760213322,0.5208115035078408,0.26030102961516555,0.1358939628628257,0.4763219513270359,0.03098713550593163,1.1315122246742249,-1.7225872725248337,1.2157361023128033,-9.919526420291831,-115.75514078140259,-94.20642852783203,46.523624658584595,0.0,0.0,0.0,0.0,0.0,0.0,0.0,0.0,0.0,0.0,0.0,0.0,0.0,0.0,0.0,0.0,False,0,5.799948453903198,0.029928955078125,0,0,0,0
STABILIZE,2.3732500076293945,26.289654134961328,0.03235343297322591,0.03708958625793457,-10,40,10,1.756420711109214,-1.2802325153372072,1.5333707452003984,4.005536464253382,2.1746624242028645,-0.02935034119580742,0.5208361921036566,0.2752093564650394,0.10125392253247795,0.4784668600714835,-0.14552883015351117,1.1315122246742249,-1.7225872725248337,1.2157361023128033,-9.919526420291831,-115.75514078140259,-94.20642852783203,46.523624658584595,0.0,0.0,0.0,0.0,0.0,0.0,0.0,0.0,0.0,0.0,0.0,0.0,0.0,0.0,0.0,0.0,False,1,5.828488826751709,0.029928955078125,0,0,0,0
STABILIZE,2.406703472137451,29.893548479060353,0.03240373929341634,0.0325469970703125,-10,40,10,1.6822774068431388,-1.3395124741956883,1.615728632603883,4.007089158182308,2.1661923307572812,-0.037758600955436705,0.5207576231235659,0.33861741023270164,0.09276888863964983,0.5304301715517962,-0.1869443786698712,5.677143484354019,-1.4953656122088432,1.4163991436362267,-1.2979720107156112,98.54581952095032,-104.76517677307129,36.64844632148743,0.0,0.0,0.0,0.0,0.0,0.0,0.0,0.0,0.0,0.0,0.0,0.0,0.0,0.0,0.0,0.0,False,0,5.885858058929443,0.034916748046875,0,0,0,0
STABILIZE,2.440208911895752,29.84547511634195,0.032411845525105794,0.032572031021118164,-10,40,10,1.739200310107731,-1.3087202738699784,1.6886007746323954,4.008893853804359,2.1905468223350475,-0.046878866026785614,0.5208283094669325,0.38137200507816954,0.04596409732752655,0.5077992901886638,-0.23176971855187378,2.5686344131827354,-2.292681112885475,-0.1852944027632475,-2.461476806580712,-29.438090324401855,39.71099853515625,18.434810638427734,0.0,0.0,0.0,0.0,0.0,0.0,0.0,0.0,0.0,0.0,0.0,0.0,0.0,0.0,0.0,0.0,False,0,5.9143805503845215,0.029927978515625,0,0,0,0
STABILIZE,2.4738383293151855,29.735448835197868,0.03221610387166341,0.032364845275878906,-10,40,10,1.7409970767462675,-1.2874619504085483,1.5316386519155654,4.009055240032256,2.17776759858959,-0.048150635703462265,0.5208501710975619,0.36726821929366776,0.08963401038088661,0.509580732623513,-0.23733380528656575,-0.22691392805427313,2.5808287784457207,1.2527973391115665,-0.562218056906314,-46.666303277015686,104.6678900718689,47.29654788970947,0.0,0.0,0.0,0.0,0.0,0.0,0.0,0.0,0.0,0.0,0.0,0.0,0.0,0.0,0.0,0.0,False,0,5.945492506027222,0.034917236328125,0,0,0,0
STABILIZE,2.5123708248138428,25.952281952281954,0.032227309544881184,0.037638187408447266,-10,40,10,1.7662655750241412,-1.323049050253313,1.4362557004865721,4.001973712152875,2.1724135234054227,-0.01112646960543377,0.5209261549470021,0.34439858226006054,0.12017617537277314,0.4863153960488381,-0.05201169766716773,-0.9262861683964729,1.8766412511467934,-0.2721965778619051,10.061206741792699,-67.95763969421387,-66.89954400062561,-94.00984048843384,0.0,0.0,0.0,0.0,0.0,0.0,0.0,0.0,0.0,0.0,0.0,0.0,0.0,0.0,0.0,0.0,False,0,5.9740355014801025,0.034916748046875,0,0,0,0
STABILIZE,2.5458836555480957,29.83889303880767,0.0324127991994222,0.032547950744628906,-10,40,10,1.8365149244113685,-1.2339208445567589,1.753916593004758,3.9949427079256363,2.169002038445796,0.02614155409884197,0.5209979789787599,0.3207938377941937,0.15076498458473128,0.4631721625051815,0.13388029272766327,-0.9262861683964729,1.8766412511467934,-0.2721965778619051,10.061206741792699,-67.95763969421387,-66.89954400062561,-94.00984048843384,0.0,0.0,0.0,0.0,0.0,0.0,0.0,0.0,0.0,0.0,0.0,0.0,0.0,0.0,0.0,0.0,False,0,6.002689361572266,0.034916748046875,0,0,0,0
STABILIZE,2.581047296524048,28.442515562909417,0.03237584431966146,0.03419184684753418,-10,40,10,1.8142316456876135,-1.3849809367787573,1.4661897515760933,3.9964580048595204,2.1001148394710625,0.01879128154115361,0.520968654321184,0.2546384279290438,0.09747970251877677,0.49118947971676785,0.09678908273207969,-3.2431066036224365,-2.744009532034397,2.538188174366951,-2.219307753802856,3.813391923904419,-61.49452328681946,27.45838165283203,0.0,0.0,0.0,0.0,0.0,0.0,0.0,0.0,0.0,0.0,0.0,0.0,0.0,0.0,0.0,0.0,False,1,6.035743236541748,0.034917236328125,0,0,0,0
STABILIZE,2.6144814491271973,29.90719032543282,0.03233078320821126,0.03246712684631348,-10,40,10,1.7408845920683738,-1.2493325260886579,1.3687023548307957,3.9945317924587727,1.9990257272686074,0.03097066405453553,0.5215594512103834,0.11581477792236054,0.06053847037311376,0.2089024980718705,0.15715985519595788,-3.5663023591041565,1.126739475876093,-16.260606050491333,5.369912654710596,-76.27010345458984,-99.571293592453,-576.0311126708984,0.0,0.0,0.0,0.0,0.0,0.0,0.0,0.0,0.0,0.0,0.0,0.0,0.0,0.0,0.0,0.0,False,0,6.0972676277160645,0.064845947265625,0,0,0,0
STABILIZE,2.647937297821045,29.88843599464128,0.03237417538960775,0.03250002861022949,-10,40,10,1.7770498033933566,-1.2828375921753323,1.5825947446099167,3.9940338796476844,1.9145329171915766,0.03548473334150679,0.5212425569424646,-0.03495071981677228,-0.16359116777472826,0.38021783010031485,0.17913115087035472,-7.1632444858551025,-11.33677363395691,10.47455221414566,0.23822733993567152,-421.16055488586426,-253.0961513519287,344.9089050292969,0.0,0.0,0.0,0.0,0.0,0.0,0.0,0.0,0.0,0.0,0.0,0.0,0.0,0.0,0.0,0.0,False,0,6.125779867172241,0.034915771484375,0,0,0,0
STABILIZE,2.681401014328003,29.88438985115888,0.03236988385518392,0.032500505447387695,-10,40,10,1.7822097978678897,-1.300650085200491,1.5958405091229813,3.989229903186961,1.8967771638556095,0.06533735707236223,0.52120987982316,-0.10051599016274254,-0.14125665123567513,0.409390959812927,0.3272992542883017,-3.0359407886862755,1.3168388977646828,2.3616446182131767,7.787394932186786,-87.20035552978516,160.61744689941406,8.370622992515564,0.0,0.0,0.0,0.0,0.0,0.0,0.0,0.0,0.0,0.0,0.0,0.0,0.0,0.0,0.0,0.0,False,0,6.154242992401123,0.029928955078125,0,0,0,0
STABILIZE,2.7148091793060303,29.932161539175176,0.03235510190327962,0.032479047775268555,-10,40,10,1.8139274888261363,-1.2550911226109192,1.5027246468899031,3.9991780777791055,1.91881934745183,0.004804624197220741,0.5211006461941615,-0.05907059459592934,-0.03483474744433107,0.4767446705782475,0.024553492123725984,2.332133427262306,5.6029245257377625,4.5141760259866714,-15.7004670526491,-56.1176061630249,94.54016089439392,-143.7415599822998,0.0,0.0,0.0,0.0,0.0,0.0,0.0,0.0,0.0,0.0,0.0,0.0,0.0,0.0,0.0,0.0,False,0,6.183055400848389,0.034917236328125,0,0,0,0
STABILIZE,2.7484118938446045,29.759922802934625,0.03239324887593587,0.03262138366699219,-10,40,10,1.7961233200940288,-1.3043044498498593,1.5647713659707685,3.9958313992495387,1.8911130422610791,0.025297539900990363,0.5208547532765377,-0.1671644369937822,-0.09935807872523825,0.6122907871008963,0.12659330452835124,-5.481070652604103,-3.350755199790001,8.057399839162827,5.586033500428139,60.67894697189331,-119.30593252182007,186.46700382232666,0.0,0.0,0.0,0.0,0.0,0.0,0.0,0.0,0.0,0.0,0.0,0.0,0.0,0.0,0.0,0.0,False,0,6.213364601135254,0.034970947265625,0,0,0,0
STABILIZE,2.781895399093628,29.865664096155626,0.03232744534810384,0.032462120056152344,-10,40,10,1.7906450814928554,-1.2844036264859693,1.5963066695338346,3.999974690756062,1.971845520111343,0.00012645460053369435,0.5208657833681479,-0.13906488613907297,-0.08825441765890003,0.6193246275552896,0.0007354185327069218,1.7548460513353348,0.6725563202053308,1.206720620393753,-6.6280804573774885,129.56583499908447,15.184381604194641,182.778000831604,0.0,0.0,0.0,0.0,0.0,0.0,0.0,0.0,0.0,0.0,0.0,0.0,0.0,0.0,0.0,0.0,False,0,6.242018699645996,0.029928955078125,0,0,0,0
STABILIZE,2.815361499786377,29.88886196821777,0.032306941350301106,0.03245949745178223,-10,40,10,1.80606572764804,-1.318940371302433,1.584052136224068,4.003044249979441,2.1205529024416885,-0.016504085058568735,0.5201996474372556,-0.019677627242684723,-0.17393780562838293,0.9644928323594859,-0.08214226998477431,4.166726395487785,-3.5292528569698334,11.390040814876556,-1.620424387658267,-32.67104923725128,-90.21157026290894,184.8238468170166,0.0,0.0,0.0,0.0,0.0,0.0,0.0,0.0,0.0,0.0,0.0,0.0,0.0,0.0,0.0,0.0,False,0,6.29962158203125,0.034917236328125,0,0,0,0
STABILIZE,2.848764181137085,29.929171334584453,0.03228476842244466,0.03243684768676758,-10,40,10,1.7768486329779585,-1.2982596257126922,1.5857811345794335,4.004369011131743,2.202294549384795,-0.02284392831069259,0.5198438222698571,0.05365923149203969,-0.23812571128421553,1.1542474048181923,-0.11346175236135167,4.166726395487785,-3.5292528569698334,11.390040814876556,-1.620424387658267,-32.67104923725128,-90.21157026290894,184.8238468170166,0.0,0.0,0.0,0.0,0.0,0.0,0.0,0.0,0.0,0.0,0.0,0.0,0.0,0.0,0.0,0.0,False,0,6.3286964893341064,0.034917236328125,0,0,0,0
STABILIZE,2.8823041915893555,29.81577263744544,0.032367738087972005,0.0325160026550293,-10,40,10,1.7688870870049567,-1.2651151722698533,1.5677558384729466,4.004036136866709,2.1829716091541314,-0.021373631604440967,0.51982343936875,0.045830612887251904,-0.23672216434650098,1.176253151736669,-0.10575627070829881,-0.33713632728904486,0.058250088477507234,2.222070097923279,0.5084535825243239,74.96728301048279,39.18372690677643,150.90224742889404,0.0,0.0,0.0,0.0,0.0,0.0,0.0,0.0,0.0,0.0,0.0,0.0,0.0,0.0,0.0,0.0,False,0,6.356877565383911,0.029927978515625,0,0,0,0
STABILIZE,2.915740966796875,29.907403578075197,0.03230717976888021,0.03243732452392578,-10,40,10,1.7893867258599863,-1.3079759966938584,1.5914596898223585,4.0048432537486764,2.249328950856539,-0.024931460689956324,0.5199110652643801,0.06276180212856532,-0.21080406239558797,1.1442827798672064,-0.12313375528104653,1.0625162161886692,1.2172221206128597,-0.019236397929489613,-1.0329587499284125,51.194584369659424,-0.2440805546939373,66.73092842102051,0.0,0.0,0.0,0.0,0.0,0.0,0.0,0.0,0.0,0.0,0.0,0.0,0.0,0.0,0.0,0.0,False,0,6.385472774505615,0.0349169921875,0,0,0,0
STABILIZE,2.9491591453552246,29.922552292897297,0.0323212464650472,0.032463788986206055,-10,40,10,1.784300049197325,-1.2969356362307676,1.59351386921524,4.005593726077644,2.2507397075349123,-0.028816391923169107,0.5199769242191561,0.07991824763452698,-0.18769838930081031,1.1232372284690069,-0.1420828714411189,1.0625162161886692,1.2172221206128597,-0.019236397929489613,-1.0329587499284125,51.194584369659424,-0.2440805546939373,66.73092842102051,0.0,0.0,0.0,0.0,0.0,0.0,0.0,0.0,0.0,0.0,0.0,0.0,0.0,0.0,0.0,0.0,False,0,6.414216041564941,0.0349169921875,0,0,0,0
STABILIZE,2.9826438426971436,29.86502613178394,0.03236988385518392,0.03252124786376953,-10,40,10,1.7907466805567593,-1.2901477088562443,1.561360646975699,4.007638869735145,2.166031960908267,-0.04081635233375807,0.5199857019731168,0.035868568717588034,-0.22482247826702462,1.130724030651421,-0.2014084745985589,-2.401207759976387,-2.229159139096737,1.7087478190660477,-3.3487715271748475,-136.0001564025879,-59.03775095939636,47.99509048461914,0.0,0.0,0.0,0.0,0.0,0.0,0.0,0.0,0.0,0.0,0.0,0.0,0.0,0.0,0.0,0.0,False,0,6.44282603263855,0.0349169921875,0,0,0,0
STABILIZE,3.016143798828125,29.85036046999879,0.03235748608907064,0.032485246658325195,-10,40,10,1.7840506405709138,-1.3024169697614085,1.5983726950360577,4.008089040118141,2.1360259438421223,-0.04392185445150002,0.5200217426844612,0.0374834247597768,-0.21535750529190692,1.1245958545353898,-0.21621172839453967,0.19883548375219107,0.39068632759153843,1.0301643051207066,-0.8504242922373488,-32.41337537765503,38.01531493663788,58.25510621070862,0.0,0.0,0.0,0.0,0.0,0.0,0.0,0.0,0.0,0.0,0.0,0.0,0.0,0.0,0.0,0.0,False,0,6.477628469467163,0.029928955078125,0,0,0,0
STABILIZE,3.0495193004608154,29.961454389599258,0.032301934560139973,0.03243207931518555,-10,40,10,1.7846400645519447,-1.293484042822384,1.5885656106049773,4.008013429396732,2.1362503064965703,-0.04365762647771017,0.520040106031903,0.024111193665667274,-0.2360705636252066,1.1272649602314695,-0.2141754353542363,-0.6659759674221277,-1.4978675171732903,2.1248629316687584,-0.0943168015882367,-5.6637197732925415,-26.46273374557495,45.176130533218384,0.0,0.0,0.0,0.0,0.0,0.0,0.0,0.0,0.0,0.0,0.0,0.0,0.0,0.0,0.0,0.0,False,0,6.510414123535156,0.069833984375,0,0,0,0
STABILIZE,3.0860886573791504,27.345299022707863,0.03237918217976888,0.03565669059753418,-10,40,10,1.7874520747775802,-1.2859132050142479,1.5672446415022534,4.008663860937347,2.122873113909122,-0.04758134282494179,0.5199220754271627,0.008544530004745532,-0.27750306586286777,1.1991597804830283,-0.23294177523488946,-0.6659759674221277,-1.4978675171732903,2.1248629316687584,-0.0943168015882367,-5.6637197732925415,-26.46273374557495,45.176130533218384,0.0,0.0,0.0,0.0,0.0,0.0,0.0,0.0,0.0,0.0,0.0,0.0,0.0,0.0,0.0,0.0,False,1,6.541281700134277,0.069833984375,0,0,0,0
STABILIZE,3.1196722984313965,29.7772476855796,0.032413514455159505,0.032555341720581055,-10,40,10,1.7848018546579094,-1.2917624082647177,1.6035493380966928,4.008872497165291,2.1167746185128373,-0.04899538299977275,0.519904481596332,0.004714509161131785,-0.2569665743645846,1.219713304981168,-0.23921122978535564,0.031177178607322276,0.4968813620507717,1.4315196312963963,-0.10627272756522668,22.354812920093536,7.467330247163773,61.89034581184387,0.0,0.0,0.0,0.0,0.0,0.0,0.0,0.0,0.0,0.0,0.0,0.0,0.0,0.0,0.0,0.0,False,0,6.598606586456299,0.029927978515625,0,0,0,0
STABILIZE,3.152940273284912,30.056999534200436,0.03229525883992513,0.03239846229553223,-10,40,10,1.7855831642659354,-1.2924111695141631,1.5838309021279833,4.007661733979248,2.1356279053523517,-0.042263269290018064,0.5200067729491428,-0.010094409330616755,-0.24562367538585836,1.1803531367204905,-0.2048662650603872,-0.7125698029994965,0.03331624029669911,0.6699001416563988,1.280320560744477,9.27984043955803,39.93353247642517,-52.786022424697876,0.0,0.0,0.0,0.0,0.0,0.0,0.0,0.0,0.0,0.0,0.0,0.0,0.0,0.0,0.0,0.0,False,0,6.627260446548462,0.069833984375,0,0,0,0
STABILIZE,3.1864261627197266,29.863750284802915,0.03246310551961263,0.032592058181762695,-10,40,10,1.7881064922774321,-1.2833176264079373,1.5541851063657774,4.0079987253135645,2.138249845179243,-0.04415002796613969,0.5199987725727573,-0.01165411498002087,-0.23662124465525902,1.1961384776007915,-0.21358527689495957,0.13590451562777162,0.47695585526525974,0.7771491538733244,-0.3229777145393649,14.9337038397789,-2.858544886112213,48.33837151527405,0.0,0.0,0.0,0.0,0.0,0.0,0.0,0.0,0.0,0.0,0.0,0.0,0.0,0.0,0.0,0.0,False,0,6.655855178833008,0.029928955078125,0,0,0,0
STABILIZE,3.21995210647583,29.829131433529383,0.03141978581746419,0.031551361083984375,-10,40,10,1.7853291666061757,-1.2886555259660082,1.5994227298992414,4.0079237322513395,2.1517132355661106,-0.043628581091901215,0.5201063834373015,-0.008859737352959425,-0.21516886139610042,1.1541674643067716,-0.21027475103193058,0.13590451562777162,0.47695585526525974,0.7771491538733244,-0.3229777145393649,14.9337038397789,-2.858544886112213,48.33837151527405,0.0,0.0,0.0,0.0,0.0,0.0,0.0,0.0,0.0,0.0,0.0,0.0,0.0,0.0,0.0,0.0,False,0,6.684701919555664,0.029928955078125,0,0,0,0
STABILIZE,3.2533397674560547,29.949473744341145,0.032346280415852864,0.0325469970703125,-10,40,10,1.7868706549244828,-1.2834106877353788,1.5644775611147521,4.006254327762179,2.170883497304709,-0.03461059520333414,0.5202227198973727,-0.002457010913101911,-0.21863452962013655,1.1079168996629916,-0.16463319512829147,0.3227808512747288,-0.6963555701076984,0.41175754740834236,1.7968101809924382,-1.6633322462439537,13.002091646194458,-31.615805625915527,0.0,0.0,0.0,0.0,0.0,0.0,0.0,0.0,0.0,0.0,0.0,0.0,0.0,0.0,0.0,0.0,False,0,6.713369607925415,0.0349169921875,0,0,0,0
STABILIZE,3.286879062652588,29.817044388204852,0.032490046819051106,0.032623291015625,-10,40,10,1.7846386771697695,-1.2790515329410297,1.5831403059698714,4.00587769774676,2.1646364599390466,-0.0328254606248252,0.5203850188744639,-0.023670901952189866,-0.20002872117212672,1.0387652800589973,-0.15518808313473537,-0.3024342469871044,-0.47637647949159145,0.46033086255192757,0.5975443289021488,-17.819896340370178,-19.923843443393707,-16.81673377752304,0.0,0.0,0.0,0.0,0.0,0.0,0.0,0.0,0.0,0.0,0.0,0.0,0.0,0.0,0.0,0.0,False,0,6.770832300186157,0.034916015625,0,0,0,0
STABILIZE,3.3203182220458984,29.905697642084547,0.032398494084676106,0.03250932693481445,-10,40,10,1.784545722564034,-1.2818683456434252,1.590321716273611,4.004676056006014,2.1824876917304397,-0.026373361658043395,0.5204820510782902,-0.018322386419336093,-0.19140202264432804,1.0022830205111826,-0.1225179395048364,0.28203721158206463,-0.0065841086325235665,0.3999627660959959,1.3095840793565734,4.9226827919483185,28.894448280334473,-30.436503887176514,0.0,0.0,0.0,0.0,0.0,0.0,0.0,0.0,0.0,0.0,0.0,0.0,0.0,0.0,0.0,0.0,False,0,6.7995617389678955,0.02992919921875,0,0,0,0
STABILIZE,3.353743076324463,29.916789706060673,0.032387765248616536,0.03257489204406738,-10,40,10,1.7869450399534126,-1.2830760084660482,1.5752784380700695,4.004672680051288,2.1873069851860056,-0.026383774819263753,0.5205670305494389,-0.019810451487385642,-0.1854478775435542,0.9718852603242435,-0.12216095886257544,-0.09227162227034569,-0.16116274055093527,0.8353089913725853,-0.3335522881175727,-6.310031563043594,-30.41319251060486,30.625826120376587,0.0,0.0,0.0,0.0,0.0,0.0,0.0,0.0,0.0,0.0,0.0,0.0,0.0,0.0,0.0,0.0,False,0,6.828038930892944,0.044893798828125,0,0,0,0
STABILIZE,3.3888533115386963,28.481336366414286,0.03247955640157064,0.03424715995788574,-10,40,10,1.7860337433077447,-1.2790360582936913,1.5803247739279451,4.003763338272162,2.192072285952521,-0.021662796600742225,0.5206371152258796,-0.021127975320297258,-0.1899345883745532,0.9495475934103472,-0.09821140444377348,-0.03136498271487653,-0.5969664081931114,0.6482937838882208,0.902473748807431,4.156490787863731,-3.609265014529228,-6.376799941062927,0.0,0.0,0.0,0.0,0.0,0.0,0.0,0.0,0.0,0.0,0.0,0.0,0.0,0.0,0.0,0.0,False,0,6.856901407241821,0.024940185546875,0,0,0,0
STABILIZE,3.422614336013794,29.62100014830613,0.03235438664754232,0.032765865325927734,-10,40,10,1.7861071678413223,-1.2858254797720956,1.5849552152983908,4.002910741410075,2.195740139040292,-0.017243997203271393,0.52073160734979,-0.02094964369244997,-0.19168377160584943,0.9145592724270312,-0.07586153351056943,-0.03136498271487653,-0.5969664081931114,0.6482937838882208,0.902473748807431,4.156490787863731,-3.609265014529228,-6.376799941062927,0.0,0.0,0.0,0.0,0.0,0.0,0.0,0.0,0.0,0.0,0.0,0.0,0.0,0.0,0.0,0.0,False,0,6.885554313659668,0.024940185546875,0,0,0,0
STABILIZE,3.4600777626037598,26.692699814806566,0.032269986470540364,0.036386966705322266,-10,40,10,1.7853826341807721,-1.2839113192571996,1.5815913471321594,4.002786868306734,2.21191184085764,-0.01654709845733351,0.5208801122170136,-0.020678576307361904,-0.17399249970120978,0.8540100886608581,-0.07210694885977453,-0.23627413902431726,-0.46688560396432877,0.6999311968684196,-0.3841643633933374,-15.449780225753784,-21.276988089084625,-6.998079270124435,0.0,0.0,0.0,0.0,0.0,0.0,0.0,0.0,0.0,0.0,0.0,0.0,0.0,0.0,0.0,0.0,False,0,6.943007707595825,0.034916748046875,0,0,0,0
STABILIZE,3.493698835372925,29.7434617348386,0.03240707715352376,0.03271842002868652,-10,40,10,1.7859659750245735,-1.280102208134448,1.5816098099872598,4.00285697212597,2.2128837237017973,-0.01695264596702287,0.5209633307166875,-0.0228079738535682,-0.16708002701749466,0.8247387238717135,-0.07388630092360864,-0.12626148527488112,0.003148987889289856,0.3155853133648634,-0.3924785445626677,3.9456557482481003,16.22806489467621,-0.8342038840055466,0.0,0.0,0.0,0.0,0.0,0.0,0.0,0.0,0.0,0.0,0.0,0.0,0.0,0.0,0.0,0.0,False,0,6.971794128417969,0.034917236328125,0,0,0,0
STABILIZE,3.527203321456909,29.84589986622264,0.0324285348256429,0.03257131576538086,-10,40,10,1.78526353275712,-1.2823792224490012,1.5931274299186051,4.002678818878692,2.216452251120458,-0.01605623257902435,0.521028892342985,-0.026635282513006023,-0.1738225989862427,0.8042714887589405,-0.06917266911681828,-0.2264545764774084,-0.7665061391890049,0.775300245732069,-0.005569754965170924,-5.296486988663673,-18.615630269050598,13.130590319633484,0.0,0.0,0.0,0.0,0.0,0.0,0.0,0.0,0.0,0.0,0.0,0.0,0.0,0.0,0.0,0.0,False,0,7.0002171993255615,0.034916015625,0,0,0,0
STABILIZE,3.560675621032715,29.875236833482912,0.03233173688252767,0.03245973587036133,-10,40,10,1.7865928583243338,-1.2832533799410568,1.5812355369650841,4.002510176089275,2.2199253337946585,-0.015209236681621848,0.5210929856440325,-0.030400273066515555,-0.1807131278098393,0.7845553256648025,-0.06472119333228167,-0.2264545764774084,-0.7665061391890049,0.775300245732069,-0.005569754965170924,-5.296486988663673,-18.615630269050598,13.130590319633484,0.0,0.0,0.0,0.0,0.0,0.0,0.0,0.0,0.0,0.0,0.0,0.0,0.0,0.0,0.0,0.0,False,0,7.028977632522583,0.034916015625,0,0,0,0
