Mode,Time,Freq,time2delay,actualDelay,North-Desired,East-Desired,Down-Desired,Roll-UAV,Pitch-UAV,Yaw-UAV,Roll-Control,Pitch-Control,Yaw-Control,Thrust-Control,North-Pos,East-Pos,Down-Pos,Yaw-Ang,North-Vel,East-Vel,Down-Vel,Yaw-Vel,North-Acc,East-Acc,Down-Acc,North-Avg,East-Avg,Down-Avg,Yaw-Avg,North-Dif,East-Dif,Down-Dif,Yaw-Dif,North-One,East-One,Down-One,Yaw-One,North-Two,East-Two,Down-Two,Yaw-Two,Landing-State,Q-Size,Kalman-Time,Kalman-Dt
STABILIZE,0.034357309341430664,29.114575668809263,0.0327029546101888,0.03284859657287598,-10.0,40.0,10.0,0.12595722603149764,-1.3743640480442072,-87.05539867025895,3.49987553331406,3.5001244622598247,0.00040884556696263767,0.5187132886812575,-0.016610274864476846,0.039880524319071096,0.6556771519755503,0.00203751114199457,-0.28143099043518305,-0.0700208533089608,1.1207505129277706,-0.056566212643444,-4.462355747818947,0.6961156148463488,11.584600061178207,0.0,0.0,0.0,0.0,0.0,0.0,0.0,0.0,0.0,0.0,0.0,0.0,0.0,0.0,0.0,0.0,False,0,3.4734506607055664,0.029931640625
STABILIZE,0.06772589683532715,29.969161295854352,0.032338651021321614,0.03246188163757324,-10.0,40.0,10.0,0.12560797924932784,-1.3742449466205553,-87.05371161353396,3.499900844951319,3.500099152239697,0.000327062085627344,0.518738844433716,-0.01301381063096679,0.04057728810727731,0.6553954528361361,0.0016231672388940892,0.18615610897541046,0.11985896853730083,1.3650708831846714,-0.016650133566639913,2.8477072715759277,-0.9928873740136623,22.365041077136993,0.0,0.0,0.0,0.0,0.0,0.0,0.0,0.0,0.0,0.0,0.0,0.0,0.0,0.0,0.0,0.0,False,0,3.5021419525146484,0.034921142578125
STABILIZE,0.1011495590209961,29.918710321706257,0.0324435551961263,0.03259015083312988,-10.0,40.0,10.0,0.12579356829568178,-1.3743122880169032,-87.04784448103692,3.4998193398433886,3.500180650831923,0.0005958812195577447,0.5187539339576337,-0.01442678192564837,0.04149419664755188,0.6603469267935227,0.0029573706777023196,-0.13478954788297415,0.09096497669816017,1.1328077875077724,0.10531901571161736,2.2456109523773193,0.7342900149524212,14.53198492527008,0.0,0.0,0.0,0.0,0.0,0.0,0.0,0.0,0.0,0.0,0.0,0.0,0.0,0.0,0.0,0.0,False,0,3.559535503387451,0.0249443359375
STABILIZE,0.1345663070678711,29.923406198276354,0.03249386151631673,0.032602787017822266,-10.0,40.0,10.0,0.125363746625647,-1.3751076848900925,-87.04449085815443,3.4998990389936724,3.50010095809409,0.00033605856925361037,0.518789960312165,-0.01472659329645152,0.04148521853264323,0.654834687017927,0.0016527303226581958,-0.051797437481582165,0.09558292222209275,1.2566225603222847,-0.07086095814284765,-3.2756224274635315,0.8525042794644833,21.04368805885315,0.0,0.0,0.0,0.0,0.0,0.0,0.0,0.0,0.0,0.0,0.0,0.0,0.0,0.0,0.0,0.0,False,0,3.5882415771484375,0.0349208984375
STABILIZE,0.16823196411132812,29.707648067088805,0.03251531918843587,0.03262901306152344,-10.0,40.0,10.0,0.1262135182079318,-1.376898581834811,-87.0372781783909,3.5001649748434343,3.4998350173799997,-0.0005364419484300393,0.5188120519343339,-0.014315142788068608,0.04299678623187425,0.6562903612218393,-0.0027007385829489155,0.0011689422535710037,0.156397873070091,1.263006404042244,-0.2535021241994795,8.585663884878159,6.542833894491196,11.698606610298157,0.0,0.0,0.0,0.0,0.0,0.0,0.0,0.0,0.0,0.0,0.0,0.0,0.0,0.0,0.0,0.0,False,0,3.616814136505127,0.03488330078125
STABILIZE,0.20177221298217773,29.813441376123965,0.03226474126180013,0.032605648040771484,-10.0,40.0,10.0,0.12405763302944074,-1.3752917798325655,-87.0365746689064,3.5002517139587477,2.029242793127143,-0.0014223558578460784,0.5188345178749365,-0.013888537099650494,0.04450251426578254,0.65763120989251,-0.007106397023615466,0.0011689422535710037,0.156397873070091,1.263006404042244,-0.2535021241994795,8.585663884878159,6.542833894491196,11.698606610298157,0.0,0.0,0.0,0.0,0.0,0.0,0.0,0.0,0.0,0.0,0.0,0.0,0.0,0.0,0.0,0.0,False,0,3.645489454269409,0.03488330078125
STABILIZE,0.23520922660827637,29.906337345274085,0.03238824208577474,0.03251528739929199,-10.0,40.0,10.0,0.12454759238068337,-1.3751786548244371,-87.0345939140471,3.500271384919014,2.035263746503408,-0.001533992744491462,0.5188528827674874,-0.009997424999540198,0.04649735386869156,0.6609469576947686,-0.007639023726133288,0.20609407220035791,0.18599577015265822,1.385323703289032,-0.021960338842060372,6.058719381690025,6.621821224689484,17.742614448070526,0.0,0.0,0.0,0.0,0.0,0.0,0.0,0.0,0.0,0.0,0.0,0.0,0.0,0.0,0.0,0.0,False,0,3.674168109893799,0.02993212890625
STABILIZE,0.2688260078430176,29.748102756145652,0.03240707715352376,0.03269362449645996,-10.0,40.0,10.0,0.1251318937198368,-1.3746471807296454,-87.02839893246988,3.499957155615816,2.0404046831386573,0.0002352440112446433,0.5188858340309878,-0.011553679174058603,0.048914411737433584,0.6570284922116552,0.0012031175092861585,-0.12075637932866812,0.23078708909451962,1.1467826552689075,0.5293350716426396,-2.9436053708195686,-7.1494124829769135,15.369714796543121,0.0,0.0,0.0,0.0,0.0,0.0,0.0,0.0,0.0,0.0,0.0,0.0,0.0,0.0,0.0,0.0,False,0,3.7028660774230957,0.0349208984375
STABILIZE,0.3021841049194336,29.97708641551777,0.032305272420247395,0.032427072525024414,-10.0,40.0,10.0,0.1253614521089727,-1.3746624419335722,-87.03221017802676,3.5005934256239994,2.052132863838319,-0.003329323599380597,0.5189143678194679,-0.004691211116644746,0.05110120544895454,0.6552393580173035,-0.016564425674133118,0.20894082263112068,0.07896136376075447,1.1379566043615341,-0.1994478603656531,-0.7292412221431732,-3.414546325802803,8.482538908720016,0.0,0.0,0.0,0.0,0.0,0.0,0.0,0.0,0.0,0.0,0.0,0.0,0.0,0.0,0.0,0.0,False,0,3.760328769683838,0.02993310546875
STABILIZE,0.3356959819793701,29.8405913615117,0.03242662747701009,0.03256535530090332,-10.0,40.0,10.0,0.12582707891129716,-1.3745849619751749,-87.02805742301139,3.5004762989915426,2.054565721088168,-0.002681318586724088,0.5189561221957353,-0.006894805100844625,0.04639668237224981,0.6468841788884477,-0.013279952405890975,-0.15573552809655666,-0.18992414698004723,0.8761681616306305,0.1890074359716126,-5.363897606730461,-1.6283882781863213,7.317997515201569,0.0,0.0,0.0,0.0,0.0,0.0,0.0,0.0,0.0,0.0,0.0,0.0,0.0,0.0,0.0,0.0,False,0,3.789029121398926,0.0349208984375
STABILIZE,0.3690950870513916,29.940067099721606,0.03237202962239583,0.03249073028564453,-10.0,40.0,10.0,0.12764390923052055,-1.3733398398338228,-87.02503847939825,3.500637659373582,2.0601510467623485,-0.0035830992680333015,0.5189852581096263,-0.005778749777902963,0.05201212103946466,0.6448296508947499,-0.017729568358089417,0.042435358045622706,0.41096173226833344,1.0580813512206078,-0.2639420416654175,5.189907178282738,10.455198585987091,17.9280087351799,0.0,0.0,0.0,0.0,0.0,0.0,0.0,0.0,0.0,0.0,0.0,0.0,0.0,0.0,0.0,0.0,False,0,3.8177170753479004,0.0349208984375
STABILIZE,0.4025561809539795,29.885667462324985,0.03240826924641927,0.03253340721130371,-10.0,40.0,10.0,0.12775954219873475,-1.3723140307978514,-87.02810523433558,3.50079884006107,2.062618138967497,-0.004488626998913946,0.5190146036481327,-0.0046712330973671294,0.057678807419760184,0.6426717691501342,-0.02218303568139707,0.042435358045622706,0.41096173226833344,1.0580813512206078,-0.2639420416654175,5.189907178282738,10.455198585987091,17.9280087351799,0.0,0.0,0.0,0.0,0.0,0.0,0.0,0.0,0.0,0.0,0.0,0.0,0.0,0.0,0.0,0.0,False,0,3.8465869426727295,0.0349208984375
STABILIZE,0.43595218658447266,29.966377789050277,0.03239563306172689,0.03251218795776367,-10.0,40.0,10.0,0.12841769495828895,-1.3728384612600615,-87.01629583726063,3.5006526862611063,2.0674508339811544,-0.0036807557381460226,0.5190361147009113,-0.006328627161154082,0.05510489542370183,0.6444269092150594,-0.018083225251087184,-0.12063027825206518,-0.07853098213672638,1.294885016977787,0.24185657162332838,1.5793031081557274,-3.316013887524605,16.903264820575714,0.0,0.0,0.0,0.0,0.0,0.0,0.0,0.0,0.0,0.0,0.0,0.0,0.0,0.0,0.0,0.0,False,0,3.875192642211914,0.03991015625
STABILIZE,0.46939611434936523,29.877790599934464,0.032434972127278645,0.0325472354888916,-10.0,40.0,10.0,0.12847457762747047,-1.3719962135580344,-87.02056470549188,3.5007317386733994,2.060966720997853,-0.004145016878327896,0.5190584517757137,-0.011058717002956554,0.05252492994714844,0.6457704531443809,-0.020336526347670806,-0.29578516259789467,-0.09116135770455003,1.0991279035806656,-0.12796284704824842,-8.002222329378128,2.401542291045189,11.121898889541626,0.0,0.0,0.0,0.0,0.0,0.0,0.0,0.0,0.0,0.0,0.0,0.0,0.0,0.0,0.0,0.0,False,0,3.903916597366333,0.02494287109375
STABILIZE,0.5029819011688232,29.775767944740636,0.03242686589558919,0.03257346153259277,-10.0,40.0,10.0,0.12643528591254566,-1.3686758878477618,-87.02391832837436,3.5006111450960673,2.0683149234926446,-0.0034741449451511433,0.5190867588867828,-0.01092280641697466,0.055140054126769554,0.6441441809798928,-0.016925509477595992,-0.01684525777818635,0.2779134549200535,1.4678624458611012,0.1663918125158409,2.9085004702210426,4.642116278409958,18.371710181236267,0.0,0.0,0.0,0.0,0.0,0.0,0.0,0.0,0.0,0.0,0.0,0.0,0.0,0.0,0.0,0.0,False,0,3.9415321350097656,0.0349208984375
STABILIZE,0.5363471508026123,29.969803717015242,0.0323059876759847,0.03243279457092285,-10.0,40.0,10.0,0.12499027401626482,-1.3743009755160904,-86.99891300582294,3.500560370934746,2.0716378526858716,-0.003198359524779348,0.5191061752459019,-0.011627353192437061,0.054338101324067745,0.6469457079680242,-0.015494771747483333,-0.0581886270083487,0.03437075938563794,1.3426604680716991,0.07156658872126138,-24.520906805992126,-1.268174685537815,24.571865797042847,0.0,0.0,0.0,0.0,0.0,0.0,0.0,0.0,0.0,0.0,0.0,0.0,0.0,0.0,0.0,0.0,False,0,3.970362663269043,0.03991015625
STABILIZE,0.5697181224822998,29.96680598721109,0.032393725713094075,0.03251385688781738,-10.0,40.0,10.0,0.12334932106816926,-1.3741374778628332,-87.0008801003039,3.501316120442936,2.086199281012268,-0.0073489744833824585,0.5191335570948985,-0.0008729913235046571,0.05386139597033109,0.6457633950918558,-0.03612707251632179,1.4955666847527027,0.15226553659886122,1.330442912876606,-1.170891005122235,34.717607498168945,-4.880997538566589,29.4320285320282,0.0,0.0,0.0,0.0,0.0,0.0,0.0,0.0,0.0,0.0,0.0,0.0,0.0,0.0,0.0,0.0,False,0,4.027735471725464,0.03991015625
STABILIZE,0.6032357215881348,29.835496973275195,0.032468350728352864,0.03260207176208496,-10.0,40.0,10.0,0.11730711161279384,-1.3691212375259878,-87.01006670473758,3.5008795754174193,2.0881179410859154,-0.004964925207883264,0.5191519233023296,-0.005720849633784203,0.054144331783127254,0.6490929225432512,-0.024126117069139752,-0.3167717019096017,0.08593143429607153,1.1828795075416565,0.724677147883682,-50.88093280792236,-1.3431921601295471,23.457247018814087,0.0,0.0,0.0,0.0,0.0,0.0,0.0,0.0,0.0,0.0,0.0,0.0,0.0,0.0,0.0,0.0,False,0,4.056631565093994,0.02993212890625
STABILIZE,0.6366965770721436,29.885028643087182,0.03239944775899251,0.03253436088562012,-10.0,40.0,10.0,0.11321038549296135,-1.3697639156382038,-86.99906326998469,3.5004695799099945,2.0651676905835186,-0.0027535188738209457,0.5191781600168741,-0.03572476445492402,0.04664297554456082,0.6485019888828553,-0.013025462578381133,-1.8031241372227669,-0.3380575682967901,1.337420754134655,0.6240771592284153,18.099287152290344,-11.085335165262222,21.37090116739273,0.0,0.0,0.0,0.0,0.0,0.0,0.0,0.0,0.0,0.0,0.0,0.0,0.0,0.0,0.0,0.0,False,0,4.085172414779663,0.029931884765625
STABILIZE,0.6702046394348145,29.845687489771088,0.03237322171529134,0.0325014591217041,-10.0,40.0,10.0,0.11195101600388735,-1.37252960864353,-86.99241066573309,3.5000742802682017,2.0382733264957493,-0.000567412228432944,0.5192039003390893,-0.06526710524367807,0.039269224215490596,0.6481360180853631,-0.002087949961096609,-1.8031241372227669,-0.3380575682967901,1.337420754134655,0.6240771592284153,18.099287152290344,-11.085335165262222,21.37090116739273,0.0,0.0,0.0,0.0,0.0,0.0,0.0,0.0,0.0,0.0,0.0,0.0,0.0,0.0,0.0,0.0,False,0,4.113980770111084,0.029931884765625
STABILIZE,0.7035923004150391,29.9481906720361,0.03232386906941732,0.03244972229003906,-10.0,40.0,10.0,0.1162545154286714,-1.3674238287955338,-86.99235602421973,3.5004277888401956,2.062398062529587,-0.0025342454194195525,0.5192221317873837,-0.04785686506519514,0.04256654599247909,0.6515275276169614,-0.011882372628673005,1.01363779976964,0.3008011030033231,1.5528271906077862,-0.6221635323220482,61.353594064712524,22.396333515644073,30.03537654876709,0.0,0.0,0.0,0.0,0.0,0.0,0.0,0.0,0.0,0.0,0.0,0.0,0.0,0.0,0.0,0.0,False,0,4.142448902130127,0.034921142578125
STABILIZE,0.7370271682739258,29.90889643172937,0.03239944775899251,0.03251528739929199,-10.0,40.0,10.0,0.12310930395186678,-1.3731392030269536,-86.9843237217558,3.500245255022066,2.049562228603046,-0.001533442646378436,0.5192387486430271,-0.055585590141049315,0.05028854071013943,0.6557171636384028,-0.0068554357432923175,-0.4750511609017849,0.5567779764533043,1.3948161154985428,0.2753621713185317,-49.14158284664154,-3.3672932535409927,26.76386535167694,0.0,0.0,0.0,0.0,0.0,0.0,0.0,0.0,0.0,0.0,0.0,0.0,0.0,0.0,0.0,0.0,False,0,4.171142816543579,0.0349208984375
STABILIZE,0.7706208229064941,29.768582723549827,0.03240159352620443,0.032706260681152344,-10.0,40.0,10.0,0.1229538637873961,-1.38752966455623,-86.95248821003437,3.5002322200057883,2.084050282461875,-0.0014433885213841124,0.51925997676243,-0.03262801096605911,0.029002199501659155,0.6576601340270297,-0.0063837142577304745,1.8041588366031647,-0.4514270927757025,1.4386679045856,-0.2531829462579136,55.470556020736694,4.125944525003433,6.602417677640915,0.0,0.0,0.0,0.0,0.0,0.0,0.0,0.0,0.0,0.0,0.0,0.0,0.0,0.0,0.0,0.0,False,0,4.228550672531128,0.0349208984375
STABILIZE,0.8041961193084717,29.78486010509871,0.032438071568806966,0.03256726264953613,-10.0,40.0,10.0,0.11085114210410374,-1.4015964391518712,-86.91391130160214,3.501825449186527,2.162479169924876,-0.009865595999014664,0.5192891670872376,0.01213916871316241,0.051781135840865994,0.6555719629836834,-0.04833302406021574,2.6481017470359802,1.4673379249870777,1.01995337754488,-2.551044278818263,2.113819867372513,56.53576850891113,4.315373674035072,0.0,0.0,0.0,0.0,0.0,0.0,0.0,0.0,0.0,0.0,0.0,0.0,0.0,0.0,0.0,0.0,False,0,4.258599519729614,0.0349208984375
STABILIZE,0.8375272750854492,30.001745325531825,0.03230145772298177,0.03242182731628418,-10.0,40.0,10.0,0.1057099306497882,-1.4099113406927155,-86.88829126202542,3.5035618726596995,2.2413191091798614,-0.018447984817753966,0.5193187870058611,0.05760863004636527,0.07498951012551894,0.653264061660794,-0.09094086520880558,2.6481017470359802,1.4673379249870777,1.01995337754488,-2.551044278818263,2.113819867372513,56.53576850891113,4.315373674035072,0.0,0.0,0.0,0.0,0.0,0.0,0.0,0.0,0.0,0.0,0.0,0.0,0.0,0.0,0.0,0.0,False,0,4.28604531288147,0.0349208984375
STABILIZE,0.8709962368011475,29.87736494187372,0.032414944966634114,0.03255152702331543,-10.0,40.0,10.0,0.08726607201322659,-1.4143389041004706,-86.85908537313445,3.50358270280587,2.2226715995591677,-0.018769041982938127,0.5193367748490934,0.05031623642897548,0.07444847951011546,0.6567752535565919,-0.09223752079759298,-0.5237970966845751,0.034210094599984586,1.3780783861875534,-0.06341851988697995,-48.01424741744995,-47.2094863653183,14.657384157180786,0.0,0.0,0.0,0.0,0.0,0.0,0.0,0.0,0.0,0.0,0.0,0.0,0.0,0.0,0.0,0.0,False,0,4.314792156219482,0.02993212890625
STABILIZE,0.9044969081878662,29.85078535894498,0.03241089185078939,0.0325319766998291,-10.0,40.0,10.0,0.11040018953632423,-1.425737422608164,-86.86780752470455,3.504869383187291,2.263103104729436,-0.025018903883024014,0.5193669624806906,0.07795957120574205,0.07837962444487051,0.6541823565775344,-0.12307526814410871,1.6576997935771942,0.3493242198601365,1.2083787471055984,-1.9325849501821828,22.987888753414154,31.1545193195343,19.457626342773438,0.0,0.0,0.0,0.0,0.0,0.0,0.0,0.0,0.0,0.0,0.0,0.0,0.0,0.0,0.0,0.0,False,0,4.343456268310547,0.0349208984375
STABILIZE,0.9378955364227295,29.940922005054038,0.03234914143880208,0.03248023986816406,-10.0,40.0,10.0,0.09645294325115819,-1.4338332244870389,-86.86075193929193,3.504101904425037,2.28627453109687,-0.02100371668539095,0.5193927736682084,0.11200662686875974,0.06628481478000985,0.6537818717564636,-0.10265595159276625,1.9737618044018745,-0.647454708814621,1.1374582536518574,1.2215510518047483,36.08243763446808,-45.46534717082977,22.287899255752563,0.0,0.0,0.0,0.0,0.0,0.0,0.0,0.0,0.0,0.0,0.0,0.0,0.0,0.0,0.0,0.0,False,0,4.372217416763306,0.034922119140625
STABILIZE,0.9713985919952393,29.847598986649967,0.032404216130574544,0.0326533317565918,-10.0,40.0,10.0,0.07639764021814957,-1.4257082875824856,-86.83630669225245,3.504474376826846,2.2844561051274312,-0.02295823576415669,0.5193673317012776,0.14289100500944998,0.05817635049406956,0.679014293755339,-0.11205253033182519,0.8092029951512814,0.5959721282124519,1.7460254952311516,-1.1704443747835396,-30.162760615348816,-12.42312639951706,39.29985761642456,0.0,0.0,0.0,0.0,0.0,0.0,0.0,0.0,0.0,0.0,0.0,0.0,0.0,0.0,0.0,0.0,False,0,4.429963827133179,0.034921142578125
STABILIZE,1.0049049854278564,29.844838014188433,0.032479079564412434,0.03261232376098633,-10.0,40.0,10.0,0.08039933065898369,-1.4152888340036311,-86.85563612760359,3.5039540887292233,2.2359011290411774,-0.020852456116129316,0.5193610171430689,0.13056626028964263,0.060543892408546275,0.6946285078050517,-0.10118499571641107,-0.7605948951095343,0.2401381265372038,2.087155729532242,0.5894281431774696,-6.332030147314072,13.17676305770874,41.13967716693878,0.0,0.0,0.0,0.0,0.0,0.0,0.0,0.0,0.0,0.0,0.0,0.0,0.0,0.0,0.0,0.0,False,0,4.45857572555542,0.0349208984375
STABILIZE,1.0383872985839844,29.86779084092317,0.03240564664204915,0.03253507614135742,-10.0,40.0,10.0,0.0892944781141617,-1.4186411762256381,-86.87842846886392,3.503812952127619,2.2258930033019437,-0.020284172103872993,0.5193814399214228,0.11067729067671614,0.059680266556535716,0.696865912546812,-0.0980156815795101,-1.1647017672657967,0.04690603236667812,1.2922491878271103,0.10263906692677989,-11.505846679210663,-24.760785698890686,1.6249319538474083,0.0,0.0,0.0,0.0,0.0,0.0,0.0,0.0,0.0,0.0,0.0,0.0,0.0,0.0,0.0,0.0,False,0,4.48729395866394,0.02993310546875
STABILIZE,1.0718104839324951,29.918710321706257,0.03239134152730306,0.03251528739929199,-10.0,40.0,10.0,0.07360868188096296,-1.3986222119334482,-86.88529280897978,3.5035795982475704,2.182837448732179,-0.019510805184820207,0.5194097806857951,0.08919402293282393,0.058472212505470245,0.6951405101646296,-0.09383509269414707,-1.1647017672657967,0.04690603236667812,1.2922491878271103,0.10263906692677989,-11.505846679210663,-24.760785698890686,1.6249319538474083,0.0,0.0,0.0,0.0,0.0,0.0,0.0,0.0,0.0,0.0,0.0,0.0,0.0,0.0,0.0,0.0,False,0,4.516196250915527,0.02993310546875
STABILIZE,1.1052906513214111,29.868216226224302,0.032413514455159505,0.03253960609436035,-10.0,40.0,10.0,0.08214524440471531,-1.4001975310324881,-86.86088171288615,3.5025198298921327,2.157308811970529,-0.014160644258211076,0.5194399406057753,0.08764050649241688,0.03504469825436774,0.6925148113757605,-0.06686062408004409,0.033356042695231736,-1.3041893020272255,1.2287327088415623,1.4878090078464763,50.41908025741577,9.2489555478096,18.2526633143425,0.0,0.0,0.0,0.0,0.0,0.0,0.0,0.0,0.0,0.0,0.0,0.0,0.0,0.0,0.0,0.0,False,0,4.544932126998901,0.0349208984375
STABILIZE,1.1388063430786133,29.840803665442955,0.03237918217976888,0.032515525817871094,-10.0,40.0,10.0,0.11779040085742513,-1.4826107002795677,-86.97043111698399,3.5026592893602877,2.077163733248185,-0.015492312829342339,0.5194847439144101,0.03552749773354063,0.05200817065594924,0.6825757415969562,-0.07327394676416504,-3.0605748295783997,1.139052677899599,0.5604259669780731,-0.5147968539117088,-182.86783695220947,27.403947710990906,-9.46778655052185,0.0,0.0,0.0,0.0,0.0,0.0,0.0,0.0,0.0,0.0,0.0,0.0,0.0,0.0,0.0,0.0,False,0,4.573416471481323,0.0349208984375
STABILIZE,1.1725480556488037,29.632928741998843,0.032295974095662434,0.03268265724182129,-10.0,40.0,10.0,0.10161709987221673,-1.4445028337442452,-86.87824405375633,3.5088837055340596,2.1380300173667415,-0.0484501185452714,0.5192537710577046,0.08574577940007425,-0.05381129293078217,0.8104478419261946,-0.2372635163400331,6.380037218332291,-4.39525805413723,4.420581832528114,-5.671055695216459,308.8968753814697,-61.50144338607788,473.5154151916504,0.0,0.0,0.0,0.0,0.0,0.0,0.0,0.0,0.0,0.0,0.0,0.0,0.0,0.0,0.0,0.0,False,0,4.630796909332275,0.0349208984375
STABILIZE,1.213806390762329,24.237806851278258,0.03228166898091634,0.040297508239746094,-10.0,40.0,10.0,0.11749152672038418,-1.3697211202341852,-87.00740293096128,3.5069494641195806,2.1717683965842163,-0.03772269492557959,0.5192129215172644,0.09256671662636767,0.054446840468595395,0.8460095174708161,-0.18287041859036612,0.483541376888752,6.683794409036636,3.2656479626893997,3.2425097919453165,50.63731074333191,117.35560894012451,221.0383176803589,0.0,0.0,0.0,0.0,0.0,0.0,0.0,0.0,0.0,0.0,0.0,0.0,0.0,0.0,0.0,0.0,False,0,4.659647464752197,0.0349208984375
STABILIZE,1.247243881225586,29.90655058575228,0.03236416180928548,0.032505035400390625,-10.0,40.0,10.0,0.11085845254094977,-1.4163687509444336,-86.94718115304927,3.5098880536382904,2.046104391519485,-0.05648349000996386,0.5191225600374442,-0.038975419155451746,-0.048002178963308204,0.9033648111805268,-0.2757517576365873,-7.812096923589706,-6.088092178106308,4.591280221939087,-5.693872369025709,-24.207022786140442,-293.37759017944336,295.3535556793213,0.0,0.0,0.0,0.0,0.0,0.0,0.0,0.0,0.0,0.0,0.0,0.0,0.0,0.0,0.0,0.0,False,0,4.6882688999176025,0.03492138671875
STABILIZE,1.2807142734527588,29.876513662136365,0.03238657315572103,0.032521724700927734,-10.0,40.0,10.0,0.10318980428946506,-1.3605017522368432,-86.93865024677592,3.5142046484793115,2.1240010626032193,-0.07780474533212602,0.5191273528640445,0.03212152289132228,-0.031820521359112536,0.9131381906704321,-0.3810821013931048,4.412394389510155,1.089219655841589,1.7559051513671875,-6.384196173344312,147.33980894088745,167.47138500213623,235.36765575408936,0.0,0.0,0.0,0.0,0.0,0.0,0.0,0.0,0.0,0.0,0.0,0.0,0.0,0.0,0.0,0.0,False,0,4.717142343521118,0.0299326171875
STABILIZE,1.314842700958252,29.302723963755003,0.03237417538960775,0.03319716453552246,-10.0,40.0,10.0,0.11502316038736504,-1.3619564758083502,-87.02257278110787,3.518992467493761,2.247086368978821,-0.09813831187392634,0.5191470332307516,0.10373709876435343,-0.014412044200421355,0.9156936131054073,-0.4811087426721864,4.412394389510155,1.089219655841589,1.7559051513671875,-6.384196173344312,147.33980894088745,167.47138500213623,235.36765575408936,0.0,0.0,0.0,0.0,0.0,0.0,0.0,0.0,0.0,0.0,0.0,0.0,0.0,0.0,0.0,0.0,False,0,4.745607137680054,0.0299326171875
STABILIZE,1.3483412265777588,29.851635173125512,0.03237322171529134,0.03259706497192383,-10.0,40.0,10.0,0.09498258494975427,-1.3949380719281665,-86.84310956066578,3.5145500486453365,2.072179664447808,-0.08217364844996165,0.5190208961093355,-0.024309213209031608,-0.0690421788328776,0.9908427627502597,-0.39994468766702823,-6.915554404258728,-5.770613998174667,4.251871258020401,6.435270193523553,-112.34042644500732,-130.75995445251465,150.24545192718506,0.0,0.0,0.0,0.0,0.0,0.0,0.0,0.0,0.0,0.0,0.0,0.0,0.0,0.0,0.0,0.0,False,0,4.802926778793335,0.0349208984375
STABILIZE,1.3818225860595703,29.866514757717095,0.032445462544759114,0.032575130462646484,-10.0,40.0,10.0,0.10366914483098244,-1.3668135940818755,-86.96681794691305,3.5189237858506606,2.1712634542256084,-0.10169536046857809,0.5189496979834165,0.07135418130226173,0.016281100713830057,1.038440812781483,-0.49589331966965766,5.90495727956295,5.224324017763138,4.140198975801468,-6.053166786351413,194.29707527160645,171.63437604904175,156.624174118042,0.0,0.0,0.0,0.0,0.0,0.0,0.0,0.0,0.0,0.0,0.0,0.0,0.0,0.0,0.0,0.0,False,0,4.831712961196899,0.0349208984375
STABILIZE,1.4153010845184326,29.87013061003575,0.032412322362264,0.03254961967468262,-10.0,40.0,10.0,0.10819713336387778,-1.3673928795008572,-86.9947124394834,3.516727499019334,2.3379347123893384,-0.08434190340241793,0.5189271510897355,0.10623192631283701,-0.025204540855832118,1.0616760838500432,-0.4077618034535128,2.1573899313807487,-2.467668429017067,2.7135564014315605,4.9880004928352175,14.715096354484558,-185.67607402801514,124.22444820404053,0.0,0.0,0.0,0.0,0.0,0.0,0.0,0.0,0.0,0.0,0.0,0.0,0.0,0.0,0.0,0.0,False,0,4.860520601272583,0.02993310546875
STABILIZE,1.4487769603729248,29.874172892969323,0.03239491780598958,0.03251791000366211,-10.0,40.0,10.0,0.09499453778080179,-1.3839650528614238,-86.86432412822785,3.5152945572736694,2.204079248125223,-0.08213705436419115,0.5189974126709606,0.03695544351308874,-0.014845921569112693,1.0385424349808776,-0.39541415755966614,-4.059681668877602,0.6360889878123999,0.431946711614728,0.12908049011204464,-28.10646891593933,205.35829067230225,-88.97644281387329,0.0,0.0,0.0,0.0,0.0,0.0,0.0,0.0,0.0,0.0,0.0,0.0,0.0,0.0,0.0,0.0,False,0,4.8890769481658936,0.0349208984375
STABILIZE,1.4821863174438477,29.92874421126992,0.03234580357869466,0.03248023986816406,-10.0,40.0,10.0,0.10380766960508676,-1.3696091691648207,-86.9881281371235,3.514025374413031,2.070505928879373,-0.08049465809523004,0.5190544065357969,-0.03244594069860588,-0.004713448878918208,1.0220481156965746,-0.3859123617778654,-4.059681668877602,0.6360889878123999,0.431946711614728,0.12908049011204464,-28.10646891593933,205.35829067230225,-88.97644281387329,0.0,0.0,0.0,0.0,0.0,0.0,0.0,0.0,0.0,0.0,0.0,0.0,0.0,0.0,0.0,0.0,False,0,4.918025732040405,0.0349208984375
STABILIZE,1.5157015323638916,29.838256217631326,0.03237655957539876,0.03266453742980957,-10.0,40.0,10.0,0.09863316097856742,-1.3780646231921792,-86.8429456361257,3.5172107462990296,2.2127787495913855,-0.09219439703795385,0.5190324054344548,-0.008523607015691922,0.0699984147058769,1.045079671379498,-0.44292337899213585,1.5752602368593216,4.480680450797081,2.875986136496067,-3.8933235132363353,136.77239418029785,67.20947027206421,114.36824798583984,0.0,0.0,0.0,0.0,0.0,0.0,0.0,0.0,0.0,0.0,0.0,0.0,0.0,0.0,0.0,0.0,False,1,4.946959018707275,0.02993212890625
STABILIZE,1.5492427349090576,29.81174614230985,0.03250625928243001,0.032637834548950195,-10.0,40.0,10.0,0.0971702198357153,-1.3788448655831471,-86.89723197964896,3.5139382794219336,2.109030385393498,-0.07918190872434763,0.519131064492153,-0.033237225579337254,0.06457392718749111,1.007791710515768,-0.3766001635611088,-3.2141461968421936,3.417302295565605,1.0112161748111248,-3.289702343685285,-80.23609519004822,149.65667724609375,-45.925116539001465,0.0,0.0,0.0,0.0,0.0,0.0,0.0,0.0,0.0,0.0,0.0,0.0,0.0,0.0,0.0,0.0,False,0,5.003938436508179,0.0349208984375
STABILIZE,1.582916021347046,29.699023557818265,0.03241422971089681,0.0325772762298584,-10.0,40.0,10.0,0.1014999194392687,-1.3715792518535461,-86.96923583387924,3.512763861068036,2.07517193374158,-0.07421640679299726,0.519281958087414,-0.041617772154930795,0.06870138559513458,0.9444771386243309,-0.3505983599096074,-0.3956370521336794,0.2314962213858962,-2.1715721115469933,1.0057669130689455,84.31050181388855,-157.83714056015015,-59.109944105148315,0.0,0.0,0.0,0.0,0.0,0.0,0.0,0.0,0.0,0.0,0.0,0.0,0.0,0.0,0.0,0.0,False,0,5.032673120498657,0.02993212890625
STABILIZE,1.6162540912628174,29.996381242535417,0.032212050755818684,0.032358646392822266,-10.0,40.0,10.0,0.094344976118563,-1.3791619357710239,-86.85495993887575,3.5112070703755944,2.1845031941590936,-0.0628408223013435,0.5193608628453551,-0.006364674235007778,0.025345949183411758,0.9171739888052681,-0.29274150654349834,2.1594401448965073,-2.5623369961977005,0.3093724837526679,2.793760387059955,4.158657044172287,83.51937532424927,-22.323806583881378,0.0,0.0,0.0,0.0,0.0,0.0,0.0,0.0,0.0,0.0,0.0,0.0,0.0,0.0,0.0,0.0,False,0,5.061328411102295,0.034921875
STABILIZE,1.6510858535766602,28.709821825823276,0.03234270413716634,0.033855438232421875,-10.0,40.0,10.0,0.10187259163585753,-1.3771892917613595,-86.91589205646144,3.5127897983699095,2.2132140520200227,-0.0704421531259082,0.5194194881443013,-0.04078699977825899,0.08299473876028225,0.9005409092072906,-0.32959996445530665,-2.010253816843033,3.4931037575006485,0.6806209217756987,-2.8244221734612,-104.86929416656494,48.105427622795105,-31.90561532974243,0.0,0.0,0.0,0.0,0.0,0.0,0.0,0.0,0.0,0.0,0.0,0.0,0.0,0.0,0.0,0.0,False,0,5.090681552886963,0.034921142578125
STABILIZE,1.6845755577087402,29.859710821758846,0.032341988881429036,0.03247833251953125,-10.0,40.0,10.0,0.09469160821894115,-1.3730463551429237,-86.87496556295473,3.510221268497524,2.1719899818774935,-0.05842474063037298,0.519474909498064,-0.06684662827067306,0.02811516334092455,0.885028023403558,-0.2686142430389435,-1.489594206213951,-3.2740306109189987,0.7678231690078974,3.057442828176059,26.619291305541992,-112.23911046981812,-32.612088322639465,0.0,0.0,0.0,0.0,0.0,0.0,0.0,0.0,0.0,0.0,0.0,0.0,0.0,0.0,0.0,0.0,False,0,5.119293212890625,0.0349208984375
STABILIZE,1.7182338237762451,29.71017326136541,0.0323055108388265,0.03272819519042969,-10.0,40.0,10.0,0.0980084654737757,-1.3756476967213467,-86.88476005422451,3.5078678550146307,2.1744893384910924,-0.04618327488601563,0.5195310085660463,-0.09296478406701159,-0.027845270482680373,0.8692988614473302,-0.20670961317377917,-1.489594206213951,-3.2740306109189987,0.7678231690078974,3.057442828176059,26.619291305541992,-112.23911046981812,-32.612088322639465,0.0,0.0,0.0,0.0,0.0,0.0,0.0,0.0,0.0,0.0,0.0,0.0,0.0,0.0,0.0,0.0,False,1,5.148032903671265,0.0349208984375
STABILIZE,1.7526097297668457,29.09054591104237,0.03240516980489095,0.03323197364807129,-10.0,40.0,10.0,0.10163636314011029,-1.37425241713996,-86.91878122648035,3.508410659515338,2.2374509461995844,-0.04793728614142261,0.5195942477157058,-0.045819514591224866,-0.006176773264588601,0.8501766816130916,-0.21474638469219853,2.844420075416565,1.3652494177222252,0.5746784619987011,-1.1167649576010574,65.49233198165894,123.32026958465576,-17.722497880458832,0.0,0.0,0.0,0.0,0.0,0.0,0.0,0.0,0.0,0.0,0.0,0.0,0.0,0.0,0.0,0.0,False,1,5.177085638046265,0.029907958984375
STABILIZE,1.7859902381896973,29.95653260768643,0.031880887349446614,0.03202080726623535,-10.0,40.0,10.0,0.09643821565576034,-1.3723202206567868,-86.86960386445627,3.5062255288745785,2.1541672165472683,-0.03813801079402809,0.519692119015706,-0.10024477261603791,-0.033340350583003574,0.8135414082451154,-0.16519702401869563,-2.3014353588223457,-2.1181829273700714,0.869614165276289,2.508629230959307,-22.40869402885437,-29.391586780548096,-5.590563267469406,0.0,0.0,0.0,0.0,0.0,0.0,0.0,0.0,0.0,0.0,0.0,0.0,0.0,0.0,0.0,0.0,False,0,5.2404701709747314,0.02993212890625
STABILIZE,1.8194608688354492,29.87715211739146,0.03225520451863607,0.03239321708679199,-10.0,40.0,10.0,0.10039577667125384,-1.3768455411470375,-86.9059677915974,3.507838231647762,2.2347819494510404,-0.045314378085173856,0.5197427320861199,-0.05635293530568608,0.013287133358519693,0.8005458072069749,-0.20040838200200878,2.569681778550148,2.8214097023010254,1.0726289823651314,-2.6752352606190772,87.85008192062378,94.58826184272766,2.468859776854515,0.0,0.0,0.0,0.0,0.0,0.0,0.0,0.0,0.0,0.0,0.0,0.0,0.0,0.0,0.0,0.0,False,0,5.269127130508423,0.0349208984375
STABILIZE,1.852949619293213,29.861198917841378,0.03223875363667806,0.03240633010864258,-10.0,40.0,10.0,0.09550722885537588,-1.3712689051331337,-86.85566344836026,3.506682992793871,2.2595843994261946,-0.039160384364503045,0.51978429287428,-0.06134931091145568,-0.017551825789498265,0.7920984527987731,-0.16907227596868546,-0.3280934412032366,-1.8224973231554031,1.1445395648479462,1.335264309975352,-53.33970785140991,-93.692946434021,7.071245461702347,0.0,0.0,0.0,0.0,0.0,0.0,0.0,0.0,0.0,0.0,0.0,0.0,0.0,0.0,0.0,0.0,False,0,5.2978880405426025,0.0349208984375
STABILIZE,1.8863742351531982,29.92105807574601,0.03223565419514974,0.03242230415344238,-10.0,40.0,10.0,0.09632082177940075,-1.372045198820988,-86.87978084631958,3.507084189585455,2.2626422192765037,-0.04125712778717776,0.5198188141709871,-0.08375363259595213,-0.010540220798759806,0.7871813837395717,-0.17895656617027988,-1.3707290403544903,0.45817187055945396,1.3440634123981,-1.1260580702970944,28.46195697784424,93.06511878967285,25.53967833518982,0.0,0.0,0.0,0.0,0.0,0.0,0.0,0.0,0.0,0.0,0.0,0.0,0.0,0.0,0.0,0.0,False,0,5.327850341796875,0.03492138671875
STABILIZE,1.9198081493377686,29.908256619057465,0.03230336507161458,0.032423973083496094,-10.0,40.0,10.0,0.09959333616548312,-1.3748711895900807,-86.91467628278917,3.5074954405917245,2.250887769165647,-0.043653570219041336,0.5198757128876127,-0.06062586064510951,0.025634736066965074,0.7710762355244548,-0.19030242754599677,1.3384155929088593,2.173834480345249,0.6660692393779755,-1.1778148959499237,64.83961343765259,26.45672857761383,11.506664752960205,0.0,0.0,0.0,0.0,0.0,0.0,0.0,0.0,0.0,0.0,0.0,0.0,0.0,0.0,0.0,0.0,False,0,5.357128143310547,0.0299326171875
STABILIZE,1.9532675743103027,29.886306308874037,0.032328160603841145,0.03244447708129883,-10.0,40.0,10.0,0.09267691585719895,-1.3734835939715104,-86.83978325853998,3.5082234371775103,2.3301373732275747,-0.046062421526997875,0.5199374137334115,-0.036769949238465924,0.061545905933532485,0.7525958877099128,-0.20167225133113856,1.3384155929088593,2.173834480345249,0.6660692393779755,-1.1778148959499237,64.83961343765259,26.45672857761383,11.506664752960205,0.0,0.0,0.0,0.0,0.0,0.0,0.0,0.0,0.0,0.0,0.0,0.0,0.0,0.0,0.0,0.0,False,0,5.385725259780884,0.0299326171875
STABILIZE,1.9867384433746338,29.87630084978168,0.03230861028035482,0.03242635726928711,-10.0,40.0,10.0,0.09697219771063784,-1.3717409352378052,-86.8896163187244,3.5078234735480085,2.2758426360094925,-0.04514780429196093,0.520012617584045,-0.05522383958506934,0.06596257746251435,0.7273975679260903,-0.19644223200970096,-1.5016118995845318,1.962558552622795,0.9640746749937534,-2.3364399485398737,-16.509635746479034,59.6410870552063,13.061389327049255,0.0,0.0,0.0,0.0,0.0,0.0,0.0,0.0,0.0,0.0,0.0,0.0,0.0,0.0,0.0,0.0,False,0,5.443617105484009,0.034921142578125
STABILIZE,2.022268772125244,28.144591248565696,0.03227380116780599,0.034509897232055664,-10.0,40.0,10.0,0.09240002639154898,-1.3796250012524096,-86.84374476825859,3.5065708614906863,2.294801922306393,-0.03871610102345673,0.5200535331230973,-0.04835317563944744,0.05785328230242433,0.7201358088923189,-0.16370175400830478,0.3492323914542794,-0.48652607947587967,1.109650544822216,1.5326024556404778,52.33203172683716,-83.3073616027832,8.597350120544434,0.0,0.0,0.0,0.0,0.0,0.0,0.0,0.0,0.0,0.0,0.0,0.0,0.0,0.0,0.0,0.0,False,0,5.473299503326416,0.029931884765625
STABILIZE,2.0556461811065674,29.963380744529616,0.032294305165608723,0.03241753578186035,-10.0,40.0,10.0,0.09294537430809219,-1.3768619762897278,-86.84368329655607,3.5065067843399227,2.3345274797593203,-0.03795468966655958,0.5201056412698235,-0.03523278126783423,0.04718445504881125,0.7065111529097013,-0.15936185776029174,0.7038737647235394,-0.5867550149559975,0.8481061086058617,-0.18576152197069626,-15.406392514705658,61.68658137321472,14.045649766921997,0.0,0.0,0.0,0.0,0.0,0.0,0.0,0.0,0.0,0.0,0.0,0.0,0.0,0.0,0.0,0.0,False,0,5.502568960189819,0.034922119140625
STABILIZE,2.0897724628448486,29.298425515863592,0.032358439763387044,0.03319978713989258,-10.0,40.0,10.0,0.09605727252697346,-1.3768879096642328,-86.8814610728554,3.506986207734601,2.286335526665508,-0.041135003451471606,0.520141466497439,-0.06453096635067972,0.07695849625222269,0.7013013169088566,-0.1746669037347134,-1.8416140228509903,1.8222900107502937,1.1861741542816162,-1.3468766987814313,-46.80910110473633,-0.9425654076039791,12.626169621944427,0.0,0.0,0.0,0.0,0.0,0.0,0.0,0.0,0.0,0.0,0.0,0.0,0.0,0.0,0.0,0.0,False,0,5.531148433685303,0.0349208984375
STABILIZE,2.1233863830566406,29.75190103279991,0.03241399129231771,0.032553672790527344,-10.0,40.0,10.0,0.09176561921153116,-1.380462766642794,-86.83334239015267,3.504786366102612,2.2697028775571617,-0.03040838677112937,0.5201779992797113,-0.06775189548823722,0.04749937769933308,0.695501340426296,-0.12062976292507219,-0.253496365621686,-1.7418762668967247,1.1340818367898464,2.832721493633,38.39117884635925,-46.03441059589386,10.112232714891434,0.0,0.0,0.0,0.0,0.0,0.0,0.0,0.0,0.0,0.0,0.0,0.0,0.0,0.0,0.0,0.0,False,0,5.560020923614502,0.02993212890625
STABILIZE,2.1567633152008057,29.95888630162426,0.03223589261372884,0.032379865646362305,-10.0,40.0,10.0,0.09557222237419678,-1.378495351996713,-86.85436571241796,3.5058922472096503,2.3146318029874737,-0.03549494296822685,0.5202263375557166,-0.045033170474448374,0.06745297678279223,0.6838084197189583,-0.14557515931120113,1.2720207683742046,1.2808476574718952,0.9005214087665081,-1.9101253672004768,16.97361469268799,63.915759325027466,15.12708067893982,0.0,0.0,0.0,0.0,0.0,0.0,0.0,0.0,0.0,0.0,0.0,0.0,0.0,0.0,0.0,0.0,False,0,5.5885841846466064,0.0349208984375
STABILIZE,2.190237283706665,29.876726477522848,0.03233936627705892,0.03245949745178223,-10.0,40.0,10.0,0.09491278895417321,-1.375897532234581,-86.85090963669793,3.5042313794050974,2.278410478434572,-0.027702128652721793,0.52029117943113,-0.07945863602763915,0.05515200806422414,0.6638630758988774,-0.10625612073259985,-1.1104099452495575,-0.31877432484179735,0.8333808742463589,0.792187271248617,-52.19191908836365,-42.1490877866745,11.335273087024689,0.0,0.0,0.0,0.0,0.0,0.0,0.0,0.0,0.0,0.0,0.0,0.0,0.0,0.0,0.0,0.0,False,0,5.64596962928772,0.0349208984375
STABILIZE,2.2239181995391846,29.6880923562596,0.03230264981587728,0.032776832580566406,-10.0,40.0,10.0,0.09347466060791529,-1.3798467689570235,-86.8323315221555,3.5028118904566576,2.261209311626906,-0.020735151355491813,0.5203278600672412,-0.09103451313262724,0.046382643768540746,0.6581463089739806,-0.07118076963558781,-0.7584227714687586,-0.4542705602943897,1.0702506639063358,1.710791098750415,17.87724196910858,8.973773568868637,7.075492292642593,0.0,0.0,0.0,0.0,0.0,0.0,0.0,0.0,0.0,0.0,0.0,0.0,0.0,0.0,0.0,0.0,False,0,5.674578428268433,0.0299033203125
STABILIZE,2.257375955581665,29.888010033206495,0.032395156224568684,0.032517433166503906,-10.0,40.0,10.0,0.09639606058197668,-1.3782259864113207,-86.85761005227371,3.503947713519792,2.3205155208863,-0.026033715635731258,0.520370726512151,-0.06352041932065114,0.07081660009913414,0.6492210873873504,-0.09734804877714956,1.5309233218431473,1.561182364821434,0.9904667735099792,-1.9025562369396334,32.18568563461304,34.69720482826233,11.209376156330109,0.0,0.0,0.0,0.0,0.0,0.0,0.0,0.0,0.0,0.0,0.0,0.0,0.0,0.0,0.0,0.0,False,0,5.703360557556152,0.0349208984375
STABILIZE,2.291264772415161,29.509712733847874,0.032408984502156575,0.03294873237609863,-10.0,40.0,10.0,0.0953994399325366,-1.3747876264944539,-86.83486552233758,3.502755533552753,2.315545711072863,-0.020234553320289436,0.520417742927475,-0.07703918290637048,0.04751386673843261,0.6383921402179755,-0.06812157937305421,-0.9032793343067169,-1.3319720514118671,0.718657998368144,1.4114905017731636,-48.938581347465515,-47.84133434295654,11.47930771112442,0.0,0.0,0.0,0.0,0.0,0.0,0.0,0.0,0.0,0.0,0.0,0.0,0.0,0.0,0.0,0.0,False,0,5.731981039047241,0.0349208984375
STABILIZE,2.3247008323669434,29.906763829271423,0.032375605901082356,0.03249406814575195,-10.0,40.0,10.0,0.0955456486694572,-1.3779802063229059,-86.84179816434514,3.501549955332012,2.286978470712709,-0.01439840350022248,0.5204641806631477,-0.09069360986508965,0.023737298124497614,0.6277159386048091,-0.0388109811401474,-0.9032793343067169,-1.3319720514118671,0.718657998368144,1.4114905017731636,-48.938581347465515,-47.84133434295654,11.47930771112442,0.0,0.0,0.0,0.0,0.0,0.0,0.0,0.0,0.0,0.0,0.0,0.0,0.0,0.0,0.0,0.0,False,0,5.760645389556885,0.0349208984375
STABILIZE,2.358776092529297,29.349063403097034,0.03238395055135091,0.033139705657958984,-10.0,40.0,10.0,0.0949646023423301,-1.3768025322996076,-86.8353163148228,3.501601789742421,2.311392997932516,-0.014600232172086768,0.5204950975701924,-0.10133163124919486,0.0369923832319417,0.6250241412694524,-0.039685018820613614,-0.7204399444162846,0.8840340189635754,1.1816649697721004,-0.37640038597816344,-1.5718543902039528,46.44275903701782,10.231354087591171,0.0,0.0,0.0,0.0,0.0,0.0,0.0,0.0,0.0,0.0,0.0,0.0,0.0,0.0,0.0,0.0,False,1,5.789346694946289,0.02993310546875
STABILIZE,2.3922557830810547,29.86842892341874,0.032376797993977864,0.032501220703125,-10.0,40.0,10.0,0.09508962682065307,-1.3754886813797322,-86.83002291821605,3.501082264988792,2.3417739708962215,-0.011975027690008407,0.5205483101108543,-0.0882756481903233,0.033127566506451364,0.610980784375654,-0.026470449895659186,-0.6392999552190304,-0.27827443554997444,0.9714675135910511,0.7165783044361923,-37.561461329460144,29.048606753349304,19.763299822807312,0.0,0.0,0.0,0.0,0.0,0.0,0.0,0.0,0.0,0.0,0.0,0.0,0.0,0.0,0.0,0.0,False,0,5.846900463104248,0.0349208984375
STABILIZE,2.4263479709625244,29.330181884296135,0.03234866460164388,0.032921552658081055,-10.0,40.0,10.0,0.09575258205696743,-1.376394108331582,-86.84687982508763,3.5014933507299926,2.307211220933622,-0.014119416660923834,0.5205805035796668,-0.1014284510062063,0.05989014646286209,0.6076235246875762,-0.037066704954927865,-0.8924326859414577,1.6726922243833542,1.0840924456715584,-0.8864753646979985,-19.7687566280365,50.60531497001648,15.021972358226776,0.0,0.0,0.0,0.0,0.0,0.0,0.0,0.0,0.0,0.0,0.0,0.0,0.0,0.0,0.0,0.0,False,0,5.875282526016235,0.02993212890625
STABILIZE,2.4648196697235107,25.993133451494156,0.032045634587605794,0.03745555877685547,-10.0,40.0,10.0,0.0941695256342583,-1.3765285776808667,-86.81824084189776,3.500766340893236,2.336635642441495,-0.010477931011546829,0.5206214739995902,-0.09058122731892831,0.04108610073281663,0.6016918643353083,-0.01878654793775359,0.491494033485651,-1.0332658886909485,1.0403864085674286,0.9023108914844086,25.217288732528687,-37.55176365375519,15.823185443878174,0.0,0.0,0.0,0.0,0.0,0.0,0.0,0.0,0.0,0.0,0.0,0.0,0.0,0.0,0.0,0.0,False,0,5.904103517532349,0.0349208984375
STABILIZE,2.4985625743865967,29.635441249205115,0.032408984502156575,0.032678842544555664,-10.0,40.0,10.0,0.09562937184764274,-1.3741729094691528,-86.83035759748537,3.49999808514633,2.3662364031304812,-0.006711317044530856,0.5206535749165414,-0.08032567239532402,0.02245510358049159,0.5982797732863786,4.636607703392866e-05,0.491494033485651,-1.0332658886909485,1.0403864085674286,0.9023108914844086,25.217288732528687,-37.55176365375519,15.823185443878174,0.0,0.0,0.0,0.0,0.0,0.0,0.0,0.0,0.0,0.0,0.0,0.0,0.0,0.0,0.0,0.0,False,0,5.932729959487915,0.0349208984375
STABILIZE,2.531836986541748,30.05419968758509,0.03224209149678548,0.032357215881347656,-10.0,40.0,10.0,0.09370165767611242,-1.3770241932825158,-86.82008499297368,3.4997512646694395,2.3949554681950738,-0.005526398409288631,0.520676594288678,-0.06756884245201317,0.02077736243968214,0.59933244931554,0.005951077794369921,0.42275553569197655,-0.46090069226920605,1.1864162050187588,0.7151644019171467,26.96186900138855,-5.8920446783304214,16.25165194272995,0.0,0.0,0.0,0.0,0.0,0.0,0.0,0.0,0.0,0.0,0.0,0.0,0.0,0.0,0.0,0.0,False,0,5.990035772323608,0.064852783203125
STABILIZE,2.565272092819214,29.908469886906545,0.03239420255025228,0.03251481056213379,-10.0,40.0,10.0,0.09293507566348427,-1.3762577179915934,-86.8103519734064,3.500295961417037,2.382942052707009,-0.008144470255625962,0.5206713786774462,-0.07165795153741232,0.040990420280027036,0.614494349737109,-0.007115487167774569,-0.2922187326475978,1.2204189784824848,1.2954539619386196,-1.1504877359675258,-16.770850121974945,31.323590874671936,18.208612501621246,0.0,0.0,0.0,0.0,0.0,0.0,0.0,0.0,0.0,0.0,0.0,0.0,0.0,0.0,0.0,0.0,False,0,6.019186019897461,0.034921142578125
STABILIZE,2.5986974239349365,29.917003095621904,0.03242543538411458,0.03253650665283203,-10.0,40.0,10.0,0.09645753228450679,-1.375849187301862,-86.82938771062322,3.499462253522165,2.3911660972239583,-0.004135296205187615,0.5207257699160581,-0.08041380418761347,0.030108523600554073,0.59986871304243,0.012887300403698137,-0.6266185082495213,-0.5319918040186167,0.47571943141520023,0.9964689978961482,-21.001271903514862,-31.608304381370544,12.85117119550705,0.0,0.0,0.0,0.0,0.0,0.0,0.0,0.0,0.0,0.0,0.0,0.0,0.0,0.0,0.0,0.0,False,0,6.048769474029541,0.02993310546875
STABILIZE,2.632946252822876,29.19909499112395,0.03243306477864583,0.033298492431640625,-10.0,40.0,10.0,0.09361078414363952,-1.3782672877114581,-86.8048400107462,3.498678776558351,2.380103390686304,-0.0003272848978148205,0.5207843916137539,-0.08867227031638733,0.019222595061141157,0.5834380867585919,0.031818551299453914,-0.6266185082495213,-0.5319918040186167,0.47571943141520023,0.9964689978961482,-21.001271903514862,-31.608304381370544,12.85117119550705,0.0,0.0,0.0,0.0,0.0,0.0,0.0,0.0,0.0,0.0,0.0,0.0,0.0,0.0,0.0,0.0,False,0,6.077239990234375,0.02993310546875
STABILIZE,2.668421506881714,28.188852970233814,0.032363208134969075,0.03453397750854492,-10.0,40.0,10.0,0.097005815047959,-1.377655452172213,-86.82677174817111,3.4986743814092867,2.3795833626042855,-0.0002820589841098335,0.5208297111951236,-0.08546596785007701,0.02216267434390818,0.5741512441658079,0.031931423885718936,0.00965020080911927,0.2309185452759266,0.8345786482095718,-0.032439203060502034,24.933625757694244,21.55439406633377,16.565407812595367,0.0,0.0,0.0,0.0,0.0,0.0,0.0,0.0,0.0,0.0,0.0,0.0,0.0,0.0,0.0,0.0,False,0,6.105955600738525,0.0349208984375
STABILIZE,2.7057127952575684,26.815571595711354,0.0323822816212972,0.036305904388427734,-10.0,40.0,10.0,0.09672108153693408,-1.3772869421221496,-86.81434080388169,3.4989128480335743,2.384238996526188,-0.0014220319535696198,0.5208591027411696,-0.07460330585424421,0.03237512663640739,0.5735085107182237,0.026134156855175426,0.4723296035081148,0.6404262501746416,1.1771470308303833,-0.4061307853726273,0.8875764906406403,3.896920010447502,15.866059064865112,0.0,0.0,0.0,0.0,0.0,0.0,0.0,0.0,0.0,0.0,0.0,0.0,0.0,0.0,0.0,0.0,False,0,6.134506464004517,0.0349208984375
STABILIZE,2.739654302597046,29.461830237981513,0.032334359486897786,0.0330662727355957,-10.0,40.0,10.0,0.09600369823067118,-1.3805756782075107,-86.80990118092119,3.4985197681098166,2.3882813755411165,0.0004808023473979626,0.5208851257926174,-0.07946735472044682,0.031217342872316346,0.573324784662472,0.03552746411520422,-1.0391385294497013,-0.5895248148590326,1.1933482252061367,0.8278304533497698,-29.852822422981262,-19.61537003517151,16.884557902812958,0.0,0.0,0.0,0.0,0.0,0.0,0.0,0.0,0.0,0.0,0.0,0.0,0.0,0.0,0.0,0.0,False,0,6.196163177490234,0.034921142578125
STABILIZE,2.773207664489746,29.804967134482148,0.032454760869344075,0.0325770378112793,-10.0,40.0,10.0,0.09652284596844504,-1.379592130967029,-86.8154541247164,3.497881229990663,2.3845537538890573,0.0035979673037385175,0.5209095915108736,-0.09542838289398148,0.019637725971252705,0.5737116287113462,0.050942786251491436,-1.0391385294497013,-0.5895248148590326,1.1933482252061367,0.8278304533497698,-29.852822422981262,-19.61537003517151,16.884557902812958,0.0,0.0,0.0,0.0,0.0,0.0,0.0,0.0,0.0,0.0,0.0,0.0,0.0,0.0,0.0,0.0,False,0,6.224541902542114,0.034921142578125
STABILIZE,2.806593894958496,29.950970800991154,0.03233173688252767,0.03246951103210449,-10.0,40.0,10.0,0.09476524619593035,-1.3793297022925124,-86.79720385925413,3.497322374646286,2.41201630327531,0.006183280406809913,0.5209528448772576,-0.08224082398411375,0.013866966089330218,0.5647091425391902,0.06365642477284997,0.6053059361875057,-0.2601712476462126,0.6541382521390915,0.6848991933745856,10.184536874294281,-17.531859874725342,10.128037631511688,0.0,0.0,0.0,0.0,0.0,0.0,0.0,0.0,0.0,0.0,0.0,0.0,0.0,0.0,0.0,0.0,False,0,6.25323748588562,0.06485400390625
STABILIZE,2.844583749771118,26.322817102942746,0.032418044408162434,0.03705883026123047,-10.0,40.0,10.0,0.09557734501607429,-1.3828223835576219,-86.80582355798668,3.497016506205174,2.3957975829536697,0.0077893098248015494,0.5209507329167169,-0.10204053547723327,0.016523686947958274,0.5800626260229051,0.071415586891643,-1.04603823274374,0.23854896426200867,1.2650362215936184,0.07758373191599138,-17.89468824863434,29.53096628189087,12.651284039020538,0.0,0.0,0.0,0.0,0.0,0.0,0.0,0.0,0.0,0.0,0.0,0.0,0.0,0.0,0.0,0.0,False,0,6.281893014907837,0.034921142578125
STABILIZE,2.8780078887939453,29.917856684308887,0.032390864690144856,0.032521963119506836,-10.0,40.0,10.0,0.0954604847482436,-1.3823655079351715,-86.7989865386275,3.4970149361305647,2.373630533973009,0.007978806170757509,0.5209742765444497,-0.11884466179527003,0.020064866533497865,0.580898288994987,0.07212173110264214,-1.04603823274374,0.23854896426200867,1.2650362215936184,0.07758373191599138,-17.89468824863434,29.53096628189087,12.651284039020538,0.0,0.0,0.0,0.0,0.0,0.0,0.0,0.0,0.0,0.0,0.0,0.0,0.0,0.0,0.0,0.0,False,0,6.310617923736572,0.034921142578125
STABILIZE,2.911550760269165,29.81174614230985,0.03240183194478353,0.03269839286804199,-10.0,40.0,10.0,0.09638218676022509,-1.3815201653036766,-86.79257982118602,3.4967148262305345,2.3831226624025263,0.009420237027072346,0.5209932012873769,-0.11902829577020288,0.02317526030495284,0.5840905752356077,0.07906323971198057,-0.36937627010047436,0.7500880863517523,1.0414473712444305,-0.3037090038388185,-17.86400079727173,23.8626629114151,13.428403437137604,0.0,0.0,0.0,0.0,0.0,0.0,0.0,0.0,0.0,0.0,0.0,0.0,0.0,0.0,0.0,0.0,False,0,6.367903470993042,0.0349208984375
STABILIZE,2.945082426071167,29.82319271325877,0.032506497701009114,0.03262209892272949,-10.0,40.0,10.0,0.09808775970117131,-1.3826247349585146,-86.79487476474715,3.497039815242604,2.3983100020155637,0.00781151292332187,0.5210271886833145,-0.12228530148496479,0.037407442551216266,0.5797053220202584,0.07078277397615088,-0.36937627010047436,0.7500880863517523,1.0414473712444305,-0.3037090038388185,-17.86400079727173,23.8626629114151,13.428403437137604,0.0,0.0,0.0,0.0,0.0,0.0,0.0,0.0,0.0,0.0,0.0,0.0,0.0,0.0,0.0,0.0,False,0,6.396675109863281,0.0349208984375
STABILIZE,2.9786455631256104,29.796709385922536,0.0324127991994222,0.03254413604736328,-10.0,40.0,10.0,0.09686739699556045,-1.3841589662008287,-86.78305170729386,3.4970751112269607,2.3999110215998085,0.007679994203356107,0.5210676172279599,-0.11451419110749603,0.03477875097402389,0.5721107382381552,0.06989129811767075,0.17985524609684944,-0.08425159030593932,0.8604763075709343,0.06430292266279082,5.438707396388054,-21.094295382499695,16.984687745571136,0.0,0.0,0.0,0.0,0.0,0.0,0.0,0.0,0.0,0.0,0.0,0.0,0.0,0.0,0.0,0.0,False,0,6.428078651428223,0.02993212890625
STABILIZE,3.012845516204834,29.238175569698786,0.032288583119710286,0.03337383270263672,-10.0,40.0,10.0,0.09808215681161779,-1.3835154343149665,-86.78559936785427,3.4975024716282697,2.4188528778148943,0.005583158505012732,0.5211062291223267,-0.11559200810463267,0.04674265729580243,0.5657762009816396,0.059203617354273035,-0.3013330511748791,0.6806420162320137,1.0214736685156822,-0.4116087838499627,-18.387368321418762,8.506076037883759,21.608516573905945,0.0,0.0,0.0,0.0,0.0,0.0,0.0,0.0,0.0,0.0,0.0,0.0,0.0,0.0,0.0,0.0,False,0,6.455970764160156,0.0349208984375
STABILIZE,3.0463621616363525,29.835496973275195,0.0325048287709554,0.03263115882873535,-10.0,40.0,10.0,0.09806017214022682,-1.3847272592841149,-86.77812714090228,3.497108859751433,2.4332846456147537,0.007415040930590061,0.5211454119491856,-0.12119031542636317,0.038301994126340055,0.5588236121287815,0.06813500008248863,-0.4974363837391138,-0.38705943152308464,0.8363968692719936,0.5715266976105422,-3.9234451949596405,-15.15137404203415,15.61598926782608,0.0,0.0,0.0,0.0,0.0,0.0,0.0,0.0,0.0,0.0,0.0,0.0,0.0,0.0,0.0,0.0,False,0,6.484804391860962,0.02993310546875
STABILIZE,3.07991361618042,29.806026151222284,0.032438071568806966,0.032624244689941406,-10.0,40.0,10.0,0.0981229778640792,-1.3840967474463581,-86.77678159363579,3.4967603774353737,2.4338260920227808,0.009106895898527912,0.5211884999698364,-0.12583391105702188,0.029690356282058482,0.5499457221263064,0.07633847946910566,-0.4974363837391138,-0.38705943152308464,0.8363968692719936,0.5715266976105422,-3.9234451949596405,-15.15137404203415,15.61598926782608,0.0,0.0,0.0,0.0,0.0,0.0,0.0,0.0,0.0,0.0,0.0,0.0,0.0,0.0,0.0,0.0,False,0,6.513911008834839,0.02993310546875
STABILIZE,3.113481283187866,29.790783567248138,0.03235605557759603,0.03266429901123047,-10.0,40.0,10.0,0.0979595335716749,-1.3837348541420533,-86.7763922728531,3.4970274285464367,2.4486224841136925,0.007809239158309916,0.5212238634085782,-0.11914772177164934,0.039660910004716866,0.5449773588426057,0.06961617854224457,0.11005128035321832,0.603064987808466,1.0130160488188267,-0.22249167798544642,16.203558444976807,20.13494223356247,12.169686704874039,0.0,0.0,0.0,0.0,0.0,0.0,0.0,0.0,0.0,0.0,0.0,0.0,0.0,0.0,0.0,0.0,False,1,6.542391777038574,0.0349208984375
STABILIZE,3.1479227542877197,29.03275465847108,0.032454760869344075,0.033652544021606445,-10.0,40.0,10.0,0.09648015728613246,-1.3847020729615505,-86.76382472478028,3.4966872772932756,2.4485050977441376,0.009458318016603467,0.5212632662534689,-0.11798149665102224,0.036913681216358185,0.5383367774155003,0.07759379743617559,-0.5645408295094967,-0.23218747228384018,0.8478708565235138,0.5089598169356983,-9.471200406551361,-1.6088418662548065,14.06654417514801,0.0,0.0,0.0,0.0,0.0,0.0,0.0,0.0,0.0,0.0,0.0,0.0,0.0,0.0,0.0,0.0,False,0,6.601895093917847,0.02993310546875
STABILIZE,3.1815710067749023,29.721331339772252,0.03248575528462728,0.032660722732543945,-10.0,40.0,10.0,0.09825782073933406,-1.3844969538430385,-86.77123548002974,3.497238089775896,2.4625956308755685,0.006844878556543289,0.521304589643065,-0.10977340625951186,0.045577544197046585,0.5303720437616382,0.06431102814369591,0.21266124676913023,0.5554251838475466,0.7963467389345169,-0.5962040643600924,12.831920385360718,14.208239316940308,14.1120046377182,0.0,0.0,0.0,0.0,0.0,0.0,0.0,0.0,0.0,0.0,0.0,0.0,0.0,0.0,0.0,0.0,False,0,6.635984182357788,0.0349208984375
STABILIZE,3.215059518814087,29.861624115393926,0.0323820432027181,0.03250741958618164,-10.0,40.0,10.0,0.09745399285138819,-1.3835629254740394,-86.76435064934637,3.497008704094548,2.4781333232053675,0.007872848045983538,0.5213362694724618,-0.10498232659054135,0.041194635245924295,0.5272035265066427,0.06921939524862455,0.0635739415884018,-0.18964571645483375,0.9124196134507656,0.38958609285129947,-1.9288843497633934,-13.204091787338257,13.387130200862885,0.0,0.0,0.0,0.0,0.0,0.0,0.0,0.0,0.0,0.0,0.0,0.0,0.0,0.0,0.0,0.0,False,0,6.664728403091431,0.034921142578125
STABILIZE,3.248499870300293,29.90335229784261,0.03233221371968587,0.032475948333740234,-10.0,40.0,10.0,0.09836123407223628,-1.3843553341394665,-86.75865427157858,3.497125177289656,2.4839623622643496,0.0073465034648394194,0.5213663873942256,-0.10782700316589476,0.0455411741765933,0.5248267328467133,0.06636560261225438,-0.3656767541542649,0.3041197778657079,0.9473200887441635,-0.04563729632161535,-10.371272265911102,14.114919304847717,11.415526270866394,0.0,0.0,0.0,0.0,0.0,0.0,0.0,0.0,0.0,0.0,0.0,0.0,0.0,0.0,0.0,0.0,False,0,6.69343113899231,0.029931884765625
STABILIZE,3.2818572521209717,29.97665792351289,0.03234222730000814,0.032457828521728516,-10.0,40.0,10.0,0.098223669793484,-1.3845839320332505,-86.76330563040335,3.497268693498942,2.4802585555752077,0.0067444505941462035,0.5214006158896253,-0.11010462635876321,0.04943877154621891,0.5203887494397802,0.06314424491435841,-0.3656767541542649,0.3041197778657079,0.9473200887441635,-0.04563729632161535,-10.371272265911102,14.114919304847717,11.415526270866394,0.0,0.0,0.0,0.0,0.0,0.0,0.0,0.0,0.0,0.0,0.0,0.0,0.0,0.0,0.0,0.0,False,0,6.722229480743408,0.029931884765625
STABILIZE,3.315408229827881,29.807085243222115,0.032453330357869466,0.03270554542541504,-10.0,40.0,10.0,0.09801759017962001,-1.383320880645327,-86.7472820066105,3.497436265606799,2.4856118870864012,0.00598320494611796,0.5214354602555688,-0.10861263837378969,0.04883039794571255,0.5156988492980953,0.05913953570995511,-0.14780613128095865,0.04867182287853211,0.9095585905015469,-0.09728057674959995,5.746762454509735,-13.124831020832062,15.510135889053345,0.0,0.0,0.0,0.0,0.0,0.0,0.0,0.0,0.0,0.0,0.0,0.0,0.0,0.0,0.0,0.0,False,0,6.750778913497925,0.034922119140625
STABILIZE,3.348874568939209,29.88077054599339,0.03247264226277669,0.032593727111816406,-10.0,40.0,10.0,0.09895818193352482,-1.3843534131487625,-86.75479521469752,3.4971892760466345,2.4822328674734826,0.00718473053002456,0.5214641423407451,-0.10984223524195508,0.05052741593802887,0.5140498751019732,0.06492997513643439,-0.2694451482966542,0.1601163879968226,0.9347999468445778,0.4513519737634008,-2.5477202609181404,8.403166383504868,12.735840678215027,0.0,0.0,0.0,0.0,0.0,0.0,0.0,0.0,0.0,0.0,0.0,0.0,0.0,0.0,0.0,0.0,False,1,6.7795515060424805,0.0349208984375
STABILIZE,3.3823800086975098,29.84547511634195,0.03244832356770833,0.03258919715881348,-10.0,40.0,10.0,0.09984199773995389,-1.3851254379683855,-86.7529783843783,3.4975653464610694,2.4827763879017484,0.005481189265108116,0.521494784614987,-0.109470216863488,0.05768312761026102,0.5114308259075787,0.056224104635681095,0.12464728206396103,0.04629109753295779,0.777189526706934,0.12760554277729214,9.47115644812584,-9.263020753860474,5.620076879858971,0.0,0.0,0.0,0.0,0.0,0.0,0.0,0.0,0.0,0.0,0.0,0.0,0.0,0.0,0.0,0.0,False,0,6.836833953857422,0.02494287109375
STABILIZE,3.4158051013946533,29.917003095621904,0.032404216130574544,0.032533884048461914,-10.0,40.0,10.0,0.09924062092787543,-1.3847460423043325,-86.74230962889473,3.4976157065915308,2.4922746376575975,0.005243105912230049,0.5215198101951717,-0.10758463885866039,0.057465698719169775,0.5116134545920504,0.054850214516796385,-0.1587129896506667,0.11442772811278701,1.3001671992242336,0.06251629458630359,0.506601482629776,14.365245401859283,12.303609400987625,0.0,0.0,0.0,0.0,0.0,0.0,0.0,0.0,0.0,0.0,0.0,0.0,0.0,0.0,0.0,0.0,False,0,6.8656980991363525,0.034921875
STABILIZE,3.4492454528808594,29.903991900697996,0.032429011662801106,0.03254365921020508,-10.0,40.0,10.0,0.09918624621877978,-1.3849366472708582,-86.74656483674765,3.4976837414006736,2.4945467558201564,0.004955753493607286,0.5215413689859033,-0.11180603953756636,0.06330099856305542,0.5135206837010317,0.05323546795542777,-0.44766198843717575,0.4151291213929653,1.1035101488232613,0.018328812637729217,-14.751072227954865,-3.090110793709755,20.310722291469574,0.0,0.0,0.0,0.0,0.0,0.0,0.0,0.0,0.0,0.0,0.0,0.0,0.0,0.0,0.0,0.0,False,0,6.895651340484619,0.034921142578125
STABILIZE,3.483133554458618,29.50929749885672,0.032424243291219075,0.03298592567443848,-10.0,40.0,10.0,0.09800590415283694,-1.3864129286269329,-86.73532917556298,3.497655402268762,2.5031426491444484,0.005085417012904012,0.5215743661908786,-0.1073157255206191,0.05943142877278761,0.5098767591219863,0.05370193305249208,0.0656257790978998,-0.1532768364995718,0.7729523815214634,0.14009335639568363,6.4795829355716705,-1.1923964135348797,15.552139282226562,0.0,0.0,0.0,0.0,0.0,0.0,0.0,0.0,0.0,0.0,0.0,0.0,0.0,0.0,0.0,0.0,False,0,6.92448878288269,0.029931884765625
STABILIZE,3.5166709423065186,29.818104263381272,0.032424004872639973,0.03255510330200195,-10.0,40.0,10.0,0.09809394956010664,-1.386239505855038,-86.73662691150528,3.4979496640430905,2.5143531193019424,0.003726032931005062,0.5216042161171573,-0.10224152216744069,0.06694980722765517,0.5076611029580824,0.04674853343683272,0.06968369125388563,0.5528321955353022,0.9916583076119423,-0.28966186603704097,0.12784986756742,12.623904645442963,20.014671981334686,0.0,0.0,0.0,0.0,0.0,0.0,0.0,0.0,0.0,0.0,0.0,0.0,0.0,0.0,0.0,0.0,False,0,6.953091621398926,0.034921142578125
STABILIZE,3.5537524223327637,26.967986677725698,0.03233531316121419,0.03606367111206055,-10.0,40.0,10.0,0.09848012205247682,-1.3861361992438417,-86.7357594774807,3.497875772970221,2.5188676017594966,0.004081634340159066,0.5216112118908018,-0.10298588883611313,0.06842120993604328,0.5182191070351536,0.048347363891254456,-0.24420158006250858,0.16516356263309717,1.5938768163323402,0.20637068397628416,-8.262588083744049,-5.094626545906067,18.488849699497223,0.0,0.0,0.0,0.0,0.0,0.0,0.0,0.0,0.0,0.0,0.0,0.0,0.0,0.0,0.0,0.0,False,1,6.981818914413452,0.034922119140625
STABILIZE,3.5880486965179443,29.15991601662982,0.03229835828145345,0.03324294090270996,-10.0,40.0,10.0,0.09824714856875591,-1.3864600996208882,-86.72909321285076,3.497817696781095,2.5197001794592966,0.0043768867374717755,0.5216128270628524,-0.10543989593220963,0.07167700312107249,0.5303865249847504,0.049653541086431614,-0.2970733679831028,0.19806313794106245,1.0446603409945965,0.08403889434178151,0.14744853833690286,8.552911132574081,16.352131962776184,0.0,0.0,0.0,0.0,0.0,0.0,0.0,0.0,0.0,0.0,0.0,0.0,0.0,0.0,0.0,0.0,False,0,7.041249990463257,0.029931640625
