E-kp,E-ki,E-kd,E-I-Tot,E-P,E-I,E-D,E-PID,N-kp,N-ki,N-kd,N-I-Tot,N-P,N-I,N-D,N-PID,D-kp,D-ki,D-kd,D-I-Tot,D-P,D-I,D-D,D-PID,Y-kp,Y-ki,Y-kd,Y-I-Tot,Y-P,Y-I,Y-D,Y-PID,errorN,desiredN,actualN,errorE,desiredE,actualE,errorD,desiredD,actualD,errorY,desiredY,actualY,roll,pitch,yaw-rate,thrust,dt,Time,Mode
0.17,0.004,0.15,-0.0005028144736397885,-0.0025975196440332846,-2.011257894559154e-06,-0.06964714640174338,-0.07224667730367122,0.17,0.004,0.15,-0.0016811675538009037,-0.008684844957421835,-6.724670215203615e-06,-0.23286625362601127,-0.2415578232536483,0.002,8e-05,0,-0.022028182127577293,-0.0013387848927429952,-1.7622545702061835e-06,-0.0,-0.0013405471473132014,0.2,0.02,0,0.0004065348978542109,0.0024707566719210407,8.130697957084218e-06,0.0,0.002478887369878125,-0.05108732327895197,0.0,0.05108732327895197,-0.01527952731784285,0.0,0.01527952731784285,-0.6693924463714975,0.0,0.6693924463714975,0.012353783359605203,0,-0.012353783359605203,-0.07219459232918443,0.24157339504772551,-0.002478887369878125,0.4,0.032907724380493164,0.03319430351257324,STABILIZE
0.17,0.004,0.15,-0.0009379990521126806,-0.00221200735028955,-3.7519962084507224e-06,-0.029738294947404292,-0.031954054293902294,0.17,0.004,0.15,-0.0031089341534155795,-0.007257219968428427,-1.2435736613662318e-05,-0.09760137895839446,-0.10487103466343656,0.002,8e-05,0,-0.044354664920934,-0.0013351020257500314,-3.54837319367472e-06,-0.0,-0.001338650398943706,0.2,0.02,0,0.0006880452729813312,0.0016834047511223,1.3760905459626624e-05,0.0,0.0016971656565819267,-0.04268952922604957,0.0,0.04268952922604957,-0.013011807942879705,0.0,0.013011807942879705,-0.6675510128750156,0.0,0.6675510128750156,0.0084170237556115,0,-0.0084170237556115,-0.031938647893117206,0.10487572773505245,-0.0016971656565819267,0.4,0.03344535827636719,0.06657981872558594,STABILIZE
0.17,0.004,0.15,-0.0013873217889843028,-0.002255666572326138,-5.549287155937211e-06,-0.020204726763765946,-0.022465942623248022,0.17,0.004,0.15,-0.004676142467564735,-0.007867617451791398,-1.870456987025894e-05,-0.0703691181780133,-0.07825544019967497,0.002,8e-05,0,-0.06697474845455381,-0.0013359548677837102,-5.357979876364305e-06,-0.0,-0.0013413128476600746,0.2,0.02,0,0.001255871646656791,0.0033536145294964254,2.511743293313582e-05,0.0,0.0033787319624295612,-0.04628010265759646,0.0,0.04628010265759646,-0.013268626896036103,0.0,0.013268626896036103,-0.667977433891855,0.0,0.667977433891855,0.016768072647482125,0,-0.016768072647482125,-0.022443039574848247,0.07826201168790495,-0.0033787319624295612,0.4,0.03386354446411133,0.10044074058532715,STABILIZE
0.17,0.004,0.15,-0.001711048817449852,-0.001643907494752648,-6.844195269799408e-06,-0.011122550049751725,-0.012773301739774173,0.17,0.004,0.15,-0.006317550593470426,-0.00833518020696075,-2.5270202373881704e-05,-0.055857697108937204,-0.06421814751827183,0.002,8e-05,0,-0.08920008085776612,-0.001327784987253736,-7.13600646862129e-06,-0.0,-0.0013349209937223573,0.2,0.02,0,0.0014734388794427709,0.0012997893582451414,2.946877758885542e-05,0.0,0.0013292581358339969,-0.04903047180565147,0.0,0.04903047180565147,-0.009670044086780282,0.0,0.009670044086780282,-0.663892493626868,0.0,0.663892493626868,0.006498946791225707,0,-0.006498946791225707,-0.012766017520335939,0.06421959595547387,-0.0013292581358339969,0.4,0.0334773063659668,0.13393926620483398,STABILIZE
0.17,0.004,0.15,-0.0020763290357463243,-0.0017353808331403368,-8.305316142985298e-06,-0.00934915432928659,-0.011092840478569913,0.17,0.004,0.15,-0.007996525776657635,-0.007976510104515302,-3.198610310663054e-05,-0.0429173230597471,-0.050925819267369034,0.002,8e-05,0,-0.11281703687342624,-0.0013199991083020044,-9.0253629498741e-06,-0.0,-0.0013290244712518785,0.2,0.02,0,0.0018603747215809791,0.002162662140937403,3.7207494431619587e-05,0.0,0.0021998696353690223,-0.04692064767361942,0.0,0.04692064767361942,-0.010208122547884333,0.0,0.010208122547884333,-0.6599995541510022,0.0,0.6599995541510022,0.010813310704687013,0,-0.010813310704687013,-0.011083229159428692,0.050927911888622765,-0.0021998696353690223,0.4,0.03578329086303711,0.1697249412536621,STABILIZE
0.17,0.004,0.15,-0.0024535491110281023,-0.0016555149844456035,-9.814196444112409e-06,0.004944125338423275,0.0032787961575335596,0.17,0.004,0.15,-0.009636740284652463,-0.007198449588511816,-3.854696113860985e-05,0.007200591933913405,-3.6404615737020696e-05,0.002,8e-05,0,-0.1383314299543064,-0.001317360492853503,-1.1066514396344512e-05,0.0,-0.0013284270072498475,0.2,0.02,0,0.002478815887361674,0.0031931386977191107,4.957631774723348e-05,0.0,0.003242715015466344,-0.04234382110889303,0.0,0.04234382110889303,-0.009738323437915314,0.0,0.009738323437915314,-0.6586802464267515,0.0,0.6586802464267515,0.015965693488595552,0,-0.015965693488595552,0.003278806174526272,3.5490964937424554e-05,-0.003242715015466344,0.4,0.03873562812805176,0.2084801197052002,STABILIZE
0.17,0.004,0.15,-0.0026371825617498472,-0.0009337065303624898,-1.054873024699939e-05,0.0067198298262140166,0.005775574565604527,0.17,0.004,0.15,-0.011143660360973914,-0.007662117715838734,-4.457464144389566e-05,-0.002779418738345952,-0.010486111095628583,0.002,8e-05,0,-0.16023741767113775,-0.0013103958683713046,-1.2818993413691021e-05,0.0,-0.0013232148617849957,0.2,0.02,0,0.0027723212651296213,0.0017557219484623625,5.5446425302592424e-05,-0.0,0.001811168373764955,-0.04507128068140431,0.0,0.04507128068140431,-0.005492391355073469,0.0,0.005492391355073469,-0.6551979341856523,0.0,0.6551979341856523,0.008778609742311812,0,-0.008778609742311812,0.005777181134069299,0.01048522606417604,-0.001811168373764955,0.4,0.033434152603149414,0.24190783500671387,STABILIZE
0.17,0.004,0.15,-0.0027791451222570784,-0.0007203874589224666,-1.1116580489028314e-05,0.008071035060207423,0.007339531020795928,0.17,0.004,0.15,-0.01271074542231131,-0.00795215598548395,-5.084298168924524e-05,-0.0011263153563883111,-0.009129314323561505,0.002,8e-05,0,-0.18207576213671117,-0.0013037463515166924,-1.4566060970936895e-05,0.0,-0.0013183124124876294,0.2,0.02,0,0.003067900589974786,0.0017646047618588676,6.135801179949572e-05,-0.0,0.0018259627736583633,-0.04677738814990559,0.0,0.04677738814990559,-0.004237573287779215,0.0,0.004237573287779215,-0.6518731757583462,0.0,0.6518731757583462,0.008823023809294337,0,-0.008823023809294337,0.0073409367643258155,0.009128183994956534,-0.0018259627736583633,0.4,0.03350090980529785,0.2754218578338623,STABILIZE
0.17,0.004,0.15,-0.002835620898346412,-0.0002871947901742424,-1.1342483593385649e-05,0.007132989947355986,0.006834452673588358,0.17,0.004,0.15,-0.014227569820431095,-0.0077134675238479415,-5.6910279281724384e-05,0.002598367483862009,-0.005172010319267657,0.002,8e-05,0,-0.20390845416692316,-0.001306179046651018,-1.6312676333353853e-05,0.0,-0.0013224917229843719,0.2,0.02,0,0.0032284175677066815,0.0009603209382288614,6.456835135413364e-05,-0.0,0.0010248892895829951,-0.045373338375576125,0.0,0.045373338375576125,-0.0016893811186720138,0.0,0.0016893811186720138,-0.6530895233255091,0.0,0.6530895233255091,0.004801604691144307,0,-0.004801604691144307,0.0068348860837649265,0.005171437547924825,-0.0010248892895829951,0.4,0.033429861068725586,0.3088817596435547,STABILIZE
0.17,0.004,0.15,-0.0028119540619046023,0.00012029057680603971,-1.124781624761841e-05,0.009734046650691372,0.009843089411249794,0.17,0.004,0.15,-0.01568887028268826,-0.007427299205115236,-6.275548113075304e-05,0.0023393917515234486,-0.005150662934722539,0.002,8e-05,0,-0.22569267336957202,-0.0013026101882362153,-1.8055413869565764e-05,0.0,-0.001320665602105781,0.2,0.02,0,0.003255466151101132,0.0001617398355167301,6.510932302202264e-05,-0.0,0.00022684915853875273,-0.04368999532420727,0.0,0.04368999532420727,0.0007075916282708218,0.0,-0.0007075916282708218,-0.6513050941181077,0.0,0.6513050941181077,0.0008086991775836504,0,-0.0008086991775836504,0.00984316210911233,0.005150524004285169,-0.00022684915853875273,0.4,0.0334470272064209,0.34229397773742676,STABILIZE
0.17,0.004,0.15,-0.0028284916870037046,-8.40803637036827e-05,-1.1313966748014819e-05,0.008291587375190698,0.008196193044739,0.17,0.004,0.15,-0.017050488039518984,-0.006922718076728887,-6.820195215807594e-05,0.0014577562312206803,-0.005533163797666283,0.002,8e-05,0,-0.24747771657550804,-0.0013030495755118581,-1.9798217326040647e-05,0.0,-0.0013228477928378989,0.2,0.02,0,0.0032554232095476057,-2.568504113821101e-07,6.510846419095212e-05,-0.0,6.485161377957001e-05,-0.040721871039581685,0.0,0.040721871039581685,-0.0004945903747275453,0.0,0.0004945903747275453,-0.651524787755929,0.0,0.651524787755929,-1.2842520569105505e-06,0,1.2842520569105505e-06,0.008196192920716303,0.005533163981379251,-6.485161377957001e-05,0.4,0.03343701362609863,0.3757345676422119,STABILIZE
0.17,0.004,0.15,-0.002769335631243625,0.00030056322866231543,-1.10773425249745e-05,0.0065104749610003605,0.006799960847137701,0.17,0.004,0.15,-0.01831901682069111,-0.006445208376746783,-7.327606728276444e-05,0.0064235694581908824,-9.49149858386648e-05,0.002,8e-05,0,-0.2694179094169596,-0.0013114693715224309,-2.155343275335677e-05,-0.0,-0.0013330228042757876,0.2,0.02,0,0.0031970531182669852,-0.00034890571601027716,6.39410623653397e-05,-0.0,-0.00028496465364493746,-0.03791299045145166,0.0,0.03791299045145166,0.0017680189921312672,0.0,-0.0017680189921312672,-0.6557346857612154,0.0,0.6557346857612154,-0.0017445285800513856,0,0.0017445285800513856,0.006799957954036261,9.512202942231516e-05,0.00028496465364493746,0.4,0.03345894813537598,0.40923094749450684,STABILIZE
0.17,0.004,0.15,-0.002701592297383816,0.00034479094858352584,-1.0806369189535264e-05,0.005620460116967325,0.0059544446963613155,0.17,0.004,0.15,-0.019625874925434567,-0.006651471368844084,-7.850349970173827e-05,0.0068616174882151605,0.0001316426196693388,0.002,8e-05,0,-0.2908753158515858,-0.001284835690870109,-2.3270025268126867e-05,0.0,-0.001308105716138236,0.2,0.02,0,0.0031488655311841833,-0.0002885396794320167,6.297731062368367e-05,-0.0,-0.00022556236880833306,-0.03912630216967108,0.0,0.03912630216967108,0.0020281820504913285,0.0,-0.0020281820504913285,-0.6424178454350544,0.0,0.6424178454350544,-0.0014426983971600835,0,0.0014426983971600835,0.005954448009213409,-0.00013149268767988687,0.00022556236880833306,0.4,0.0334010124206543,0.44260430335998535,STABILIZE
0.17,0.004,0.15,-0.0026353961639654774,0.00033639994740737974,-1.054158465586191e-05,0.0032894442091191594,0.003615302571870677,0.17,0.004,0.15,-0.020978461642363767,-0.006873665831256099,-8.391384656945506e-05,0.004429480205795764,-0.00252809947202979,0.002,8e-05,0,-0.31218716857433076,-0.0012741647238939762,-2.4974973485946464e-05,0.0,-0.0012991396973799226,0.2,0.02,0,0.003211179498545686,0.0003725544655869819,6.422358997091371e-05,-0.0,0.0004367780555578956,-0.04043332841915352,0.0,0.04043332841915352,0.00197882322004341,0.0,-0.00197882322004341,-0.6370823619469881,0.0,0.6370823619469881,0.0018627723279349092,0,-0.0018627723279349092,0.003615384762292097,0.002527981931746774,-0.0004367780555578956,0.4,0.03345227241516113,0.47608256340026855,STABILIZE
0.17,0.004,0.15,-0.0025379640932934083,0.000495260369257197,-1.0151856373173634e-05,0.0019777464024282186,0.002462854915312242,0.17,0.004,0.15,-0.02227329288220417,-0.006581802003649184,-8.909317152881669e-05,0.00445967311638303,-0.0022112220587949703,0.002,8e-05,0,-0.3335109601110822,-0.0012751966029023597,-2.668087680888658e-05,0.0,-0.0013018774797112463,0.2,0.02,0,0.0032162908428297722,3.056665066387297e-05,6.432581685659544e-05,-0.0,9.489246752046842e-05,-0.03871648237440696,0.0,0.03871648237440696,0.0029132962897482173,0.0,-0.0029132962897482173,-0.6375983014511798,0.0,0.6375983014511798,0.00015283325331936484,0,-0.00015283325331936484,0.002462860813613337,0.0022112154892608253,-9.489246752046842e-05,0.4,0.03344392776489258,0.5095336437225342,STABILIZE
0.17,0.004,0.15,-0.002595666887826124,-0.00029151141084283116,-1.0382667551304497e-05,-0.0010696606273285897,-0.0013715547057227254,0.17,0.004,0.15,-0.023631372430238287,-0.006860944747827733,-9.452548972095316e-05,0.00033275428602413807,-0.006622715951524548,0.002,8e-05,0,-0.3549954883783852,-0.0012769256461621357,-2.8399639070270817e-05,0.0,-0.0013053252852324065,0.2,0.02,0,0.0032331324968857297,0.0001000977993106391,6.46626499377146e-05,0.0,0.0001647604492483537,-0.04035849851663372,0.0,0.04035849851663372,-0.0017147730049578303,0.0,0.0017147730049578303,-0.6384628230810678,0.0,0.6384628230810678,0.0005004889965531954,0,-0.0005004889965531954,-0.001371496855048779,0.006622727932050294,-0.0001647604492483537,0.4,0.03365039825439453,0.5432069301605225,STABILIZE
0.17,0.004,0.15,-0.0025214087033974893,0.000377230412984372,-1.0085634813589957e-05,0.00042813909450422195,0.000795283872675004,0.17,0.004,0.15,-0.02490331532680932,-0.006461449978313852,-9.961326130723729e-05,-7.907561035648296e-05,-0.006640138849977572,0.002,8e-05,0,-0.37640364920449115,-0.0012794484876223395,-3.0112291936359295e-05,0.0,-0.0013095607795586988,0.2,0.02,0,0.003326619011545074,0.0005587176813812201,6.653238023090149e-05,0.0,0.0006252500616121216,-0.03800852928419913,0.0,0.03800852928419913,0.002219002429319835,0.0,-0.002219002429319835,-0.6397242438111698,0.0,0.6397242438111698,0.0027935884069061005,0,-0.0027935884069061005,0.0007956076270754131,0.006640100066178058,-0.0006252500616121216,0.4,0.033464670181274414,0.5766241550445557,STABILIZE
0.17,0.004,0.15,-0.002445777872316131,0.00032153482956949887,-9.783111489264524e-06,-5.1328372628230335e-05,0.000260423345452004,0.17,0.004,0.15,-0.026361594628128718,-0.006199688406306992,-0.00010544637851251488,0.0021658956871680804,-0.004139239097651426,0.002,8e-05,0,-0.40180778564260256,-0.0012706170009052864,-3.214462285140821e-05,0.0,-0.0013027616237566947,0.2,0.02,0,0.0036965515530257287,0.00185026000603689,7.393103106051457e-05,0.0,0.0019241910370974046,-0.036468755331217594,0.0,0.036468755331217594,0.0018913813504088167,0.0,-0.0018913813504088167,-0.6353085004526432,0.0,0.6353085004526432,0.00925130003018445,0,-0.00925130003018445,0.0002610916869675949,0.004139196994270631,-0.0019241910370974046,0.4,0.03998708724975586,0.6166322231292725,STABILIZE
0.17,0.004,0.15,-0.0022174522906177867,0.0010992058139581912,-8.869809162471147e-06,0.0038793031066418986,0.004969639111437619,0.17,0.004,0.15,-0.02772148079503319,-0.006546768740778173,-0.00011088592318013276,0.0016035226950525166,-0.005054131968905789,0.002,8e-05,0,-0.42407892060719127,-0.00126138559808945,-3.3926313648575306e-05,0.0,-0.0012953119117380253,0.2,0.02,0,0.003764569049369001,0.00038523537503554217,7.529138098738001e-05,-0.0,0.00046052675602292216,-0.03851040435751866,0.0,0.03851040435751866,0.0064659165526952415,0.0,-0.0064659165526952415,-0.630692799044725,0.0,0.630692799044725,0.0019261768751777106,0,-0.0019261768751777106,0.004969809019087019,0.005053964896083798,-0.00046052675602292216,0.4,0.03531217575073242,0.6519362926483154,STABILIZE
0.17,0.004,0.15,-0.002123517369393634,0.00047724913028170606,-8.494069477574536e-06,-0.0002391512968160046,0.00022960376398812693,0.17,0.004,0.15,-0.02898515171449178,-0.006420251802146914,-0.00011594060685796712,0.0007307233080789652,-0.005805469100925916,0.002,8e-05,0,-0.44495453980959815,-0.0012477814087361965,-3.559636318476785e-05,0.0,-0.0012833777719209643,0.2,0.02,0,0.0039796374994470005,0.0012855111554348363,7.959274998894002e-05,0.0,0.0013651039054237762,-0.037766187071452434,0.0,0.037766187071452434,0.002807347825186506,0.0,-0.002807347825186506,-0.6238907043680982,0.0,0.6238907043680982,0.006427555777174181,0,-0.006427555777174181,0.0002302550317415131,0.005805443306983609,-0.0013651039054237762,0.4,0.033460378646850586,0.6854000091552734,STABILIZE
0.17,0.004,0.15,-0.001962218917255951,0.0008199544170615035,-7.848875669023803e-06,0.005695303045610727,0.006507408587003207,0.17,0.004,0.15,-0.030539760092068814,-0.007902791310774808,-0.00012215904036827526,-0.005628672437840461,-0.013653622788983544,0.002,8e-05,0,-0.46587996749122934,-0.0012514541051121294,-3.727039739929835e-05,0.0,-0.0012887245025114279,0.2,0.02,0,0.004053927556141714,0.0004442948446937798,8.107855112283428e-05,0.0,0.0005253733958166141,-0.046487007710440044,0.0,0.046487007710440044,0.0048232612768323736,0.0,-0.0048232612768323736,-0.6257270525560648,0.0,0.6257270525560648,0.002221474223468899,0,-0.002221474223468899,0.006507937960913254,0.013653370473218622,-0.0005253733958166141,0.4,0.033441781997680664,0.7188732624053955,STABILIZE
0.17,0.004,0.15,-0.0017332590713849635,0.001163717663334934,-6.9330362855398545e-06,0.0039825237659687025,0.005139308393018097,0.17,0.004,0.15,-0.03239035739896215,-0.009405897202452308,-0.0001295614295958486,-0.015665857418321345,-0.0252013160503695,0.002,8e-05,0,-0.48687050094766626,-0.001255141971351323,-3.8949640075813304e-05,0.0,-0.0012940916114271362,0.2,0.02,0,0.003985162536055776,-0.00041118470404671805,7.970325072111552e-05,-0.0,-0.00033148145332560254,-0.055328807073248866,0.0,0.055328807073248866,0.006845398019617258,0.0,-0.006845398019617258,-0.6275709856756615,0.0,0.6275709856756615,-0.00205592352023359,0,0.00205592352023359,0.005138404100094492,0.025201500446070463,0.00033148145332560254,0.4,0.033447265625,0.7522881031036377,STABILIZE
0.17,0.004,0.15,-0.0013417308313986168,0.0019740912664930068,-5.366923325594467e-06,0.008469754090297685,0.010438478433465098,0.17,0.004,0.15,-0.03414883858825729,-0.0088662885675905,-0.00013659535435302917,-0.013996789342592556,-0.022999673264536086,0.002,8e-05,0,-0.508184791604327,-0.001264317336667109,-4.065478332834616e-05,0.0,-0.0013049721199954551,0.2,0.02,0,0.003972104747868762,-7.745595783272604e-05,7.944209495737524e-05,-0.0,1.986137124649205e-06,-0.05215463863288529,0.0,0.05215463863288529,0.011612301567605923,0.0,-0.011612301567605923,-0.6321586683335545,0.0,0.6321586683335545,-0.0003872797891636302,0,0.0003872797891636302,0.010438322971363857,0.02299974382089569,-1.986137124649205e-06,0.4,0.033716678619384766,0.786038875579834,STABILIZE
0.17,0.004,0.15,-0.001065582553761487,0.0013893669275033985,-4.262330215045948e-06,0.001529527065488302,0.0029146316627766547,0.17,0.004,0.15,-0.03579569994319751,-0.008285746774578936,-0.00014318279977279007,-0.009230258911436839,-0.017659188485788565,0.002,8e-05,0,-0.5293489261244597,-0.0012527263295394613,-4.234791408995678e-05,0.0,-0.001295074243629418,0.2,0.02,0,0.002739860881384669,-0.007293774921387372,5.4797217627693384e-05,-0.0,-0.007238977703759679,-0.04873968690928786,0.0,0.04873968690928786,0.008172746632372932,0.0,-0.008172746632372932,-0.6263631647697306,0.0,0.6263631647697306,-0.03646887460693686,0,0.03646887460693686,0.002903390965460155,0.01766104007718549,0.007238977703759679,0.4,0.03378891944885254,0.8198199272155762,STABILIZE
0.17,0.004,0.15,-0.0011959985063622186,-0.0006624968352405181,-4.783994025448875e-06,-0.006010207401865171,-0.006677488231131138,0.17,0.004,0.15,-0.03767355322217837,-0.009539261336989761,-0.00015069421288871348,-0.016507578696782294,-0.02619753424666077,0.002,8e-05,0,-0.5503893314674431,-0.0012574428812472803,-4.403114651739545e-05,-0.0,-0.0013014740277646757,0.2,0.02,0,0.0021172577083062817,-0.003720878543295108,4.2345154166125634e-05,-0.0,-0.0036785333891289824,-0.05611330198229271,0.0,0.05611330198229271,-0.003897040207297165,0.0,0.003897040207297165,-0.6287214406236401,0.0,0.6287214406236401,-0.01860439271647554,0,0.01860439271647554,-0.006685994425506609,0.02619536463239161,0.0036785333891289824,0.4,0.03346538543701172,0.8532793521881104,STABILIZE
0.17,0.004,0.15,-0.0011905688862208288,2.7592607538910977e-05,-4.762275544883315e-06,-0.004178220793653762,-0.004155390461659735,0.17,0.004,0.15,-0.03888033705777613,-0.006132714976894688,-0.00015552134823110453,0.009286242363031522,0.00299800603790573,0.002,8e-05,0,-0.5712416058519505,-0.0012466880650569365,-4.5699328468156046e-05,0.0,-0.0012923873935250926,0.2,0.02,0,0.0020998111042436463,-0.0001043074374506653,4.199622208487293e-05,-0.0,-6.231121536579237e-05,-0.03607479398173345,0.0,0.03607479398173345,0.00016230945611124103,0.0,-0.00016230945611124103,-0.6233440325284683,0.0,0.6233440325284683,-0.0005215371872533264,0,0.0005215371872533264,-0.00415536317201444,-0.0029980438623939468,6.231121536579237e-05,0.4,0.03345227241516113,0.88671875,STABILIZE
0.17,0.004,0.15,-0.0011804004046924088,5.170471993651978e-05,-4.721601618769635e-06,-0.005864672643484106,-0.005817689525166356,0.17,0.004,0.15,-0.04071340450749218,-0.00932078588601671,-0.00016285361802996872,0.00038902805279609316,-0.009094611451250584,0.002,8e-05,0,-0.5921174676790858,-0.0012488192196280462,-4.736939741432687e-05,0.0,-0.0012961886170423731,0.2,0.02,0,0.002222684158310958,0.0007350414213519995,4.445368316621916e-05,0.0,0.0007794951045182187,-0.05482815227068652,0.0,0.05482815227068652,0.0003041454113912928,0.0,-0.0003041454113912928,-0.624409609814023,0.0,0.624409609814023,0.0036752071067599973,0,-0.0036752071067599973,-0.005817106144215032,0.0090949846051208,-0.0007794951045182187,0.4,0.033432960510253906,0.9201796054840088,STABILIZE
0.17,0.004,0.15,-0.0011653674952589075,7.587502508410945e-05,-4.66146998103563e-06,-0.009979470596059695,-0.009908257040956622,0.17,0.004,0.15,-0.04322299080557177,-0.012666538314478356,-0.00017289196322228708,-0.01996488434571143,-0.03280431462341207,0.002,8e-05,0,-0.6132796317494086,-0.0012565997183967119,-4.906237053995269e-05,0.0,-0.0013056620889366646,0.2,0.02,0,0.0024938008953256556,0.0016098789058302044,4.987601790651311e-05,0.0,0.0016597549237367176,-0.07450904890869621,0.0,0.07450904890869621,0.00044632367696534965,0.0,-0.00044632367696534965,-0.628299859198356,0.0,0.628299859198356,0.008049394529151021,0,-0.008049394529151021,-0.00990364831629316,0.0328057062952264,-0.0016597549237367176,0.4,0.033681631088256836,0.9538397789001465,STABILIZE
0.17,0.004,0.15,-0.0008432793242335253,0.001634409633806751,-3.373117296934101e-06,0.0012840656323627427,0.0029151021488725594,0.17,0.004,0.15,-0.046151061145076444,-0.0148582493921303,-0.0001846042445803058,-0.03454187173740082,-0.049584725374111425,0.002,8e-05,0,-0.6345964604323496,-0.0012725938129334842,-5.0767716834587976e-05,-0.0,-0.0013233615297680722,0.2,0.02,0,0.002893544542903621,0.002386430459397005,5.7870890858072424e-05,0.0,0.0024443013502550774,-0.08740146701253117,0.0,0.08740146701253117,0.0096141743165103,0.0,-0.0096141743165103,-0.6362969064667421,0.0,0.6362969064667421,0.011932152296985023,0,-0.011932152296985023,0.002925428369644848,0.04958411721326183,-0.0024443013502550774,0.4,0.033501386642456055,0.9873645305633545,STABILIZE
0.17,0.004,0.15,-0.0009631805248081179,-0.0006075120941945665,-3.852722099232472e-06,0.0003123415827188808,-0.00029902323357491813,0.17,0.004,0.15,-0.049206024965546165,-0.015478806378653313,-0.00019682409986218467,-0.031195701617093063,-0.046871332095608564,0.002,8e-05,0,-0.6557449761314155,-0.001260643714292989,-5.245959809051324e-05,-0.0,-0.0013131033123835022,0.2,0.02,0,0.004268671777396816,0.008197007909134349,8.537343554793632e-05,0.0,0.008282381344682285,-0.09105180222737243,0.0,0.09105180222737243,-0.003573600554085685,0.0,0.003573600554085685,-0.6303218571464945,0.0,0.6303218571464945,0.040985039545671745,0,-0.040985039545671745,-0.00026549497660183794,0.04687153400229656,-0.008282381344682285,0.4,0.033551931381225586,1.0208921432495117,STABILIZE
0.17,0.004,0.15,-0.0005053717831010594,0.0023262412968236106,-2.0214871324042375e-06,0.012146454725738897,0.014470674535430102,0.17,0.004,0.15,-0.050977142969709,-0.008999495788282076,-0.000203908571878836,-0.01499010623389263,-0.024193510594053544,0.002,8e-05,0,-0.6766564325822995,-0.0012500749032648077,-5.413251460658396e-05,-0.0,-0.0013042074178713917,0.2,0.02,0,0.004253393421226998,-9.133313911390967e-05,8.506786842453997e-05,-0.0,-6.265270689369704e-06,-0.052938210519306333,0.0,0.052938210519306333,0.013683772334256532,0.0,-0.013683772334256532,-0.6250374516324039,0.0,0.6250374516324039,-0.00045666569556954834,0,0.00045666569556954834,0.014470481704949873,0.024193625929191293,6.265270689369704e-06,0.4,0.03345632553100586,1.0543620586395264,STABILIZE
0.17,0.004,0.15,-0.0001799806182436518,0.0016534532175186485,-7.199224729746072e-07,0.008470331030381171,0.010123064325426845,0.17,0.004,0.15,-0.05104585703004687,-0.0003491658545929305,-0.00020418342812018747,0.04746675660747542,0.046913407324762305,0.002,8e-05,0,-0.6973525656744154,-0.0012372470808046457,-5.578820525395323e-05,0.0,-0.0012930352860585988,0.2,0.02,0,0.0018918779004409607,-0.014117507707178484,3.7837558008819216e-05,-0.0,-0.014079670149169665,-0.0020539167917231205,0.0,0.0020539167917231205,0.00972619539716852,0.0,-0.00972619539716852,-0.6186235404023228,0.0,0.6186235404023228,-0.07058753853589242,0,0.07058753853589242,0.010180853240648028,-0.046900900262662096,0.014079670149169665,0.4,0.03345513343811035,1.087846040725708,STABILIZE
0.17,0.004,0.15,-0.0016199687311722437,-0.007283411906914165,-6.4798749246889746e-06,-0.038579177567207294,-0.04586906934904615,0.17,0.004,0.15,-0.051760881042076504,-0.0036165676342666173,-0.00020704352416830603,0.04784095530273591,0.04401734414430099,0.002,8e-05,0,-0.718097944680544,-0.0012344639523724063,-5.7447835574443526e-05,0.0,-0.0012919117879468499,0.2,0.02,0,0.0048066193673375794,0.01734431205284788,9.613238734675159e-05,0.0,0.01744044444019463,-0.021273927260391866,0.0,0.021273927260391866,-0.042843599452436265,0.0,0.042843599452436265,-0.6172319761862032,0.0,0.6172319761862032,0.0867215602642394,0,-0.0867215602642394,-0.045935640411650686,-0.04394786739350338,-0.01744044444019463,0.4,0.03361034393310547,1.1214325428009033,STABILIZE
0.17,0.004,0.15,-0.0012295060756709237,0.0019832615754936025,-4.918024302683695e-06,0.0020705059506139732,0.004048849501804892,0.17,0.004,0.15,-0.05355724685717558,-0.0091242100785339,-0.00021422898742870234,0.03034639238488773,0.021007953318925125,0.002,8e-05,0,-0.7404515381721343,-0.0013357614861861768,-5.9236123053770746e-05,-0.0,-0.0013949976092399476,0.2,0.02,0,0.005121166234321888,0.0018796064743515917,0.00010242332468643776,-0.0,0.0019820297990380295,-0.05367182399137588,0.0,0.05367182399137588,0.011666244561727074,0.0,-0.011666244561727074,-0.6678807430930884,0.0,0.6678807430930884,0.009398032371757958,0,-0.009398032371757958,0.0040454035840278004,-0.021008617155365984,-0.0019820297990380295,0.4,0.033469438552856445,1.1549081802368164,STABILIZE
0.17,0.004,0.15,-0.0009953592696735653,0.001189843570561665,-3.981437078694261e-06,0.009676869441318726,0.010862731574801696,0.17,0.004,0.15,-0.052751647133755984,0.004093746430894636,-0.00021100658853502393,0.10333542415029388,0.10721816399265349,0.002,8e-05,0,-0.7630468589747451,-0.0013508316146936068,-6.104374871797961e-05,-0.0,-0.0014118753634115863,0.2,0.02,0,0.007737809417310187,0.015643258030417852,0.00015475618834620374,0.0,0.015798014218764055,0.02408086135820374,0.0,-0.02408086135820374,0.006999079826833323,0.0,-0.006999079826833323,-0.6754158073468034,0.0,0.6754158073468034,0.07821629015208925,0,-0.07821629015208925,0.010716354574123616,-0.10723289314321138,-0.015798014218764055,0.4,0.033453941345214844,1.1883652210235596,STABILIZE
0.17,0.004,0.15,-0.002914342191276658,-0.009749653466734799,-1.1657368765106632e-05,-0.06349275633476441,-0.07325406717026431,0.17,0.004,0.15,-0.05570647811818037,-0.015012420291287586,-0.0002228259124727215,-0.031606944526952896,-0.046842190730713204,0.002,8e-05,0,-0.7861220678734652,-0.0013792556947583752,-6.288976542987722e-05,-0.0,-0.0014421454601882525,0.2,0.02,0,0.011832279383650328,0.024473542332286356,0.00023664558767300657,0.0,0.024710187919959364,-0.08830835465463285,0.0,0.08830835465463285,-0.05735090274549881,0.0,0.05735090274549881,-0.6896278473791876,0.0,0.6896278473791876,0.12236771166143177,0,-0.12236771166143177,-0.07315385840097648,0.046998533918495726,-0.024710187919959364,0.4,0.033460378646850586,1.221872329711914,STABILIZE
0.17,0.004,0.15,-0.007082528208741963,-0.020862338049879237,-2.8330112834967852e-05,-0.11768144587467003,-0.13857211403738423,0.17,0.004,0.15,-0.06261882350752514,-0.034597229016599416,-0.00025047529403010056,-0.1789917531843962,-0.2138394574950257,0.002,8e-05,0,-0.8098768236409193,-0.0013987739314117074,-6.479014589127354e-05,-0.0,-0.001463564077302981,0.2,0.02,0,0.017452974286992995,0.033096873671023104,0.0003490594857398599,0.0,0.03344593315676296,-0.2035131118623495,0.0,0.2035131118623495,-0.12271963558752493,0.0,0.12271963558752493,-0.6993869657058537,0.0,0.6993869657058537,0.1654843683551155,0,-0.1654843683551155,-0.13795391572369606,0.21423879552279063,-0.03344593315676296,0.4,0.033965110778808594,1.2557885646820068,STABILIZE
0.17,0.004,0.15,-0.0091054146222218,-0.010206857713991456,-3.64216584888872e-05,-0.014947933939987699,-0.02519121331246804,0.17,0.004,0.15,-0.06519425371506626,-0.012994822401060032,-0.00026077701486026505,-0.04868851162453631,-0.061944111040456606,0.002,8e-05,0,-0.8321955955232375,-0.0013248659262087516,-6.657564764185901e-05,-0.0,-0.0013914415738506105,0.2,0.02,0,0.024753983618915457,0.0433395642995007,0.0004950796723783091,0.0,0.04383464397187901,-0.07644013177094136,0.0,0.07644013177094136,-0.06004033949406738,0.0,0.06004033949406738,-0.6624329631043757,0.0,0.6624329631043757,0.2166978214975035,0,-0.2166978214975035,-0.02495675546917378,0.06203894323083325,-0.04383464397187901,0.4,0.033692121505737305,1.2894630432128906,STABILIZE
0.17,0.004,0.15,-0.012273399528667652,-0.016103754188762594,-4.909359811467061e-05,-0.09492380768189655,-0.11107665546877382,0.17,0.004,0.15,-0.06943771766515186,-0.02157071525877928,-0.00027775087066060747,-0.06490191625479273,-0.08675038238423262,0.002,8e-05,0,-0.8534677114507819,-0.0012721425953284825,-6.827741691606256e-05,0.0,-0.001340420012244545,0.2,0.02,0,0.03161229449591132,0.04101495793060132,0.0006322458899182264,0.0,0.04164720382051955,-0.12688656034576046,0.0,0.12688656034576046,-0.09472796581625055,0.0,0.09472796581625055,-0.6360712976642412,0.0,0.6360712976642412,0.2050747896530066,0,-0.2050747896530066,-0.11076544504062034,0.08714739479119597,-0.04164720382051955,0.4,0.03344297409057617,1.3229436874389648,STABILIZE
0.17,0.004,0.15,-0.013547142671724728,-0.006475393122499893,-5.418857068689891e-05,-0.039927231616888645,-0.04645681331007544,0.17,0.004,0.15,-0.07438653819176828,-0.025158571865302924,-0.0002975461527670731,-0.15356106809603434,-0.17901718611410433,0.002,8e-05,0,-0.874201154483042,-0.0012400431072100587,-6.993609235864337e-05,0.0,-0.001309979199568702,0.2,0.02,0,0.03780907091806242,0.0370621988699802,0.0007561814183612484,0.0,0.03781838028834145,-0.14799159920766425,0.0,0.14799159920766425,-0.038090547779411135,0.0,0.038090547779411135,-0.6200215536050293,0.0,0.6200215536050293,0.18531099434990098,0,-0.18531099434990098,-0.04587757838005335,0.17916650420522565,-0.03781838028834145,0.4,0.03343987464904785,1.356365442276001,STABILIZE
0.17,0.004,0.15,-0.01602188929050577,-0.012568360939356446,-6.408755716202309e-05,-0.014353968216483964,-0.026986416713002434,0.17,0.004,0.15,-0.07715482884713562,-0.014059167058824698,-0.0003086193153885425,0.005720681722518499,-0.008647104651694743,0.002,8e-05,0,-0.8949147836674426,-0.0012376138939678343,-7.159318269339541e-05,0.0,-0.0013092070766612296,0.2,0.02,0,0.04694838466101969,0.05460627671240427,0.0009389676932203939,0.0,0.055545244405624666,-0.0827009826989688,0.0,0.0827009826989688,-0.07393153493739085,0.0,0.07393153493739085,-0.6188069469839171,0.0,0.6188069469839171,0.27303138356202133,0,-0.27303138356202133,-0.026944904446625242,0.008775604265656765,-0.055545244405624666,0.4,0.03347349166870117,1.3898522853851318,STABILIZE
0.17,0.004,0.15,-0.018043706927795874,-0.010271680073036466,-7.21748277111835e-05,0.05549578795142584,0.04515193305067819,0.17,0.004,0.15,-0.08044498265328644,-0.016715358825913348,-0.00032177993061314575,0.09346815477355362,0.07643101601702712,0.002,8e-05,0,-0.9154542283658748,-0.0012276350391725284,-7.323633826926999e-05,0.0,-0.0013008713774417984,0.2,0.02,0,0.05447119900328268,0.044963584046927324,0.0010894239800656536,0.0,0.04605300802699298,-0.09832564015243145,0.0,0.09832564015243145,-0.06042164748844979,0.0,0.06042164748844979,-0.6138175195862642,0.0,0.6138175195862642,0.2248179202346366,0,-0.2248179202346366,0.04485168522559089,-0.07660759492395317,-0.04605300802699298,0.4,0.033461809158325195,1.4233362674713135,STABILIZE
0.17,0.004,0.15,-0.019637856965192768,-0.008057042361635463,-7.855142786077108e-05,0.011304249184923282,0.003168655395427048,0.17,0.004,0.15,-0.08429714133532344,-0.019469312772839538,-0.0003371885653412938,-0.03412827018605783,-0.05393477152423866,0.002,8e-05,0,-0.9360304660330393,-0.0012234704804023153,-7.488243728264315e-05,0.0,-0.0012983529176849584,0.2,0.02,0,0.060480149630402116,0.035729436204012754,0.0012096029926080424,-0.0,0.036939039196620796,-0.11452536925199727,0.0,0.11452536925199727,-0.04739436683314978,0.0,0.04739436683314978,-0.6117352402011577,0.0,0.6117352402011577,0.17864718102006377,0,-0.17864718102006377,0.003336807340688563,0.05392462955976537,-0.036939039196620796,0.4,0.033635854721069336,1.4569523334503174,STABILIZE
0.17,0.004,0.15,-0.021069997128475387,-0.00727457582330688,-8.427998851390155e-05,0.04654659379859878,0.039187737986778,0.17,0.004,0.15,-0.08803627895685068,-0.018993001410722552,-0.00035214511582740273,0.013636187745187473,-0.00570895878136248,0.002,8e-05,0,-0.956144942570817,-0.0012020207360381107,-7.649159540566536e-05,0.0,-0.0012785123314437762,0.2,0.02,0,0.06842141361554092,0.047456188892421175,0.0013684282723108185,0.0,0.04882461716473199,-0.11172353771013266,0.0,0.11172353771013266,-0.04279162249004047,0.0,0.04279162249004047,-0.6010103680190554,0.0,0.6010103680190554,0.23728094446210587,0,-0.23728094446210587,0.03921104457576621,0.005546620787915303,-0.04882461716473199,0.4,0.033467769622802734,1.4904234409332275,STABILIZE
0.17,0.004,0.15,-0.021558870291813956,-0.002485079154218396,-8.623548116725582e-05,0.021008352767427466,0.018437038132041814,0.17,0.004,0.15,-0.09161109476728127,-0.018171789570128244,-0.0003664443790691251,0.036903543848287,0.018365309899089632,0.002,8e-05,0,-0.9763717466470337,-0.0012096295037298407,-7.810973973176271e-05,0.0,-0.0012877392434616033,0.2,0.02,0,0.07445193986761503,0.036064533230454734,0.0014890387973523005,-0.0,0.037553572027807035,-0.10689287982428378,0.0,0.10689287982428378,-0.014618112671872917,0.0,0.014618112671872917,-0.6048147518649203,0.0,0.6048147518649203,0.18032266615227366,0,-0.18032266615227366,0.018379147169419886,-0.018423244342318446,-0.037553572027807035,0.4,0.03344297409057617,1.5238926410675049,STABILIZE
0.17,0.004,0.15,-0.02275583146760948,-0.0060859639327437935,-9.102332587043792e-05,0.03412456110201932,0.02794757384340509,0.17,0.004,0.15,-0.09658956764608781,-0.025313107052467698,-0.00038635827058435126,-0.05930413113709684,-0.08500359646014888,0.002,8e-05,0,-0.996554669518407,-0.0012072978996989683,-7.972437356147257e-05,0.0,-0.0012870222732604408,0.2,0.02,0,0.0813633702466729,0.041342651080469965,0.001627267404933458,-0.0,0.04296991848540342,-0.14890062972039822,0.0,0.14890062972039822,-0.03579978783966937,0.0,0.03579978783966937,-0.6036489498494841,0.0,0.6036489498494841,0.2067132554023498,0,-0.2067132554023498,0.02825406955280404,0.08490221344934258,-0.04296991848540342,0.4,0.03343486785888672,1.557307243347168,STABILIZE
0.17,0.004,0.15,-0.02466502210788731,-0.009709934590205117,-9.866008843154924e-05,0.002879697723605018,-0.006928896955031648,0.17,0.004,0.15,-0.10300728382887972,-0.032639801934259416,-0.0004120291353155189,-0.08397700502138093,-0.11702883609095587,0.002,8e-05,0,-1.0167905493709235,-0.0012107937603807381,-8.134324394967388e-05,0.0,-0.001292137004330412,0.2,0.02,0,0.08920319281771055,0.04690879922537199,0.001784063856354211,0.0,0.048692863081726205,-0.19199883490740832,0.0,0.19199883490740832,-0.05711726229532422,0.0,0.05711726229532422,-0.6053968801903691,0.0,0.6053968801903691,0.23454399612685994,0,-0.23454399612685994,-0.00644977509409341,0.11705621936083906,-0.048692863081726205,0.4,0.03342580795288086,1.5907318592071533,STABILIZE
0.17,0.004,0.15,-0.02617026757891659,-0.007649675400166775,-0.00010468107031566636,0.0021293797366572892,-0.005624976733825152,0.17,0.004,0.15,-0.10807258090307124,-0.02574190002145232,-0.00043229032361228497,-0.03313887804023643,-0.05931306838530104,0.002,8e-05,0,-1.037096010411255,-0.0012140305258302522,-8.29676808329004e-05,0.0,-0.0012969982066631527,0.2,0.02,0,0.09696369668861665,0.04639879181462804,0.0019392739337723331,0.0,0.048338065748400376,-0.1514229413026607,0.0,0.1514229413026607,-0.04499809058921632,0.0,0.04499809058921632,-0.6070152629151261,0.0,0.6070152629151261,0.2319939590731402,0,-0.2319939590731402,-0.005384769200144487,0.059335357968050104,-0.048338065748400376,0.4,0.03345131874084473,1.6241810321807861,STABILIZE
0.17,0.004,0.15,-0.027065848023024502,-0.004516583998567116,-0.00010826339209209801,0.014405744505419652,0.009780897114760437,0.17,0.004,0.15,-0.11222996331921394,-0.020966477126885326,-0.00044891985327685574,-0.010650355208179583,-0.03206575218834176,0.002,8e-05,0,-1.057560310962065,-0.0012141811034758288,-8.460482487696521e-05,-0.0,-0.001298785928352794,0.2,0.02,0,0.10361389573989643,0.039456740788031255,0.002072277914797929,-0.0,0.041529018702829185,-0.12333221839344309,0.0,0.12333221839344309,-0.026568141168041858,0.0,0.026568141168041858,-0.6070905517379144,0.0,0.6070905517379144,0.19728370394015626,0,-0.19728370394015626,0.009891249323079143,0.03203188409385811,-0.041529018702829185,0.4,0.033708810806274414,1.6579058170318604,STABILIZE
0.17,0.004,0.15,-0.027452374140158727,-0.00196333680019443,-0.00010980949656063491,0.002595416487011899,0.0005222701902568342,0.17,0.004,0.15,-0.11697533086770433,-0.024103816858420134,-0.0004679013234708173,-0.03152618564846161,-0.056097903830352555,0.002,8e-05,0,-1.077611385098484,-0.001198214801029792,-8.620891080787873e-05,0.0,-0.0012844237118376707,0.2,0.02,0,0.11027428328101839,0.03980123397913887,0.002205485665620368,0.0,0.042006719644759244,-0.14178715799070665,0.0,0.14178715799070665,-0.011549040001143703,0.0,0.011549040001143703,-0.599107400514896,0.0,0.599107400514896,0.19900616989569433,0,-0.19900616989569433,0.0007171122210240948,0.05609575144673233,-0.042006719644759244,0.4,0.03346824645996094,1.691375970840454,STABILIZE
0.17,0.004,0.15,-0.028536413125698126,-0.005514719674695379,-0.0001141456525027925,0.002846793270940702,-0.0027820720562574696,0.17,0.004,0.15,-0.12056110531554795,-0.018241540350787053,-0.0004822444212621918,0.03712364648620734,0.018399861714158097,0.002,8e-05,0,-1.0976587268475169,-0.0011998208599668235,-8.781269814780136e-05,0.0,-0.0012876335581146249,0.2,0.02,0,0.11653893463086347,0.03749354634674253,0.0023307786926172695,-0.0,0.0398243250393598,-0.10730317853404148,0.0,0.10730317853404148,-0.03243952749820811,0.0,0.03243952749820811,-0.5999104299834117,0.0,0.5999104299834117,0.18746773173371264,0,-0.18746773173371264,-0.002842260101171209,-0.01839066049775374,-0.0398243250393598,0.4,0.0334172248840332,1.724785566329956,STABILIZE
0.17,0.004,0.15,-0.029367336226305028,-0.004222279590200669,-0.00011746934490522012,0.028796860738036466,0.024457111802930576,0.17,0.004,0.15,-0.1253287846134153,-0.024226640199682004,-0.0005013151384536612,0.04423425647188454,0.019506301133748873,0.002,8e-05,0,-1.1175533246285312,-0.0011893300511156555,-8.94042659702825e-05,0.0,-0.001278734317085938,0.2,0.02,0,0.12201428109132478,0.03273247419915584,0.0024402856218264956,-0.0,0.035172759820982336,-0.14250964823342355,0.0,0.14250964823342355,-0.024836938765886288,0.0,0.024836938765886288,-0.5946650255578277,0.0,0.5946650255578277,0.1636623709957792,0,-0.1636623709957792,0.024401293382477218,-0.019576081909407003,-0.035172759820982336,0.4,0.03345513343811035,1.758246898651123,STABILIZE
0.17,0.004,0.15,-0.029489297115580265,-0.0006198950548826741,-0.00011795718846232106,0.03693496736514016,0.036197115121795166,0.17,0.004,0.15,-0.13017357905999016,-0.024624813226616842,-0.0005206943162399607,0.005743915807513284,-0.019401591735343518,0.002,8e-05,0,-1.1376193289086094,-0.0011998848346715476,-9.100954631268875e-05,0.0,-0.0012908943809842365,0.2,0.02,0,0.12764023721493725,0.033641473105595475,0.002552804744298745,-0.0,0.03619427784989422,-0.14485184250951083,0.0,0.14485184250951083,-0.003646441499309847,0.0,0.003646441499309847,-0.5999424173357738,0.0,0.5999424173357738,0.16820736552797735,0,-0.16820736552797735,0.03625391770962805,0.019295241789336566,-0.03619427784989422,0.4,0.033446550369262695,1.7917020320892334,STABILIZE
0.17,0.004,0.15,-0.030274976860408257,-0.003990984885635635,-0.00012109990744163303,0.0027570090252913805,-0.0013550757677858868,0.17,0.004,0.15,-0.13368106190022594,-0.017816815431676836,-0.0005347242476009037,0.016642459920007253,-0.001709079759270489,0.002,8e-05,0,-1.1575657729482662,-0.0011920132509982053,-9.26052618358613e-05,0.0,-0.0012846185128340666,0.2,0.02,0,0.13306304804182276,0.032407091461778455,0.002661260960836455,-0.0,0.03506835242261491,-0.10480479665692255,0.0,0.10480479665692255,-0.023476381680209615,0.0,0.023476381680209615,-0.5960066254991027,0.0,0.5960066254991027,0.16203545730889227,0,-0.16203545730889227,-0.001350236988532939,0.0017129051447135311,-0.03506835242261491,0.4,0.03346681594848633,1.8251721858978271,STABILIZE
0.17,0.004,0.15,-0.03028778958100245,-6.518548212404118e-05,-0.0001211511583240098,0.010027254096449056,0.009840917456001005,0.17,0.004,0.15,-0.1379522144762644,-0.021729744112313997,-0.0005518088579050576,0.012519977227700783,-0.00976157574251827,0.002,8e-05,0,-1.1774414610417034,-0.0011896323716116177,-9.419531688333628e-05,0.0,-0.001283827688494954,0.2,0.02,0,0.13731117896308706,0.02542661184368758,0.0027462235792617413,-0.0,0.02817283542294932,-0.12782202419008232,0.0,0.12782202419008232,-0.00038344401249435986,0.0,0.00038344401249435986,-0.5948161858058089,0.0,0.5948161858058089,0.1271330592184379,0,-0.1271330592184379,0.009862553079883997,0.009739715812035643,-0.02817283542294932,0.4,0.03341484069824219,1.858586072921753,STABILIZE
0.17,0.004,0.15,-0.029662271970694827,0.0031775743789120387,-0.00011864908788277931,0.04588142523156168,0.04894035052259094,0.17,0.004,0.15,-0.1431179894386122,-0.026241681924045482,-0.0005724719577544488,-0.04223033538793081,-0.06904448926973075,0.002,8e-05,0,-1.1972584290888149,-0.0011843347370442548,-9.57806743271052e-05,0.0,-0.00128011541137136,0.2,0.02,0,0.1412367104481795,0.023460416790819862,0.00282473420896359,-0.0,0.02628515099978345,-0.15436283484732635,0.0,0.15436283484732635,0.018691613993600226,0.0,-0.018691613993600226,-0.5921673685221274,0.0,0.5921673685221274,0.1173020839540993,0,-0.1173020839540993,0.04908160316446045,0.06894414869006983,-0.02628515099978345,0.4,0.03346514701843262,1.8920915126800537,STABILIZE
0.17,0.004,0.15,-0.029026210768356493,0.0032310658399193693,-0.00011610484307342597,0.039346074862908156,0.0424610358597541,0.17,0.004,0.15,-0.1471849051283908,-0.0206591320312697,-0.0005887396205135632,0.018777764508618438,-0.002470107143164823,0.002,8e-05,0,-1.2168184270760516,-0.001168952279011428,-9.734547416608413e-05,0.0,-0.001266297753177512,0.2,0.02,0,0.14407831875312596,0.016982131114187365,0.002881566375062519,-0.0,0.019863697489249883,-0.12152430606629233,0.0,0.12152430606629233,0.019006269646584525,0.0,-0.019006269646584525,-0.584476139505714,0.0,0.584476139505714,0.08491065557093683,0,-0.08491065557093683,0.042464649857124434,0.0024071784507717123,-0.019863697489249883,0.4,0.03346586227416992,1.9255294799804688,STABILIZE
0.17,0.004,0.15,-0.02835066607860325,0.0034319520427054206,-0.000113402664314413,0.02139858609331893,0.024717135471709936,0.17,0.004,0.15,-0.15017181359950182,-0.015174313090297542,-0.0006006872543980074,0.04980356826944652,0.034028567924750966,0.002,8e-05,0,-1.236299188098248,-0.0011643247223563713,-9.890393504785984e-05,0.0,-0.0012632286574042312,0.2,0.02,0,0.14580409120365911,0.010314584358526028,0.002916081824073182,-0.0,0.01323066618259921,-0.08926066523704436,0.0,0.08926066523704436,0.020187953192384825,0.0,-0.020187953192384825,-0.5821623611781856,0.0,0.5821623611781856,0.051572921792630136,0,-0.051572921792630136,0.024686495760449213,-0.03405080245758644,-0.01323066618259921,0.4,0.0334627628326416,1.9589879512786865,STABILIZE
0.17,0.004,0.15,-0.027224402978524073,0.005720665273092573,-0.0001088976119140963,0.051241965360065415,0.05685373302124389,0.17,0.004,0.15,-0.15343710400116142,-0.01658549712409415,-0.0006137484160046457,0.006464282920216216,-0.010734962619882578,0.002,8e-05,0,-1.2558148886184808,-0.001166196949042448,-0.00010046519108947848,0.0,-0.0012666621401319265,0.2,0.02,0,0.14678180447087827,0.005842507308857281,0.0029356360894175655,-0.0,0.008778143398274846,-0.09756174778878911,0.0,0.09756174778878911,0.03365097219466219,0.0,-0.03365097219466219,-0.583098474521224,0.0,0.583098474521224,0.029212536544286405,0,-0.029212536544286405,0.05685919890516637,0.010705974068896378,-0.008778143398274846,0.4,0.03346896171569824,1.992475986480713,STABILIZE
0.17,0.004,0.15,-0.02640705244664557,0.004155325183020834,-0.00010562820978658228,0.022248091055631577,0.02629778802886583,0.17,0.004,0.15,-0.15714665062345315,-0.018858949613419974,-0.0006285866024938126,0.015131337290586211,-0.004356198925327575,0.002,8e-05,0,-1.2753796536652715,-0.0011701792089269293,-0.00010203037229322173,0.0,-0.001272209581220151,0.2,0.02,0,0.14904911290859807,0.01356089473959482,0.0029809822581719613,-0.0,0.016541876997766783,-0.11093499772599984,0.0,0.11093499772599984,0.02444308931188726,0.0,-0.02444308931188726,-0.5850896044634646,0.0,0.5850896044634646,0.0678044736979741,0,-0.0678044736979741,0.02630292478822644,0.004325074782369337,-0.016541876997766783,0.4,0.033438920974731445,2.02590274810791,STABILIZE
0.17,0.004,0.15,-0.025882678583390117,0.0026553923601631137,-0.00010353071433356046,-0.002736499454288223,-0.00018463780845866945,0.17,0.004,0.15,-0.16133455660869125,-0.021207261340684215,-0.000645338226434765,0.026579670884967235,0.004727071317848254,0.002,8e-05,0,-1.29518544756001,-0.0011799429080561442,-0.0001036148358048008,0.0,-0.001283557743860945,0.2,0.02,0,0.152613270008702,0.02123369512889276,0.0030522654001740404,-0.0,0.024285960529066803,-0.12474859612167184,0.0,0.12474859612167184,0.01561995505978302,0.0,-0.01561995505978302,-0.589971454028072,0.0,0.589971454028072,0.1061684756444638,0,-0.1061684756444638,-0.0001933966998000252,-0.0047267210707680335,-0.024285960529066803,0.4,0.03357076644897461,2.0594749450683594,STABILIZE
0.17,0.004,0.15,-0.025302200753700897,0.0029497219323683195,-0.00010120880301480359,-0.001465992493442557,0.0013825206359109588,0.17,0.004,0.15,-0.16617442610649177,-0.02459399563133359,-0.0006646977044259671,-0.020722839661356896,-0.04598153299711645,0.002,8e-05,0,-1.3155430592770847,-0.001217035765267086,-0.00010524344474216678,-0.0,-0.0013222792100092528,0.2,0.02,0,0.1567879994004329,0.024957716311028347,0.003135759988008658,0.0,0.028093476299037006,-0.1446705625372564,0.0,0.1446705625372564,0.017351305484519526,0.0,-0.017351305484519526,-0.608517882633543,0.0,0.608517882633543,0.12478858155514173,0,-0.12478858155514173,0.0014826637514773668,0.045978412850746414,-0.028093476299037006,0.4,0.03345441818237305,2.0929248332977295,STABILIZE
0.17,0.004,0.15,-0.024523171029653987,0.003961240509367701,-9.809268411861595e-05,0.0028137845686343104,0.0066769323938833955,0.17,0.004,0.15,-0.17142145813115905,-0.02668031163443777,-0.0006856858325246363,-0.06066017130203478,-0.08802616876899719,0.002,8e-05,0,-1.3358437930319313,-0.001214423025392947,-0.00010686750344255452,-0.0,-0.0013212905288355014,0.2,0.02,0,0.1614142183804506,0.02767479696886362,0.0032282843676090123,0.0,0.030903081336472633,-0.15694300961433982,0.0,0.15694300961433982,0.023301414760986475,0.0,-0.023301414760986475,-0.6072115126964734,0.0,0.6072115126964734,0.1383739848443181,0,-0.1383739848443181,0.006889503098792302,0.08800978673643174,-0.030903081336472633,0.4,0.033432722091674805,2.126380205154419,STABILIZE
0.17,0.004,0.15,-0.02413227625030903,0.001987098429540961,-9.652910500123612e-05,-0.01967127887128291,-0.017780709546743184,0.17,0.004,0.15,-0.176466160274485,-0.025644547423486288,-0.00070586464109794,-0.04775379687330576,-0.07410420893788999,0.002,8e-05,0,-1.3561831421277106,-0.0012164034259412307,-0.00010849465137021686,-0.0,-0.0013248980773114475,0.2,0.02,0,0.16618983347380575,0.028560769241820667,0.003323796669476115,0.0,0.031884565911296785,-0.15085027896168404,0.0,0.15085027896168404,0.011688814291417417,0.0,-0.011688814291417417,-0.6082017129706153,0.0,0.6082017129706153,0.14280384620910333,0,-0.14280384620910333,-0.017595957380379234,0.0741482953152935,-0.031884565911296785,0.4,0.033441781997680664,2.1598398685455322,STABILIZE
0.17,0.004,0.15,-0.02312769863326909,0.005104293147453084,-9.251079453307636e-05,0.005031073135476324,0.010042855488396332,0.17,0.004,0.15,-0.18210294410092068,-0.028640690944048846,-0.0007284117764036828,-0.051558825805831376,-0.0809279285262839,0.002,8e-05,0,-1.377127758102286,-0.0012520036279768734,-0.0001101702206481829,-0.0,-0.0013621738486250562,0.2,0.02,0,0.1709353035099744,0.028366935488102974,0.0034187060701994882,0.0,0.03178564155830246,-0.16847465261205202,0.0,0.16847465261205202,0.03002525380854755,0.0,-0.03002525380854755,-0.6260018139884367,0.0,0.6260018139884367,0.14183467744051487,0,-0.14183467744051487,0.010243160152092234,0.08090281967901192,-0.03178564155830246,0.4,0.03345775604248047,2.1933040618896484,STABILIZE
0.17,0.004,0.15,-0.021532267248273236,0.008069982270677466,-8.612906899309295e-05,0.028487698990113247,0.036471552191797624,0.17,0.004,0.15,-0.1881442448554315,-0.030557998569684212,-0.0007525769794217259,-0.04928173804501543,-0.08059231359412136,0.002,8e-05,0,-1.398143425650833,-0.0012506008322792843,-0.00011185147405206664,-0.0,-0.001362452306331351,0.2,0.02,0,0.1754613049883529,0.026933340102959474,0.003509226099767058,0.0,0.030442566202726534,-0.1797529327628483,0.0,0.1797529327628483,0.04747048394516157,0.0,-0.04747048394516157,-0.6253004161396422,0.0,0.6253004161396422,0.13466670051479737,0,-0.13466670051479737,0.03666087362380384,0.08050636915717725,-0.030442566202726534,0.4,0.03360891342163086,2.226881504058838,STABILIZE
0.17,0.004,0.15,-0.020291494871702433,0.006302924604879228,-8.116597948680973e-05,0.017617092851240218,0.023838851476632637,0.17,0.004,0.15,-0.1933558847333595,-0.02647429443033511,-0.000773423538933438,-0.009882715999106811,-0.037130433968375356,0.002,8e-05,0,-1.418747454899333,-0.0012313548575941388,-0.00011349979639194666,-0.0,-0.0013448546539860855,0.2,0.02,0,0.1797342067784638,0.025536065357986998,0.003594684135569276,0.0,0.029130749493556273,-0.15573114370785357,0.0,0.15573114370785357,0.03707602708752487,0.0,-0.03707602708752487,-0.6156774287970693,0.0,0.6156774287970693,0.127680326789935,0,-0.127680326789935,0.02392153523882048,0.03707721831829759,-0.029130749493556273,0.4,0.03346562385559082,2.2603752613067627,STABILIZE
0.17,0.004,0.15,-0.018050510235011478,0.011399191304887717,-7.22020409400459e-05,0.039187729782433324,0.050514719046380996,0.17,0.004,0.15,-0.19970174356494128,-0.03227940862719437,-0.0007988069742597651,-0.02952309168653891,-0.06260130728799304,0.002,8e-05,0,-1.4390808265198631,-0.001216818027643468,-0.00011512646612158906,-0.0,-0.001331944493765057,0.2,0.02,0,0.18406985498912476,0.025945991657014267,0.003681397099782495,-0.0,0.02962738875679676,-0.1898788742776139,0.0,0.1898788742776139,0.06705406649933951,0.0,-0.06705406649933951,-0.608409013821734,0.0,0.608409013821734,0.12972995828507133,0,-0.12972995828507133,0.05065633225258013,0.06248677073762693,-0.02962738875679676,0.4,0.033420562744140625,2.29378342628479,STABILIZE
0.17,0.004,0.15,-0.015107906970663465,0.011399191304887717,-6.043162788265386e-05,0.04960517745646078,0.06094393713346584,0.17,0.004,0.15,-0.2080343954748077,-0.03227940862719437,-0.0008321375818992309,-0.03498876691856901,-0.06810031312766261,0.002,8e-05,0,-1.465780271364841,-0.001216818027643468,-0.00011726242170918728,-0.0,-0.0013340804493526552,0.2,0.02,0,0.18976292952826762,0.025945991657014267,0.0037952585905653524,-0.0,0.02974125024757962,-0.1898788742776139,0.0,0.1898788742776139,0.06705406649933951,0.0,-0.06705406649933951,-0.608409013821734,0.0,0.608409013821734,0.12972995828507133,0,-0.12972995828507133,0.061097974526477764,0.06796214851058938,-0.02974125024757962,0.4,0.0438840389251709,2.33768892288208,STABILIZE
0.17,0.004,0.15,-0.013075531357810002,0.010329661398702221,-5.230212543124001e-05,0.027520903144079515,0.037798262417350494,0.17,0.004,0.15,-0.21366413438551768,-0.02861345921637258,-0.0008546565375420707,0.00015576385839581207,-0.02931235189551884,0.002,8e-05,0,-1.4861056859821151,-0.0012153534511496456,-0.00011888845487856922,0.0,-0.0013342419060282148,0.2,0.02,0,0.1934381558351183,0.021975930429437747,0.0038687631167023664,-0.0,0.025844693546140114,-0.16831446597866223,0.0,0.16831446597866223,0.06076271411001306,0.0,-0.06076271411001306,-0.6076767255748228,0.0,0.6076767255748228,0.10987965214718873,0,-0.10987965214718873,0.03785440698162305,0.029239809976934976,-0.025844693546140114,0.4,0.0334477424621582,2.3712246417999268,STABILIZE
0.17,0.004,0.15,-0.011227662228351105,0.009400004493134818,-4.491064891340442e-05,0.007039823496295042,0.016394917340516457,0.17,0.004,0.15,-0.2195845202840048,-0.03011666419426965,-0.0008783380811360192,0.0022852169932337696,-0.028709785282171902,0.002,8e-05,0,-1.5063601490164202,-0.0012121564015244155,-0.00012050881192131363,0.0,-0.0013326652134457292,0.2,0.02,0,0.19777280289932847,0.025941295892822208,0.003955456057986569,-0.0,0.029896751950808778,-0.17715684820158617,0.0,0.17715684820158617,0.05529414407726363,0.0,-0.05529414407726363,-0.6060782007622078,0.0,0.6060782007622078,0.12970647946411104,0,-0.12970647946411104,0.016459868633713494,0.02867259684980899,-0.029896751950808778,0.4,0.033418893814086914,2.404542922973633,STABILIZE
0.17,0.004,0.15,-0.009569047291670888,0.008426398252755173,-3.827618916668355e-05,0.011223294803122275,0.019611416866710765,0.17,0.004,0.15,-0.2255606818684483,-0.030361186565779907,-0.0009022427274737932,-0.02053848094455355,-0.05180191023780725,0.002,8e-05,0,-1.5265340128669664,-0.0012057758153730207,-0.00012212272102935732,0.0,-0.001327898536402378,0.2,0.02,0,0.20195475344684247,0.024995186190580828,0.00403909506893685,-0.0,0.029034281259517677,-0.17859521509282297,0.0,0.17859521509282297,0.04956704854561866,0.0,-0.04956704854561866,-0.6028879076865103,0.0,0.6028879076865103,0.12497593095290413,0,-0.12497593095290413,0.01972436259878816,0.051759009803871575,-0.029034281259517677,0.4,0.0334620475769043,2.438049554824829,STABILIZE
0.17,0.004,0.15,-0.007636775661647617,0.009824448880638275,-3.054710264659047e-05,-0.008307710797442905,0.0014861909805487811,0.17,0.004,0.15,-0.23079138526643023,-0.026595007319253305,-0.000923165541065721,0.029991883484548478,0.0024737106242294533,0.002,8e-05,0,-1.5464981168026433,-0.0011941830873555118,-0.00012371984934421147,0.0,-0.0013179029366997233,0.2,0.02,0,0.2052446671015686,0.01967911636801809,0.004104893342031372,-0.0,0.023784009710049465,-0.15644121952501944,0.0,0.15644121952501944,0.05779087576846044,0.0,-0.05779087576846044,-0.597091543677756,0.0,0.597091543677756,0.09839558184009045,0,-0.09839558184009045,0.0014819406213617743,-0.0024762592509363994,-0.023784009710049465,0.4,0.03343558311462402,2.4714577198028564,STABILIZE
0.17,0.004,0.15,-0.00595748046132398,0.008534684832196692,-2.382992184529592e-05,-0.015112177926757302,-0.006601323016405905,0.17,0.004,0.15,-0.23630662539485822,-0.02803011421752729,-0.0009452265015794329,0.022420624440573085,-0.006554716278533636,0.002,8e-05,0,-1.5664507766878022,-0.0011930051414778872,-0.0001253160621350242,0.0,-0.0013183212036129114,0.2,0.02,0,0.2090242918865565,0.022599051090435113,0.00418048583773113,-0.0,0.026779536928166245,-0.16488302480898404,0.0,0.16488302480898404,0.05020402842468642,0.0,-0.05020402842468642,-0.5965025707389435,0.0,0.5965025707389435,0.11299525545217556,0,-0.11299525545217556,-0.0065883833741927425,0.006567722251562169,-0.026779536928166245,0.4,0.033449411392211914,2.504909038543701,STABILIZE
0.17,0.004,0.15,-0.00425576676228406,0.008648992292488104,-1.702306704913624e-05,-0.008866245697181726,-0.00023427647174275798,0.17,0.004,0.15,-0.2417714726472629,-0.02777519026399045,-0.0009670858905890516,0.004424014048112405,-0.024318262106467092,0.002,8e-05,0,-1.586397558459332,-0.0011927046862800128,-0.00012691180467674657,0.0,-0.0013196164909567594,0.2,0.02,0,0.21245205668307435,0.020496093971949778,0.004249041133661487,-0.0,0.024745135105611264,-0.16338347214112028,0.0,0.16338347214112028,0.050876425249930024,0.0,-0.050876425249930024,-0.5963523431400064,0.0,0.5963523431400064,0.10248046985974889,0,-0.10248046985974889,-0.00019077995087308825,0.024318642239121627,-0.024745135105611264,0.4,0.033447980880737305,2.5383834838867188,STABILIZE
0.17,0.004,0.15,-0.002825388127833369,0.007273400279256632,-1.1301552511333477e-05,-0.011218185197969697,-0.003956086471224398,0.17,0.004,0.15,-0.24658661651868433,-0.024484753851561295,-0.0009863464660747373,0.02973032629652056,0.004259225978884527,0.002,8e-05,0,-1.6061505414683903,-0.0011816809625574136,-0.00012849204331747124,0.0,-0.0013101730058748848,0.2,0.02,0,0.2158258455625348,0.020182987494689244,0.004316516911250697,-0.0,0.02449950440593994,-0.1440279638327135,0.0,0.1440279638327135,0.04278470752503901,0.0,-0.04278470752503901,-0.5908404812787068,0.0,0.5908404812787068,0.10091493747344621,0,-0.10091493747344621,-0.003963582096991947,-0.0042522515291801,-0.02449950440593994,0.4,0.0334320068359375,2.5717971324920654,STABILIZE
0.17,0.004,0.15,-0.0014613732209373686,0.006929470561142096,-5.845492883749475e-06,-0.00789736186316352,-0.0009737367949051732,0.17,0.004,0.15,-0.2514285583662377,-0.024598040183985287,-0.0010057142334649507,0.030422454091318274,0.004818699673868037,0.002,8e-05,0,-1.6259175980319966,-0.001181419178696308,-0.00013007340784255975,0.0,-0.0013114925865388676,0.2,0.02,0,0.2193695592573603,0.021179740693329542,0.004387391185147206,-0.0,0.02556713187847675,-0.14469435402344286,0.0,0.14469435402344286,0.040761591536129974,0.0,-0.040761591536129974,-0.590709589348154,0.0,0.590709589348154,0.1058987034666477,0,-0.1058987034666477,-0.0009826414379112353,-0.004816891704947067,-0.02556713187847675,0.4,0.033463239669799805,2.6052801609039307,STABILIZE
0.17,0.004,0.15,5.7386762457013307e-05,0.007718191282581665,2.2954704982805322e-07,-0.011115408184758058,-0.003396987355126565,0.17,0.004,0.15,-0.2563733005652952,-0.025128701409476893,-0.0010254932022611808,0.007745418365081168,-0.01840877624665691,0.002,8e-05,0,-1.6456388958646733,-0.0011790791456622101,-0.00013165111166917387,0.0,-0.001310730257331384,0.2,0.02,0,0.22251199278567255,0.018787697804165344,0.004450239855713451,-0.0,0.023237937659878798,-0.1478158906439817,0.0,0.1478158906439817,0.04540112519165685,0.0,-0.04540112519165685,-0.589539572831105,0.0,0.589539572831105,0.09393848902082672,0,-0.09393848902082672,-0.0033668009529233354,0.01841432098486838,-0.023237937659878798,0.4,0.03345203399658203,2.638746500015259,STABILIZE
0.17,0.004,0.15,0.001343764099648107,0.006533101090844477,5.3750563985924276e-06,-0.01055872228199583,-0.004020246134752761,0.17,0.004,0.15,-0.26082410351513774,-0.022604211661753287,-0.001043296414060551,0.028625756973144914,0.004978248897331075,0.002,8e-05,0,-1.6651629240179604,-0.0011665450028055485,-0.00013321303392143684,0.0,-0.0012997580367269854,0.2,0.02,0,0.2256751065835957,0.018899350919299392,0.004513502131671915,-0.0,0.023412853050971308,-0.13296595095148991,0.0,0.13296595095148991,0.038430006416732214,0.0,-0.038430006416732214,-0.5832725014027742,0.0,0.5832725014027742,0.09449675459649695,0,-0.09449675459649695,-0.004028451187103054,-0.004971611620078601,-0.023412853050971308,0.4,0.03347325325012207,2.672196626663208,STABILIZE
