Mode,Time,Freq,North-Vision,East-Vision,Down-Vision,Yaw-Vision,North-Desired,East-Desired,Down-Desired,Roll-UAV,Pitch-UAV,Yaw-UAV,Roll-Control,Pitch-Control,Yaw-Control,Thrust-Control,northVraw,eastVraw,downVraw,N-Velocity,E-Velocity,D-Velocity,N-Acceleration,E-Acceleration,D-Acceleration,yawVraw,yawRate,Landing-State,Q-Size,N-diff,E-diff,D-diff,Y-diff
GUIDED_NOGPS,0.038233041763305664,26.16468709452041,-11.111792062313288,41.697018302708265,46.649353041739964,-9.04385708080862,0.0,0.0,0.5,-0.017783024494149664,0.7666017561437194,16.635567761348035,0.0,0.0,0.0,0.5,-10.365771028729018,43.27309507354242,45.62774811581739,1.0315941646695137,-10.441327840089798,-4.043176025152206,-93.39610934257507,-9.89513173699379,4.266420006752014,-7.445548651609223,3.515825361112077,False,0,0.8210302490357915,0.14241640339752593,0.26340916660932123,0.21144097224736846
GUIDED_NOGPS,0.07174158096313477,29.848448619413606,-11.000366209520823,41.50085932126717,46.57459832959037,-8.77537918439107,0.0,0.0,0.5,-0.09447193492780326,0.6367339266472721,16.591562560072937,0.0,0.0,2.0928640278329307,0.5,-10.104417439985575,42.93913791924965,45.51332636947929,-1.7830271273851395,-11.182421445846558,-1.5072258189320564,-25.9286105632782,-15.26666134595871,-189.971923828125,-7.2220722900078975,4.901103838006553,False,0,1.0780262670676262,-0.04769559739085594,0.39668928473772525,0.39966299724150733
GUIDED_NOGPS,0.10699892044067383,28.36845202264442,-10.802404762783315,41.28424767081776,46.529790552915394,-8.603286562173341,0.0,0.0,0.5,-0.16912817039229047,0.513977337933013,16.607102947982007,0.0,0.0,4.093032540812346,0.5,-9.499724470188667,42.593941651989674,45.45731019089177,4.270336031913757,-13.132454454898834,0.43401215225458145,37.896472215652466,-15.396711230278015,-19.61558908224106,-6.979826500357336,0.7202432878952859,False,0,1.4638277503673542,-0.29677856134300384,0.21994035184670224,0.49383909309815266
GUIDED_NOGPS,0.14099836349487305,29.418641678298133,-10.657716335927967,41.024948524806575,46.41919718669707,-8.46780098971922,0.0,0.0,0.5,-0.19991695562341547,0.37837273650313685,16.68289072701247,0.0,0.0,5.911915622135862,0.5,-9.09773268953377,41.8749036850169,45.32058262119334,-0.3035688307136297,-13.53466510772705,-3.475561738014221,-74.68005418777466,-24.069547653198242,1.950141042470932,-6.815247108519525,-2.096858043353571,False,0,1.775420451887296,-0.9969526160278903,0.304480786028563,0.5692138609415993
GUIDED_NOGPS,0.17334246635437012,30.919132498857387,-10.536014530245321,40.780960285372885,46.255769005383996,-8.299755870867738,0.0,0.0,0.5,-0.19786480394294398,0.30698909546601133,16.82879552051499,0.0,0.0,7.468952709129846,0.5,-9.093872278581038,41.88564336375735,45.2035642852903,-0.725330738350749,-13.44279944896698,-6.682965904474258,-68.90197992324829,6.210003048181534,-63.84912133216858,-6.605186927089386,0.6510647307430167,False,0,0.08844705891984894,0.27947756263194634,-0.4222570823189926,0.007885087820151071
GUIDED_NOGPS,0.20817065238952637,28.7180779316814,-10.408261581301462,40.49988931340196,46.09093225536505,-8.145028360181549,0.0,0.0,0.5,-0.14648571976772798,0.15697759736416836,16.991499164281155,0.0,0.0,8.695180719384028,0.5,-8.70992281689442,40.832172532802666,45.10328159250584,-0.725330738350749,-13.44279944896698,-6.682965904474258,-68.90197992324829,6.210003048181534,-63.84912133216858,-6.6148280037438,0.6510647307430167,False,0,-0.6794518644533909,2.386419224541328,-0.22169169675007794,0.027167241128978503
GUIDED_NOGPS,0.24202442169189453,29.540264533122983,-10.215965703217284,40.170526041993554,46.0832443769438,-8.081740720896864,0.0,0.0,0.5,-0.15087446315500497,0.0738914944012838,17.12986172139269,0.0,0.0,9.536288510260055,0.5,-8.382411425720427,40.64339508942645,45.12486000871655,2.723369561135769,-16.04914665222168,3.282012417912483,5.723278969526291,-27.349326014518738,163.25987577438354,-6.559057310008175,-5.177267169170387,False,0,-0.024429082105406508,2.0088643377888857,-0.17853486432865395,0.13870862860022992
GUIDED_NOGPS,0.27581048011779785,29.601349396229878,-10.056896179300942,39.88044073410251,46.045539900692546,-8.054867600701826,0.0,0.0,0.5,-0.35128692765836367,-0.013648478869830871,17.463246669875595,0.0,0.0,9.95502238601579,0.5,-8.88385704324972,41.084160377440256,44.68089791739789,2.7559177950024605,-15.572722256183624,2.364741824567318,22.487910091876984,3.151470422744751,105.07005453109741,-6.67150221277527,-6.379868821618286,False,0,0.9784621529531776,1.127333761761271,0.7093893183086664,0.3635984341344205
GUIDED_NOGPS,0.30902981758117676,30.10878288647213,-9.942145403930542,39.55736428373517,46.060679408415595,-8.035615085902672,0.0,0.0,0.5,-0.4306575144344671,0.03544035749931523,17.652745145755723,0.0,0.0,9.932836109684285,0.5,-9.136803066512208,40.642097248026175,44.39984370355282,0.9650435298681259,-16.719134151935577,6.391800940036774,-36.87094449996948,-23.111072182655334,96.34538292884827,-6.707114422400057,-6.367907025947479,False,0,0.47257010642820063,0.24320750293311022,0.1472808906185179,0.2923740148848468
GUIDED_NOGPS,0.34696388244628906,26.36335294413436,-9.785419872905338,39.15958700437993,46.09209675117993,-8.02939238489569,0.0,0.0,0.5,-0.5391426363213961,0.25639148098138,18.060644042988883,0.0,0.0,9.470712338657458,0.5,-7.987702869731574,38.69553945045831,44.68792480614515,0.9650435298681259,-16.719134151935577,6.391800940036774,-36.87094449996948,-23.111072182655334,96.34538292884827,-6.803564859314509,-6.367907025947479,False,0,0.0077905893850980235,0.8509920822559351,-0.32416272075901986,-0.33201417197694205
GUIDED_NOGPS,0.38077569007873535,29.580681561724216,-9.563395270606225,38.71726796646599,46.18356792086805,-8.10392270926802,0.0,0.0,0.5,-0.47210625060842504,0.530635262184175,18.349863280751197,0.0,0.0,8.589119101584899,0.5,-8.111780955371092,38.64267558051837,44.65861701502481,4.830706864595413,-17.676500976085663,10.168544948101044,15.866950154304504,-18.840770423412323,105.08750677108765,-6.963170834578498,-11.516909591671883,False,0,0.2559467606641359,0.9567198221358026,-0.2655471385183432,-0.012802221448964701
GUIDED_NOGPS,0.4253385066986084,22.443835616438356,-9.439611874912497,38.26905145413368,46.383522520465526,-8.10271364114711,0.0,0.0,0.5,-0.47283777454070397,0.9336118341815787,18.71932528843011,0.0,0.0,7.327103244279351,0.5,-8.013039701934686,38.13842205424781,44.64978318786821,-0.06048849318176508,-19.701728224754333,16.931089758872986,-45.80678343772888,-25.085094571113586,134.08352136611938,-7.066338974397681,-5.041774999057551,False,0,0.45342926753695156,-0.051787230405331286,-0.2832147928315507,-0.21913850108733168
GUIDED_NOGPS,0.4570479393005371,31.540863287712437,-9.260172716142948,37.68419854212235,46.58315503663387,-8.19768792771955,0.0,0.0,0.5,-0.49245429128039214,1.1177659004795815,19.156257612277706,0.0,0.0,5.740560997021648,0.5,-8.137303128448892,36.99580248497826,44.73508518372449,2.425573952496052,-21.352113783359528,15.79781323671341,-34.67397093772888,-38.50081264972687,80.88973760604858,-7.386674026579065,-10.795129351130786,False,0,-0.5979450861063773,-0.20918304544812827,-0.19147399679452093,-0.577880568056016
GUIDED_NOGPS,0.4903256893157959,30.052692293913232,-9.110755929771535,37.17435605252626,46.8613644083558,-8.346793348952776,0.0,0.0,0.5,-0.5018336351147006,1.171606894324617,19.411061234359615,0.0,0.0,3.8997622619605226,0.5,-7.309093521032128,36.2534516922433,45.355361156229066,1.4539847150444984,-22.096441686153412,20.02432942390442,152.81805992126465,-26.921406388282776,241.38851165771484,-7.779086910471632,-11.635684020017466,False,0,-1.043053402421564,0.7692002988974735,-0.17129660174064298,-0.4310451000429536
GUIDED_NOGPS,0.5235404968261719,30.10899902371791,-9.021291802955727,36.66739164910757,47.14358008894379,-8.480591753820482,0.0,0.0,0.5,-0.6362663788542436,1.0686035862160048,19.901426128084218,0.0,0.0,1.8862382729548939,0.5,-8.151407303020584,36.633995813433216,45.1968449731067,-0.03508796216920018,-22.727100551128387,20.666076242923737,18.915286660194397,-38.8037383556366,36.65395677089691,-8.156611771249112,-9.735428062724246,False,0,0.641574161555349,0.008112056517646238,0.14573576450409576,0.32400462151200937
GUIDED_NOGPS,0.5566346645355225,30.222247841939158,-8.911463642846208,36.1310278402002,47.45548823205978,-8.620879792348992,0.0,0.0,0.5,-0.7548673844279318,0.9115661179748932,20.360319217660695,0.0,0.0,-0.21082952277810635,0.5,-7.58443588338743,35.710772071891085,45.904731656973084,-0.03508796216920018,-22.727100551128387,20.666076242923737,18.915286660194397,-38.8037383556366,36.65395677089691,-8.302857423647511,-9.735428062724246,False,0,-1.096792430891365,0.46270051805353063,-0.6501543025889518,-0.010700363224110276
GUIDED_NOGPS,0.5907671451568604,29.301086311083168,-8.80242330877415,35.52274086224325,47.80397460865309,-8.825883662231501,0.0,0.0,0.5,-0.69212702762034,0.727618291373313,20.731509263199623,0.0,0.0,-2.298559420348432,0.5,-7.382022547687475,34.465623257364946,45.99799869206332,-0.2836551982909441,-24.737615883350372,22.954954206943512,-93.38114261627197,-45.26831805706024,-0.12916997075080872,-8.766337517926369,-12.608055363469868,False,0,-0.7317855785069147,-0.5694200407421448,-1.3715714681784377,-0.22017178548692584
GUIDED_NOGPS,0.6246731281280518,29.49809056959399,-8.731551348741805,34.90612527339801,48.17903046668174,-8.997742931892466,0.0,0.0,0.5,-0.49443152432340504,0.5641862186043355,21.230808044358604,0.0,0.0,-4.284483301829301,0.5,-7.382022547687475,34.465623257364946,45.99799869206332,-2.4267438799142838,-26.065653562545776,24.789825081825256,-81.53761029243469,-49.092087149620056,121.72491550445557,-8.766337517926369,-10.499085046840337,False,0,-0.7317855785069147,-0.5694200407421448,-1.3715714681784377,-0.22017178548692584
GUIDED_NOGPS,0.6576061248779297,30.366661357350747,-8.629794703008788,34.240921650101846,48.54741929926705,-9.192861302639365,0.0,0.0,0.5,-0.29061142241423144,0.40070681475884384,21.65744215048511,0.0,0.0,-6.080642162619563,0.5,-7.6406504410772405,33.184299088841954,46.915893967830385,0.8616868406534195,-27.32989192008972,22.33387976884842,-54.90441918373108,-51.10275149345398,-54.50194478034973,-9.314777299577685,-10.606607592301971,False,0,-0.21452979172738473,1.9932282963038332,-3.2073620197125763,0.8767077778157084
GUIDED_NOGPS,0.6931989192962646,28.14610217489045,-8.524528608792647,33.56179362545377,48.95856884439009,-9.375978144346233,0.0,0.0,0.5,-0.08141943008369568,0.21809893253420262,22.065837943980387,0.0,0.0,-7.607481923646012,0.5,-7.67613980251587,32.957117331710975,47.513258062770475,1.5142595395445824,-28.735828399658203,23.79472702741623,90.58418869972229,-24.25365447998047,-24.407576024532318,-9.330668336630941,-9.936151954505288,False,0,-0.28550851460464255,1.5388647820418768,-2.012633829832403,0.8449257037091975
GUIDED_NOGPS,0.7246713638305664,31.77238260447993,-8.447488050184033,32.782823423376406,49.442617593993624,-9.596940800135068,0.0,0.0,0.5,0.07940844630122938,0.11162434086249035,22.303639517670845,0.0,0.0,-8.79737697910487,0.5,-7.2862947907489035,30.97190599392401,48.680286852258995,-1.1978361755609512,-30.407842993736267,25.47929883003235,29.18258011341095,-31.908228993415833,2.7902550995349884,-10.278530534613447,-9.813988898557733,False,0,0.49418150892928914,-2.431557893532055,0.32142374914464256,-1.050798692255814
GUIDED_NOGPS,0.7596769332885742,28.574278200918343,-8.270979950528318,32.03190330553044,49.927734984395826,-9.829410509440706,0.0,0.0,0.5,0.16861109038756614,0.019022397003602858,22.522050184307634,0.0,0.0,-9.597625417490859,0.5,-7.016807609856157,30.579739187426004,49.198157809328954,5.230068415403366,-30.60983717441559,25.65767467021942,79.64192628860474,-21.62145972251892,-10.942773520946503,-10.472453366021295,-10.607060092334484,False,0,-0.0447928528562036,-1.6472242805360366,-0.7143181649952766,-0.6629530294401196
GUIDED_NOGPS,0.7936220169067383,29.46369288047487,-8.121956094436955,31.16015704008832,50.4890809016365,-10.081786115528349,0.0,0.0,0.5,0.5216373417263295,0.011931059819542898,22.88005796474844,0.0,0.0,-9.972783253900806,0.5,-6.828032205419634,28.715914686666057,50.44224347749719,2.8008582070469856,-32.279834151268005,26.41865313053131,46.231263875961304,-29.15133535861969,40.619003772735596,-11.085712514513647,-10.01261848358452,False,0,-0.1897577996395432,-0.015642731416605216,-1.5561312443086024,-0.17721625652272976
GUIDED_NOGPS,0.8265337944030762,30.38646111046714,-8.001762112085084,30.23857831881615,51.00379372533592,-10.335676427230926,0.0,0.0,0.5,0.6460189284936698,0.03996759898027008,23.08605988521061,0.0,0.0,-9.9062342875998,0.5,-6.651913224881961,27.202161974701696,51.23506394524408,0.8789699524641037,-33.34747850894928,22.171570360660553,-42.27051138877869,-34.9145233631134,-76.9771933555603,-11.799691973926508,-8.52563678240126,False,0,0.23977922726926781,-0.9310476700132853,0.24769856515849398,-0.40834793971099614
GUIDED_NOGPS,0.8605105876922607,29.43391883451814,-7.923289992017635,29.334876418854005,51.477273715506996,-10.572185418598908,0.0,0.0,0.5,0.6613845596095241,-0.030807728333901184,23.2104017715034,0.0,0.0,-9.4009260539328,0.5,-6.647043555579623,26.59922773882317,51.63861797906671,-1.3923872262239456,-32.77667164802551,19.551770389080048,4.377596080303192,-16.832910478115082,-62.8673255443573,-11.997007777665264,-7.376937275335809,False,0,0.2300398886645949,0.2748208017437648,-0.5594095024867514,-0.01371633223348745
GUIDED_NOGPS,0.8997886180877686,25.46555356546553,-7.753241150715128,28.404781046607837,52.06980633261609,-10.78857321090244,0.0,0.0,0.5,0.7828612882671993,-0.004430284811252411,23.295060258718415,0.0,0.0,-8.479239274368842,0.5,-6.574864025852707,25.968232162925062,52.08398260955567,4.596779868006706,-33.160337805747986,26.241347193717957,72.86533713340759,-5.753491073846817,24.335455894470215,-12.134064212819403,-5.830005723146879,False,1,0.37439894811842755,-0.9871703500524553,0.33131975849117623,-0.2878292025417668
GUIDED_NOGPS,0.9374971389770508,26.52155273258424,-7.632999969518281,27.46191949000549,52.63901760942109,-10.950470127734773,0.0,0.0,0.5,1.0165483666738107,-0.04583649238545643,23.337906035381902,0.0,0.0,-7.181996586895462,0.5,-6.519474600053775,25.341684801673672,52.50548543262258,1.5491018071770668,-34.24559533596039,24.56905096769333,-35.14925837516785,-26.445189118385315,-22.063210606575012,-12.305178885708928,-2.2849236736118756,False,0,0.2636200965205635,0.26592437245031775,-0.5116858876426491,0.05440014323728448
GUIDED_NOGPS,0.9653723239898682,35.8815669030652,-7.477242889217234,26.52572561340897,53.15120189549754,-11.105117487651947,0.0,0.0,0.5,1.0098643862407184,-0.19155932537961895,23.259495463710156,0.0,0.0,-5.566654461310076,0.5,-6.175259795478068,23.812765954885478,53.78248793943898,3.7608306854963303,-34.79896783828735,20.320485532283783,-6.9013722240924835,-8.568248897790909,-69.92600560188293,-12.739447336559675,-1.755947933952602,False,1,-0.015203741611904853,1.2465042687917958,-1.3270325277377708,0.25875974783074973
GUIDED_NOGPS,0.9987108707427979,29.998097540391505,-7.366900956656001,25.60146354764267,53.703583776864,-11.189749621820951,0.0,0.0,0.5,1.0381987856822816,-0.2362790284749254,23.180803146735148,0.0,0.0,-3.7047583816978453,0.5,-5.815299762314072,21.60495194493533,55.38005678364023,0.8966044522821903,-35.55767238140106,23.11653643846512,-29.65322732925415,-21.288777887821198,61.33300065994263,-13.203346423224659,2.695656885907181,False,1,0.4838180689269542,-0.8440272828368016,0.2910278840084217,-0.2295734475365574
GUIDED_NOGPS,1.0462837219238281,21.022394193949356,-7.213838730348146,24.57421679392026,54.17183880273243,-11.284084201464095,0.0,0.0,0.5,1.0987991054846908,-0.4262639418900035,22.96804446163654,0.0,0.0,-1.6787740091854046,0.5,-5.815299762314072,21.60495194493533,55.38005678364023,2.959313616156578,-36.08574867248535,13.515612483024597,58.46816897392273,-15.527082979679108,-161.74614429473877,-13.203346423224659,3.1191096179843423,False,0,0.4838180689269542,-0.8440272828368016,0.2910278840084217,-0.2295734475365574
GUIDED_NOGPS,1.0703089237213135,41.63122214612552,-7.029818127027826,23.417079305901257,54.76207936110054,-11.309210914091643,0.0,0.0,0.5,1.0780784459769879,-0.5227106952822264,22.79780541166856,0.0,0.0,0.42156532334096364,0.5,-4.874964806341538,17.75446635363112,58.08472959695908,2.7078362181782722,-35.780516266822815,15.16808420419693,-7.258109748363495,-14.616510272026062,-72.05411791801453,-13.373662321939054,7.719116092375108,False,0,0.8043150306461841,0.10315951566155945,-0.3619914392592918,0.03920380290384351
GUIDED_NOGPS,1.1042516231536865,29.464106833013705,-6.868326601704561,22.51174096719038,55.181765770266374,-11.31210788262562,0.0,0.0,0.5,0.958466465684432,-0.7500505535983389,22.418019573059173,0.0,0.0,2.5032330106138545,0.5,-4.874964806341538,17.75446635363112,58.08472959695908,3.6971651017665863,-36.77672743797302,13.982552289962769,29.904136061668396,-11.655903607606888,-61.40099763870239,-13.373662321939054,6.915880723339731,False,0,0.8043150306461841,0.10315951566155945,-0.3619914392592918,0.03920380290384351
GUIDED_NOGPS,1.139564037322998,28.323624945132863,-6.680312759710346,21.341339287512817,55.759106819299454,-11.333160501811886,0.0,0.0,0.5,0.9625713026539039,-0.8503903013740575,22.098653587847714,0.0,0.0,4.474029437436339,0.5,-4.828448017664935,16.263410267246016,59.06988657974435,3.6971651017665863,-36.77672743797302,13.982552289962769,29.904136061668396,-11.655903607606888,-61.40099763870239,-13.264899244488202,6.915880723339731,False,0,0.24699625249901125,0.9294958589413262,-1.1593733773196249,-0.10138206127245475
GUIDED_NOGPS,1.1732213497161865,29.715014417184435,-6.507436131586932,20.141528759695085,56.37483084389574,-11.345688739734468,0.0,0.0,0.5,0.8650790500709931,-0.8402774592559131,21.81919469040935,0.0,0.0,6.246665612729069,0.5,-4.730185757422566,15.680628933573733,59.363286021959276,2.499243803322315,-37.17677593231201,15.941672027111053,-55.63117265701294,-23.314784467220306,-39.915138483047485,-13.186603779648816,6.970235368754692,False,0,0.05047173201427313,2.095058526285891,-1.7461722617494786,-0.2579729909512274
GUIDED_NOGPS,1.2061898708343506,30.335474165364808,-6.331353410813478,18.987915898233148,56.90566448457531,-11.289006589494122,0.0,0.0,0.5,0.7364338777968309,-0.86681306434653,21.439280785753024,0.0,0.0,7.742629306011935,0.5,-4.45575805994698,14.623665554668626,60.04954487704465,2.8235096484422684,-36.996567249298096,11.60891205072403,-13.686871528625488,-7.763413339853287,-97.93331623077393,-13.03409008480752,10.499801362929542,False,0,0.5993271269654459,-0.018868231524319157,-0.3736545515787313,0.047054398731367186
GUIDED_NOGPS,1.2399787902832031,29.6030207855454,-6.123567579134574,17.837215766714586,57.478404787830854,-11.223090197939769,0.0,0.0,0.5,0.6257719532770777,-0.800517860880211,21.123024244161215,0.0,0.0,8.895662450393434,0.5,-4.339910634001317,13.626279417260479,60.6591386448314,5.120387300848961,-36.78421080112457,14.35769647359848,17.266491055488586,-11.975609511137009,37.3770147562027,-12.782579821024296,10.008446945548934,False,0,0.8310219788567705,-2.0136405063406144,0.8455329839947652,0.5500749262978122
GUIDED_NOGPS,1.280202865600586,24.86220673139619,-5.850120545324838,16.642836757332194,58.00530528714461,-11.166990166001439,0.0,0.0,0.5,0.3379055198572509,-0.8578014835103445,20.72451514948953,0.0,0.0,9.654695793623906,0.5,-3.5200816273396,12.16875010226513,61.650317013347504,7.461688667535782,-36.846327781677246,9.244614839553833,-25.956425070762634,-26.24261975288391,-109.51910018920898,-12.338642633727819,7.796317720563762,False,0,0.35647472102637545,-0.8181535724244888,0.1729971440650786,0.2798629913594848
GUIDED_NOGPS,1.3145852088928223,29.088124943651913,-5.56772589487033,15.277783494725725,58.63564256071739,-11.05419289299742,0.0,0.0,0.5,0.1902443538818328,-0.7102780418962373,20.348246858302698,0.0,0.0,9.986110817918139,0.5,-3.393860617325619,11.594447582578265,61.91432679743306,6.439647823572159,-37.32869029045105,11.035817861557007,-18.512123823165894,-6.673789769411087,-40.25122821331024,-12.205300905109919,10.99753603076859,False,0,0.10403270099841277,0.3304514669492402,-0.3550224241060391,0.013179534123681336
GUIDED_NOGPS,1.3541512489318848,25.277398436699592,-5.31601060181247,14.098930764309705,59.106426816191814,-10.89210528637187,0.0,0.0,0.5,0.10010636741549438,-0.6426302475308443,20.093286141869875,0.0,0.0,9.875228745343794,0.5,-3.202903968928345,10.895596202080561,62.11050097018658,6.098821759223938,-38.39029371738434,7.8917235136032104,72.6323664188385,-3.144727274775505,-88.66919279098511,-12.022054559141834,13.323660259227628,False,0,0.4859459977929603,-1.0672512940461694,0.037325921400992,0.3796722260598493
GUIDED_NOGPS,1.387369155883789,30.108566752329406,-4.974605342232313,12.739988658963851,59.71468184166766,-10.713514671016164,0.0,0.0,0.5,-0.12244961706779198,-0.4242378303057427,19.58837465276044,0.0,0.0,9.32696067890069,0.5,-2.4980188296767882,9.566514801907228,62.96567412802992,8.929791301488876,-38.926371932029724,11.203372478485107,15.575528144836426,-27.141103148460388,111.16857528686523,-11.521445017434438,12.428735577000355,False,0,1.4308566103081077,-1.9242893702881894,0.6258064156065188,0.605717639669141
GUIDED_NOGPS,1.4210307598114014,29.711225552352147,-4.6117623447694776,11.497918132278462,60.288795608422376,-10.527881408249582,0.0,0.0,0.5,-0.21592491800594193,-0.21496926515130874,19.217860795949342,0.0,0.0,8.365590083745087,0.5,-1.9278756623574878,7.4085951885118515,63.803806257725846,10.862280428409576,-38.88985812664032,13.294318318367004,-18.841223418712616,-11.437108367681503,-40.47480821609497,-10.870493169464577,11.296449868284089,False,0,-0.21417014580329918,0.14700791129695823,-0.39525260396014517,-0.10408770685683955
GUIDED_NOGPS,1.455070972442627,29.381341328439134,-4.25840142621923,10.224114380413145,60.803041898637304,-10.38351037771949,0.0,0.0,0.5,-0.25595856438187753,-0.0470775591019889,18.844865872922238,0.0,0.0,7.033697242732391,0.5,-1.3703313033301607,6.116138099320755,64.08625420269209,9.379099309444427,-40.66273272037506,10.325919091701508,-73.13490509986877,-29.754406213760376,-68.42209696769714,-10.491374487473383,7.649461823219318,False,0,0.5877084750462678,0.3612505407487454,-0.1635954570432574,-0.01079655865706819
GUIDED_NOGPS,1.4957919120788574,24.559690830308,-3.9043884213963107,8.96718370440528,61.30567793236763,-10.234065538015873,0.0,0.0,0.5,-0.3272760913222714,0.10730269874772344,18.575442230921915,0.0,0.0,5.390273323461356,0.5,-1.1419371442939739,5.625697731071837,64.27276035086291,9.379099309444427,-40.66273272037506,10.325919091701508,-73.13490509986877,-29.754406213760376,-68.42209696769714,-10.335958836205807,7.649461823219318,False,0,1.0444967931186415,-0.6196301957490897,0.2094168392983562,0.3000347438780864
GUIDED_NOGPS,1.528928518295288,30.18310041594105,-3.5008524199099798,7.46878730661368,61.81034487973548,-9.958038704016584,0.0,0.0,0.5,-0.41661427197495066,0.1838384368531542,18.09630446064552,0.0,0.0,3.508107587104019,0.5,-0.4481627730027173,4.604436353038372,64.715612075557,8.654280751943588,-42.12354123592377,4.641444236040115,-41.1110520362854,-26.513952016830444,-81.76339864730835,-9.970038711115354,13.714534909954534,False,0,-0.7093104046608988,-0.8486208850644674,-0.05869326156536658,0.24954329600025993
GUIDED_NOGPS,1.5698530673980713,24.438628179879505,-3.1266428991766215,6.209055094152371,62.230787610886026,-9.732495621669605,0.0,0.0,0.5,-0.5677069143172125,0.28734408403087947,17.56803543212193,0.0,0.0,1.4705634627465556,0.5,0.06891438782629211,4.075270780517515,64.94778829489786,8.817388862371445,-43.44911575317383,6.622186303138733,-92.74880886077881,-36.87320351600647,-36.8629515171051,-9.81630995955949,11.438135312426834,False,0,0.32484391699711995,-1.906952030106182,0.40565917711636246,0.5570007991119912
GUIDED_NOGPS,1.6039032936096191,29.371671066729224,-2.6428797774763697,4.6563867889911394,62.76469231022465,-9.464635094792182,0.0,0.0,0.5,-0.7232824019108243,0.23394134287063564,17.190240593655602,0.0,0.0,-0.6321137211366181,0.5,0.01602238344575367,2.39346072219367,65.3177334517664,13.52573037147522,-44.350507855415344,7.93098583817482,35.8934760093689,-31.609874963760376,6.822536885738373,-9.311084472191208,11.168863642135543,False,0,0.49005986020772085,-1.2247926068303132,-0.1806997348312791,0.3953440447912957
GUIDED_NOGPS,1.637380599975586,29.879067646891208,-2.311245020180333,3.2029051349105284,63.20818221509431,-9.162064058653007,0.0,0.0,0.5,-0.9691280708137046,0.15283882289225798,16.781301800121305,0.0,0.0,-2.706793812973938,0.5,-0.8979224998832096,-1.597600742243418,65.63672028650156,10.250424593687057,-45.455923676490784,8.881168812513351,-28.512859344482422,-44.10093128681183,69.52064633369446,-8.366860902585932,12.661927626774698,False,0,-4.013320703355516,-4.319056152495847,-0.6032763431553292,0.7428248051135116
GUIDED_NOGPS,1.672771692276001,28.256649330351127,-1.987716217013571,1.788164727664729,63.55240381354541,-8.893260735203631,0.0,0.0,0.5,-1.088743679644257,0.1388037446432338,16.35369951467995,0.0,0.0,-4.661586686741114,0.5,-0.7979214275147927,-2.354207128639305,65.6071279576179,10.542894899845123,-46.01672887802124,4.672707989811897,-20.10468989610672,-34.14619863033295,17.500075697898865,-8.209577420493625,10.76230687707429,False,0,-4.213322848092351,-2.805843379704072,-0.5440916853880395,0.4282578409288993
GUIDED_NOGPS,1.7059717178344727,30.125867294901813,-1.7054744599778933,0.2983016602696994,63.91091354951046,-8.567173600553811,0.0,0.0,0.5,-1.3347635717318254,-0.07697479120301566,15.967775043554012,0.0,0.0,-6.409912168353249,0.5,0.06999416066447783,-2.4331802333025188,66.1959288589224,5.092644318938255,-48.328304290771484,3.2496724277734756,-60.69856882095337,-40.28853476047516,-21.443521976470947,-8.026551118088443,13.548421294245237,False,0,-3.0345228123777312,-0.9864549897469739,-0.22287480310070862,0.18578764077291599
GUIDED_NOGPS,1.7399961948394775,29.39678579188248,-1.4561838982864255,-1.1372437759969973,64.21854719294326,-8.23545591160334,0.0,0.0,0.5,-1.4187751119663938,-0.17988076911595496,15.60761233843007,0.0,0.0,-7.874334777772317,0.5,-0.016893150389381217,-4.241153366937896,66.14045832275369,5.092644318938255,-48.328304290771484,3.2496724277734756,-60.69856882095337,-40.28853476047516,-21.443521976470947,-7.467995885816305,13.548421294245237,False,0,-3.8030394465836874,-1.3441074097562669,-0.0598840626053061,0.4262129724471322
GUIDED_NOGPS,1.7734174728393555,29.924473648537774,-1.1783169073158057,-2.5714604159582457,64.41733229798145,-7.9329414530725435,0.0,0.0,0.5,-1.5420748608022277,-0.3095298191155503,15.150520711247184,0.0,0.0,-8.989993441398719,0.5,0.7386683205980906,-5.016652462260863,66.14492409624562,5.3466614335775375,-48.56106340885162,-2.779030054807663,-34.94290113449097,-46.07987105846405,-88.730388879776,-7.221312659944886,11.421567834821321,False,0,-2.2919165046087437,-2.8951056004022004,-0.05095251562144654,0.9195794241899709
GUIDED_NOGPS,1.8063888549804688,30.331964130749206,-0.8389594832287837,-4.0478176223808155,64.61482683186131,-7.587704334760537,0.0,0.0,0.5,-1.4662575198592647,-0.3848610426886787,14.692530914188442,0.0,0.0,-9.707474268578167,0.5,1.0173179986321736,-5.988306347238851,66.4389313455292,9.42319706082344,-52.78347730636597,-2.328328788280487,-118.92869472503662,-45.80344557762146,39.65195417404175,-6.8910907932151035,13.927611198849544,False,0,-2.9716314173057174,-2.1741586852419017,0.03750756356932072,0.8749072585248143
GUIDED_NOGPS,1.8395931720733643,30.119593551398513,-0.48360672876389676,-5.501175212794725,64.81523767530541,-7.239988776394374,0.0,0.0,0.5,-1.5130514660281393,-0.4746463339277293,14.279743309056844,0.0,0.0,-9.994999153428735,0.5,1.671450928303912,-6.73271377120661,66.88857938593144,9.42319706082344,-52.78347730636597,-2.328328788280487,-118.92869472503662,-45.80344557762146,39.65195417404175,-6.607456728871476,13.927611198849544,False,0,-2.7283196303945605,-1.1726406625498225,0.4486482570697774,0.6606515352198832
STABILIZE,1.8765079975128174,27.09148688799897,-0.09330444915793759,-6.97251864356049,65.0430296265968,-6.906849405751242,0.0,0.0,0.5,-1.5335255983954872,-0.5231917967318891,13.796442538481326,0.0,0.0,-9.839833266128725,0.5,2.0570085262315008,-7.609760124714565,66.80819211589329,11.203385144472122,-53.83875370025635,0.4205678589642048,66.25711917877197,-54.008156061172485,32.645171880722046,-6.377808351063944,12.801317273582672,False,0,-3.4994348262497383,0.5814520444660891,0.609422797146081,0.20135477960482007
STABILIZE,1.90728759765625,32.49408501770234,0.27257070057455246,-8.422702782616351,65.21928223582296,-6.586863786870471,0.0,0.0,0.5,-1.5117291840935072,-0.4136614958193895,13.324654051751866,0.0,0.0,-9.248849094149707,0.5,2.0570085262315008,-7.609760124714565,66.80819211589329,10.415320098400116,-55.543601512908936,-1.9755838438868523,-41.556376218795776,-59.39091444015503,-82.62510895729065,-6.377808351063944,12.540856547320699,False,0,-3.4994348262497383,0.5814520444660891,0.609422797146081,0.20135477960482007
STABILIZE,1.9562554359436035,20.426142008376353,0.6377021382021812,-9.883518891603748,65.38346449334799,-6.24369717497802,0.0,0.0,0.5,-1.4305984895848032,-0.36237061713400187,12.790090150134464,0.0,0.0,-8.24822205135675,0.5,2.5196189650672514,-11.178363493083975,66.47092413126451,11.527544260025024,-57.63120651245117,0.8085448294878006,10.348830372095108,-45.12546956539154,81.51841163635254,-5.648322479452281,14.153039031084875,False,0,-2.574213948578237,-6.55575469227273,-0.06511317211146661,1.6603265228281456
STABILIZE,1.981980562210083,38.87322168364273,1.0667220541162843,-11.762952882887996,65.61383855501967,-5.817085901213101,0.0,0.0,0.5,-1.4870338880973857,-0.3199864118480167,12.566386086890914,0.0,0.0,-6.882271136822208,0.5,2.194621513560299,-15.590559724095801,66.95548119177312,14.32516872882843,-60.240912437438965,1.3907363638281822,19.828538596630096,-49.33059811592102,57.557594776153564,-4.311046236219603,13.511856730297222,False,0,0.3766950325694265,-0.8746656810431404,-0.9608134038569176,-0.3498956334381438
STABILIZE,2.0147457122802734,30.522231439840485,1.4841087249816098,-13.5154427641986,65.81388656219556,-5.410812684032455,0.0,0.0,0.5,-1.4620274983289112,-0.20936424116366703,12.248586776320328,0.0,0.0,-5.211495991996031,0.5,2.633974226237882,-16.198426825594126,67.00425009888491,14.32516872882843,-60.240912437438965,1.3907363638281822,19.828538596630096,-49.33059811592102,57.557594776153564,-4.088168746765299,13.511856730297222,False,0,1.2554004579245928,-2.0903998840397904,-0.863275589633318,0.09585934547046548
STABILIZE,2.0482099056243896,29.889713951797955,1.9015084963999014,-15.285921836886073,65.96976299655022,-5.051482292619712,0.0,0.0,0.5,-1.6910366975668571,-0.1568393393943285,11.452009987952067,0.0,0.0,-3.309897297378446,0.5,3.664012420718002,-18.77454326921108,67.28328482534472,13.240174949169159,-62.77385950088501,-0.5968997720628977,-30.41718602180481,-39.119261503219604,-20.17260491847992,-3.3899805970800014,10.280589856612568,False,0,0.6057849209073014,-3.335641160829436,-0.2937945140656666,0.9962884180014244
STABILIZE,2.083808660507202,28.095574296489314,2.41301995332252,-17.046415546819556,66.1369018654953,-4.652560579022426,0.0,0.0,0.5,-1.6910366975668571,-0.1568393393943285,11.452009987952067,0.0,0.0,-1.2616991916130784,0.5,3.664012420718002,-18.77454326921108,67.28328482534472,19.901764392852783,-64.49512839317322,0.5939123686403036,74.63703751564026,-50.76104402542114,35.23932695388794,-3.3899805970800014,13.389802957376386,False,0,0.6057849209073014,-3.335641160829436,-0.2937945140656666,0.9962884180014244
STABILIZE,2.120842456817627,27.004448908375664,2.9332299523436984,-18.823326410229736,66.28302868452431,-4.253601506492834,0.0,0.0,0.5,0.30119949628822057,0.01702915570472273,10.605529276186756,0.0,0.0,0.8423811189212129,0.5,4.196958105547404,-20.601186003548836,67.06557579931453,19.901764392852783,-64.49512839317322,0.5939123686403036,74.63703751564026,-50.76104402542114,35.23932695388794,-3.0746012192127745,13.389802957376386,False,0,-0.4601064487515023,0.31764430784607356,0.14162353799471816,0.3655296622669706
STABILIZE,2.158616542816162,26.47601613442832,3.398337196052742,-20.854639945119057,66.32960143940872,-3.858046040392707,0.0,0.0,0.5,2.1294984501800043,-0.04494798082397297,10.291538649852098,0.0,0.0,2.909151336452391,0.5,4.672244005572262,-23.058647915139513,66.4782265501978,14.011819660663605,-69.38478350639343,-4.659415036439896,-26.87409818172455,-89.01140689849854,-80.69865107536316,-2.5393688154577614,10.816635909279864,False,1,0.4904653512982149,-4.597279515335281,-1.0330749602387357,1.435994469776997
STABILIZE,2.1985907554626465,25.02120145558671,3.910785826571479,-23.067211524735942,66.32935266419982,-3.406180385431303,0.0,0.0,0.5,7.035333901734084,0.03363873502316569,9.809203497270492,0.0,0.0,4.847071672991346,0.5,5.822430837197446,-25.688882085795413,66.58454888621799,13.961394131183624,-73.94682765007019,-7.560490816831589,12.08617240190506,-94.85440850257874,-54.96803522109985,-1.9054364143332954,12.821596959002086,False,1,0.7285546804475649,-2.2272887209796615,-1.009635262501618,0.47757846169308715
STABILIZE,2.2258541584014893,36.684660730841216,4.387433851186321,-25.219736836060537,66.29842551955852,-3.0472390582592546,0.0,0.0,0.5,12.412810137176823,0.1163771386686143,9.519128778314636,0.0,0.0,6.570309259822431,0.5,6.734369778154248,-30.01712664655307,65.42929744159672,13.19376826286316,-75.78544020652771,-4.042641818523407,-49.77940917015076,-65.1402473449707,68.98165941238403,-1.1368379651376381,8.3135286728211,False,1,-0.5606884918644193,-5.45999831113469,-0.9246464946365904,1.4123629660870294
STABILIZE,2.2615809440612793,27.993566084455153,4.765734496429226,-27.078092578321066,66.23858387386188,-2.7373164701703363,0.0,0.0,0.5,14.880685550349368,0.05847388981471385,9.38111541462442,0.0,0.0,8.002539790539762,0.5,6.5233487283270986,-32.47043046422215,65.51520281440298,13.19376826286316,-75.78544020652771,-4.042641818523407,-49.77940917015076,-65.1402473449707,68.98165941238403,-0.511608848941042,8.3135286728211,False,0,-0.13864639221012087,-0.5533906757965283,-1.0964572402491086,0.16190473369383707
STABILIZE,2.2961301803588867,28.950992572958945,5.163840737645152,-28.96137100432383,66.13876272376636,-2.4056624520166823,0.0,0.0,0.5,19.226521475816917,0.1303349504026527,9.197419184444218,0.0,0.0,9.080328018195505,0.5,6.5233487283270986,-32.47043046422215,65.51520281440298,10.940062999725342,-60.90194582939148,-8.357129245996475,1.3428278267383575,334.7057580947876,-1.077820360660553,-0.511608848941042,6.718433614813002,False,0,-0.13864639221012087,-0.5533906757965283,-1.0964572402491086,0.16190473369383707
STABILIZE,2.330638885498047,28.978195384827966,5.587293659640576,-30.63764656558301,65.97596648915068,-2.1022904636547417,0.0,0.0,0.5,26.526284443720755,0.12586843357228747,8.887068195163533,0.0,0.0,9.755937380195567,0.5,6.5233487283270986,-32.47043046422215,65.51520281440298,12.822367250919342,-48.17332625389099,-12.388795614242554,-54.57894206047058,403.66549491882324,-166.8823003768921,-0.511608848941042,5.149976294567955,False,0,-0.13864639221012087,-0.5533906757965283,-1.0964572402491086,0.16190473369383707
STABILIZE,2.364267110824585,29.74093087897439,6.054208219983329,-32.00768965326943,65.7933971566032,-1.895881781663484,0.0,0.0,0.5,30.329130575456045,0.10137521512606308,8.756056629146226,0.0,0.0,9.999444309209432,0.5,6.5233487283270986,-32.47043046422215,65.51520281440298,16.671930253505707,-32.90826380252838,-13.291960954666138,66.3975715637207,492.2973155975342,-146.15671634674072,-0.511608848941042,-0.18595873034276716,False,0,-0.13864639221012087,-0.5533906757965283,-1.0964572402491086,0.16190473369383707
STABILIZE,2.398287773132324,29.397816000112144,6.5379523741593815,-32.625221666258746,65.52703192741512,-1.4910810374658932,0.0,0.0,0.5,31.266898473025872,0.14744953683285347,8.740385613869279,0.0,0.0,9.800063584670868,0.5,6.5233487283270986,-32.47043046422215,65.51520281440298,19.61567848920822,7.6880574226379395,-18.32023113965988,53.90523672103882,514.1692638397217,-278.73551845550537,-0.511608848941042,14.352406276542023,False,0,-0.13864639221012087,-0.5533906757965283,-1.0964572402491086,0.16190473369383707
STABILIZE,2.4374213218688965,25.5600624024961,7.101835270934868,-32.85915090703157,65.28658842618479,-1.3771742198858914,0.0,0.0,0.5,30.42560358238789,0.36832008542705325,8.90023423856238,0.0,0.0,9.166626023425668,0.5,6.5233487283270986,-32.47043046422215,65.51520281440298,25.51542818546295,29.344409704208374,-16.451194882392883,144.24505233764648,622.9659080505371,-93.98210048675537,-0.511608848941042,-3.96660162463364,False,0,-0.13864639221012087,-0.5533906757965283,-1.0964572402491086,0.16190473369383707
STABILIZE,2.47383713722229,27.46401257202724,7.704715944594735,-32.839312344482074,64.98661222070903,-1.1632313579091025,0.0,0.0,0.5,28.338014319181436,0.6187884583767099,9.113949150144785,0.0,0.0,8.127187352021913,0.5,6.5233487283270986,-32.47043046422215,65.51520281440298,25.507676601409912,52.001047134399414,-19.94422972202301,111.61143779754639,565.3897762298584,-113.66269588470459,-0.511608848941042,1.2621711472941664,False,0,-0.13864639221012087,-0.5533906757965283,-1.0964572402491086,0.16190473369383707
STABILIZE,2.5082719326019287,29.04280629838386,8.276707745871963,-32.66585183212052,64.68007567826874,-0.9764281668324456,0.0,0.0,0.5,23.700906684105988,1.0745925949010482,9.514573895911884,0.0,0.0,6.7277855841685845,0.5,6.5233487283270986,-32.47043046422215,65.51520281440298,25.507676601409912,52.001047134399414,-19.94422972202301,111.61143779754639,565.3897762298584,-113.66269588470459,-0.511608848941042,1.2621711472941664,False,0,-0.13864639221012087,-0.5533906757965283,-1.0964572402491086,0.16190473369383707
STABILIZE,2.5452747344970703,27.030031191194286,8.757614705039808,-31.950201363489867,64.34805285412578,-1.1020973464818749,0.0,0.0,0.5,17.611734982431674,1.5267486633566594,9.876998247424746,0.0,0.0,5.030401940639225,0.5,6.5233487283270986,-32.47043046422215,65.51520281440298,23.206481337547302,75.7189393043518,-21.75791561603546,13.662922382354736,493.414831161499,-105.46227693557739,-0.511608848941042,-16.36522887399893,False,0,-0.13864639221012087,-0.5533906757965283,-1.0964572402491086,0.16190473369383707
STABILIZE,2.5790016651153564,29.65346002658296,9.255111867875193,-31.031003202093565,63.99093324675201,-1.1172165946973152,0.0,0.0,0.5,12.583182375833621,2.047216868796153,10.216878705808336,0.0,0.0,3.1102156249790487,0.5,6.5233487283270986,-32.47043046422215,65.51520281440298,22.42642641067505,90.076345205307,-22.661899030208588,-28.436651825904846,481.18929862976074,2.1187320351600647,-0.511608848941042,-9.691888168086354,False,0,-0.13864639221012087,-0.5533906757965283,-1.0964572402491086,0.16190473369383707
STABILIZE,2.613194465637207,29.29617445117309,9.688713326541567,-29.769848046141572,63.65892379678468,-1.226939669721539,0.0,0.0,0.5,7.215373419387388,2.5691692529979493,10.507021726655893,0.0,0.0,1.0522740443667222,0.5,6.5233487283270986,-32.47043046422215,65.51520281440298,22.775770723819733,102.80444622039795,-21.957390010356903,-16.048118472099304,349.6094226837158,121.02720737457275,-0.511608848941042,-13.548390558393972,False,0,-0.13864639221012087,-0.5533906757965283,-1.0964572402491086,0.16190473369383707
STABILIZE,2.6488969326019287,28.008707846410683,9.997983300978907,-28.43641175045676,63.308116521491144,-1.2785685859429015,0.0,0.0,0.5,2.591968851334275,3.115757489205747,10.829559480963173,0.0,0.0,-1.0522740443666747,0.5,6.5233487283270986,-32.47043046422215,65.51520281440298,16.07486456632614,105.43466806411743,-23.458662629127502,-71.09806537628174,35.114094614982605,116.81888103485107,-0.511608848941042,-9.274932440013755,False,0,-0.13864639221012087,-0.5533906757965283,-1.0964572402491086,0.16190473369383707
STABILIZE,2.6842737197875977,28.27169597659699,10.363551528039416,-27.2017523863308,62.87559098384229,-1.3147848372221604,0.0,0.0,0.5,0.5185384101947006,3.3702964414573198,11.027199542333955,0.0,0.0,-3.110215624979003,0.5,6.5233487283270986,-32.47043046422215,65.51520281440298,17.722655832767487,98.78429770469666,-27.655872702598572,3.242546319961548,-76.3944685459137,105.16096353530884,-0.511608848941042,-8.556649256327704,False,0,-0.13864639221012087,-0.5533906757965283,-1.0964572402491086,0.16190473369383707
STABILIZE,2.724421501159668,24.910639409885135,10.688251518526855,-25.924368077876913,62.45607572150362,-1.3654649662388958,0.0,0.0,0.5,-0.8383565752735528,3.5024704202939985,11.274595824260986,0.0,0.0,-5.030401940639183,0.5,6.5233487283270986,-32.47043046422215,65.51520281440298,17.722655832767487,98.78429770469666,-27.655872702598572,3.242546319961548,-76.3944685459137,105.16096353530884,-0.511608848941042,-8.556649256327704,False,0,-0.13864639221012087,-0.5533906757965283,-1.0964572402491086,0.16190473369383707
STABILIZE,2.7576916217803955,30.06109255622608,11.038194685837945,-24.701433367547097,61.94326919948682,-1.4230420811300162,0.0,0.0,0.5,-1.2862204568051927,3.3090588863496895,11.574412100520574,0.0,0.0,-6.727785584168561,0.5,6.5233487283270986,-32.47043046422215,65.51520281440298,16.330958902835846,92.58796572685242,-31.463724374771118,-46.57164812088013,-79.71431016921997,-256.07824325561523,-0.511608848941042,-9.189814622577057,False,0,-0.13864639221012087,-0.5533906757965283,-1.0964572402491086,0.16190473369383707
STABILIZE,2.791001796722412,30.02558504126966,11.197081979034454,-23.60583373450687,61.45766619973684,-1.4474566394837936,0.0,0.0,0.5,-1.2130576048501318,2.9336055221082042,11.805661815249696,0.0,0.0,-8.127187352021895,0.5,6.5233487283270986,-32.47043046422215,65.51520281440298,11.306150257587433,85.62584519386292,-33.573949337005615,-73.079514503479,-103.76051664352417,-90.35269021987915,-0.511608848941042,-5.747476120518792,False,0,-0.13864639221012087,-0.5533906757965283,-1.0964572402491086,0.16190473369383707
STABILIZE,2.8268468379974365,27.90045965236711,11.250670725029831,-22.58831168397936,60.97115096009014,-1.4948519653165515,0.0,0.0,0.5,-0.9154946506864141,2.286944982719376,12.062358253505346,0.0,0.0,-9.16662602342566,0.5,6.5233487283270986,-32.47043046422215,65.51520281440298,5.182696133852005,80.90461492538452,-34.05747711658478,-113.68898153305054,-93.95145177841187,-87.15327978134155,-0.511608848941042,-7.01593787203854,False,0,-0.13864639221012087,-0.5533906757965283,-1.0964572402491086,0.16190473369383707
STABILIZE,2.8666350841522217,25.13485785512249,11.250775631387596,-21.597767202435634,60.464106521974045,-1.5426130245719647,0.0,0.0,0.5,-0.7504613788047446,1.6383480847008498,12.347347896624129,0.0,0.0,-9.800063584670857,0.5,6.5233487283270986,-32.47043046422215,65.51520281440298,1.947641558945179,78.99787425994873,-35.479071736335754,-164.2211675643921,-53.856468200683594,-80.98623752593994,-0.511608848941042,-6.898264384809798,False,0,-0.13864639221012087,-0.5533906757965283,-1.0964572402491086,0.16190473369383707
STABILIZE,2.8921291828155518,39.23246873509246,11.181284018440943,-20.676923278863963,60.049768962200915,-1.6310439182969882,0.0,0.0,0.5,-0.8185189311594855,1.1346679506327186,12.491059345629427,0.0,0.0,-9.999444309209434,0.5,6.5233487283270986,-32.47043046422215,65.51520281440298,-0.2033643890172243,77.5202989578247,-31.917867064476013,-71.85505628585815,-53.82887125015259,44.32620406150818,-0.511608848941042,-9.226305761991496,False,0,-0.13864639221012087,-0.5533906757965283,-1.0964572402491086,0.16190473369383707
STABILIZE,2.9276351928710938,28.168028850996958,11.059880964358063,-19.908644327590203,59.652113102435926,-1.7035391760976049,0.0,0.0,0.5,-0.9923286225986512,0.6542677159377824,12.621648293691841,0.0,0.0,-9.755937380195574,0.5,6.5233487283270986,-32.47043046422215,65.51520281440298,1.131556835025549,77.22208499908447,-37.077397108078,-26.436761021614075,-49.06277060508728,94.6913480758667,-0.511608848941042,-8.111124554504235,False,0,-0.13864639221012087,-0.5533906757965283,-1.0964572402491086,0.16190473369383707
STABILIZE,2.967987537384033,24.7840504863089,10.928372386710075,-18.994443944042036,59.14951738495858,-1.7274739712606202,0.0,0.0,0.5,-1.0377916423747253,0.1889298092708698,12.865903542374312,0.0,0.0,-9.080328018195518,0.5,6.5233487283270986,-32.47043046422215,65.51520281440298,-5.41912280023098,76.72945857048035,-37.43102848529816,-82.44527578353882,-35.06353795528412,-31.758540868759155,-0.511608848941042,-5.006284482356518,False,0,-0.13864639221012087,-0.5533906757965283,-1.0964572402491086,0.16190473369383707
STABILIZE,3.0067861080169678,25.781274586939418,10.910984885232624,-17.95879996276741,58.58303574200359,-1.7868464547449903,0.0,0.0,0.5,-1.194949812865076,-0.12477458944888051,13.058197273172267,0.0,0.0,-8.00253979053977,0.5,6.5233487283270986,-32.47043046422215,65.51520281440298,-1.3177367858588696,74.55702424049377,-35.66814959049225,-19.32470202445984,-65.03036618232727,22.11996167898178,-0.511608848941042,-7.071454076499227,False,1,-0.13864639221012087,-0.5533906757965283,-1.0964572402491086,0.16190473369383707
STABILIZE,3.040973424911499,29.25081769427649,10.871373116623163,-17.054740164271948,58.044499211629976,-1.791251353034316,0.0,0.0,0.5,-1.251817541007779,-0.2557359962644703,13.158877676632839,0.0,0.0,-6.5703092598224675,0.5,6.5233487283270986,-32.47043046422215,65.51520281440298,0.25008178781718016,71.74881100654602,-37.70593702793121,-26.567816734313965,-54.707396030426025,-7.261496037244797,-0.511608848941042,-3.3835625898161883,False,1,-0.13864639221012087,-0.5533906757965283,-1.0964572402491086,0.16190473369383707
STABILIZE,3.0769941806793213,27.76820459856866,11.06936309792164,-15.55301395557277,57.11821711083141,-1.8376362939981548,0.0,0.0,0.5,-1.0189317825290276,-0.09358079534431493,13.352460605636633,0.0,0.0,-4.847071672991403,0.5,12.06538618431837,-19.01556841247556,56.70387158163403,0.25008178781718016,71.74881100654602,-37.70593702793121,-26.567816734313965,-54.707396030426025,-7.261496037244797,-1.420854253550742,-3.3835625898161883,False,1,-11.222721304192666,-27.463114779289707,16.52620522528877,1.980395542913237
STABILIZE,3.10903263092041,31.216445125854037,11.335399802647686,-14.23055301085932,56.23748552699489,-1.8600380150611733,0.0,0.0,0.5,-0.9720645185482811,-0.043730072717595075,13.43151833773224,0.0,0.0,-2.9091513364524535,0.5,12.06538618431837,-19.01556841247556,56.70387158163403,7.063495367765427,67.75133609771729,-39.46208655834198,64.97407555580139,-68.44555139541626,-17.803552746772766,-1.420854253550742,-1.9754375570348428,False,0,-11.222721304192666,-27.463114779289707,16.52620522528877,1.980395542913237
STABILIZE,3.164400339126587,18.063713688925258,11.569793551763365,-13.034736441675943,55.46688064574946,-1.9892944774556542,0.0,0.0,0.5,-0.6976760227124464,0.13436161372263966,13.544978878903551,0.0,0.0,-0.8423811189212783,0.5,12.06538618431837,-19.01556841247556,56.70387158163403,6.495919078588486,64.61502313613892,-35.57896912097931,116.28859043121338,-56.33435845375061,-52.77358889579773,-1.420854253550742,-8.922388810908961,False,0,-11.222721304192666,-27.463114779289707,16.52620522528877,1.980395542913237
STABILIZE,3.1842377185821533,50.41654946930631,11.829453890478284,-11.717957453351369,54.627916905610626,-2.124297319231656,0.0,0.0,0.5,-0.47111491268342115,0.23631707476303648,13.591808363400451,0.0,0.0,1.261699191613031,0.5,12.06538618431837,-19.01556841247556,56.70387158163403,6.495919078588486,64.61502313613892,-35.57896912097931,116.28859043121338,-56.33435845375061,-52.77358889579773,-1.420854253550742,-8.922388810908961,False,1,-11.222721304192666,-27.463114779289707,16.52620522528877,1.980395542913237
STABILIZE,3.231806516647339,21.02418558489015,11.915211630905217,-11.071398016579906,54.14447179073238,-2.1557528914141675,0.0,0.0,0.5,-0.011730623115872115,0.3797179102436591,13.667731892440667,0.0,0.0,3.3098972973784346,0.5,12.06538618431837,-19.01556841247556,56.70387158163403,4.803013056516647,62.947505712509155,-37.5220388174057,-73.83898496627808,-42.09933280944824,3.7605002522468567,-1.420854253550742,-4.0654203746585615,False,0,-11.222721304192666,-27.463114779289707,16.52620522528877,1.980395542913237
STABILIZE,3.25687837600708,39.9016705354085,12.159517362506548,-9.893731435120776,53.35748965617555,-2.206023058989368,0.0,0.0,0.5,0.23626360718843997,0.382321653060462,13.72017749998261,0.0,0.0,5.211495991996021,0.5,12.06538618431837,-19.01556841247556,56.70387158163403,6.7767433822155,59.17845964431763,-34.792158007621765,-44.48649287223816,-45.54905295372009,140.86289405822754,-1.420854253550742,-3.5025867469533,False,0,-11.222721304192666,-27.463114779289707,16.52620522528877,1.980395542913237
STABILIZE,3.301799774169922,22.262169263023804,12.229555971541213,-9.232751968022116,52.84496558502462,-2.1962642888919857,0.0,0.0,0.5,0.3189079890110951,0.36361819387458705,13.793917076035713,0.0,0.0,6.882271136822187,0.5,12.06538618431837,-19.01556841247556,56.70387158163403,2.6010677218437195,59.55144166946411,-37.5062495470047,-4.155531525611877,4.744857549667358,19.01824027299881,-1.420854253550742,-1.0627142556041613,False,0,-11.222721304192666,-27.463114779289707,16.52620522528877,1.980395542913237
STABILIZE,3.3367931842803955,28.583430444530766,12.404741109844403,-7.8084123858715415,51.85021973528112,-2.2616425926334234,0.0,0.0,0.5,0.3001444188244387,0.09243172273816608,13.89005967256646,0.0,0.0,8.248222051356745,0.5,12.06538618431837,-19.01556841247556,56.70387158163403,-0.532412575557828,58.24315547943115,-38.38993310928345,-47.68223762512207,-32.73138701915741,15.42586088180542,-1.420854253550742,-3.6987271549144407,False,0,-11.222721304192666,-27.463114779289707,16.52620522528877,1.980395542913237
STABILIZE,3.368709087371826,31.332810410643717,12.461057070366573,-6.9027621134111214,51.159834978096235,-2.3199815902801197,0.0,0.0,0.5,0.19371434344425054,-0.15035194034328575,14.052118717229705,0.0,0.0,9.248849094149701,0.5,12.06538618431837,-19.01556841247556,56.70387158163403,-1.5089084394276142,57.5051486492157,-38.554152846336365,-62.285858392715454,-15.75348824262619,7.596190273761749,-1.420854253550742,-4.674373147187041,False,0,-11.222721304192666,-27.463114779289707,16.52620522528877,1.980395542913237
STABILIZE,3.4029409885406494,29.22004709423026,12.548737434121366,-6.094696739153209,50.51521338594499,-2.3857857844936112,0.0,0.0,0.5,-0.0706694193613964,-0.5800641139079408,14.323598246170203,0.0,0.0,9.83983326612872,0.5,12.06538618431837,-19.01556841247556,56.70387158163403,1.4771558344364166,55.42029142379761,-38.366833329200745,14.149542152881622,-39.73185122013092,59.84070897102356,-1.420854253550742,-5.331640970356899,False,0,-11.222721304192666,-27.463114779289707,16.52620522528877,1.980395542913237
STABILIZE,3.4376769065856934,28.78923742192326,12.666976141218315,-5.2815449026018895,49.87035851709594,-2.4610684091771673,0.0,0.0,0.5,-0.18011845169494345,-0.770841969596975,14.617969154113997,0.0,0.0,9.994999153428735,0.5,12.06538618431837,-19.01556841247556,56.70387158163403,3.3271491527557373,53.70010733604431,-37.24502623081207,45.15791833400726,-43.504127860069275,38.63959312438965,-1.420854253550742,-5.805029855786258,False,0,-11.222721304192666,-27.463114779289707,16.52620522528877,1.980395542913237
STABILIZE,3.4725942611694336,28.642965431525464,12.745651770799002,-4.539029339609598,49.312712811089106,-2.548218524696862,0.0,0.0,0.5,-0.6078855021098125,-1.1770543970745253,15.110483849879861,0.0,0.0,9.707474268578174,0.5,12.06538618431837,-19.01556841247556,56.70387158163403,1.3647024519741535,51.94140076637268,-33.46149027347565,-0.12284666299819946,-25.76393187046051,42.52006709575653,-1.420854253550742,-6.683269666531661,False,0,-11.222721304192666,-27.463114779289707,16.52620522528877,1.980395542913237
STABILIZE,3.5064892768859863,29.50846706393038,12.823651544969112,-3.1393200486690294,48.32023953965705,-2.7384176295348372,0.0,0.0,0.5,-0.898350448982859,-1.2549810925322584,15.462388856297258,0.0,0.0,8.989993441398749,0.5,12.066263179733028,-4.380957679218165,47.75712127170703,1.2275333516299725,51.25022530555725,-35.26908457279205,-16.36476218700409,-43.95820200443268,6.273217499256134,-2.329945961313463,-10.61595982882301,False,0,-11.22447529502198,-56.732336245804504,34.419705845142786,3.7985789584386787
STABILIZE,3.539975881576538,29.86502613178394,13.12699081975856,-0.5924754804317538,46.602787732328835,-3.014311913334448,0.0,0.0,0.5,-1.1703994449454056,-1.1178099765440692,15.782818643471945,0.0,0.0,7.874334777772347,0.5,17.639485731170637,24.771357509977094,29.291358827799648,1.2275333516299725,51.25022530555725,-35.26908457279205,-16.36476218700409,-43.95820200443268,6.273217499256134,-4.4501070950596855,-10.61595982882301,False,0,-0.0780301921467661,1.5722941325860162,-2.5118190426719664,-0.44174330905376635
STABILIZE,3.575554609298706,28.111391862093924,13.413357319844655,1.888034811936004,44.90038813667105,-3.2884269900734715,0.0,0.0,0.5,-1.7056074120571982,-1.024344600724557,16.24218301610115,0.0,0.0,6.409912168353272,0.5,17.586547361005593,25.440015124574064,28.20272052667659,1.2275333516299725,51.25022530555725,-35.26908457279205,-16.36476218700409,-43.95820200443268,6.273217499256134,-4.549465394713787,-10.61595982882301,False,0,0.02784654818331589,0.23497890339207572,-0.33454244042584946,-0.24302670974556406
STABILIZE,3.608558177947998,30.30391306860875,13.770235691613596,4.201250811360045,43.357075264071824,-3.5498763357739342,0.0,0.0,0.5,-1.8539325471251358,-0.9050886440424881,16.510633356144748,0.0,0.0,4.661586686741125,0.5,17.586547361005593,25.440015124574064,28.20272052667659,6.6942282021045685,46.29921019077301,-28.87491285800934,26.98032557964325,-55.592745542526245,117.71230697631836,-4.549465394713787,-10.201871072654525,False,0,0.02784654818331589,0.23497890339207572,-0.33454244042584946,-0.24302670974556406
STABILIZE,3.6443099975585938,27.97508170479557,14.111674856949577,6.4140830995656755,41.83080117162466,-3.7991702418328117,0.0,0.0,0.5,-1.9592446726166235,-0.9858325790894401,17.04102657350021,0.0,0.0,2.706793812973967,0.5,17.541276474674554,26.27424019659955,27.61783224959736,6.692449748516083,43.511343002319336,-30.194362998008728,107.85127878189087,-67.78419613838196,13.484938442707062,-4.677243757521629,-9.501986711045197,False,0,-0.06269522447876952,1.9034290474430442,-1.5043189945843096,-0.49858343536124927
STABILIZE,3.677516460418701,30.118079590986774,14.512118063706943,8.815898835552215,40.14038425805486,-4.1901876390885056,0.0,0.0,0.5,-1.6556772351205242,-1.1090895325212555,17.559733337185783,0.0,0.0,0.6321137211366836,0.5,17.753479220025973,31.385935945328555,24.745202559545575,9.941273927688599,41.059789061546326,-32.63355493545532,134.06758308410645,-79.42038178443909,-61.4526093006134,-5.585117202020694,-15.968044836026227,False,0,0.2078787569988343,1.479573290306039,-1.461571618862564,-0.42106700278258646
STABILIZE,3.712944269180298,28.230783727754893,14.862768588728553,11.081842338454312,38.51030369020539,-4.55286376601184,0.0,0.0,0.5,-1.1390062946944404,-1.2005116145618762,18.165326937303085,0.0,0.0,-1.4705634627465083,0.5,17.7771476028066,33.46915456776445,22.96584906797172,8.217618614435196,38.21626305580139,-31.48251473903656,38.22953701019287,-68.74821186065674,-38.279762864112854,-5.942312646274781,-14.22301346535801,False,0,0.1691252192527699,0.14329064706554107,-0.28679088699297495,-0.34671979195482994
STABILIZE,3.7513985633850098,26.01005847808157,15.219398819743743,13.289681569631803,36.880334603711596,-4.936885088523439,0.0,0.0,0.5,-0.3873262607313773,-1.1624032144180247,18.69344228657035,0.0,0.0,-3.5081075871039906,0.5,17.7771476028066,33.46915456776445,22.96584906797172,8.385644853115082,33.21315348148346,-30.630382895469666,21.6449037194252,-59.25931930541992,8.335381746292114,-5.942312646274781,-15.249903378765454,False,0,0.1691252192527699,0.14329064706554107,-0.28679088699297495,-0.34671979195482994
STABILIZE,3.7946834564208984,23.106566769501985,15.605439302200601,15.496936843746843,35.3264507537113,-5.316559078141069,0.0,0.0,0.5,0.7036975281569002,-0.8853144459825079,19.242652675089197,0.0,0.0,-5.390273323461346,0.5,17.7771476028066,33.46915456776445,22.96584906797172,10.05343571305275,32.447993755340576,-25.08869469165802,34.69803333282471,-54.86733913421631,68.54304671287537,-5.942312646274781,-14.512316372937654,False,1,0.1691252192527699,0.14329064706554107,-0.28679088699297495,-0.34671979195482994
STABILIZE,3.8340091705322266,25.43050469284311,16.097073163647547,17.828101833721274,33.72208534868256,-5.775478383629627,0.0,0.0,0.5,1.5505182552768326,-0.49728520937514814,19.611061126088636,0.0,0.0,-7.033697242732356,0.5,17.7771476028066,33.46915456776445,22.96584906797172,15.29156118631363,32.70222544670105,-23.020319640636444,47.27604389190674,-18.719342350959778,48.95440340042114,-5.942312646274781,-17.902979371282896,False,0,0.1691252192527699,0.14329064706554107,-0.28679088699297495,-0.34671979195482994
STABILIZE,3.8725156784057617,25.972852472010302,16.560683980646555,19.930643632495258,32.272953565918364,-6.21020564446546,0.0,0.0,0.5,2.338635214027798,-0.15168777593455215,19.864520908451347,0.0,0.0,-8.36559008374508,0.5,17.7771476028066,33.46915456776445,22.96584906797172,15.29156118631363,32.70222544670105,-23.020319640636444,47.27604389190674,-18.719342350959778,48.95440340042114,-5.942312646274781,-17.902979371282896,False,1,0.1691252192527699,0.14329064706554107,-0.28679088699297495,-0.34671979195482994
STABILIZE,3.9053773880004883,30.43430686064652,16.992952906554557,21.862812768324716,30.94316986716592,-6.424822413538346,0.0,0.0,0.5,3.37548887933041,0.30044075832096734,20.232171208452915,0.0,0.0,-9.326960678900685,0.5,17.7771476028066,33.46915456776445,22.96584906797172,14.774541556835175,32.65994489192963,-22.783002257347107,54.34444546699524,-6.327937543392181,17.11011379957199,-5.942312646274781,-5.676488256927557,False,0,0.1691252192527699,0.14329064706554107,-0.28679088699297495,-0.34671979195482994
STABILIZE,3.9398326873779297,29.027731447198136,17.32171592912971,23.497866127005313,29.81768890818974,-6.559582375873576,0.0,0.0,0.5,3.332575014218632,0.3331323915661756,20.335054347920817,0.0,0.0,-9.875228745343788,0.5,17.7771476028066,33.46915456776445,22.96584906797172,11.765221506357193,33.97171497344971,-23.595614731311798,68.88702511787415,49.969080090522766,-22.078248858451843,-5.942312646274781,-3.8525494183254745,False,0,0.1691252192527699,0.14329064706554107,-0.28679088699297495,-0.34671979195482994
STABILIZE,3.9828290939331055,23.25982121070961,17.646354166397767,25.100727201022995,28.714294056597208,-6.692744710045194,0.0,0.0,0.5,3.21376664837061,0.47715274654885953,20.404981824643407,0.0,0.0,-9.986110817918139,0.5,17.7771476028066,33.46915456776445,22.96584906797172,11.765221506357193,33.97171497344971,-23.595614731311798,68.88702511787415,49.969080090522766,-22.078248858451843,-5.942312646274781,-3.8525494183254745,False,0,0.1691252192527699,0.14329064706554107,-0.28679088699297495,-0.34671979195482994
STABILIZE,4.007609844207764,40.365554144050506,17.925340492538023,26.64474248497726,27.7370142861646,-6.740321339898774,0.0,0.0,0.5,2.940700807995378,0.4702814695221209,20.39677705990293,0.0,0.0,-9.654695793623914,0.5,17.7771476028066,33.46915456776445,22.96584906797172,10.013994574546814,36.60804629325867,-20.08078843355179,-109.06064510345459,65.38207530975342,-48.822021484375,-5.942312646274781,0.6548089550686531,False,0,0.1691252192527699,0.14329064706554107,-0.28679088699297495,-0.34671979195482994
