Mode,Time,Freq,North-Vision,East-Vision,Down-Vision,Yaw-Vision,North-Desired,East-Desired,Down-Desired,Roll-UAV,Pitch-UAV,Yaw-UAV,Roll-Control,Pitch-Control,Yaw-Control,Thrust-Control,northVraw,eastVraw,downVraw,yawVraw,zGyro
GUIDED_NOGPS,0.004105567932128906,245.0373313080563,266.85801630646387,-33.17656346427207,23.467703352023854,6.2352392972508515,265.0373951465408,-44.008344541339966,9.50300430246258,-0.2522082835994381,0.44960958183396,-23.299388891104908,3.0,-0.683631634005195,-0.6235239297250852,0.48603530095043873,266.85801630646387,-33.17656346427207,23.467703352023854,4.763461835366105,2.2345354010102105
GUIDED_NOGPS,0.019780874252319336,63.803340533633516,266.84377281631873,-31.255375140773978,23.68529730597313,7.055517991408319,265.03735014458226,-44.00828765564105,9.50301193194991,-0.2199338788629824,0.3899425433486095,-23.279024682094516,0.6293190363401131,-0.07141227680106177,-0.705551799140832,0.4858177146259768,266.82952932617354,-29.33418681727588,23.90289125992241,5.0514049090569,2.291831180523293
GUIDED_NOGPS,0.029137372970581055,107.03031540267429,266.94604859066516,-30.165825902258657,23.8730077441444,7.059008968366911,265.03703876246374,-44.00789404633999,9.503065031854348,-0.2199338788629824,0.3899425433486095,-23.279024682094516,0.6786871972065802,-0.08815196496061548,-0.7059008968366911,0.48563005728770997,267.15060013935806,-27.986727425228015,24.248428620486926,5.056928012656066,2.291831180523293
GUIDED_NOGPS,0.07121706008911133,23.775616171235516,267.0588186235491,-27.77719677421435,24.130776453392674,7.046734064096866,265.03620454055914,-44.00683953010023,9.503208232478064,-0.17341620850994943,0.3275193100897474,-23.176604287942883,0.7065542288633114,-0.08372143561065698,-0.7046734064096867,0.4853724317790854,267.3971287222009,-26.01067608013916,24.24100947976868,5.198729047800555,2.5783100780887045
GUIDED_NOGPS,0.10360503196716309,30.87225084645959,267.1391969328496,-25.858926352254546,24.336298181106034,7.109649371144538,265.03460170761986,-44.0048134344596,9.503485253248222,-0.08398970230552287,0.2435581425003078,-23.092454649821033,0.7860897926000112,-0.08689726646718209,-0.7109649371144539,0.4851671870721422,267.4607101700517,-23.579375551396467,24.519456443062488,5.445934982623914,1.8334649444186344
GUIDED_NOGPS,0.15024018287658691,21.448096708871116,267.3497647022066,-23.084799261812865,25.21413987399161,7.149800355669979,265.0319950333483,-44.001518411473434,9.503938908892401,0.2031507033498727,-0.009639317909592058,-22.933215619511355,0.8993866580650538,-0.09764827782492579,-0.714980035566998,0.48428979903490077,267.9108551532488,-19.66434615390297,26.881953699143633,5.695088313255026,1.776169164905552
GUIDED_NOGPS,0.1860344409942627,27.94768019083537,267.58105623675135,-20.16319126035542,26.695595990293754,7.208121785469871,265.02815968097264,-43.99667025135767,9.504611115614026,0.6153437485183492,-0.3700329688048455,-22.85976547272433,1.03745079420567,-0.10902184565034814,-0.7208121785469871,0.48280901512532026,267.98598699889743,-17.245852075766823,28.685377828675122,5.9123290328962845,1.3750987083139758
GUIDED_NOGPS,0.22313404083251953,26.962265848986256,267.8102402584942,-17.530707805776448,27.806312676290748,7.24678410751331,265.02288105982035,-43.989997696131965,9.505542897267786,0.7953411110978703,-0.403197165763254,-22.786766118422527,1.1334266503579016,-0.11830740456551361,-0.7246784107513311,0.48169923022097705,268.2965202480722,-15.681925187659562,27.85160650105349,5.95321660654065,1.6615776058793874
GUIDED_NOGPS,0.2616450786590576,25.968993015998812,268.0592174783126,-15.670096832583349,28.310017516883622,7.287249512736581,265.0159546778927,-43.98124225326282,9.506774391535059,1.0506799958951278,-0.6448225781718597,-22.725796434796408,1.186371164256776,-0.12904271546836843,-0.7287249512736582,0.4811967568746514,268.6420148212927,-14.082513234323676,28.393068220922252,5.980518210998754,1.6615776058793874
GUIDED_NOGPS,0.3034098148345947,23.94979700677786,268.29889688880155,-13.695152251504519,29.228801223211576,7.317922444806363,265.0071859944386,-43.97015800930668,9.50834485609934,1.230115895580533,-0.6811021951654402,-22.670582893093318,1.2647190025458,-0.1383668748844339,-0.7317922444806363,0.4802795436328878,268.6591072224968,-11.321018332530338,31.441728947658984,6.258638213770823,0.8021409131831525
GUIDED_NOGPS,0.3376431465148926,29.2398061974973,268.4269821726408,-11.347808399889976,30.517069111869887,7.344646882913686,264.99639027252897,-43.956511443553026,9.510292674821656,1.3068724942560783,-0.6595418492766487,-22.640174890908423,1.3807296456436933,-0.14217816433028585,-0.7344646882913687,0.47899322356295176,268.55128157244513,-8.639893632815923,31.71641016702842,6.530643721650515,0.5729577951308232
GUIDED_NOGPS,0.37325501441955566,28.07883461868038,268.6497885838522,-9.378738003868031,31.30751541595609,7.343998036202542,264.9833924316306,-43.940081241667535,9.512655363916,1.365156526156207,-0.8117071514837201,-22.634159201796933,1.4465871116413114,-0.15430697243218466,-0.7343998036202543,0.47820513994795993,269.1000190549544,-8.175302046257848,30.764407133180868,6.314594861370317,0.057295779513082325
GUIDED_NOGPS,0.41348719596862793,24.87518236919829,268.89869683386894,-7.967388497317825,31.213329387715834,7.343801619938585,264.9680269001804,-43.92065810933516,9.515469578124748,1.410192872552567,-0.8101906360445656,-22.629135597662387,1.483474182455457,-0.16499454932877924,-0.7343801619938586,0.4783021401904089,269.54106149815595,-7.086969812879719,31.159170862938232,6.227248600151348,0.40107045659157625
GUIDED_NOGPS,0.45609283447265625,23.47803501858403,269.0572187085833,-6.648416061184284,31.495473777830778,7.333107336163396,264.95013746815954,-43.89804458590322,9.518771116894083,1.4235291370721341,-0.6276244820068849,-22.61635972881988,1.5322420233582719,-0.1697199149083638,-0.7333107336163396,0.4780232973390633,269.4346241948648,-4.682976324415302,32.56284333737323,6.427522333694988,-0.4583662361046586
GUIDED_NOGPS,0.49605464935302734,25.020753670220063,269.2634368967615,-4.881761642906594,32.3726496378969,7.320421384685929,264.9295771396674,-43.87205485802458,9.522594930549424,1.4542250744192293,-0.6867280298857094,-22.62060469138904,1.6169455882109465,-0.18055114152638876,-0.7320421384685929,0.47714994529265253,269.6901981633879,-2.8753387914247757,33.395934713379226,6.493412920899371,-0.057295779513082325
GUIDED_NOGPS,0.5474913120269775,19.444720542966287,269.5165955127604,-2.243523281316715,32.89334511515873,7.289444669052152,264.90620798549577,-43.8425145733007,9.52697512647084,1.4422076767397092,-0.48326619274284405,-22.64909682551175,1.730562009386741,-0.19154663203549863,-0.7289444669052152,0.4766336300113121,269.81707465243943,0.8277452718899186,32.72125729472372,6.644497767301855,-1.2032113697747289
GUIDED_NOGPS,0.5874888896942139,25.00941511785295,269.801806161856,0.37951744902264856,33.8319712845313,7.251214948420012,264.87990099570294,-43.80926065392476,9.531944975268486,1.443752900317719,-0.6328412524288938,-22.69598778171118,1.8499893871408777,-0.20662099822959526,-0.7251214948420013,0.4756999736907372,270.52607230043253,3.1861458666027884,35.37872184549093,6.519712645453364,-0.40107045659157625
GUIDED_NOGPS,0.6176702976226807,33.1387396498325,269.90674825695714,3.356449767965937,34.503019936366876,7.220813008190509,264.85053593218794,-43.772141110324796,9.537536916958016,1.4364235737297664,-0.34397344924371964,-22.694599545762376,2.0010849775042683,-0.20877855856218747,-0.722081300819051,0.4750345169805911,270.0657719736614,6.055458165405089,35.40908066888596,6.812771819025033,-0.8021409131831525
GUIDED_NOGPS,0.6600093841552734,23.625755501856013,270.18903916735405,5.0813307886329815,35.27513715845794,7.1794743528531315,264.8180011812643,-43.731014854806794,9.543782567136017,1.437904764284307,-0.28891529434424684,-22.744816804087602,2.0142848074318014,-0.22477727534130582,-0.7179474352853132,0.4742686454086781,270.8460787468493,6.0023883338910515,35.03760896099693,6.462694790702032,-1.3750987083139758
GUIDED_NOGPS,0.7055728435516357,21.952351044676128,270.48076657466646,6.346903595089672,35.26392869419265,7.1380954304943565,264.7821936062347,-43.6857515151978,9.55071272315542,1.5101913243131966,-0.26355117341799295,-22.76605869240634,2.0510238907029974,-0.23759286868678844,-0.7138095430494357,0.4742867840289628,271.14883519994953,6.982864285972861,35.34509645269507,6.339871907422186,-0.5156620156177409
GUIDED_NOGPS,0.7428181171417236,26.85488910515802,270.6433667291111,7.639124183943881,35.326003450762876,7.099180573326133,264.74301839996457,-43.63623124848905,9.558357370300937,1.6175379924037019,-0.40877017323916126,-22.8336246312234,2.1097214970383726,-0.24424472111398204,-0.7099180573326134,0.47423235391953805,270.6300754246626,9.932119931967716,35.595304938596655,6.647777694538048,-0.7448451336700702
GUIDED_NOGPS,0.7782719135284424,28.21407237992735,270.6642273974068,9.999155472446057,35.32537362688047,7.059571122714455,264.7003889374563,-43.582344554479036,9.566745687964476,1.6940434749055435,-0.1493933126211039,-22.866597369441635,2.235740656628995,-0.24337207439567154,-0.7059571122714455,0.474241372061084,270.63037564191137,13.082482199397582,35.035719489349695,6.67812662545061,-1.2032113697747289
GUIDED_NOGPS,0.8182294368743896,25.03240130106532,270.80210905590656,12.352977525812513,35.15020662389301,7.02880487123753,264.6542266284236,-43.52399208941669,9.575906055820566,1.78847767037014,-0.37694021104643244,-22.91510025028519,2.321816574519642,-0.25377583750436605,-0.7028804871237531,0.4744256994319276,270.75518026616015,14.044330446072227,34.81959544373268,6.569863932414793,-0.5156620156177409
GUIDED_NOGPS,0.8553876876831055,26.917795647514104,270.7994617905641,14.229083581804474,34.97325665472499,6.980940697722764,264.6044607698654,-43.46108447964443,9.585866060001784,1.8160032260035854,-0.09313432508817825,-22.944176365581935,2.38800386379193,-0.25256648698578904,-0.6980940697722765,0.4746126094052768,270.8328424201373,15.5604380999436,35.06445503109258,6.57604063324947,-1.5469860468532228
GUIDED_NOGPS,0.8901565074920654,28.772845451489644,270.65257511091534,15.824768521905888,34.79931905647556,6.942305555914645,264.55102839863997,-43.3935421352413,9.596652499274178,1.896703405151167,-0.1600050787137765,-22.98134967013973,2.4464206276970697,-0.24507966009157398,-0.6942305555914645,0.4747973334427986,270.41440180170537,17.869537019701824,34.5139066946014,6.767448315967585,-0.8594366926962349
GUIDED_NOGPS,0.9312174320220947,24.35589312985965,270.5909875077712,17.56732427397616,34.64638907346416,6.898541336942682,264.4938741440391,-43.3212950636661,9.608291391212688,1.9333268794807754,-0.047404714491061935,-23.02529510725959,2.512196721934354,-0.24773899047494538,-0.6898541336942682,0.47496190231774854,270.3221374089421,19.271997702283038,34.36080549469847,6.767227844406064,-1.4896902673401404
GUIDED_NOGPS,0.9679563045501709,27.231142794073726,270.64081209967173,19.356408619637666,34.225630183817195,6.84928990847153,264.43295008036216,-43.24428268340045,9.620807978376574,2.024088354162609,-0.20388370804581937,-23.06851483678014,2.5893190654133216,-0.25553257860558276,-0.684928990847153,0.47539517779455936,270.8794986014139,20.927691136928118,33.80217836215168,6.509389593441112,-0.9740282517223995
GUIDED_NOGPS,1.0197041034698486,19.326808589070133,270.6656757667225,20.375793325379764,33.988387406333956,6.810075361516486,264.36821557949014,-43.16245363759195,9.634226734484832,2.1064864756491732,0.022565024027018064,-23.131723114906727,2.601467668212694,-0.25815120984173234,-0.6810075361516487,0.47564583932815085,270.8794986014139,20.927691136928118,33.80217836215168,6.509389593441112,-0.9167324722093172
GUIDED_NOGPS,1.0633516311645508,22.91618768712984,270.7963028373185,21.40938654184261,33.27240497127764,6.759489430388622,264.29963716346,-43.07576560769727,9.648571370591629,2.1332187688435456,-0.04413027911427551,-23.16023915469153,2.645641338610044,-0.26922545944892035,-0.6759489430388622,0.476376166399314,271.48597777311744,22.372777351671587,32.21285818952953,6.24272758076724,-0.6875493541569879
GUIDED_NOGPS,1.0974624156951904,29.32034029821532,271.087153488006,22.448630115420542,32.27024142705947,6.725922225654359,264.2271883570383,-42.98418512712526,9.663864841261715,2.197953380806222,-0.1701799261429799,-23.207357214680865,2.69160532366589,-0.2899692407746243,-0.6725922225654359,0.4773936234142022,271.8686550551429,24.045421857661903,30.79568772949717,6.057881428899422,-0.40107045659157625
GUIDED_NOGPS,1.1327424049377441,28.351194057090325,271.3964570172461,23.487873688998473,31.268077882841297,6.701765862862049,264.150849540296,-42.887687394880054,9.680129350745858,2.217148773694897,0.021736009816507765,-23.204640506938492,2.7309602186550106,-0.3060739041763553,-0.670176586286205,0.47841205146790455,271.8686550551429,24.045421857661903,30.79568772949717,6.057881428899422,-0.4583662361046586
GUIDED_NOGPS,1.1777145862579346,22.23915164369035,271.541820550242,24.65417998852104,30.83037295092007,6.674783690933197,264.0706078011819,-42.78625608920421,9.69738635915626,2.264549432761139,-0.19699631604150777,-23.27418890816215,2.773436530304712,-0.30948165560705293,-0.6674783690933197,0.4788670134082362,271.6063162663931,25.8716962502393,30.899743393765842,6.198077259167625,-0.7448451336700702
GUIDED_NOGPS,1.2196924686431885,23.828700310761906,271.8187387248896,25.534638205889546,30.48711070262767,6.639963042054932,263.9864567880971,-42.6798831812218,9.715656588641984,2.321129652628467,-0.0931161823981954,-23.30045952325731,2.802226704116497,-0.3279324591277899,-0.6639963042054933,0.4792285458860143,272.264089474652,26.686796509767415,29.76590098461998,5.885228134958066,-0.5729577951308232
GUIDED_NOGPS,1.2562155723571777,27.394056560642674,272.10189354187156,26.499635283583103,30.269346040285402,6.597281491278896,263.89839656246915,-42.56856874858153,9.734960029564373,2.283908323303071,-0.04522631103265099,-23.32121988323956,2.843622961454748,-0.34454640646749746,-0.6597281491278897,0.47946561398927895,272.90175185802707,26.940413090742585,30.142393742470375,5.700483393718116,-1.1459155902616465
GUIDED_NOGPS,1.2961957454681396,25.029413695360287,272.2353450883591,27.39492832977086,29.846091008194815,6.555223662070142,263.80643345132586,-42.452320789099836,9.755315946672482,2.3323059765447236,0.015609116687594765,-23.35504468755676,2.8736764602624185,-0.34937222976762805,-0.6555223662070142,0.47990922493847765,272.5359127875806,28.55757538880256,29.629978297494084,5.8287288794453405,-1.088619810748564
GUIDED_NOGPS,1.3371343612670898,24.423401442937582,272.29421547422686,28.63609470941191,29.76533671513498,6.514922273906393,263.7105798998697,-42.331155034404034,9.776742885278496,2.375056770890068,-0.22392412340087148,-23.407017304498677,2.9291175775396856,-0.3540399144849044,-0.6514922273906394,0.48001140617014354,272.1630069844816,30.410295648690575,29.523638105440465,6.025386996751017,-0.8021409131831525
GUIDED_NOGPS,1.3807313442230225,22.943138617056775,272.7548980509231,29.417711607860834,29.791845619996177,6.471487806401862,263.6108543240518,-42.20509476357538,9.799258677433155,2.374610887603313,-0.15662520229167803,-23.436790099090764,2.9463437476754937,-0.38596752894023556,-0.6471487806401863,0.480007413057437,273.90972914987424,29.28526378608935,30.221920457053976,5.352974131419265,-0.6875493541569879
GUIDED_NOGPS,1.4226555824279785,23.857705981058558,272.9210523189378,30.483025740354886,29.710827872107803,6.438847312468255,263.507280963146,-42.07417061679224,9.822880448101177,2.3723855265943583,-0.12954798454422028,-23.453954364475006,2.9940730514168514,-0.3907424750562638,-0.6438847312468255,0.4801120525759934,273.09486081472596,31.75351778628471,29.386925053828982,5.701496399438555,-0.34377467707849396
GUIDED_NOGPS,1.4566090106964111,29.456864342500772,273.06930827037,30.97866230918568,29.680129592905274,6.416759179216244,263.39988973232306,-41.93842040897314,9.847624621336687,2.3909457118902218,0.050883415212714056,-23.4628609311527,2.9991134946144546,-0.4023173790663529,-0.6416759179216245,0.4801674950284314,273.64303161518797,31.897205355182958,29.43154326783288,5.5452012922125595,-0.057295779513082325
GUIDED_NOGPS,1.4953742027282715,25.80078122597115,273.3555638729638,31.91881413046929,29.622646617629613,6.387337635331794,263.2887160752247,-41.79788894341992,9.873506926458628,2.418993456830056,0.06112848552432162,-23.502663858540952,3.0,-0.4213813442065806,-0.6387337635331795,0.480250860308829,273.96719080054925,32.10571924994017,30.049471531227,5.4133015800225115,-0.8594366926962349
GUIDED_NOGPS,1.540726661682129,22.053578846083067,273.61837640551175,32.64433141977267,29.444120570711572,6.369865489105951,263.1738008165377,-41.65262782546085,9.9005424042262,2.455209467686991,-0.23456854633551322,-23.536814804391014,3.0,-0.4350645282716439,-0.6369865489105951,0.4804564218335146,273.47706964722147,33.93006965419484,28.851346913074845,5.6366446753648365,0.057295779513082325
GUIDED_NOGPS,1.5753843784332275,28.862537847508946,273.6024233483654,33.673875948239754,29.17706412260822,6.349941281400245,263.0551900145682,-41.502695276093704,9.92874541301428,2.475300469130583,-0.049713318430526246,-23.525241048842428,3.0,-0.4341433623612621,-0.6349941281400245,0.4807516812904061,273.82996386414237,34.9858389405842,28.630373923522832,5.56865638231948,-0.34377467707849396
GUIDED_NOGPS,1.6161999702453613,24.5028742347058,273.73296678197283,34.92784912212775,28.343306455295377,6.338322493318646,262.93293481381534,-41.3481559456289,9.95812963498883,2.468273698578521,-0.2834746217835086,-23.543134436920568,3.0,-0.44791082450164743,-0.6338322493318647,0.48161482317969345,273.74757798276335,35.86763877160418,27.548198529288467,5.617243839374353,0.0
GUIDED_NOGPS,1.6578161716461182,24.034748725001432,273.86061599559906,35.60909067444003,27.813182642348576,6.326087029721696,262.80709129754587,-41.18908072733262,9.988708082282349,2.492195795816256,-0.43272642142274625,-23.577041203507804,3.0,-0.4584365068523639,-0.6326087029721696,0.48217552543993375,274.28127768331916,35.97379431113169,27.260975474234446,5.509498989758545,-0.057295779513082325
GUIDED_NOGPS,1.69758939743042,25.16290510300805,273.97953655471684,36.04163330906605,27.090505534513806,6.308430464992962,262.67772034036807,-41.0255465710699,10.020493103169269,2.500915599508835,-0.24067921776514745,-23.567736778310955,3.0,-0.4690063248474364,-0.6308430464992962,0.48292998756865546,274.56179359613816,36.28346684446223,26.462342600018513,5.450045433878888,-0.40107045659157625
GUIDED_NOGPS,1.7371220588684082,25.293556460123625,274.1511927897421,36.56604068927059,26.61136541134584,6.2902950014437025,262.54488746080574,-40.857636296947746,10.053496388241397,2.4798431852588765,-0.32659830176885346,-23.582348260492903,3.0,-0.4829973871794597,-0.6290295001443703,0.48344213097689553,274.3353508223477,37.4408609122178,26.11077815978457,5.59542032829044,-0.34377467707849396
GUIDED_NOGPS,1.7747530937194824,26.580041698616593,274.5651315205308,36.625897122394186,26.32078550096163,6.269032911074773,262.4086626738725,-40.685438408958255,10.087728976583332,2.5262261461387867,-0.3624467630710769,-23.59341487449562,3.0,-0.5124119809691321,-0.6269032911074773,0.4837669434756217,275.8996575180863,36.153363610502495,26.389235743081816,5.115769925805435,-0.2291831180523293
GUIDED_NOGPS,1.8142142295837402,25.347821357345744,274.99554742759545,36.58252937774095,26.296416548649393,6.240496004368404,262.26912034364574,-40.50904690862173,10.123201261947887,2.4850689203041707,-0.4349630949325139,-23.619373008436252,3.0,-0.5356717781914621,-0.6240496004368404,0.4838267847132985,275.8996575180863,36.153363610502495,26.389235743081816,5.115769925805435,-0.7448451336700702
GUIDED_NOGPS,1.8416497707366943,36.45572436811181,275.3114251586339,36.64254798427453,26.38804607990994,6.208598276517082,262.12633903584083,-40.32856110862976,10.15992299893152,2.480701227773359,-0.3939164327850876,-23.623708471011916,3.0,-0.5563362512523187,-0.6208598276517083,0.48377187691902157,275.8606663385112,37.62091673181854,26.385666753566213,5.281808596034765,-0.7448451336700702
GUIDED_NOGPS,1.8835129737854004,23.89521959334355,275.6700436713212,37.06176949812654,26.62794288535963,6.18435748890979,261.9804013703852,-40.14408544648839,10.197903309149751,2.45379860673656,-0.40659838652650876,-23.66362238897418,3.0,-0.57265994802577,-0.6184357488909791,0.48356996042379014,276.35488615957485,37.411028152058506,27.108926159430883,5.153470114428106,-0.5156620156177409
GUIDED_NOGPS,1.9229660034179688,25.349046911073238,276.0994386534886,37.56439057729774,26.912165435621038,6.154619671684786,261.8313938739924,-39.95572929816117,10.237150687412585,2.400369451954135,-0.4263845907783894,-23.713233468010568,3.0,-0.5989099682963693,-0.6154619671684787,0.4833249852517916,276.4823257331847,37.66122684801613,27.241903393866032,5.13600558778551,-0.40107045659157625
GUIDED_NOGPS,1.9727985858917236,20.071417291559992,276.17903330685874,37.89076729193849,27.330085878316392,6.126894361955654,261.6794068327363,-39.763606791712306,10.277673007899942,2.390786696548607,-0.5808039621332707,-23.74033565863718,3.0,-0.5989177468470616,-0.6126894361955655,0.4829475871295835,276.29763078493704,38.600046875740766,27.63942808165227,5.276736810239857,-0.5729577951308232
GUIDED_NOGPS,2.005155086517334,30.913891079549224,276.2581561787024,38.42522066695839,27.61669874300361,6.087724203824624,261.524534144625,-39.56783662094977,10.319477530337078,2.387972658610562,-0.5524366924063268,-23.81310790914908,3.0,-0.6113599282121803,-0.6087724203824625,0.4827027787873335,276.2952718773044,39.014388277118194,27.96876475349254,5.297928123514084,-1.260507149287811
GUIDED_NOGPS,2.0506980419158936,21.963041508920202,276.39866280863623,39.01216152750041,27.626427422308875,6.057562692634163,261.36687317217536,-39.368541859068394,10.362570906170003,2.397793189976571,-0.7697615724084965,-23.85519724236199,3.0,-0.6232554169555297,-0.6057562692634164,0.4827361434838611,276.56319948818026,39.4220494296422,27.27108943178183,5.272604928280963,-0.6302535746439055
GUIDED_NOGPS,2.0906057357788086,25.06126838828408,276.4638503060668,39.34015926370779,27.559674681478757,6.009102704046437,261.20652459498655,-39.165849772292994,10.406959184740916,2.3794795318210626,-0.8250310362854166,-23.907164736662033,3.0,-0.6319867133930297,-0.6009102704046437,0.48284728450326214,276.6808236467278,39.584040084362904,27.43916985916193,5.247701600457573,-1.2032113697747289
GUIDED_NOGPS,2.122206211090088,31.65488562350473,276.4890312998936,39.651903072350514,27.16287550326743,5.954651814286804,261.0435922623146,-38.95989163352148,10.452647819463621,2.351059328128051,-0.6700562851736487,-23.932894059265468,3.0,-0.6403317417260048,-0.5954651814286804,0.4832897723161962,276.60823070231885,39.94961970304639,26.778367218858545,5.274523334916999,-1.5469860468532228
GUIDED_NOGPS,2.1563289165496826,29.331412547116372,276.6439443576502,39.6991435942473,26.90170042450225,5.9065049752692165,260.8781830456462,-38.75080253596798,10.49964167399895,2.3705727516999544,-0.8554448014424256,-24.019114952253126,3.0,-0.6571044847082224,-0.5906504975269217,0.4835979412494967,277.0721960737199,39.563770995332575,26.487564195486282,5.149261966501037,-1.432394487827058
GUIDED_NOGPS,2.194439649581909,26.235552414133895,276.8842096811686,39.52107846964807,26.605298462303022,5.845233533771307,260.71040669127314,-38.53872120680591,10.547945028430188,2.378797580121119,-0.6979398921299911,-24.073532776917908,3.0,-0.6752983691853099,-0.5845233533771307,0.4839426465661272,277.4965984948967,39.049844710565175,26.54996397256426,4.99190402380127,-1.8907607239317168
GUIDED_NOGPS,2.239659070968628,22.11882336810353,277.017462062293,39.438897222918065,26.336238704680742,5.768511884580956,260.540375672866,-38.32378982081115,10.597561585438507,2.4005649661191266,-0.6921181163579072,-24.16914347246704,3.0,-0.6842235139496139,-0.5768511884580957,0.48426132288075774,277.22946139380247,39.703075962856396,25.97118794599172,5.086275709469303,-2.2345354010102105
GUIDED_NOGPS,2.2817273139953613,23.78910113889015,277.41410692003154,38.76883526079122,26.292263731864008,5.671137448993735,260.36820504404875,-38.10615381400509,10.64849447647837,2.4100623441600297,-0.5541705999601579,-24.26301417732511,3.0,-0.7145953697850747,-0.5671137448993736,0.48435623074461437,278.66404793542034,37.55358510895202,26.355639277036076,4.532233853667328,-2.0626480624709638
GUIDED_NOGPS,2.3270840644836426,22.04465374427112,277.76993083039923,38.47519563368931,26.484219687118042,5.5613199656375585,260.19401229097235,-37.885961697297795,10.700746267952972,2.4226497424701283,-0.5231461732026675,-24.384717903050984,3.0,-0.7346116378592529,-0.5561319965637559,0.4842165265808349,278.38735025415747,38.168925829259436,27.12583183832637,4.618509254680381,-3.151267873219528
GUIDED_NOGPS,2.3736302852630615,21.49029573914291,278.1109798172518,37.802842060150425,26.619612607197283,5.445891464930341,260.0179171848892,-37.66336487013109,10.754318967389654,2.44633513096444,-0.6764767697151665,-24.509056374249187,3.0,-0.7557430942944202,-0.5445891464930341,0.48413470636019235,278.77744100798253,37.68601524223972,26.377366706229438,4.4530713095466865,-2.177239621497128
GUIDED_NOGPS,2.4080684185028076,29.039589016436572,278.4526166356146,37.56517281352722,27.142458674498176,5.326272164506314,259.8400416347272,-37.438517434121664,10.809214029615331,2.488804393449933,-0.7595661276900774,-24.619316118020702,3.0,-0.7808127497986305,-0.5326272164506314,0.48366675535511716,279.2047825867107,36.8405773690824,27.924177478938756,4.186155583217478,-2.5783100780887045
GUIDED_NOGPS,2.4473934173583984,25.47498845994995,278.79504945465567,37.20846934643448,27.453609335505973,5.218371931356899,259.6605095396636,-37.21157600670422,10.865432362931916,2.4975630438434164,-0.42789470291519693,-24.71633554008615,3.0,-0.8009623993328195,-0.5218371931356899,0.4834118230274259,278.9416254890079,37.09881542798119,28.059283821349762,4.19963163249662,-3.323155211758775
GUIDED_NOGPS,2.4807627201080322,29.93707531547993,278.81611331215896,37.09383673060248,28.094824228135035,5.107591250738767,259.47944664169967,-36.98269953477454,10.922974335291743,2.5160039142722166,-0.4135384990534764,-24.773135393223974,3.0,-0.8022942152899405,-0.5107591250738767,0.4828281501071567,278.7693672229365,37.342117394743745,28.30101138411662,4.2169565073625215,-2.6929016371148693
GUIDED_NOGPS,2.51483154296875,29.362623823024958,278.78061651575706,37.51248257792164,28.358257120076434,5.008690142890206,259.2969803782341,-36.752049108332635,10.981839780472987,2.5195539050933307,-0.5128108163279689,-24.874167551426805,3.0,-0.807178289458736,-0.5008690142890206,0.48262358266039657,278.209866272148,38.09651491103988,28.71447615476296,4.349027214892128,-2.9220847551671985
GUIDED_NOGPS,2.5518763065338135,27.0009720675426,278.77771269601453,37.43197932567518,28.687580296722047,4.899166649149592,259.11323973463755,-36.519787774125824,11.042028004255092,2.5004455971165735,-0.44116768146323576,-25.047210394049078,3.0,-0.8156766240932235,-0.4899166649149592,0.48235444770753305,278.7629219092699,36.85730567124183,29.047253351286592,4.040681194452757,-3.380450991271857
GUIDED_NOGPS,2.5899946689605713,26.239163210279703,278.58030900044076,37.5056748892349,29.082324581591212,4.7892234067016215,258.92835509682675,-36.28608034929188,11.103537790594197,2.5118776262398823,-0.35503622126502465,-25.12976006035785,3.0,-0.8107228773536795,-0.47892234067016215,0.482021213209003,278.217764108842,37.56320408542292,29.48524423872412,4.17201449684794,-2.7501974166279517
GUIDED_NOGPS,2.6258177757263184,27.921819246951056,278.4075152755757,37.32114989084821,29.144330062933808,4.68208324716856,258.74245810383843,-36.051093235002114,11.166367407798555,2.5308691806705146,-0.6240199563941166,-25.264275513419374,3.0,-0.8126456473884595,-0.46820832471685603,0.48202203734486476,278.0776568646825,37.54293991587981,28.90049259879074,4.140520702711445,-2.635605857601787
GUIDED_NOGPS,2.6568655967712402,32.21629593216173,278.2579883299719,37.53038825587013,29.127130802890843,4.573940493531781,258.5556815004036,-35.81499423010449,11.230514614703957,2.4970836499410463,-0.36157313918755,-25.289345722767905,3.0,-0.8155787242123917,-0.4573940493531781,0.4821033838118131,278.0217324949179,37.48502076630758,28.99565557115768,4.099666497865483,-3.2658594322456924
GUIDED_NOGPS,2.703667640686035,21.369418573844992,278.27090181438206,37.21313927060576,28.784109676746706,4.48841202543963,258.3681589895215,-35.57795234476677,11.295976666849159,2.5679043873410277,-0.33684379896728417,-25.450830177767227,3.0,-0.8276088584263321,-0.44884120254396304,0.48251186699010246,278.27443369419865,36.61145712962981,28.456180860291713,3.9025566606367192,-2.46371851906254
GUIDED_NOGPS,2.7483062744140625,22.405709462707936,278.2288512769885,36.45487394886162,28.406291304556476,4.359824183409576,258.1800250850338,-35.34013761411957,11.362750322651301,2.606059104705188,-0.5368845651096193,-25.602996547191356,3.0,-0.833348103262473,-0.43598241834095763,0.4829564590180948,278.55266922230203,35.268143950647385,27.767037482220047,3.6052290752770992,-2.521014298575622
GUIDED_NOGPS,2.7921016216278076,22.842429160381005,278.3227237374014,35.49431787714304,27.857782486769366,4.2496161329480575,257.9914149641986,-35.10172091189953,11.430831849581338,2.6279887076959834,-0.47785284093878583,-25.711806583311535,2.9691955515920476,-0.8487865815020634,-0.42496161329480575,0.483573049362812,278.6871264109066,34.603352551151836,27.35012911779636,3.462140323294813,-2.119943841984046
GUIDED_NOGPS,2.837693452835083,21.93845751497241,278.4651079813534,34.618888223002905,27.344430031552424,4.149270168655617,257.8024643202649,-34.86287376409238,11.500217030339455,2.595525672344559,-0.27970841278648123,-25.811749326341747,2.9308368779445004,-0.8637723326759749,-0.4149270168655617,0.48415578699878703,278.78957808444227,33.9851681672094,26.916123494640885,3.34499495647605,-2.177239621497128
GUIDED_NOGPS,2.8661105632781982,35.20099368039411,278.67423668047627,33.71610173915993,27.10133055151013,4.056433021366658,257.6133092150461,-34.62376816257607,11.570901169030499,2.597386258563153,-0.4689975006798643,-25.8818680483611,2.8729140968748434,-0.8865616764494542,-0.40564330213666583,0.4844695706175204,279.06737599053207,32.559784499118464,27.037739042093165,3.087857136682741,-1.6615776058793874
GUIDED_NOGPS,2.9066383838653564,24.679635186819652,278.83282513974297,33.034912388482134,26.997200526275734,3.9999802317715045,257.4240859314947,-34.3845763787639,11.642879097339398,2.6118432077151312,-0.4469146453195668,-25.959911497364956,2.8548409188935664,-0.8964093874898202,-0.3999980231771505,0.48464567857106366,279.06737599053207,32.559784499118464,27.037739042093165,3.087857136682741,-1.6615776058793874
GUIDED_NOGPS,2.945955991744995,25.440067932310306,278.7586443526646,32.943948534991854,26.854197344200742,3.935278757890529,257.2349308262759,-34.145470777247596,11.716145180706583,2.562732440035447,-0.4058615798697936,-26.020123029993204,2.85861387440527,-0.8961576123943078,-0.3935278757890529,0.4848619478365058,278.18176528691015,33.712276606738556,26.487113948415907,3.388002672517116,-1.260507149287811
GUIDED_NOGPS,2.986067771911621,24.9404125513608,278.6633990607624,32.83812277675511,26.96794802394767,3.882913598865913,257.0459801823422,-33.906623629440446,11.790693324503415,2.565538794010676,-0.43906633107639903,-26.08117126079478,2.847666259266629,-0.9001113890950344,-0.38829135988659136,0.48482274530055575,278.2108999513956,32.242307224408215,27.37899108133395,3.235715513591774,-1.0313240312354819
GUIDED_NOGPS,3.024778366088867,25.83224423682152,278.5337586338604,32.59496610763457,27.116140674925344,3.817955419020758,256.857370061507,-33.6682069272204,11.866516980207617,2.568499040685642,-0.5135275593039971,-26.143290123748752,2.826953938121608,-0.9025446256172305,-0.3817955419020758,0.4847503763052823,278.14137594993184,31.830314491756848,27.48231699502619,3.230241393300991,-1.8334649444186344
GUIDED_NOGPS,3.0629796981811523,26.181019200519337,278.32546309784414,31.813559509922147,27.559205347882067,3.768128361427478,256.6692361570193,-33.43039219657321,11.943609151578674,2.563812463697955,-0.4838935029294274,-26.16830569158392,2.774554393930207,-0.9005214566529023,-0.37681283614274785,0.48438440380369663,278.0258983104508,31.368056813601275,27.816307967286075,3.2330493070455475,-0.8594366926962349
GUIDED_NOGPS,3.1030807495117188,24.94441735158731,278.0527039984903,31.31336943393356,27.5178460478449,3.7309025925081993,256.4817136461372,-33.19335031123548,12.021962400833285,2.5522809699448583,-0.5274829164388025,-26.21232284569007,2.7555611878840915,-0.8963384231101945,-0.37309025925081996,0.4845041163529884,277.703580493763,30.741736996442462,27.254913181222452,3.3319307961969535,-0.6302535746439055
GUIDED_NOGPS,3.141139268875122,26.280264913940563,277.9570670398608,30.95051026882876,27.44204477657699,3.695394001451125,256.2949370427024,-32.95725130633787,12.101568854820766,2.5342362504879192,-0.5333668042436512,-26.217865544201533,2.737118227503342,-0.9053391259695343,-0.3695394001451125,0.48465952407824375,277.703580493763,30.741736996442462,27.254913181222452,3.3319307961969535,-0.8021409131831525
GUIDED_NOGPS,3.1813254356384277,24.889057678613813,277.83136139778446,30.550912773742784,27.18373104966058,3.670459914727039,256.10904004971405,-32.722264192048094,12.182420211198481,2.5463301676304844,-0.5838542819279161,-26.250228688036348,2.714047451066746,-0.9077491428394857,-0.36704599147270395,0.4849986891615379,277.58237174101345,30.169264328343342,27.04136678653686,3.3307682425715113,-0.34377467707849396
GUIDED_NOGPS,3.2245776653289795,23.124656794098513,277.62053240188595,30.385146412969203,26.887274709765947,3.651877203455359,255.92415541190329,-32.488556767214135,12.264507744607275,2.4863318649703885,-0.6050073777874455,-26.25927527359203,2.7073675304988556,-0.9055543526694706,-0.3651877203455359,0.4853772330348413,277.0872309704397,30.2444379141217,26.36554416153855,3.4909697931529213,-0.2864788975654116
GUIDED_NOGPS,3.2668097019195557,23.683118672395977,277.50762351716065,29.475782727682134,26.500552355057014,3.635312522187894,255.74041476830675,-32.25629543300734,12.347822312846878,2.4176619968287265,-0.6721174014774058,-26.28764617185697,2.646400988234738,-0.9115854053820428,-0.36353125221878946,0.4858472699577899,277.4613538868243,28.013645940581256,26.094746117095653,3.3332445253614695,-0.2291831180523293
GUIDED_NOGPS,3.306584358215332,25.163207026469248,277.35989126506723,28.77047645140064,25.706557283234133,3.6292948694634877,255.55794850484114,-32.025645006565426,12.432354363051346,2.3845882998768206,-0.8033139162108321,-26.301689040790517,2.6146422112389316,-0.9130327383560085,-0.3629294869463488,0.4867257970798172,276.9649192332958,28.05334549949886,24.659381571068216,3.5087116175468838,0.11459155902616465
GUIDED_NOGPS,3.3454177379608154,25.74345565805545,277.2964633937462,27.51403483638801,25.045208413436644,3.625845582248097,255.37688560687715,-31.796768534635753,12.518093937864476,2.3287606814786637,-0.6404412252627081,-26.274969340757426,2.5433429146378397,-0.9207219577637974,-0.3625845582248097,0.48747288552442786,277.3864411371578,26.475113069083818,24.381497552146087,3.3551118691598076,0.0
GUIDED_NOGPS,3.380218267440796,28.740511316526995,277.36448579562455,25.978850804977878,24.721745813524098,3.616296030592132,255.19735351181365,-31.56982710721831,12.605030681615233,2.293926503268187,-0.6243330778788793,-26.297254540471886,2.4628777759125238,-0.9354224253548513,-0.3616296030592132,0.4878832848680911,277.9224837504054,23.408093846350845,25.124358317358013,3.094388020372079,-0.2864788975654116
GUIDED_NOGPS,3.4256532192230225,22.016997107657097,277.47119391400366,24.338540293223748,24.954372882945506,3.6275571003875084,255.0194779616516,-31.344979671208883,12.693153846493173,2.182993132089779,-0.6786590151549855,-26.27804292588393,2.3996304509098123,-0.947078745920191,-0.36275571003875084,0.48773878096354767,277.62077156233494,23.13241396423648,25.357262779332448,3.2479726048515505,0.9167324722093172
GUIDED_NOGPS,3.469423770904541,22.849148802876364,277.53490247881984,22.791269613907996,25.458157443639674,3.637253601632031,254.84338285556848,-31.122382844042185,12.782452298723864,2.071676203100792,-0.6517978021400295,-26.25556477332542,2.332112052158872,-0.9568406276965075,-0.3637253601632031,0.4873242948550842,277.77989671090506,21.833301031136557,25.89285123422859,3.1828624180246448,0.17188733853924698
GUIDED_NOGPS,3.5086488723754883,25.497288753799392,277.6483487521986,22.12590202787423,25.43182796171254,3.643534924802182,254.66919010249208,-30.90219072733489,12.872914524744319,1.9837276991399457,-0.45254955138482733,-26.233064422652106,2.316464439955846,-0.9711268062285212,-0.36435349248021826,0.48744108656303176,277.53215060018994,21.411991088249557,25.045369871576604,3.3132347132862314,0.11459155902616465
GUIDED_NOGPS,3.5514543056488037,23.368158316990552,277.7889011993027,20.410282396043574,25.329269955470707,3.654588945642007,254.49701947367478,-30.684554720528816,12.964528637378406,1.840597029657509,-0.47301087714748147,-26.199651137232404,2.218059579739442,-0.9846918059923363,-0.3654588945642007,0.4876352586819077,278.0892033726782,17.985555068744514,25.049588760606948,3.0635353574683295,0.6302535746439055
GUIDED_NOGPS,3.5876495838165283,27.63391992410117,277.6650357681534,19.23288405707852,24.9992071655561,3.664822249325536,254.3269884552677,-30.469623334534056,13.057282382012282,1.773875579698299,-0.592904282578183,-26.203071354459286,2.1722126368909223,-0.9812387194986576,-0.3664822249325536,0.48805807521645617,277.30315659465884,18.30110601424139,24.902662864484768,3.3707944778065992,0.17188733853924698
GUIDED_NOGPS,3.6346542835235596,21.279109528230574,277.550831787354,17.989544379073315,24.95202838205712,3.672736218467038,254.15921210089462,-30.257542005371995,13.151163142769816,1.6823824210016278,-0.5916081474614673,-26.194521665165723,2.1228026900332684,-0.9843676538373554,-0.3672736218467038,0.4881991347607127,277.04975165833827,17.681972054233956,24.903833521079648,3.488662906334321,0.2291831180523293
GUIDED_NOGPS,3.669693946838379,28.55501923273309,277.47994858421123,16.69869684154429,24.59314432898959,3.682635506666285,253.99380288422623,-30.048452907818486,13.246157948688007,1.5927465401506713,-0.6152509539951722,-26.184440305950783,2.053217325988243,-0.990505142027006,-0.3682635506666285,0.48865301361969843,277.4254806951911,14.113012456157442,23.972936601404374,3.2429168033964775,0.34377467707849396
GUIDED_NOGPS,3.6991169452667236,33.98867126406976,277.58303359037984,14.354317685016468,24.240382846459706,3.6925326235173808,253.83087055155426,-29.842494769046972,13.34225347989241,1.51828488503625,-0.7034019090318856,-26.174758512802292,1.908711558224566,-1.0081705531738525,-0.3692532623517381,0.4891018706334327,278.0475756310329,11.267968544657927,23.844378416895115,2.8847958775064946,0.5729577951308232
GUIDED_NOGPS,3.74123477935791,23.7469440905874,277.5747080420508,12.216316515157791,23.88723114506486,3.6949464750499468,253.67052197436544,-29.63980268227158,13.439436073772569,1.4359395907940473,-0.7354306937624853,-26.162365134553305,1.8474448378319575,-1.0098726118069996,-0.3694946475049947,0.4895522049287077,278.0475756310329,11.267968544657927,23.844378416895115,2.8847958775064946,0.17188733853924698
GUIDED_NOGPS,3.776911735534668,28.036041817063715,277.6524292708783,11.162633540464226,23.82875243406834,3.698348142539684,253.51286100191578,-29.440507920390203,13.537691731157425,1.376942978064416,-0.7391493048787341,-26.169903955849705,1.8192434015241001,-1.0231451615125005,-0.3698348142539684,0.4897089392970891,277.6917627387962,10.951963532076745,23.797500468414814,3.0617533157361194,0.0
GUIDED_NOGPS,3.8178913593292236,24.432364420108346,277.680809445595,11.046008761495607,23.677730500982776,3.713198920681413,253.35798831380453,-29.244737749627674,13.637006122490748,1.3115589645220591,-0.9401030752140296,-26.146008539038416,1.835982293234039,-1.0293309783318694,-0.3713198920681413,0.489959275621508,277.1916525319219,10.918094207752066,23.391312617638413,3.3108451366581493,0.8594366926962349
GUIDED_NOGPS,3.8563618659973145,25.99748349707131,277.7485941825931,9.414474477265031,23.844041175123692,3.7206579380645524,253.2060012725484,-29.052615243178813,13.737364594006564,1.2131106455379053,-0.7416030503380612,-26.125155971502366,1.7248288088653827,-1.0402955648120256,-0.37206579380645527,0.48989332341888286,277.7644043801814,6.3733656919662005,24.34331043931786,2.8359072672341634,0.11459155902616465
GUIDED_NOGPS,3.8999040126800537,22.970278810714305,277.6094417021469,7.835934998364768,24.632378531139295,3.725174884361902,253.0569937761556,-28.86425909485159,13.838752173904572,1.2098103835083196,-0.9490464608802208,-26.118175518170613,1.662570211959337,-1.036284471463692,-0.3725174884361902,0.48920637364276526,277.351813228802,6.216345095375957,26.162512536461616,3.045913799611426,0.17188733853924698
GUIDED_NOGPS,3.939833164215088,25.047649191116314,277.2057970255957,6.416757637996681,25.250063963842507,3.746481913143978,252.91105611069995,-28.679783432710195,13.941153578525574,1.1834491616849496,-1.089581551756347,-26.10074487540874,1.600210966331818,-1.020274578597829,-0.3746481913143978,0.48869108961468305,276.0293522482772,6.660562126647803,25.24436891574804,3.651441354275797,0.9167324722093172
GUIDED_NOGPS,3.9855377674102783,21.885114087586288,276.9250457822133,5.759386148812649,25.879235332188113,3.7746220749676014,252.76827480289506,-28.499297632718246,14.044553218526895,1.1843969571539947,-1.1013471929319287,-26.073620486667327,1.590009397704319,-1.0192800262439987,-0.3774622074967602,0.48816531788633877,276.2880065218844,4.401251224414108,26.230824544354675,3.4170888240887667,0.9740282517223995
GUIDED_NOGPS,4.024441719055176,25.706535262715967,276.7041014622747,4.775369406546312,25.59443993689891,3.8034458138691227,252.6287324726683,-28.322906132381718,14.148935205057805,1.2241281675559588,-1.102963386444283,-26.047553069699976,1.5334980919220125,-1.017900301675688,-0.3803445813869123,0.4885544952681589,276.0869309322289,3.2642948685769433,25.308126350594023,3.4247869445629084,0.5729577951308232
GUIDED_NOGPS,4.06603741645813,24.046461229754907,276.34087489607566,3.3578881015442215,25.324271475925993,3.8429682142296318,252.49250768573506,-28.150708244392227,14.254283355934945,1.2925460657502708,-1.0989614291991845,-25.99631982073571,1.462606002411635,-1.0064173602259114,-0.3842968214229632,0.48893001188000895,275.94827154918596,2.408118211641534,24.43386353282927,3.4989292779209697,1.5469860468532228
GUIDED_NOGPS,4.101357698440552,28.319800141791298,275.9764856103373,2.5321758013268787,25.003409652859272,3.89335714469175,252.35967480617273,-27.982797970270077,14.360581201817753,1.3188999237759418,-1.021535792150095,-25.955436015911307,1.4341041661694087,-0.996894707073415,-0.38933571446917503,0.48935717154895847,275.5298668001103,1.9241143237620806,25.268239075154508,3.655532384515453,1.4896902673401404
GUIDED_NOGPS,4.147371292114258,21.739579338011964,275.9525241556256,0.9888154620971044,24.814338614601596,3.9298100360113835,252.23030384899494,-27.819263814007357,14.46781199238389,1.3815103469067447,-0.7900164983921694,-25.87192329292956,1.3583158474939325,-1.011062454330652,-0.39298100360113836,0.4896534733777823,275.909544974719,-1.3657861491123804,24.740913235820997,3.2083094719251815,1.088619810748564
GUIDED_NOGPS,4.192631721496582,22.097730852919018,275.8026186945804,-0.904625581171909,25.005964528411198,3.9808053559474392,252.10446033272547,-27.660188595711077,14.575958702504646,1.4130274010581223,-0.7567186858581225,-25.820560270371065,1.2692377461804596,-1.0083580374612466,-0.39808053559474393,0.48956999417409347,275.53847921665823,-3.272204918165506,25.00874127425808,3.3263034189114062,1.260507149287811
GUIDED_NOGPS,4.224226474761963,31.66133731902109,275.70881066862546,-3.374369610053107,25.106115668688776,4.034986696227483,251.98220513197262,-27.505649265246262,14.685004038420393,1.403668441069618,-0.8809198062209864,-25.784223663986594,1.1269588601257083,-1.011676584168904,-0.4034986696227483,0.4895788883697316,275.6178908024541,-5.485117762881512,25.568692495987246,3.1341746161635893,1.5469860468532228
GUIDED_NOGPS,4.26518988609314,24.414445039465413,275.5459928107384,-4.921705506417211,25.49132610744078,4.071170639512184,251.86359433000308,-27.35571671587912,14.79493044391598,1.4436895076244847,-0.7563440926708297,-25.690399062905424,1.1019695952454416,-1.0089021406948668,-0.40711706395121844,0.4893036043364752,275.1341822597506,-6.007793838204692,25.896544552077007,3.288692272476541,1.3178029288008934
GUIDED_NOGPS,4.298652172088623,29.89418766259221,275.3227691550284,-6.199009221937793,25.8636623666706,4.110045178476546,251.7486790713161,-27.210455597920046,14.905720106496181,1.4430933601759894,-0.766631744943044,-25.683748166201124,1.0443196010566338,-1.0031744018058337,-0.4110045178476546,0.48904205773982556,274.4137485215603,-7.104116064727256,26.125750051947545,3.61499262839207,0.6302535746439055
GUIDED_NOGPS,4.3303234577178955,31.582663172796,275.0236098643967,-6.738675322553042,26.049348218657368,4.1389967787822295,251.63750541421774,-27.069924132366822,15.0173549635611,1.4215582006097625,-0.8116613678719398,-25.63301522859356,1.0386284842129907,-0.9935915165581417,-0.41389967787822296,0.4889680067449037,274.4137485215603,-7.104116064727256,26.125750051947545,3.61499262839207,1.0313240312354819
GUIDED_NOGPS,4.370610952377319,24.827181247780278,274.73158061426994,-7.623883117195071,26.420642816691664,4.156503214689237,251.53011418339483,-26.934173924547736,15.129816708581604,1.3785472187457228,-0.9206628627322924,-25.619286548361835,0.9954989071855297,-0.9886876307072617,-0.4156503214689237,0.48870917389188995,274.07833296602433,-8.663417222130779,27.0104283461799,3.5751529022123956,0.5156620156177409
GUIDED_NOGPS,4.408207654953003,26.605163336504916,274.29332681772246,-8.040074236419633,26.615679012699587,4.1632154787302404,251.42654082248902,-26.80324977776459,15.243086797274746,1.339088789023736,-0.6823297082253384,-25.61060537792675,0.9847006458679293,-0.9717555899274052,-0.41632154787302406,0.48862740778457514,273.4266218197167,-8.35268942240094,26.710858639971317,3.909149817872837,-0.4583662361046586
GUIDED_NOGPS,4.4483795166015625,24.8979223554553,273.84877958231743,-9.53495704782044,26.996670198284033,4.168735894798527,251.32681524667112,-26.677189506935918,15.357146453779185,1.2516567113971664,-0.7920232933476837,-25.609707208050892,0.8948308439753626,-0.9592128578871043,-0.4168735894798527,0.48836047625549517,272.91144608272515,-11.588764498929681,27.268723608700878,3.760065598335325,0.2864788975654116
GUIDED_NOGPS,4.48720908164978,25.758000429883012,273.4556168855604,-10.744139367978425,27.095411343984534,4.165660882083967,251.23096169521497,-26.556023752240137,15.471976676830618,1.108252834347929,-0.7215662635210056,-25.630667351066368,0.8482049171742703,-0.9490839093209872,-0.4165660882083967,0.48837656533284607,272.4479350377752,-12.290964182604728,27.306651783281417,3.855426294816176,-0.34377467707849396
GUIDED_NOGPS,4.52832293510437,24.32566420953121,273.0311154503991,-12.683847690426058,27.640049521023588,4.139096626909411,251.13899858407166,-26.43977579275844,15.58755824593719,0.9611660979538795,-0.6718940329472053,-25.67501406179997,0.7510630528349246,-0.9363028952504459,-0.4139096626909411,0.4879475087249136,272.2912413457538,-14.17181438974384,28.344773171088484,3.6881778660749664,-1.260507149287811
GUIDED_NOGPS,4.57470440864563,21.564434116019967,272.57691134762155,-13.701652402175156,27.818965724378927,4.0994627171953715,251.0509383584437,-26.328461360118183,15.703871727554938,0.8461227138032689,-0.798778990767061,-25.760558766059795,0.7318947159542866,-0.922801167873211,-0.4099462717195372,0.487884906003176,271.80731245213644,-14.642178634176977,27.80547221876689,3.8097655940029576,-1.260507149287811
GUIDED_NOGPS,4.614127159118652,25.37005292605474,272.17477489473305,-15.901146277204134,27.67635724880343,4.043700406935419,250.96678734535894,-26.222088452135765,15.820897481263193,0.7390006415425805,-0.7265588116391676,-25.812722628298474,0.6059477995584558,-0.9107568488618268,-0.40437004069354193,0.4881445402324598,271.4159395552743,-18.889445807691665,26.878826356554942,3.339237387194091,-1.3750987083139758
GUIDED_NOGPS,4.659365177154541,22.111360641045916,271.7580185597868,-17.510874451867682,27.473957815890582,3.9756561621559783,250.8865456062448,-26.120657146459905,15.938615665940016,0.7049157564283955,-0.7958483060045967,-25.909593493749473,0.5582290206801768,-0.8987951541462113,-0.39756561621559783,0.48846465785004944,270.82766440799423,-19.0009989137345,27.73757487234994,3.499788405341885,-2.2345354010102105
GUIDED_NOGPS,4.700460195541382,24.351368141151063,271.32216495879294,-19.106821637589672,27.22055596047335,3.885421566100162,250.8102067895025,-26.024159414214722,16.05700624593762,0.5733973156694794,-0.7911209613253016,-26.011499916166063,0.4880477192191179,-0.8840728287290124,-0.38854215661001623,0.4888364502854643,270.26866703280575,-19.430020191342944,27.045266652515213,3.5887922608329266,-2.4064227395494577
GUIDED_NOGPS,4.742822647094727,23.60102860165319,270.9089783549669,-20.05546955064811,27.512968005088364,3.7791926634314263,250.73775798308085,-25.932578933642688,16.176048997257794,0.4292322460537559,-0.695794252235255,-26.157394464384826,0.4629277538532457,-0.8719007238201705,-0.37791926634314266,0.48866308099216943,270.22530832662375,-21.735389546866973,27.756062490399977,3.273030069893132,-3.20856365273261
GUIDED_NOGPS,4.784258842468262,24.139462340218586,270.4319258018469,-21.98730763629186,28.896977905007912,3.6447928841453154,250.66917956705066,-25.845890903748,16.295723513727328,0.257099045890711,-0.6910348910442256,-26.305665918434755,0.35856561758191396,-0.8546631836217838,-0.3644792884145316,0.48739874560871943,269.42204968653624,-24.796513170665737,31.889604572108585,2.8985928875538365,-3.8388172273765155
GUIDED_NOGPS,4.825347423553467,24.341616853345712,269.9300087289,-23.887503383769467,30.133927803757178,3.498694570319796,250.60444506617864,-25.76406185793951,16.416009213173428,0.11500607157422679,-0.6694251330056572,-26.47891195918484,0.27919081489462516,-0.8370431068919832,-0.3498694570319796,0.48628208140941626,268.90635419054,-25.13060743377576,30.756116348763022,2.9544400053051976,-3.7815214478634336
GUIDED_NOGPS,4.864379644393921,25.6228328466529,269.48966742432765,-25.658329818884226,31.49430035234053,3.337516937740881,250.54352100250168,-25.687049477673852,16.536885343599153,-0.04102798584891456,-0.5349816103738303,-26.6389740272895,0.20722817374263688,-0.823758029208684,-0.3337516937740881,0.48504258499125863,268.6259578851323,-27.047868852211256,31.837180136150042,2.6564096803300425,-4.411775022507339
GUIDED_NOGPS,4.8989644050598145,28.92523706079101,268.87376587712595,-26.652804443935675,31.95476436431947,3.16238376655115,250.4863667479008,-25.614802406098633,16.658330989358824,-0.17582307646001202,-0.34221979817431886,-26.795282906445244,0.1802335901763663,-0.7954005858892326,-0.316238376655115,0.48470356662503933,267.18915929679747,-27.779937045820073,33.270996608045394,2.646368436863008,-4.984732817638163
GUIDED_NOGPS,4.942684173583984,22.87968579533057,268.2665360711607,-27.535914314617113,32.793057784080254,2.980377063388434,250.4329343766754,-25.54726006169554,16.780325077333472,-0.2743928714257717,-0.34108491955503895,-27.04601061313995,0.15137213418105222,-0.7775983978956866,-0.2980377063388434,0.4839872672932532,267.18915929679747,-27.779937045820073,33.270996608045394,2.646368436863008,-6.130648407899809
GUIDED_NOGPS,4.9802751541137695,26.611408957382956,267.61679397852237,-28.368125244325427,33.09330534515539,2.741031395348943,250.3831685181172,-25.484352451923257,16.902846383106223,-0.2953119799453754,-0.4289789954459365,-27.257418628330182,0.11324138557243768,-0.7508503783390903,-0.2741031395348943,0.4838095410379508,266.1733392233444,-29.54450164133619,32.737922819375456,2.371950498166306,-6.016056848873644
GUIDED_NOGPS,5.019046068191528,25.795862136829935,266.95460129785386,-29.12932197305314,32.71997949565197,2.5311444199172506,250.3370062090845,-25.425999986860916,17.02587353713777,-0.33760504489462323,-0.25095331638072754,-27.493790984936815,0.0831943304446595,-0.7270704379389957,-0.25311444199172506,0.4843058940414858,265.59539078719763,-30.06352723200323,32.15101905953512,2.2735332832864095,-6.0733526283867265
GUIDED_NOGPS,5.061798572540283,23.411201286015697,266.2561312637287,-30.038838003549497,32.40891869632903,2.2980865943991082,250.29437674657623,-25.372113292850926,17.149385030941747,-0.3747358742135166,-0.2007014802228281,-27.761430240016473,0.04259043898675373,-0.7017269909935073,-0.22980865943991083,0.4847404663346127,265.13360771450647,-30.508485137309133,32.337814210076594,2.1583748480373908,-6.359831525952138
GUIDED_NOGPS,5.099422931671143,26.57111724906875,265.75814478168616,-30.712834909906366,32.229360167651514,2.045523610207634,250.25520154030605,-25.322593026142158,17.273359223260194,-0.3762143433645599,-0.2143866179985949,-28.037231571154294,0.017588440237022725,-0.687669969750686,-0.2045523610207634,0.4850439990556087,264.6992268865848,-31.566492360406798,32.19924723334289,1.899165097516186,-6.245239966925974
GUIDED_NOGPS,5.143370151519775,22.75790147638917,265.13310968341153,-31.557105671215385,31.97870707009322,1.819299836600818,250.21939396527648,-25.27732968653315,17.397774346238954,-0.39456337976553474,-0.10674838620789459,-28.298127721975856,-0.01968978190794481,-0.6632850711083487,-0.1819299836600818,0.48541906727614575,264.06398380542413,-32.596339515930275,31.39905976686024,1.643486453862659,-5.844169510334397
GUIDED_NOGPS,5.183400630950928,24.98483386349286,264.5289073491728,-32.63809949453577,31.4074377020123,1.5692650274742328,250.18685921435286,-25.236203431015156,17.522608511603117,-0.4942733093945841,0.11514866511336402,-28.505213934968765,-0.0726969173033785,-0.6400970106947342,-0.15692650274742329,0.4861151708095908,263.15232755215084,-33.751466607270295,30.62400610583383,1.2818677423792835,-5.443099053742821
GUIDED_NOGPS,5.227313995361328,22.777428411614885,263.9693495540436,-33.79988449745098,30.37549608470711,1.3419814779390766,250.15749415083786,-25.199083887415185,17.647839716832422,-0.580860471276482,0.09898459555570573,-28.78692508728594,-0.12033916195820214,-0.6216852781829411,-0.13419814779390768,0.4872723436321253,262.79760181155166,-35.05184736915244,29.103422381427322,0.932354004329768,-5.844169510334397
GUIDED_NOGPS,5.267270803451538,25.031803722867767,263.4024489683577,-34.79536143166121,30.24948199044893,1.0951014078367265,250.13118716104506,-25.165829968039247,17.773445851336696,-0.7325925367189334,0.25240131648477027,-29.016825839653986,-0.16034405951005323,-0.5991159383021244,-0.10951014078367266,0.48752396386088775,262.2991047860769,-35.58277031856099,31.021017484085696,0.7341307480768383,-5.7868737308213145
GUIDED_NOGPS,5.299571752548218,30.96501369478712,262.80722955952035,-35.328865160195825,30.608168768578764,0.8841482473331084,250.1078180068734,-25.136289683315354,17.899404702631283,-0.8191259642219704,0.3706376539898032,-29.197521909241257,-0.17474978582766762,-0.5725754911698981,-0.08841482473331085,0.48729123593405255,261.7231298423977,-35.351977792874116,31.70006644022332,0.7128302266305122,-5.099324376664327
GUIDED_NOGPS,5.341195821762085,24.074894242304225,262.21480821533885,-35.421532970464554,31.86223577903463,0.7257197125650993,250.08725767838126,-25.110299955436716,18.02569396251244,-0.8839517165213845,0.17040276106465155,-29.404094150499123,-0.16544377998100473,-0.5538611113918788,-0.07257197125650992,0.48616345818347784,261.10187708451684,-35.32985079995861,32.865623412794925,0.6206740166738576,-4.92743703812508
GUIDED_NOGPS,5.379792213439941,25.881020109711777,261.67948608156314,-35.64722043014277,32.770785742462515,0.5428069702102206,250.0693682463604,-25.087686432004773,18.152291233232802,-0.945181854470463,0.2808377418770605,-29.573049124903143,-0.17919214950365828,-0.5344723651631175,-0.05428069702102206,0.4853815054907703,260.4757168832722,-36.25983269759564,33.74666737436934,0.31467068417699007,-3.9534087864026803
GUIDED_NOGPS,5.415493726730347,28.016939868809533,260.94990862918564,-36.04536510728763,33.179935815589864,0.39448224790844555,250.05400271491018,-25.068263299672395,18.27917403367676,-0.9700438497710151,0.3677723896329828,-29.6760108115465,-0.20173809736601614,-0.4993171321461203,-0.03944822479084456,0.48509923821808687,259.1497145496642,-36.546411824308706,32.92751665960537,0.08915736950219506,-3.20856365273261
GUIDED_NOGPS,5.452165842056274,27.273285301844098,260.2032021477399,-36.43652190602111,32.758258017094306,0.28080338764690904,250.04100487401183,-25.051833097786897,18.406319805535922,-0.9725179790761465,0.19572397986518134,-29.797198857990036,-0.2177791283113069,-0.47051496947582017,-0.028080338764690904,0.4856480617884416,258.5655723788481,-36.50332119615909,31.600590017308257,0.022699870411981696,-2.7501974166279517
GUIDED_NOGPS,5.488491773605347,27.55187114488974,259.4592171105534,-37.00770557193996,31.89055649205572,0.18875479562210531,250.0302091521022,-25.03818653203328,18.533705919484518,-0.9306948097974543,0.17738513538710865,-29.880581807377553,-0.24675361222213293,-0.44112220508338684,-0.018875479562210532,0.4866431494274288,258.0032046564653,-37.97338369535217,31.143562799253573,-0.3702635152874749,-1.6615776058793874
GUIDED_NOGPS,5.525149583816528,27.273639993237357,258.72381038441756,-37.51596631349727,30.823489218632346,0.14768104480833893,250.0214404686481,-25.027102288077145,18.661309681354844,-0.9142691653389257,0.26808343081911956,-29.88568054359297,-0.2658497594596259,-0.413009215787174,-0.014768104480833894,0.4878378204627225,257.4248434538377,-38.071194048980644,29.726314839335267,-0.43013955249713726,0.17188733853924698
GUIDED_NOGPS,5.562495470046997,26.782866338024572,258.0419694544188,-38.44969130846217,30.17277092879857,0.13291435544040364,250.01451408672045,-25.018346845207986,18.789108338312644,-0.8311942147942953,0.22173291333776676,-29.869964278312768,-0.31523108680111084,-0.38792591861203474,-0.013291435544040366,0.48861633740951405,257.0665122332781,-39.30449618105378,29.64843514780694,-0.7441312492698198,0.6302535746439055
GUIDED_NOGPS,5.602927207946777,24.737129544985404,257.5118783604844,-38.81301772767808,29.58341709953038,0.15465747716213507,250.00923546556814,-25.01167428998224,18.917079085032576,-0.7783529365281677,0.32490185353375156,-29.80422029245681,-0.31446585318788955,-0.3723624770462182,-0.015465747716213507,0.4893336619855022,256.499259079992,-39.063362952999896,29.375501311448996,-0.7182885663377865,1.776169164905552
GUIDED_NOGPS,5.643570899963379,24.61836089051669,256.91151627954895,-39.322608044901344,29.83912684412664,0.22246840819750888,250.00540011319248,-25.00682612986654,19.04519906987361,-0.6643494486786915,0.11979298030556114,-29.70755945532279,-0.3391998585199651,-0.3469988768031694,-0.02224684081975089,0.48920607222574697,255.56376197417097,-39.599965000650414,30.49344407312404,-0.7998588646587058,3.20856365273261
GUIDED_NOGPS,5.683314085006714,25.161697481613015,256.3340833671735,-39.51103281434211,30.309729073429043,0.3320478222123311,250.00279343892095,-25.00353110688036,19.17344540105448,-0.6618811357065253,0.2559656080144591,-29.563862520469478,-0.33952787936902706,-0.32461764496735895,-0.03320478222123311,0.48886371632762543,255.11604009458776,-39.86977048937608,31.06024183571415,-0.8111151527492498,4.1252961249419275
