E-kp,E-ki,E-kd,E-I-Tot,E-P,E-I,E-D,E-PID,N-kp,N-ki,N-kd,N-I-Tot,N-P,N-I,N-D,N-PID,D-kp,D-ki,D-kd,D-I-Tot,D-P,D-I,D-D,D-PID,Y-kp,Y-ki,Y-kd,Y-I-Tot,Y-P,Y-I,Y-D,Y-PID,errorN,desiredN,actualN,errorE,desiredE,actualE,errorD,desiredD,actualD,errorY,desiredY,actualY,roll,pitch,yaw-rate,thrust,dt,Time,Mode
0.2,0.015,0.18,-0.0010029693651732673,-0.006076320805731015,-1.504454047759901e-05,-0.165655643305731,-0.1717470086519396,0.2,0.015,0.18,0.0009998745759877382,0.006057571547208912,1.4998118639816071e-05,0.16514449180776283,0.17121706147361157,0.002,8e-05,0,-0.02305132727575449,-0.001396525800179197,-1.8441061820603592e-06,-0.0,-0.0013983699063612573,0.2,0.02,0.0,0.0001884404470890879,0.001141634679032167,3.768808941781758e-06,0.0,0.0011454034879739487,0.03028785773604456,0.0,-0.03028785773604456,-0.030381604028655074,0.0,0.030381604028655074,-0.6982629000895985,0.0,0.6982629000895985,0.005708173395160834,0,-0.005708173395160834,-0.17176406554246149,-0.17119995008431776,-0.0011454034879739487,0.4,0.03301239013671875,0.03330588340759277,STABILIZE
0.2,0.015,0.18,-0.00204935118011539,-0.00626302121560175,-3.074026770173085e-05,-0.08534214708875328,-0.09163590857205675,0.2,0.015,0.18,0.0021077918375943363,0.006631335919152344,3.161687756391504e-05,0.09029922601914939,0.09696217881586565,0.002,8e-05,0,-0.046528340890897614,-0.0014051948557491458,-3.7222672712718094e-06,-0.0,-0.0014089171230204176,0.2,0.02,0.0,0.0004959661274575125,0.0018406664116160495,9.919322549150249e-06,0.0,0.0018505857341651998,0.03315667959576172,0.0,-0.03315667959576172,-0.03131510607800875,0.0,0.03131510607800875,-0.7025974278745729,0.0,0.7025974278745729,0.009203332058080247,0,-0.009203332058080247,-0.09165148227397696,-0.09694745823140045,-0.0018505857341651998,0.4,0.033414602279663086,0.06667304039001465,STABILIZE
0.2,0.015,0.18,-0.0031042303870177047,-0.006307940487482025,-4.656345580526557e-05,-0.0572976754457186,-0.06365217938900589,0.2,0.015,0.18,0.003207618458404256,0.006576715917066971,4.811427687606384e-05,0.05970956101448417,0.06633439120842721,0.002,8e-05,0,-0.07008542658796499,-0.0014086607609981607,-5.606834127037199e-06,-0.0,-0.001414267595125198,0.2,0.02,0.0,0.0007794327507296366,0.0016950666750165926,1.5588655014592733e-05,0.0,0.0017106553300311853,0.03288357958533485,0.0,-0.03288357958533485,-0.031539702437410125,0.0,0.031539702437410125,-0.7043303804990804,0.0,0.7043303804990804,0.008475333375082963,0,-0.008475333375082963,-0.06366199103974751,-0.06632497489496667,-0.0017106553300311853,0.4,0.03344607353210449,0.10019159317016602,STABILIZE
0.2,0.015,0.18,-0.004208263516674898,-0.006379361012638013,-6.312395275012346e-05,-0.04343752659949373,-0.049880011564881865,0.2,0.015,0.18,0.00430537252776963,0.006343079137261624,6.458058791654445e-05,0.043263411957623926,0.0496710716828021,0.002,8e-05,0,-0.09418325636745617,-0.0013924288289447154,-7.534660509396494e-06,-0.0,-0.001399963489454112,0.2,0.02,0.0,0.0010307852162397756,0.001452373190470929,2.0615704324795513e-05,0.0,0.0014729888947957247,0.031715395686308115,0.0,-0.031715395686308115,-0.031896805063190065,0.0,0.031896805063190065,-0.6962144144723577,0.0,0.6962144144723577,0.007261865952354645,0,-0.007261865952354645,-0.04988630664824988,-0.04966474931807864,-0.0014729888947957247,0.4,0.03461265563964844,0.13476848602294922,STABILIZE
0.2,0.015,0.18,-0.005282482450294267,-0.006417320567092231,-7.923723675441401e-05,-0.03495411260558414,-0.04145067040943078,0.2,0.015,0.18,0.00531007096222204,0.00600200920441174,7.965106443333059e-05,0.032776951065502644,0.03885861133434772,0.002,8e-05,0,-0.11740997549344538,-0.001387550504728857,-9.39279803947563e-06,-0.0,-0.0013969433027683326,0.2,0.02,0.0,0.0010938530534918543,0.0003767635408883958,2.1877061069837085e-05,0.0,0.0003986406019582329,0.030010046022058697,0.0,-0.030010046022058697,-0.03208660283546115,0.0,0.03208660283546115,-0.6937752523644285,0.0,0.6937752523644285,0.001883817704441979,0,-0.001883817704441979,-0.04145194801236997,-0.038857248464153185,-0.0003986406019582329,0.4,0.033478736877441406,0.16822290420532227,STABILIZE
0.2,0.015,0.18,-0.0063574058744959435,-0.00643004637651752,-9.536108811743915e-05,-0.0018914956064288386,-0.008416903071063797,0.2,0.015,0.18,0.0062953387385714715,0.0058937384306423915,9.443008107857207e-05,-0.0008348422937729971,0.005153326217947967,0.002,8e-05,0,-0.14072806450916803,-0.0013948565117018919,-1.1258245160733443e-05,0.0,-0.0014061147568626253,0.2,0.02,0.0,0.001261034788501855,0.001000058502045704,2.52206957700371e-05,-0.0,0.001025279197815741,0.029468692153211955,0.0,-0.029468692153211955,-0.0321502318825876,0.0,0.0321502318825876,-0.6974282558509459,0.0,0.6974282558509459,0.005000292510228519,0,-0.005000292510228519,-0.008417352777869053,-0.0051525916419966015,-0.001025279197815741,0.4,0.033434391021728516,0.20166325569152832,STABILIZE
0.2,0.015,0.18,-0.007460169145025803,-0.006594605487234415,-0.00011190253717538704,-0.0017714334617932538,-0.008477941486203056,0.2,0.015,0.18,0.0074292157136004785,0.006780667729151197,0.00011143823570400717,0.0008478778703445286,0.007739983835199732,0.002,8e-05,0,-0.16352347556120728,-0.0013631823513247088,-1.3081878044896584e-05,0.0,-0.0013762642293696054,0.2,0.02,0.0,0.00037248461826783934,-0.00531359538796831,7.449692365356787e-06,-0.0,-0.005306145695602954,0.03390333864575598,0.0,-0.03390333864575598,-0.03297302743617207,0.0,0.03297302743617207,-0.6815911756623544,0.0,0.6815911756623544,-0.02656797693984155,0,0.02656797693984155,-0.00847435155464828,-0.007743914213165477,0.005306145695602954,0.4,0.03344440460205078,0.23511838912963867,STABILIZE
0.2,0.015,0.18,-0.008610800604747912,-0.006882823431983625,-0.00012916200907121868,-0.003081337548532008,-0.010093322989586852,0.2,0.015,0.18,0.008685425298301915,0.007514368473076203,0.00013028137947452873,0.005091783990462227,0.012736433843012958,0.002,8e-05,0,-0.18602246936557826,-0.0013458401510261053,-1.4881797549246262e-05,0.0,-0.0013607219485753516,0.2,0.02,0.0,-0.0015108202567319894,-0.011265514091148184,-3.0216405134639788e-05,-0.0,-0.011295730496282822,0.03757184236538101,0.0,-0.03757184236538101,-0.03441411715991812,0.0,0.03441411715991812,-0.6729200755130527,0.0,0.6729200755130527,-0.05632757045574091,0,0.05632757045574091,-0.0100807969060308,-0.012746350448223528,0.011295730496282822,0.4,0.03343486785888672,0.2685565948486328,STABILIZE
0.2,0.015,0.18,-0.009577217688801517,-0.005763836789378495,-0.00014365826533202275,0.003296481739716217,-0.0026110133149943007,0.2,0.015,0.18,0.009175477866280497,0.0029227370528227114,0.00013763216799420744,-0.018339785570376754,-0.015279416349559835,0.002,8e-05,0,-0.20874054341643392,-0.0013549353913416906,-1.6699243473314715e-05,0.0,-0.0013716346348150053,0.2,0.02,0.0,-0.002760279049200699,-0.007451934235926768,-5.520558098401398e-05,-0.0,-0.007507139816910782,0.014613685264113555,0.0,-0.014613685264113555,-0.028819183946892476,0.0,0.028819183946892476,-0.6774676956708453,0.0,0.6774676956708453,-0.03725967117963384,0,0.03725967117963384,-0.002620949026858996,0.015277715166636691,0.007507139816910782,0.4,0.03353381156921387,0.3020789623260498,STABILIZE
0.2,0.015,0.18,-0.01086402368384589,-0.007689712674871199,-0.00016296035525768834,-0.006857234589482167,-0.014709907619611055,0.2,0.015,0.18,0.009339094106926812,0.0009777401444802595,0.00014008641160390218,-0.026966652025304762,-0.025848825469220602,0.002,8e-05,0,-0.2309319992184179,-0.0013261200181809516,-1.8474559937473432e-05,0.0,-0.001344594578118425,0.2,0.02,0.0,-0.0021355508695634546,0.003733259108060086,-4.2711017391269094e-05,0.0,0.003690548090668817,0.004888700722401298,0.0,-0.004888700722401298,-0.038448563374355996,0.0,0.038448563374355996,-0.6630600090904758,0.0,0.6630600090904758,0.01866629554030043,0,-0.01866629554030043,-0.014701485593791055,0.02585361641340091,-0.003690548090668817,0.4,0.03346824645996094,0.3355751037597656,STABILIZE
0.2,0.015,0.18,-0.011880252301898977,-0.006077468499749816,-0.00017820378452848464,0.0018889768663597714,-0.00436669541791853,0.2,0.015,0.18,0.010542616821216952,0.007197564853905367,0.00015813925231825427,0.0070936606189756215,0.014449364725199244,0.002,8e-05,0,-0.25317327355647157,-0.0013301204254882913,-2.0253861884517726e-05,0.0,-0.001350374287372809,0.2,0.02,0.0,-0.002517251682119406,-0.0022827291255406467,-5.034503364238812e-05,-0.0,-0.002333074159183035,0.03598782426952683,0.0,-0.03598782426952683,-0.030387342498749078,0.0,0.030387342498749078,-0.6650602127441456,0.0,0.6650602127441456,-0.011413645627703233,0,0.011413645627703233,-0.00436381693554117,-0.014450234309096407,0.002333074159183035,0.4,0.03344249725341797,0.3690190315246582,STABILIZE
0.2,0.015,0.18,-0.013042145183348041,-0.006948452581407898,-0.0001956321777502206,-0.001913216195481093,-0.009057300954639212,0.2,0.015,0.18,0.010233564128372086,-0.0018482237181028011,0.0001535034619255813,-0.0463666200204402,-0.048061340276617424,0.002,8e-05,0,-0.27510211672118656,-0.0013114076979723079,-2.200816933769493e-05,0.0,-0.0013334158673100028,0.2,0.02,0.0,-0.0016398435796318998,0.005247152032702066,-3.2796871592638e-05,0.0,0.005214355161109427,-0.009241118590514005,0.0,0.009241118590514005,-0.03474226290703949,0.0,0.03474226290703949,-0.655703848986154,0.0,0.655703848986154,0.026235760163510327,0,-0.026235760163510327,-0.00903529269909898,0.04806548257959474,-0.005214355161109427,0.4,0.03344321250915527,0.4024350643157959,STABILIZE
0.2,0.015,0.18,-0.014214536299778298,-0.007013735102741946,-0.00021321804449667446,-0.0007130583438528554,-0.007940011491091477,0.2,0.015,0.18,0.009744812055324563,-0.00292391977662621,0.00014617218082986844,-0.05610831060182651,-0.05888605819762285,0.002,8e-05,0,-0.29684028295846016,-0.0013004682266088772,-2.3747222636676813e-05,0.0,-0.001324215449245554,0.2,0.02,0.0,-0.0022745544191895657,-0.0037971063010534462,-4.5491088383791316e-05,0.0,-0.0038425973894372373,-0.01461959888313105,0.0,0.01461959888313105,-0.03506867551370973,0.0,0.03506867551370973,-0.6502341133044386,0.0,0.6502341133044386,-0.01898553150526723,0,0.01898553150526723,-0.007959523541135716,0.0588834239623563,0.0038425973894372373,0.4,0.033431291580200195,0.43587470054626465,STABILIZE
0.2,0.015,0.18,-0.015503064304369703,-0.0074784352077624855,-0.00023254596456554554,-0.009146810232189323,-0.016857791404517354,0.2,0.015,0.18,0.009226535663771426,-0.003008003241009985,0.00013839803495657138,-0.03190094173340686,-0.03477054693946027,0.002,8e-05,0,-0.31916647796237624,-0.0012957809390072336,-2.5533318236990102e-05,0.0,-0.0013213142572442236,0.2,0.02,0.0,-0.0029517699061476286,-0.003930463383692742,-5.9035398122952574e-05,0.0,-0.003989498781815695,-0.015040016205049925,0.0,0.015040016205049925,-0.037392176038812425,0.0,0.037392176038812425,-0.6478904695036167,0.0,0.6478904695036167,-0.019652316918463707,0,0.019652316918463707,-0.016869716628044266,0.03476476271164405,0.003989498781815695,0.4,0.034459829330444336,0.4703483581542969,STABILIZE
0.2,0.015,0.18,-0.01667463142572361,-0.007000867165355729,-0.00025011947138585416,0.003779396048849399,-0.0034715905878921842,0.2,0.015,0.18,0.008540092915388531,-0.004101936978648478,0.00012810139373082796,-0.02732355876158498,-0.03129739434650263,0.002,8e-05,0,-0.3410971714673389,-0.001310500006990156,-2.7287773717387117e-05,0.0,-0.0013377877807075433,0.2,0.02,0.0,-0.003903452630304553,-0.00568691645058026,-7.806905260609106e-05,-0.0,-0.005764985503186351,-0.02050968489324239,0.0,0.02050968489324239,-0.03500433582677864,0.0,0.03500433582677864,-0.655250003495078,0.0,0.655250003495078,-0.028434582252901297,0,0.028434582252901297,-0.003487122339276382,0.03129566762159511,0.005764985503186351,0.4,0.033469200134277344,0.503807783126831,STABILIZE
0.2,0.015,0.18,-0.017876161615491257,-0.007183395406042521,-0.0002681424242323688,-0.0058804307719459055,-0.013331968602220795,0.2,0.015,0.18,0.007942269785738707,-0.0035741090483818656,0.0001191340467860806,-0.057960900407078846,-0.06141587540867463,0.002,8e-05,0,-0.3630087769663592,-0.001309993936241558,-2.9040702157308736e-05,0.0,-0.0013390346383988668,0.2,0.02,0.0,-0.004948556416333558,-0.0062481940107141235,-9.897112832667116e-05,-0.0,-0.006347165139040795,-0.017870545241909327,0.0,0.017870545241909327,-0.035916977030212606,0.0,0.035916977030212606,-0.654996968120779,0.0,0.654996968120779,-0.031240970053570617,0,0.031240970053570617,-0.013365454103155872,0.06140859691965678,0.006347165139040795,0.4,0.03345298767089844,0.537278413772583,STABILIZE
0.2,0.015,0.18,-0.019101266290135865,-0.007324492993721821,-0.000286518994352038,-0.001951787633267044,-0.009562799621340903,0.2,0.015,0.18,0.007449244379051333,-0.002947634770927711,0.00011173866568576998,-0.005903198950012454,-0.008739095055254395,0.002,8e-05,0,-0.3848126192749153,-0.0013035791433214704,-3.0785009541993224e-05,0.0,-0.0013343641528634636,0.2,0.02,0.0,-0.0060716224882865575,-0.0067144381584314005,-0.00012143244976573115,-0.0,-0.0068358706081971315,-0.014738173854638555,0.0,0.014738173854638555,-0.0366224649686091,0.0,0.0366224649686091,-0.6517895716607351,0.0,0.6517895716607351,-0.033572190792157,0,0.033572190792157,-0.009567918610821584,0.008733490278198258,0.0068358706081971315,0.4,0.03345227241516113,0.5707168579101562,STABILIZE
0.2,0.015,0.18,-0.020327225831026863,-0.00733268735286598,-0.0003049083874654029,-0.001644405725588113,-0.009282001465919497,0.2,0.015,0.18,0.006873961313586631,-0.003440872816557375,0.00010310941970379946,-0.0027665926355328937,-0.0061043560323864685,0.002,8e-05,0,-0.40644177619645905,-0.0012936792783266838,-3.251534209571673e-05,0.0,-0.0013261946204224005,0.2,0.02,0.0,-0.007165268445762133,-0.0065412957062725655,-0.00014330536891524266,-0.0,-0.006684601075187808,-0.017204364082786874,0.0,0.017204364082786874,-0.0366634367643299,0.0,0.0366634367643299,-0.6468396391633419,0.0,0.6468396391633419,-0.032706478531362826,0,0.032706478531362826,-0.009285484538019544,0.00609905653996294,0.006684601075187808,0.4,0.03343820571899414,0.604191780090332,STABILIZE
0.2,0.015,0.18,-0.021486554942707164,-0.0066570542829488145,-0.0003222983241406074,0.004274577297316795,-0.0027047753097726264,0.2,0.015,0.18,0.006262796455397757,-0.0035094069456232226,9.394194683096635e-05,-0.002681565496477599,-0.006097030495269855,0.002,8e-05,0,-0.4289997146432018,-0.0012953131189273165,-3.4319977171456145e-05,0.0,-0.0013296330960987726,0.2,0.02,0.0,-0.008215430480511194,-0.006030199363392103,-0.0001643086096102239,-0.0,-0.006194507973002326,-0.017547034728116112,0.0,0.017547034728116112,-0.03328527141474407,0.0,0.03328527141474407,-0.6476565594636583,0.0,0.6476565594636583,-0.030150996816960512,0,0.030150996816960512,-0.0027079834008832777,0.0060956063059507725,0.006194507973002326,0.4,0.03483009338378906,0.6389904022216797,STABILIZE
0.2,0.015,0.18,-0.022593754324778545,-0.006611942389560157,-0.00033890631487167814,0.0019486368235380831,-0.0050022118808937515,0.2,0.015,0.18,0.005937978413520983,-0.0019397393231569777,8.906967620281474e-05,0.011638024083415832,0.009787354436461669,0.002,8e-05,0,-0.45064766622716323,-0.0012927663349789741,-3.605181329817306e-05,0.0,-0.0013288181482771471,0.2,0.02,0.0,-0.009280563950784403,-0.006360734350721216,-0.00018561127901568807,-0.0,-0.0065463456297369035,-0.009698696615784888,0.0,0.009698696615784888,-0.03305971194780078,0.0,0.03305971194780078,-0.6463831674894871,0.0,0.6463831674894871,-0.03180367175360608,0,0.03180367175360608,-0.00499677835772894,-0.009790129550215982,0.0065463456297369035,0.4,0.033490896224975586,0.6724755764007568,STABILIZE
0.2,0.015,0.18,-0.02354448893179335,-0.005679794275781436,-0.0003531673339769002,0.007942644698808876,0.0019096830890505392,0.2,0.015,0.18,0.005474622040396972,-0.002768142504015966,8.211933060595458e-05,0.004343872624312527,0.0016578494509025161,0.002,8e-05,0,-0.4724658740303959,-0.0013034439987170976,-3.779726992243167e-05,0.0,-0.0013412412686395292,0.2,0.02,0.0,-0.010265250680287644,-0.0058826280314242824,-0.0002053050136057529,0.0,-0.0060879330450300355,-0.01384071252007983,0.0,0.01384071252007983,-0.02839897137890718,0.0,0.02839897137890718,-0.6517219993585488,0.0,0.6517219993585488,-0.02941314015712141,0,0.02941314015712141,0.001910533904572762,-0.0016568688849578112,0.0060879330450300355,0.4,0.033477783203125,0.7059557437896729,STABILIZE
0.2,0.015,0.18,-0.024655953891871186,-0.006148295277045633,-0.00036983930837806777,0.006369414632954952,-0.00014871995246874912,0.2,0.015,0.18,0.004998270031633779,-0.002635038360080052,7.497405047450669e-05,0.001635603061341408,-0.000924461248264137,0.002,8e-05,0,-0.4960856515544168,-0.001306576201787201,-3.968685212435335e-05,-0.0,-0.0013462630539115544,0.2,0.02,0.0,-0.011187030720660575,-0.005099014428941548,-0.00022374061441321152,0.0,-0.005322755043354759,-0.01317519180040026,0.0,0.01317519180040026,-0.030741476385228162,0.0,0.030741476385228162,-0.6532881008936005,0.0,0.6532881008936005,-0.02549507214470774,0,0.02549507214470774,-0.00014913129798244156,0.0009243949803879646,0.005322755043354759,0.4,0.03615522384643555,0.7421197891235352,STABILIZE
0.2,0.015,0.18,-0.025745441990560426,-0.0065081205310650635,-0.00038618162985840635,0.004479032015576191,-0.0024152701453472782,0.2,0.015,0.18,0.0047300998318976425,-0.0016019302870975015,7.095149747846464e-05,0.009844933058283878,0.00831395426866484,0.002,8e-05,0,-0.5177177171621951,-0.0012922040220604996,-4.141741737297561e-05,0.0,-0.0013336214394334752,0.2,0.02,0.0,-0.012453487630613854,-0.007565254019105282,-0.00024906975261227706,-0.0,-0.00781432377171756,-0.008009651435487507,0.0,0.008009651435487507,-0.03254060265532532,0.0,0.03254060265532532,-0.6461020110302498,0.0,0.6461020110302498,-0.03782627009552641,0,0.03782627009552641,-0.002409780805340256,-0.008315547001049892,0.00781432377171756,0.4,0.03348088264465332,0.7756330966949463,STABILIZE
0.2,0.015,0.18,-0.026898747570956314,-0.006901280026645743,-0.00040348121356434467,-0.0011299713198720267,-0.008434732560082115,0.2,0.015,0.18,0.004633243305388642,-0.0005795810088921959,6.949864958082963e-05,0.01570499769440914,0.015194915335097774,0.002,8e-05,0,-0.5391816664299793,-0.0012843840079560659,-4.313453331439835e-05,0.0,-0.0013275185412704642,0.2,0.02,0.0,-0.014141314897493882,-0.010099811189111563,-0.0002828262979498776,-0.0,-0.010382637487061442,-0.0028979050444609793,0.0,0.0028979050444609793,-0.03450640013322871,0.0,0.03450640013322871,-0.6421920039780329,0.0,0.6421920039780329,-0.050499055945557814,0,0.050499055945557814,-0.008421336870280747,-0.015202343592951351,0.010382637487061442,0.4,0.03342294692993164,0.809030294418335,STABILIZE
0.2,0.015,0.18,-0.02802731443946511,-0.00675310121458021,-0.00042040971659197663,-0.0005744263679270024,-0.007747937299099189,0.2,0.015,0.18,0.004630588453204758,-1.5886064005409073e-05,6.945882679807137e-05,0.010304396390447518,0.01035796915324018,0.002,8e-05,0,-0.5605928741642812,-0.0012812005827106728,-4.48474299331425e-05,0.0,-0.0013260480126438153,0.2,0.02,0.0,-0.016056553328192173,-0.011460374509885317,-0.00032113106656384347,-0.0,-0.01178150557644916,-7.943032002704535e-05,0.0,7.943032002704535e-05,-0.03376550607290105,0.0,0.03376550607290105,-0.6406002913553364,0.0,0.6406002913553364,-0.057301872549426584,0,0.057301872549426584,-0.007737574355377349,-0.010365712733104963,0.01178150557644916,0.4,0.033423662185668945,0.8424453735351562,STABILIZE
0.2,0.015,0.18,-0.029118504429644393,-0.006516941065042818,-0.00043677756644466587,-0.004316924605279786,-0.01127064323676727,0.2,0.015,0.18,0.004206999362830899,-0.0025298116392251605,6.310499044246349e-05,0.0012458897438555915,-0.0012208169049271057,0.002,8e-05,0,-0.5820492460313236,-0.001281444223147465,-4.656393968250589e-05,0.0,-0.001328008162829971,0.2,0.02,0.0,-0.017576114924145052,-0.009075315439706591,-0.00035152229848290105,-0.0,-0.009426837738189493,-0.012649058196125803,0.0,0.012649058196125803,-0.03258470532521409,0.0,0.03258470532521409,-0.6407221115737325,0.0,0.6407221115737325,-0.045376577198532955,0,0.045376577198532955,-0.011271606553282494,0.0012118905040649113,0.009426837738189493,0.4,0.033487796783447266,0.8759787082672119,STABILIZE
0.2,0.015,0.18,-0.030294790839784418,-0.007027015610479844,-0.00045442186259676625,-0.004726896788084312,-0.012208334261160922,0.2,0.015,0.18,0.003573956674529705,-0.0037817327603598475,5.3609350117945576e-05,-0.00614773844776855,-0.009875861858010452,0.002,8e-05,0,-0.6033282901157502,-0.001271188493451647,-4.826626320926002e-05,0.0,-0.0013194547566609072,0.2,0.02,0.0,-0.018790215036803812,-0.007252910830894375,-0.00037580430073607627,-0.0,-0.007628715131630451,-0.018908663801799237,0.0,0.018908663801799237,-0.03513507805239922,0.0,0.03513507805239922,-0.6355942467258235,0.0,0.6355942467258235,-0.03626455415447187,0,0.03626455415447187,-0.01221458260260109,0.00986813278766434,0.007628715131630451,0.4,0.03347897529602051,0.9094345569610596,STABILIZE
0.2,0.015,0.18,-0.031434326762409814,-0.006668378204968794,-0.0004715149014361472,-0.0009035846125493385,-0.00804347771895428,0.2,0.015,0.18,0.0027108448388243676,-0.005050789570905114,4.066267258236551e-05,-0.018385618467599417,-0.023395745365922167,0.002,8e-05,0,-0.6258631417956748,-0.001318702735131003,-5.006905134365399e-05,-0.0,-0.001368771786474657,0.2,0.02,0.0,-0.020394570920713045,-0.009388428742663444,-0.0004078914184142609,-0.0,-0.009796320161077704,-0.025253947854525567,0.0,0.025253947854525567,-0.033341891024843966,0.0,0.033341891024843966,-0.6593513675655015,0.0,0.6593513675655015,-0.046942143713317216,0,0.046942143713317216,-0.008062643033639056,0.02338914753372799,0.009796320161077704,0.4,0.034177303314208984,0.9436092376708984,STABILIZE
0.2,0.015,0.18,-0.03246859339213717,-0.005990593893628225,-0.0004870289008820575,0.00474701007435515,-0.0017306127201551329,0.2,0.015,0.18,0.001694901362066089,-0.005884464037811963,2.5423520430991336e-05,-0.028237368964698518,-0.03409640948207949,0.002,8e-05,0,-0.6485667626548454,-0.0013150204074364423,-5.1885341012387635e-05,-0.0,-0.00136690574844883,0.2,0.02,0.0,-0.022315926302912324,-0.011128716221973598,-0.00044631852605824646,-0.0,-0.011575034748031844,-0.02942232018905981,0.0,0.02942232018905981,-0.029952969468141123,0.0,0.029952969468141123,-0.6575102037182211,0.0,0.6575102037182211,-0.05564358110986799,0,0.05564358110986799,-0.0017637250939486484,0.03409471269492938,0.011575034748031844,0.4,0.034529685974121094,0.9781289100646973,STABILIZE
0.2,0.015,0.18,-0.03338433793116439,-0.005477352076008815,-0.0005007650689674658,0.006711879598982156,0.0007337624540058752,0.2,0.015,0.18,0.000761379950253864,-0.005583681065049039,1.1420699253807959e-05,-0.02965392664267959,-0.035226187008474824,0.002,8e-05,0,-0.6704299201459224,-0.0013077032509423302,-5.3634393611673794e-05,-0.0,-0.001361337644554004,0.2,0.02,0.0,-0.023917414785023006,-0.00957899926054855,-0.0004783482957004601,0.0,-0.01005734755624901,-0.027918405325245196,0.0,0.027918405325245196,-0.027386760380044072,0.0,0.027386760380044072,-0.653851625471165,0.0,0.653851625471165,-0.04789499630274274,0,0.04789499630274274,0.00070431573728309,0.0352267880715396,0.01005734755624901,0.4,0.033437490463256836,1.011573314666748,STABILIZE
0.2,0.015,0.18,-0.034113059484694064,-0.004356721464255429,-0.0005116958922704109,0.011472300655090403,0.006603883298564563,0.2,0.015,0.18,-0.000249795793041259,-0.006045396960759609,-3.746936895618885e-06,-0.01862571019065977,-0.024674854088314997,0.002,8e-05,0,-0.6920652689990049,-0.0012934870428673347,-5.53652215199204e-05,-0.0,-0.0013488522643872551,0.2,0.02,0.0,-0.02572639796437549,-0.010815154029393044,-0.0005145279592875099,-0.0,-0.011329681988680554,-0.030226984803798044,0.0,0.030226984803798044,-0.021783607321277144,0.0,0.021783607321277144,-0.6467435214336673,0.0,0.6467435214336673,-0.05407577014696522,0,0.05407577014696522,0.006580592227710607,0.024681075844324333,0.011329681988680554,0.4,0.033452749252319336,1.0450770854949951,STABILIZE
0.2,0.015,0.18,-0.034959594094450576,-0.005054052495751307,-0.0005243939114167586,0.010467782645800158,0.004889336238632093,0.2,0.015,0.18,-0.0011551498779481056,-0.005405221499069259,-1.7327248169221584e-05,-0.00845491876657069,-0.01387746751380917,0.002,8e-05,0,-0.7136131681993908,-0.0012864708953037635,-5.708905345595127e-05,-0.0,-0.0013435599487597147,0.2,0.02,0.0,-0.027231320097907685,-0.008984813352259138,-0.0005446264019581537,-0.0,-0.009529439754217292,-0.027026107495346292,0.0,0.027026107495346292,-0.025270262478756533,0.0,0.025270262478756533,-0.6432354476518817,0.0,0.6432354476518817,-0.044924066761295685,0,0.044924066761295685,0.004878453790939706,0.013881296843627251,0.009529439754217292,0.4,0.03349924087524414,1.0785348415374756,STABILIZE
0.2,0.015,0.18,-0.03581606357867563,-0.005122079154131866,-0.0005372409536801345,0.008212816375658601,0.0025534962678466005,0.2,0.015,0.18,-0.0020841089814521005,-0.005555600224804436,-3.1261634721781506e-05,-0.002580636987247721,-0.008167498846773938,0.002,8e-05,0,-0.7353727626043745,-0.001301323245684308,-5.8829821008349964e-05,0.0,-0.001360153066692658,0.2,0.02,0.0,-0.028693320814677955,-0.008743432816489134,-0.0005738664162935591,0.0,-0.009317299232782694,-0.02777800112402218,0.0,0.02777800112402218,-0.02561039577065933,0.0,0.02561039577065933,-0.650661622842154,0.0,0.650661622842154,-0.043717164082445664,0,0.043717164082445664,0.0025472636544927423,0.008169444808336758,0.009317299232782694,0.4,0.03344225883483887,1.1120126247406006,STABILIZE
0.2,0.015,0.18,-0.036685107328325736,-0.00519690851006569,-0.000550276609924886,0.0042768569362972,-0.0014703281836933764,0.2,0.015,0.18,-0.003036891429005145,-0.005697668514298888,-4.5553371435077176e-05,0.0010006139797440927,-0.004742607905989873,0.002,8e-05,0,-0.7573849309644927,-0.0013163344782326021,-6.0590794477159415e-05,-0.0,-0.0013769252727097614,0.2,0.02,0.0,-0.030114076597700202,-0.008496163538931316,-0.000602281531954004,0.0,-0.00909844507088532,-0.028488342571494435,0.0,0.028488342571494435,-0.02598454255032845,0.0,0.02598454255032845,-0.658167239116301,0.0,0.658167239116301,-0.04248081769465657,0,0.04248081769465657,-0.001473844091670668,0.004741516456912089,0.00909844507088532,0.4,0.03344464302062988,1.1454393863677979,STABILIZE
0.2,0.015,0.18,-0.037249830721042355,-0.003375763851130399,-0.0005587474608156353,0.011311663929113152,0.007377152617167117,0.2,0.015,0.18,-0.003791320791443434,-0.004509774878811332,-5.686981187165151e-05,0.005772261826876564,0.0012056171361935798,0.002,8e-05,0,-0.7793666351702265,-0.0013140068819708609,-6.234933081361813e-05,-0.0,-0.001376356212784479,0.2,0.02,0.0,-0.031816940342986724,-0.010179259348697355,-0.0006363388068597345,-0.0,-0.010815598155557089,-0.02254887439405666,0.0,0.02254887439405666,-0.016878819255651996,0.0,0.016878819255651996,-0.6570034409854304,0.0,0.6570034409854304,-0.05089629674348677,0,0.05089629674348677,0.007378220665697069,-0.0011990634780277315,0.010815598155557089,0.4,0.03345751762390137,1.1788818836212158,STABILIZE
0.2,0.015,0.18,-0.03779231600891099,-0.003242137364151814,-0.0005668847401336648,0.006000611336697493,0.002191589232412014,0.2,0.015,0.18,-0.00471794156214774,-0.005537904695817428,-7.07691234322161e-05,0.0027265156911867243,-0.0028821581280629193,0.002,8e-05,0,-0.8013984106018949,-0.001316718516114135,-6.41118728481516e-05,-0.0,-0.0013808303889622866,0.2,0.02,0.0,-0.033519079035857616,-0.01017275044786395,-0.0006703815807171524,0.0,-0.010843132028581103,-0.02768952347908714,0.0,0.02768952347908714,-0.01621068682075907,0.0,0.01621068682075907,-0.6583592580570675,0.0,0.6583592580570675,-0.05086375223931975,0,0.05086375223931975,0.0021890297622694944,0.0028841025534265927,0.010843132028581103,0.4,0.033464670181274414,1.2124102115631104,STABILIZE
0.2,0.015,0.18,-0.03830488228796449,-0.003046938397487471,-0.0005745732343194674,0.010791869718179536,0.007170358086372597,0.2,0.015,0.18,-0.00587760291800908,-0.006893580123493642,-8.81640437701362e-05,-0.007966214124331489,-0.014947958291595266,0.002,8e-05,0,-0.8242335094617835,-0.0013574271732252406,-6.593868075694268e-05,-0.0,-0.0014233658539821834,0.2,0.02,0.0,-0.035292553734273174,-0.010542379349560907,-0.0007058510746854635,-0.0,-0.01124823042424637,-0.03446790061746821,0.0,0.03446790061746821,-0.015234691987437354,0.0,0.015234691987437354,-0.6787135866126203,0.0,0.6787135866126203,-0.052711896747804535,0,0.052711896747804535,0.007156602989715819,0.014954548666598774,0.01124823042424637,0.4,0.033644676208496094,1.246001958847046,STABILIZE
0.2,0.015,0.18,-0.03871242831453356,-0.002438215496805271,-0.0005806864247180034,0.01443562943857336,0.011416727517050085,0.2,0.015,0.18,-0.00622741726963894,-0.0020928256381963837,-9.34112590445841e-05,0.018692405287800373,0.016506168390559406,0.002,8e-05,0,-0.8470827378120973,-0.001366995112743067,-6.776661902496779e-05,-0.0,-0.0014347617317680347,0.2,0.02,0.0,-0.03733106137429342,-0.01219572905690186,-0.0007466212274858684,-0.0,-0.012942350284387729,-0.01046412819098192,0.0,0.01046412819098192,-0.012191077484026355,0.0,0.012191077484026355,-0.6834975563715335,0.0,0.6834975563715335,-0.060978645284509296,0,0.060978645284509296,0.011434288202027455,-0.016494008471231208,0.012942350284387729,0.4,0.033429861068725586,1.2794139385223389,STABILIZE
0.2,0.015,0.18,-0.03926161340270087,-0.00328337140908065,-0.0005889242010405131,0.01029078027621016,0.006418484666088997,0.2,0.015,0.18,-0.006621011177812653,-0.0023531501723735083,-9.931516766718979e-05,0.01805627640955659,0.015603811069515892,0.002,8e-05,0,-0.8698336718014502,-0.0013601929076370728,-6.958669374411602e-05,-0.0,-0.0014297796013811887,0.2,0.02,0.0,-0.0397795072845911,-0.014638338643496819,-0.000795590145691822,-0.0,-0.015433928789188641,-0.011765750861867541,0.0,0.011765750861867541,-0.01641685704540325,0.0,0.01641685704540325,-0.6800964538185363,0.0,0.6800964538185363,-0.07319169321748409,0,0.07319169321748409,0.00643841229418234,-0.015595599136682374,0.015433928789188641,0.4,0.033452510833740234,1.312903881072998,STABILIZE
0.2,0.015,0.18,-0.03995126595173493,-0.004125790637670143,-0.0005992689892760239,-0.004042633801765138,-0.008767693428711306,0.2,0.015,0.18,-0.007059570671356349,-0.00262364672625113,-0.00010589356007034523,0.010209058553058852,0.007479518266737377,0.002,8e-05,0,-0.8924663237137886,-0.0013539801092065948,-7.139730589710309e-05,-0.0,-0.001425377415103698,0.2,0.02,0.0,-0.042628852967177444,-0.01704598026523078,-0.0008525770593435489,-0.0,-0.017898557324574328,-0.013118233631255648,0.0,0.013118233631255648,-0.020628953188350715,0.0,0.020628953188350715,-0.6769900546032974,0.0,0.6769900546032974,-0.0852299013261539,0,0.0852299013261539,-0.008756557631769513,-0.00749255230237498,0.017898557324574328,0.4,0.033431291580200195,1.3463356494903564,STABILIZE
0.2,0.015,0.18,-0.04089037937752478,-0.005611766832041481,-0.0006133556906628717,-0.012753025207189662,-0.018978147729894014,0.2,0.015,0.18,-0.0074333621905607414,-0.00223362885884138,-0.00011150043285841112,0.01783670227404864,0.01549157298234885,0.002,8e-05,0,-0.9150708636362848,-0.0013507570428346444,-7.320566909090279e-05,-0.0,-0.0014239627119255471,0.2,0.02,0.0,-0.04501415831413964,-0.014253632269302752,-0.0009002831662827929,-0.0,-0.015153915435585546,-0.0111681442942069,0.0,0.0111681442942069,-0.0280588341602074,0.0,0.0280588341602074,-0.6753785214173222,0.0,0.6753785214173222,-0.07126816134651376,0,0.07126816134651376,-0.01895886364241115,-0.015515167228025055,0.015153915435585546,0.4,0.033469438552856445,1.3798754215240479,STABILIZE
0.2,0.015,0.18,-0.04177162392177162,-0.005264278006797427,-0.0006265743588265742,-0.011929135227714308,-0.017819987593338308,0.2,0.015,0.18,-0.007489535221936586,-0.00033556003901247765,-0.00011234302832904879,0.03529422544682479,0.03484632237948326,0.002,8e-05,0,-0.938044333303194,-0.0013723628917407893,-7.504354666425552e-05,-0.0,-0.0014474064384050447,0.2,0.02,0.0,-0.04806183901380393,-0.018205886871839577,-0.0009612367802760786,-0.0,-0.019167123652115654,-0.0016778001950623882,0.0,0.0016778001950623882,-0.026321390033987133,0.0,0.026321390033987133,-0.6861814458703946,0.0,0.6861814458703946,-0.09102943435919789,0,0.09102943435919789,-0.01776460256657161,-0.034874590131689934,0.019167123652115654,0.4,0.033480167388916016,1.4132654666900635,STABILIZE
0.2,0.015,0.18,-0.04276735793643766,-0.005955029637685612,-0.0006415103690465649,-0.018924710041330926,-0.025521250048063104,0.2,0.015,0.18,-0.007804394922315583,-0.0018830318336554843,-0.00011706592383473375,0.0011157574102106445,-0.0008843403472795738,0.002,8e-05,0,-0.9608602525995484,-0.0013645157604302786,-7.686882020796388e-05,0.0,-0.0014413845806382425,0.2,0.02,0.0,-0.050334512967889065,-0.013591823272113633,-0.0010066902593577813,-0.0,-0.014598513531471414,-0.00941515916827742,0.0,0.00941515916827742,-0.02977514818842806,0.0,0.02977514818842806,-0.6822578802151393,0.0,0.6822578802151393,-0.06795911636056816,0,0.06795911636056816,-0.025522281020662826,0.0008540687138057148,0.014598513531471414,0.4,0.033441781997680664,1.4467151165008545,STABILIZE
0.2,0.015,0.18,-0.04378287668428457,-0.006025924136365496,-0.0006567431502642686,-0.014755736050121987,-0.021438403336751753,0.2,0.015,0.18,-0.008987275402101803,-0.0070190216071264,-0.00013480913103152702,-0.024912018202290394,-0.032065848940448324,0.002,8e-05,0,-0.9835265665253874,-0.0013449824383620457,-7.8682125322031e-05,0.0,-0.0014236645636840767,0.2,0.02,0.0,-0.05127850525947449,-0.005601497703974598,-0.0010255701051894899,0.0,-0.006627067809164088,-0.035095108035632,0.0,0.035095108035632,-0.03012962068182748,0.0,0.03012962068182748,-0.6724912191810228,0.0,0.6724912191810228,-0.02800748851987299,0,0.02800748851987299,-0.021454075295743454,0.03205536552755982,0.006627067809164088,0.4,0.03370499610900879,1.480409860610962,STABILIZE
0.2,0.015,0.18,-0.04497251279878643,-0.005937851667935562,-0.0006745876919817964,-0.009824363698563597,-0.016436803058480956,0.2,0.015,0.18,-0.009809787022740634,-0.0041054167227864815,-0.00014714680534110952,-0.010367162219961451,-0.014619725748089042,0.002,8e-05,0,-1.0098230514604627,-0.0013125410789833123,-8.078584411683702e-05,0.0,-0.0013933269231001493,0.2,0.02,0.0,-0.053042386471520736,-0.00880409132617386,-0.0010608477294304147,0.0,-0.009864939055604274,-0.020527083613932406,0.0,0.020527083613932406,-0.02968925833967781,0.0,0.02968925833967781,-0.6562705394916561,0.0,0.6562705394916561,-0.0440204566308693,0,0.0440204566308693,-0.01644803056931771,0.014607093007283028,0.009864939055604274,0.4,0.040069580078125,1.5204918384552002,STABILIZE
0.2,0.015,0.18,-0.04606995405626043,-0.00656287302848457,-0.0006910493108439064,-0.005196677676333758,-0.012450600015662235,0.2,0.015,0.18,-0.010737236100264948,-0.005546292792187487,-0.0001610585415039742,-0.020219695129671016,-0.025927046463362476,0.002,8e-05,0,-1.0313837792139056,-0.0012893657649910397,-8.251070233711245e-05,0.0,-0.001371876467328152,0.2,0.02,0.0,-0.05419015347271699,-0.006863828969282192,-0.0010838030694543398,0.0,-0.007947632038736531,-0.02773146396093743,0.0,0.02773146396093743,-0.03281436514242285,0.0,0.03281436514242285,-0.6446828824955199,0.0,0.6446828824955199,-0.03431914484641096,0,0.03431914484641096,-0.012466127617287813,0.025919584126541443,0.007947632038736531,0.4,0.03344392776489258,1.5539233684539795,STABILIZE
0.2,0.015,0.18,-0.04727051653786934,-0.00717730301010871,-0.00070905774806804,-0.01037080084785726,-0.01825716160603401,0.2,0.015,0.18,-0.011902435719067982,-0.006965893786889835,-0.00017853653578601972,-0.038062414811481496,-0.04520684513415735,0.002,8e-05,0,-1.0525777544112793,-0.0012670359461543891,-8.420622035290235e-05,0.0,-0.0013512421665072914,0.2,0.02,0.0,-0.05502054832704205,-0.004964335949878173,-0.001100410966540841,0.0,-0.006064746916419014,-0.03482946893444917,0.0,0.03482946893444917,-0.03588651505054355,0.0,0.03588651505054355,-0.6335179730771946,0.0,0.6335179730771946,-0.024821679749390865,0,0.024821679749390865,-0.018276744403317422,0.04519893152396784,0.006064746916419014,0.4,0.03345441818237305,1.5873892307281494,STABILIZE
0.2,0.015,0.18,-0.04823812913933012,-0.005771008040892114,-0.0007235719370899518,0.0008958083617297938,-0.005598771616252272,0.2,0.015,0.18,-0.013785977035028643,-0.011233764487307592,-0.00020678965552542962,-0.0526420496595603,-0.06408260380239332,0.002,8e-05,0,-1.0735643044843937,-0.0012516739554619826,-8.58851443587515e-05,0.0,-0.001337559099820734,0.2,0.02,0.0,-0.05564082111478858,-0.0036994136292021608,-0.0011128164222957717,0.0,-0.0048122300514979325,-0.05616882243653796,0.0,0.05616882243653796,-0.028855040204460565,0.0,0.028855040204460565,-0.6258369777309912,0.0,0.6258369777309912,-0.018497068146010803,0,0.018497068146010803,-0.005619459414943005,0.06408079298502223,0.0048122300514979325,0.4,0.033533573150634766,1.6209497451782227,STABILIZE
0.2,0.015,0.18,-0.049855350153829546,-0.00966999767627378,-0.0007478302523074432,-0.01970780991796201,-0.030125637846543235,0.2,0.015,0.18,-0.01565599597712646,-0.011181575469615719,-0.00023483993965689687,-0.024932676964403967,-0.03634909237367658,0.002,8e-05,0,-1.0948116846571483,-0.0012704640556568513,-8.758493477257187e-05,0.0,-0.001358048990429423,0.2,0.02,0.0,-0.056805257154937526,-0.006962619024521541,-0.0011361051430987506,-0.0,-0.00809872416762029,-0.05590787734807859,0.0,0.05590787734807859,-0.04834998838136889,0.0,0.04834998838136889,-0.6352320278284257,0.0,0.6352320278284257,-0.034813095122607704,0,0.034813095122607704,-0.0301477181066664,0.03633078123316549,0.00809872416762029,0.4,0.033448219299316406,1.6543793678283691,STABILIZE
0.2,0.015,0.18,-0.051361252712236564,-0.008999633991617326,-0.0007704187906835484,-0.016497819419223063,-0.026267872201523938,0.2,0.015,0.18,-0.017814147198638986,-0.012897628059494293,-0.0002672122079795848,-0.0472511183258264,-0.060415958593300276,0.002,8e-05,0,-1.116155606818635,-0.0012755638558855,-8.92924485454908e-05,0.0,-0.0013648563044309908,0.2,0.02,0.0,-0.057620421526672884,-0.004871617321897188,-0.0011524084305334578,0.0,-0.006024025752430645,-0.06448814029747146,0.0,0.06448814029747146,-0.04499816995808663,0.0,0.04499816995808663,-0.63778192794275,0.0,0.63778192794275,-0.024358086609485935,0,0.024358086609485935,-0.026293554391626252,0.06040478590474069,0.006024025752430645,0.4,0.03346586227416992,1.6878530979156494,STABILIZE
0.2,0.015,0.18,-0.05311213866355196,-0.01047602791584363,-0.0007966820799532794,-0.021084165675972103,-0.032356875671769016,0.2,0.015,0.18,-0.021410735227495897,-0.021519366560561845,-0.00032116102841243846,-0.08592370781361389,-0.10776423540258817,0.002,8e-05,0,-1.1368915953702061,-0.0012406907186940039,-9.09513276296165e-05,0.0,-0.0013316420463236204,0.2,0.02,0.0,-0.05849461558005351,-0.005230541315497869,-0.0011698923116010703,0.0,-0.006400433627098939,-0.10759683280280923,0.0,0.10759683280280923,-0.05238013957921815,0.0,0.05238013957921815,-0.620345359347002,0.0,0.620345359347002,-0.026152706577489342,0,0.026152706577489342,-0.03240606137489119,0.10774945485388564,0.006400433627098939,0.4,0.033426523208618164,1.7212584018707275,STABILIZE
0.2,0.015,0.18,-0.055401631572924666,-0.012021945188261503,-0.0008310244735938699,-0.02508399244291946,-0.03793696210477483,0.2,0.015,0.18,-0.027169065325006327,-0.03023653339339412,-0.0004075359798750949,-0.11948144298853886,-0.15012551236180807,0.002,8e-05,0,-1.15998907834892,-0.0012128304622396923,-9.279912626791361e-05,0.0,-0.001305629588507606,0.2,0.02,0.0,-0.05955850534455345,-0.00558640054433498,-0.001191170106891069,-0.0,-0.006777570651226049,-0.15118266696697058,0.0,0.15118266696697058,-0.06010972594130751,0.0,0.06010972594130751,-0.6064152311198462,0.0,0.6064152311198462,-0.027932002721674898,0,0.027932002721674898,-0.038010144593879074,0.15010700004858837,0.006777570651226049,0.4,0.03808856010437012,1.759359359741211,STABILIZE
0.2,0.015,0.18,-0.05676441571501396,-0.00814496238580984,-0.0008514662357252094,-0.011778205646123264,-0.020774634267658312,0.2,0.015,0.18,-0.03154039487311096,-0.026126158681818903,-0.00047310592309666435,-0.07446270220032024,-0.1010619668052358,0.002,8e-05,0,-1.1803465881727437,-0.0012167088437761823,-9.44277270538195e-05,0.0,-0.0013111365708300018,0.2,0.02,0.0,-0.06022959286089615,-0.0040108938821506075,-0.001204591857217923,-0.0,-0.0052154857393685305,-0.1306307934090945,0.0,0.1306307934090945,-0.0407248119290492,0.0,0.0407248119290492,-0.6083544218880912,0.0,0.6083544218880912,-0.020054469410753038,0,0.020054469410753038,-0.020810006352391927,0.10105468914954392,0.0052154857393685305,0.4,0.033463239669799805,1.792820930480957,STABILIZE
0.2,0.015,0.18,-0.058566201212832895,-0.00889630847182268,-0.0008784930181924933,0.005865230098360177,-0.003909571391654997,0.2,0.015,0.18,-0.03669450242627697,-0.025448384807970056,-0.0005504175363941546,-0.0717316997761663,-0.0977305021205305,0.002,8e-05,0,-1.2055401164150819,-0.0012439294189498476,-9.644320931320655e-05,0.0,-0.0013403726282630543,0.2,0.02,0.0,-0.06405788635373202,-0.01890218334766619,-0.0012811577270746405,-0.0,-0.020183341074740832,-0.12724192403985027,0.0,0.12724192403985027,-0.0444815423591134,0.0,0.0444815423591134,-0.6219647094749238,0.0,0.6219647094749238,-0.09451091673833095,0,0.09451091673833095,-0.004070775070020909,0.09772392022185131,0.020183341074740832,0.4,0.04050636291503906,1.8333299160003662,STABILIZE
0.2,0.015,0.18,-0.0600043325386717,-0.008595351714224007,-0.0009000649880800754,0.0038784707343179495,-0.005616945967986133,0.2,0.015,0.18,-0.0416962604477774,-0.029894258341923052,-0.0006254439067166609,-0.08641640105111403,-0.11693610329975375,0.002,8e-05,0,-1.2246293857001735,-0.001140917943479163,-9.797035085601389e-05,0.0,-0.001238888294335177,0.2,0.02,0.0,-0.07079127623167308,-0.04024378941620144,-0.0014158255246334618,-0.0,-0.04165961494083491,-0.14947129170961526,0.0,0.14947129170961526,-0.04297675857112004,0.0,0.04297675857112004,-0.5704589717395815,0.0,0.5704589717395815,-0.2012189470810072,0,0.2012189470810072,-0.006027582261952803,0.11691565587641951,0.04165961494083491,0.4,0.0334630012512207,1.8667967319488525,STABILIZE
0.2,0.015,0.18,-0.061017347375688445,-0.006052940976214573,-0.0009152602106353267,0.025500985580095274,0.018532784393245374,0.2,0.015,0.18,-0.045688465773324506,-0.023854125643044833,-0.0006853269865998675,-0.007507045422594848,-0.03204649805223955,0.002,8e-05,0,-1.2430638256021758,-0.0011014900530479492,-9.944510604817407e-05,0.0,-0.0012009351590961232,0.2,0.02,0.0,-0.0761697457740454,-0.032137296999736956,-0.0015233949154809078,-0.0,-0.033660691915217866,-0.11927062821522416,0.0,0.11927062821522416,-0.030264704881072864,0.0,0.030264704881072864,-0.5507450265239746,0.0,0.5507450265239746,-0.16068648499868476,0,0.16068648499868476,0.01844283696104076,0.03209834730336099,0.033660691915217866,0.4,0.03347182273864746,1.9002819061279297,STABILIZE
0.2,0.015,0.18,-0.06300337947607977,-0.011497377394256507,-0.0009450506921411966,0.004440081059701307,-0.008002347026696397,0.2,0.015,0.18,-0.04965625557028933,-0.022970009753516166,-0.0007448438335543399,0.03829521675606518,0.014580363168994678,0.002,8e-05,0,-1.2618613718242144,-0.001088212436033504,-0.00010094890974593716,0.0,-0.0011891613457794413,0.2,0.02,0.0,-0.07982900132623104,-0.021183868104255172,-0.0015965800265246208,-0.0,-0.02278044813077979,-0.11485004876758081,0.0,0.11485004876758081,-0.057486886971282534,0.0,0.057486886971282534,-0.5441062180167521,0.0,0.5441062180167521,-0.10591934052127586,0,0.10591934052127586,-0.007975379507588939,-0.014595131715246137,0.02278044813077979,0.4,0.03454756736755371,1.9348492622375488,STABILIZE
0.2,0.015,0.18,-0.06492561724930834,-0.011354603246491417,-0.0009738842587396252,-0.01565532587567497,-0.02798381338090601,0.2,0.015,0.18,-0.05478673910275568,-0.030305618683150362,-0.0008218010865413351,-0.02281274826030661,-0.053940168029998306,0.002,8e-05,0,-1.2809713152436584,-0.001128818862123589,-0.00010247770521949268,0.0,-0.0012312965673430818,0.2,0.02,0.0,-0.08250727091647336,-0.015820461447528026,-0.0016501454183294672,-0.0,-0.017470606865857493,-0.1515280934157518,0.0,0.1515280934157518,-0.056773016232457084,0.0,0.056773016232457084,-0.5644094310617945,0.0,0.5644094310617945,-0.07910230723764013,0,0.07910230723764013,-0.028058256252485307,0.05390148230347376,0.017470606865857493,0.4,0.033858299255371094,1.9686737060546875,STABILIZE
0.2,0.015,0.18,-0.06736821922008297,-0.014554025565649853,-0.0010105232883012446,-0.029473659274129232,-0.045038208128080334,0.2,0.015,0.18,-0.05796739774545432,-0.01895167029066169,-0.0008695109661818148,0.03506173479174898,0.015240553534905478,0.002,8e-05,0,-1.3000623567053657,-0.0011375226452488957,-0.00010400498853642927,0.0,-0.001241527633785325,0.2,0.02,0.0,-0.08374802912156046,-0.00739294688765877,-0.0016749605824312092,0.0,-0.00906790747008998,-0.09475835145330844,0.0,0.09475835145330844,-0.07277012782824926,0.0,0.07277012782824926,-0.5687613226244479,0.0,0.5687613226244479,-0.03696473443829385,0,0.03696473443829385,-0.045028366216230624,-0.01526960704588112,0.00906790747008998,0.4,0.03356599807739258,2.002269983291626,STABILIZE
0.2,0.015,0.18,-0.07063665419788229,-0.019553845354486784,-0.0010595498129682343,-0.058013404274711765,-0.07862679944216679,0.2,0.015,0.18,-0.060755436668954714,-0.016679812302438226,-0.0009113315500343206,0.07120894515318822,0.053617801300715674,0.002,8e-05,0,-1.318525734556186,-0.0011045960457181367,-0.00010548205876449489,0.0,-0.0012100781044826316,0.2,0.02,0.0,-0.08438577128559274,-0.0038153770034364807,-0.0016877154257118549,0.0,-0.005503092429148336,-0.08339906151219112,0.0,0.08339906151219112,-0.09776922677243391,0.0,0.09776922677243391,-0.5522980228590684,0.0,0.5522980228590684,-0.019076885017182403,0,0.019076885017182403,-0.07860894279847797,-0.05364397747135615,0.005503092429148336,0.4,0.03343009948730469,2.0356924533843994,STABILIZE
0.2,0.015,0.18,-0.0708361108877469,-0.001190262560735675,-0.0010625416633162034,0.02694098848257745,0.02468818425852557,0.2,0.015,0.18,-0.06312649980744642,-0.01414937591114566,-0.0009468974971116962,0.05231757563291745,0.037221302224660094,0.002,8e-05,0,-1.3369304939457516,-0.0010983084124989112,-0.00010695443951566013,0.0,-0.0012052628520145714,0.2,0.02,0.0,-0.08829418448464874,-0.02332354911675004,-0.0017658836896929748,0.0,-0.025089432806443015,-0.0707468795557283,0.0,0.0707468795557283,-0.005951312803678374,0.0,0.005951312803678374,-0.5491542062494555,0.0,0.5491542062494555,-0.1166177455837502,0,0.1166177455837502,0.02476389195298821,-0.03717097572869351,0.025089432806443015,0.4,0.03351473808288574,2.069201946258545,STABILIZE
0.2,0.015,0.18,-0.06803036510804414,0.01678838002595036,-0.001020455476620662,0.15212647420295441,0.16789439875228412,0.2,0.015,0.18,-0.06508067843806664,-0.011692967241286989,-0.0009762101765709996,0.06093943511409244,0.04827025769623445,0.002,8e-05,0,-1.3552729620880413,-0.0010975346662350435,-0.0001084218369670433,-0.0,-0.0012059565032020868,0.2,0.02,0.0,-0.09540073014113301,-0.04252252289423886,-0.0019080146028226603,-0.0,-0.044430537497061516,-0.058464836206434945,0.0,0.058464836206434945,0.08394190012975179,0.0,-0.08394190012975179,-0.5487673331175218,0.0,0.5487673331175218,-0.21261261447119428,0,0.21261261447119428,0.16807236318963326,-0.04764690590483166,0.044430537497061516,0.4,0.03342485427856445,2.102625846862793,STABILIZE
0.2,0.015,0.18,-0.06711027416784279,0.0054957862586873995,-0.001006654112517642,0.09066093375808712,0.09515006590425688,0.2,0.015,0.18,-0.06518634880423933,-0.000631178637880378,-0.00097779523206359,0.15940329886824392,0.15779432499829996,0.002,8e-05,0,-1.3740033335566135,-0.0011187819990333026,-0.00010992026668452909,0.0,-0.0012287022657178318,0.2,0.02,0.0,-0.09995825003506946,-0.027222477814322483,-0.0019991650007013893,-0.0,-0.029221642815023874,-0.00315589318940189,0.0,0.00315589318940189,0.027478931293436995,0.0,-0.027478931293436995,-0.5593909995166513,0.0,0.5593909995166513,-0.1361123890716124,0,0.1361123890716124,0.0955246547337485,-0.15756784056796513,0.029221642815023874,0.4,0.03348350524902344,2.136181116104126,STABILIZE
0.2,0.015,0.18,-0.06682429876578888,0.0017121923255984308,-0.0010023644814868332,0.08743023355940885,0.08814006140352044,0.2,0.015,0.18,-0.06670082905697336,-0.00906749827914456,-0.0010005124358546003,0.05305801043886096,0.0429899997238618,0.002,8e-05,0,-1.3907403260668818,-0.0010020774487547268,-0.00011125922608535055,0.0,-0.0011133366748400774,0.2,0.02,0.0,-0.1117150764131115,-0.07039048727023567,-0.00223430152826223,-0.0,-0.0726247887984979,-0.045337491395722795,0.0,0.045337491395722795,0.008560961627992154,0.0,-0.008560961627992154,-0.5010387243773634,0.0,0.5010387243773634,-0.35195243635117834,0,0.35195243635117834,0.08840247275885445,-0.04244777156216788,0.0726247887984979,0.4,0.03340458869934082,2.1695027351379395,STABILIZE
0.2,0.015,0.18,-0.06710478551188087,-0.0016064214450673183,-0.001006571782678213,0.09724519218109282,0.09463219895334729,0.2,0.015,0.18,-0.06606927299653922,0.003617087842399898,-0.0009910390949480884,0.1062086561593853,0.10883470490683711,0.002,8e-05,0,-1.4034371107950079,-0.0007271782911259497,-0.00011227496886360064,0.0,-0.0008394532599895504,0.2,0.02,0.0,-0.1275956679066716,-0.09095232873228982,-0.002551913358133432,-0.0,-0.09350424209042325,0.01808543921199949,0.0,-0.01808543921199949,-0.008032107225336592,0.0,0.008032107225336592,-0.36358914556297484,0.0,0.36358914556297484,-0.4547616436614491,0,0.4547616436614491,0.09549303973916515,-0.1080801805710855,0.09350424209042325,0.4,0.034920692443847656,2.2044544219970703,STABILIZE
0.2,0.015,0.18,-0.06698088661174537,0.0006628059007249935,-0.0010047132991761805,0.009544037636501723,0.009202130238050535,0.2,0.015,0.18,-0.06770456050695227,-0.008748085819150021,-0.001015568407604284,0.033084729131395145,0.02332107490464084,0.002,8e-05,0,-1.4163256430157267,-0.0006894811171232484,-0.00011330605144125814,0.0,-0.0008027871685645065,0.2,0.02,0.0,-0.1415452897370867,-0.07462448538259589,-0.0028309057947417337,-0.0,-0.07745539117733763,-0.04374042909575011,0.0,0.04374042909575011,0.0033140295036249677,0.0,-0.0033140295036249677,-0.3447405585616242,0.0,0.3447405585616242,-0.3731224269129794,0,0.3731224269129794,0.009353805889589903,-0.023260654569589954,0.07745539117733763,0.4,0.037386178970336914,2.241856336593628,STABILIZE
0.2,0.015,0.18,-0.06621252591682225,0.003985553312382201,-0.0009931878887523336,-0.07176296365080852,-0.06877059822717865,0.2,0.015,0.18,-0.06658069254543401,0.005829600220710828,-0.0009987103881815102,0.08791058759920979,0.0927414774317391,0.002,8e-05,0,-1.4306217110534445,-0.0007415494011893505,-0.00011444973688427556,0.0,-0.0008559991380736261,0.2,0.02,0.0,-0.15570696048046853,-0.07345780974103473,-0.003114139209609371,-0.0,-0.0765719489506441,0.029148001103554137,0.0,-0.029148001103554137,0.019927766561911003,0.0,-0.019927766561911003,-0.37077470059467527,0.0,0.37077470059467527,-0.36728904870517365,0,0.36728904870517365,-0.06817467903508521,-0.09318041615709233,0.0765719489506441,0.4,0.03855729103088379,2.2804274559020996,STABILIZE
0.2,0.015,0.18,-0.06580843875148808,0.002419057725061454,-0.0009871265812723211,-0.019496457758128242,-0.018064526614339108,0.2,0.015,0.18,-0.06531268202813431,0.007590913299105426,-0.0009796902304220147,0.037934482821927455,0.04454570589061087,0.002,8e-05,0,-1.4445847305567932,-0.0008358926759484026,-0.00011556677844454346,0.0,-0.000951459454392946,0.2,0.02,0.0,-0.16664218067833597,-0.06546342265788811,-0.0033328436135667194,-0.0,-0.06879626627145483,0.03795456649552713,0.0,-0.03795456649552713,0.01209528862530727,0.0,-0.01209528862530727,-0.4179463379742013,0.0,0.4179463379742013,-0.3273171132894406,0,0.3273171132894406,-0.017809754239800243,-0.044648176771407894,0.06879626627145483,0.4,0.03340864181518555,2.3137993812561035,STABILIZE
0.2,0.015,0.18,-0.06567125534762619,0.000820314216846468,-0.0009850688302143929,-0.00771262416966385,-0.007877378783031776,0.2,0.015,0.18,-0.06376082947932064,0.009279597038741644,-0.0009564124421898096,0.09248145767837214,0.10080464227492397,0.002,8e-05,0,-1.4601577939009287,-0.0009312208985502498,-0.00011681262351207431,0.0,-0.001048033522062324,0.2,0.02,0.0,-0.1762324212920065,-0.0573466650987359,-0.00352464842584013,0.0,-0.06087131352457603,0.04639798519370822,0.0,-0.04639798519370822,0.00410157108423234,0.0,-0.00410157108423234,-0.4656104492751249,0.0,0.4656104492751249,-0.28673332549367947,0,0.28673332549367947,-0.0073728114017391115,-0.10084280169006182,0.06087131352457603,0.4,0.033446550369262695,2.347250461578369,STABILIZE
0.2,0.015,0.18,-0.0649366916794974,0.004387427668267235,-0.0009740503751924608,0.02856849560031546,0.03198187289339023,0.2,0.015,0.18,-0.061614940344831774,0.012817041966796082,-0.0009242241051724766,0.046114007388139304,0.05800682524976291,0.002,8e-05,0,-1.478302079502438,-0.0010837282610476953,-0.00011826416636019505,-0.0,-0.0012019924274078904,0.2,0.02,0.0,-0.18397591487589357,-0.04625061035967107,-0.0036795182975178716,0.0,-0.04993012865718894,0.0640852098339804,0.0,-0.0640852098339804,0.021937138341336176,0.0,-0.021937138341336176,-0.5418641305238476,0.0,0.5418641305238476,-0.23125305179835534,0,0.23125305179835534,0.032215734683384734,-0.057877270220141365,0.04993012865718894,0.4,0.03348493576049805,2.3807287216186523,STABILIZE
0.2,0.015,0.18,-0.06428820862549883,0.0038804937294552207,-0.0009643231293824825,0.014912919994708103,0.01782909059478084,0.2,0.015,0.18,-0.059248528552694926,0.014160502828985642,-0.0008887279282904239,0.11288282777124573,0.12615460267194095,0.002,8e-05,0,-1.4974264458204192,-0.0011443935677137181,-0.00011979411566563355,-0.0,-0.0012641876833793518,0.2,0.02,0.0,-0.1906204456495681,-0.03976057638427247,-0.003812408912991362,0.0,-0.043572985297263826,0.0708025141449282,0.0,-0.0708025141449282,0.019402468647276103,0.0,-0.019402468647276103,-0.572196783856859,0.0,0.572196783856859,-0.1988028819213623,0,0.1988028819213623,0.018266709198236336,-0.126091980640401,0.043572985297263826,0.4,0.03342270851135254,2.4141592979431152,STABILIZE
0.2,0.015,0.18,-0.06322547454362214,0.006349931706782723,-0.000948382118154332,0.012680682453771325,0.018082232042399716,0.2,0.015,0.18,-0.05663466008894347,0.015618099126005695,-0.0008495199013341519,0.05266702450133229,0.06743560372600384,0.002,8e-05,0,-1.517203662560193,-0.0011817064850882955,-0.00012137629300481545,-0.0,-0.0013030827780931109,0.2,0.02,0.0,-0.19686090692424194,-0.037287317296744914,-0.003937218138484839,0.0,-0.041224535435229755,0.07809049563002847,0.0,-0.07809049563002847,0.031749658533913615,0.0,-0.031749658533913615,-0.5908532425441477,0.0,0.5908532425441477,-0.18643658648372455,0,0.18643658648372455,0.018301566815049086,-0.06737640846498204,0.041224535435229755,0.4,0.033472299575805664,2.4476349353790283,STABILIZE
0.2,0.015,0.18,-0.0621347354130655,0.006521723911773196,-0.0009320210311959825,0.022045149125584723,0.027634852006161937,0.2,0.015,0.18,-0.053737344957642375,0.017323564216592948,-0.0008060601743646356,0.052354925530625415,0.06887242957285372,0.002,8e-05,0,-1.538593466970825,-0.0012789345773427992,-0.000123087477357666,-0.0,-0.0014020220547004652,0.2,0.02,0.0,-0.20197659636490614,-0.030587620096988056,-0.004039531927298123,0.0,-0.03462715202428618,0.08661782108296473,0.0,-0.08661782108296473,0.03260861955886598,0.0,-0.03260861955886598,-0.6394672886713996,0.0,0.6394672886713996,-0.15293810048494028,0,0.15293810048494028,0.027818592683077816,-0.06879841932634193,0.03462715202428618,0.4,0.033449411392211914,2.4810898303985596,STABILIZE
0.2,0.015,0.18,-0.061133375577940935,0.005967487993154876,-0.000917000633669114,0.027676526212455053,0.03272701357194081,0.2,0.015,0.18,-0.05082874483630635,0.017333465645546286,-0.0007624311725445953,0.043320006690333285,0.059891041163334977,0.002,8e-05,0,-1.5608058528363313,-0.0013237214166398358,-0.00012486446822690652,-0.0,-0.0014485858848667424,0.2,0.02,0.0,-0.20588470912205242,-0.023289945468268826,-0.004117694182441048,0.0,-0.027407639650709872,0.08666732822773143,0.0,-0.08666732822773143,0.029837439965774377,0.0,-0.029837439965774377,-0.661860708319918,0.0,0.661860708319918,-0.11644972734134412,0,0.11644972734134412,0.03284867031214881,-0.05982440210892238,0.027407639650709872,0.4,0.03356051445007324,2.5146894454956055,STABILIZE
0.2,0.015,0.18,-0.05977401512362227,0.008113285745171577,-0.0008966102268543341,0.020027717127804618,0.02724439264612186,0.2,0.015,0.18,-0.047440914952619526,0.020220120288962834,-0.0007116137242892929,0.039810278183899955,0.059318784748573494,0.002,8e-05,0,-1.5835682419287866,-0.0013585636272053397,-0.00012668545935430294,-0.0,-0.0014852490865596426,0.2,0.02,0.0,-0.2097637137241753,-0.023151675954581456,-0.004195274274483506,0.0,-0.027346950229064963,0.10110060144481416,0.0,-0.10110060144481416,0.04056642872585788,0.0,-0.04056642872585788,-0.6792818136026698,0.0,0.6792818136026698,-0.11575837977290727,0,0.11575837977290727,0.02736418254898687,-0.059263620106515404,0.027346950229064963,0.4,0.03350949287414551,2.5482420921325684,STABILIZE
0.2,0.015,0.18,-0.05841077824309162,0.007975881796310771,-0.0008761616736463742,0.022034322630691675,0.02913404275335607,0.2,0.015,0.18,-0.043001939890952294,0.025971084625327625,-0.0006450290983642844,0.0628574083122466,0.08818346383920994,0.002,8e-05,0,-1.6078342468752935,-0.0014197296881132875,-0.00012862673975002348,-0.0,-0.001548356427863311,0.2,0.02,0.0,-0.21483530266862927,-0.02967231485455107,-0.004296706053372586,0.0,-0.033969020907923655,0.12985542312663811,0.0,-0.12985542312663811,0.03987940898155386,0.0,-0.03987940898155386,-0.7098648440566437,0.0,0.7098648440566437,-0.14836157427275534,0,0.14836157427275534,0.029362286907512546,-0.08810772865870817,0.033969020907923655,0.4,0.03418397903442383,2.582335948944092,STABILIZE
0.2,0.015,0.18,-0.056698243726881925,0.010240279386509628,-0.0008504736559032289,0.020940902206936785,0.030330707937543184,0.2,0.015,0.18,-0.038000199181972796,0.02990843208941032,-0.0005700029877295919,0.07620846940330057,0.1055468985049813,0.002,8e-05,0,-1.6323090692994426,-0.0014634976240549518,-0.00013058472554395542,-0.0,-0.0015940823495989073,0.2,0.02,0.0,-0.22050367956118994,-0.03389465292432616,-0.004410073591223799,0.0,-0.03830472651554996,0.1495421604470516,0.0,-0.1495421604470516,0.05120139693254813,0.0,-0.05120139693254813,-0.7317488120274759,0.0,0.7317488120274759,-0.16947326462163081,0,0.16947326462163081,0.030642768432353196,-0.1054567227388304,0.03830472651554996,0.4,0.0334470272064209,2.615783929824829,STABILIZE
0.2,0.015,0.18,-0.05512627335935833,0.009398957370167537,-0.0008268941003903749,0.015489135091734094,0.024061198361511257,0.2,0.015,0.18,-0.03287810223649339,0.03062549513084495,-0.0004931715335474007,0.0708895653811004,0.10102188897839795,0.002,8e-05,0,-1.656618530943858,-0.0014534853735667047,-0.00013252948247550865,-0.0,-0.0015860148560422134,0.2,0.02,0.0,-0.22543585792379195,-0.02948995421916772,-0.004508717158475839,0.0,-0.03399867137764356,0.15312747565422474,0.0,-0.15312747565422474,0.04699478685083768,0.0,-0.04699478685083768,-0.7267426867833523,0.0,0.7267426867833523,-0.1474497710958386,0,0.1474497710958386,0.024321096611715446,-0.10095963341335663,0.03399867137764356,0.4,0.03344988822937012,2.649268388748169,STABILIZE
0.2,0.015,0.18,-0.05340652951359175,0.010280164028296214,-0.0008010979427038762,0.02320260316418925,0.03268166924978159,0.2,0.015,0.18,-0.027892962202899794,0.029799820115956888,-0.0004183944330434969,0.0663943636791821,0.09577578936209549,0.002,8e-05,0,-1.6800795521905507,-0.001402436457505313,-0.00013440636417524408,-0.0,-0.0015368428216805572,0.2,0.02,0.0,-0.23091982069554318,-0.03278164766075529,-0.004618396413910863,-0.0,-0.03740004407466615,0.14899910057978444,0.0,-0.14899910057978444,0.05140082014148107,0.0,-0.05140082014148107,-0.7012182287526565,0.0,0.7012182287526565,-0.16390823830377643,0,0.16390823830377643,0.0329555246268869,-0.09568190387660173,0.03740004407466615,0.4,0.03345751762390137,2.6827402114868164,STABILIZE
