Mode,Time,Freq,North-Vision,East-Vision,Down-Vision,Yaw-Vision,North-Desired,East-Desired,Down-Desired,Roll-UAV,Pitch-UAV,Yaw-UAV,Roll-Control,Pitch-Control,Yaw-Control,Thrust-Control,northVraw,eastVraw,downVraw,yawVraw,zGyro
GUIDED_NOGPS,0.0028362274169921875,360.1188288829741,207.3201743186013,-22.980576301300577,6.275917206156981,6.1084736820735595,212.404523195072,-33.51326788166302,-3.1373981185175577,-0.8326561420809425,0.6661711881963809,100.85343264281688,2.201466687841465,1.7543838848738502,-0.305423684103678,0.49529334233766276,207.3201743186013,-22.980576301300577,6.275917206156981,2.4556249550986706,3.323155211758775
GUIDED_NOGPS,0.013324975967407227,95.53787982324268,206.59173247034215,-22.492113945160405,6.761758486595594,4.666060673167396,212.40463570592055,-33.51316758751788,-3.137378339467416,-0.7490740499904387,0.6590388698773008,100.91181709984215,0.505859594931408,0.31780228528570625,-0.23330303365836982,0.4950504315869685,205.86329062208299,-22.003651589020233,7.247599767034208,2.7306307367126834,4.010704565915763
GUIDED_NOGPS,0.050688743591308594,26.75689606777412,205.95702632180155,-22.06998142891055,7.128305742652189,4.686506909801172,212.40541420240226,-33.5124736220903,-3.137240680719575,-0.45379051137965404,0.35682749173571343,101.08095307425918,0.4930432831134169,0.2980185385334992,-0.2343253454900586,0.49486722678831413,204.6876140247203,-21.22571639641083,7.861400254765379,3.0231630204332305,5.729577951308232
GUIDED_NOGPS,0.0940248966217041,23.080500756637775,205.45428727849665,-21.229633052701754,7.805175284437195,4.879745489611888,212.40749986750296,-33.51061442361292,-3.1368694405307425,0.24084386267674177,-0.12287059417646012,101.55181265526153,0.5359222092358629,0.3127343286138973,-0.2439872744805944,0.494528977637516,203.94607014858198,-20.459531172674193,8.306525831512,3.1811811999196777,8.36518380891002
GUIDED_NOGPS,0.14104533195495605,21.27597926325721,204.58156103151913,-20.344166807356405,8.264253867117008,5.194128833341385,212.41150716185183,-33.50704225109624,-3.1361512785538284,1.7654441380547412,-0.5477183657111703,102.19260734281377,0.577331947700256,0.35688166868265353,-0.2597064416670693,0.49429979742716457,201.0906560436091,-19.347252852984195,8.624835515073649,3.8744008967964447,10.427831871380983
GUIDED_NOGPS,0.1753101348876953,29.18223310697985,203.20965723266207,-19.585361293005317,8.54957124045577,5.58259273944828,212.4180241923054,-33.50123285576612,-3.1349751998284785,2.444259820673814,-0.7274483904177089,102.55774242565349,0.6207668849718606,0.43784829373067236,-0.27912963697241405,0.49415772677985786,200.46065532431584,-18.949299853357562,8.717352374781665,3.9946011884310906,10.198648753328653
GUIDED_NOGPS,0.21984577178955078,22.460301055461247,201.88437897765002,-18.995000598864575,8.835642546516146,5.8885268065335366,212.42761308053198,-33.49268515250141,-3.1332325387716096,3.094742491233499,-0.9723184094863352,103.07841457627273,0.645798977692171,0.4892165284722277,-0.29442634032667686,0.4940155624573561,199.23689934702287,-18.688449090251964,9.164739749693128,4.2587853964607945,10.485127650894066
GUIDED_NOGPS,0.2621321678161621,23.65226806216588,200.56663279377003,-18.68143344569288,9.175445496678394,6.287029736262399,212.44081033159569,-33.48092089127141,-3.1308169431679427,3.5958738975241573,-1.141620336155851,103.48792539815001,0.6639710818768907,0.5495396524097516,-0.31435148681312,0.49384686878007683,198.09888310532034,-18.40655139346911,9.644244365560393,4.593688504695535,9.797578296737077
GUIDED_NOGPS,0.30799341201782227,21.809211826246113,198.9033915525347,-18.40348492023159,9.733633905508308,6.667284176280246,212.45812720254085,-33.46548432857349,-3.1276243581605385,3.874907188799865,-1.3408600491745908,103.88336603033707,0.6876764212083902,0.6309854309039489,-0.3333642088140123,0.4935693708681656,195.62986394240536,-18.115454276973693,10.3919176012714,5.454786000770895,9.511099399171666
GUIDED_NOGPS,0.35277724266052246,22.33483854477294,197.64090993719032,-18.196973801643704,10.23119367095051,7.044127808598874,212.48005007097618,-33.445941898870565,-3.1235530102413303,4.010314835321721,-1.4837978725346805,104.36602134803603,0.7053264003765922,0.6801398225897229,-0.3522063904299437,0.4933226266594041,194.77824796688705,-18.0689157344883,10.657419046019735,5.632860432695935,8.021409131831525
GUIDED_NOGPS,0.3970651626586914,22.58341095706017,196.13063800070782,-18.085860628346204,10.693375180459304,7.380148546812486,212.507040803659,-33.42188188602872,-3.1185033912416595,3.995024603091002,-1.3527141626442651,104.70737371218576,0.722011601018754,0.7557918204492802,-0.3690074273406243,0.4930940607141495,192.90929564190336,-18.073211873576607,11.03078889408677,6.121152313322526,7.333859777674538
GUIDED_NOGPS,0.4403042793273926,23.13014034797474,194.64931224661746,-18.092131796359038,10.984748244810008,7.654955241879956,212.53953712507948,-33.3929140947547,-3.112378242322809,4.122753836325295,-1.2406877477552432,104.96208512671387,0.7325311441391189,0.8261192774797012,-0.38274776209399786,0.4929514367564336,191.83027057657117,-18.1342677810122,11.26603679432352,6.269076691877416,5.443099053742821
GUIDED_NOGPS,0.4828622341156006,23.50263643036854,193.12470957928593,-18.11111919880041,11.30812101032072,7.876388890792291,212.5779529860448,-33.35866952203347,-3.1050825379665365,4.030276063171084,-1.0840273273006573,105.22143423968842,0.7445980766725144,0.9008311906883185,-0.3938194445396146,0.4927933982258564,190.47586976866262,-18.12587794181242,11.62753734255187,6.577793506248042,4.698253920072751
GUIDED_NOGPS,0.5284402370452881,21.944655759662222,191.89637741482497,-18.121414455499274,11.631316575816298,8.025766712763888,212.6226789322635,-33.318800028565775,-3.0965234699656112,3.9664761199076413,-1.0060116259403022,105.3322267382152,0.7531189126114798,0.9521127492113555,-0.40128833563819444,0.49263607997710906,189.48820312010054,-18.104097643673192,12.000375590573498,6.764138943219848,2.291831180523293
GUIDED_NOGPS,0.5801668167114258,19.334916032434574,190.32772251760437,-18.05189574454579,12.21822157946229,8.121615453261143,212.6740824729297,-33.27297801020568,-3.0866104314143463,3.721583529198242,-0.8658886409310511,105.43140791515296,0.7692244684653742,1.0323855747077588,-0.40608077266305714,0.4923475839945617,186.93497348078398,-17.92571164815175,13.0267518052615,7.172002781725041,0.6302535746439055
GUIDED_NOGPS,0.6256225109100342,22.001752039237285,188.62076942599143,-17.837749222036688,12.969782625144044,8.169064053026057,212.73250844930723,-33.220896069398094,-3.0752550006991335,3.367893282086533,-0.7491604945721216,105.43827908545799,0.7929075722792179,1.1234590412862677,-0.40845320265130286,0.4919774811870784,184.37453018383863,-17.483438374285118,13.882220479597128,7.309004544246861,-0.2291831180523293
GUIDED_NOGPS,0.6648211479187012,25.517609768265306,186.8436319904841,-17.49413584190808,13.717921763244169,8.132079682814396,212.79827940331387,-33.16226668661637,-3.0623709254889766,3.089127221962102,-0.48281054442001015,105.38445719479829,0.8209790326237107,1.220288155204788,-0.40660398414071985,0.4916098536556334,182.94458339903466,-17.073257503287365,14.244793004873873,7.542480739918204,-2.4064227395494577
GUIDED_NOGPS,0.6980807781219482,30.07639740418056,185.04325339669498,-17.098805599831692,14.194400924946608,8.04856380455401,212.87169594610575,-33.096821891799806,-3.0478741067260273,2.862407843643403,-0.3413121567470741,105.33487685161316,0.8491470163467054,1.320695384973554,-0.40242819022770054,0.4913788624841637,181.47397679971684,-16.73972092192259,14.456189290368819,7.495500702890354,-2.9220847551671985
GUIDED_NOGPS,0.7379088401794434,25.11153286594383,183.19704310097876,-16.69924036509335,14.433889263112889,7.951305885231971,212.95303712666137,-33.024312935791194,-3.031682582616118,2.6270339753160625,-0.14039373797681873,105.21762299413156,0.8707149645367238,1.4065004646244716,-0.3975652942615986,0.4912672140771355,180.25715164151944,-16.28474267007009,14.600685494095972,7.493386600484314,-3.552338329811104
GUIDED_NOGPS,0.7766432762145996,25.819999507522592,181.5895412875037,-16.26037876791057,14.636956278642344,7.794556784356655,213.04256080036595,-32.9445099617744,-3.0137165126192973,2.4379824499397493,0.20593943490343453,104.96457814576092,0.893205755110225,1.4869889697277283,-0.38972783921783277,0.4911746636043692,178.8974644134086,-15.756672711739025,14.853994051462243,7.349836560357943,-5.443099053742821
GUIDED_NOGPS,0.822833776473999,21.652155508406768,180.27641454863823,-15.753963445637531,14.85074936917007,7.592746592917084,213.1405039975957,-32.85720167671188,-2.9938981614403626,2.1478682439527534,0.4983870576264887,104.72224986419805,0.9123085483120866,1.5459062918323452,-0.3796373296458542,0.4910776762346948,177.8088964895113,-15.220474955103464,15.097568561951995,7.04349536081547,-6.41712730546522
GUIDED_NOGPS,0.8672647476196289,22.511050761584784,178.60575212567042,-14.95395280453324,15.298249170166157,7.30350193756623,213.24708329230182,-32.76219502278223,-2.972151883019395,2.0109191091125895,0.7727226728571086,104.35574874352433,0.9506573432043584,1.6450654495025434,-0.3651750968783115,0.4908647994734072,174.59127128419556,-13.884710746757214,15.943184897084228,6.895578350345659,-7.849521793292278
GUIDED_NOGPS,0.8993370532989502,31.190213794385574,176.88049810408302,-14.046815912315145,15.834182657256411,6.980032417928182,213.3624951705951,-32.65931484881774,-2.9484041045222953,1.838822461133775,0.9753976508632474,104.11615936781863,0.9940960363015836,1.7556566347917806,-0.3490016208964091,0.49060870661911066,172.84770669177985,-13.035262035084743,16.461794512733007,6.727718554716375,-8.479775367936185
GUIDED_NOGPS,0.9422402381896973,23.312049799911073,175.11051312736635,-13.015083143854632,16.410628794036604,6.708293019316274,213.48691639932983,-32.548403581741965,-2.922583310331315,1.7195173057453408,1.2126078795819688,103.66705393932277,1.0292702782779863,1.8389978667657043,-0.33541465096581374,0.49033339394781605,171.40722675793617,-12.125276649721922,16.82690697229258,6.510858623440086,-9.511099399171666
GUIDED_NOGPS,0.9893994331359863,21.206916776215998,173.28433186273386,-12.117007456497221,16.808108682557524,6.309594963217801,213.62050439468817,-32.42932089800722,-2.894620026035592,1.4640241547223762,1.5936076775946217,103.18133186668649,1.0465739481386294,1.8728658556912139,-0.3154797481608901,0.49014863564570343,169.76655809024624,-11.190483684684988,17.135624562646985,6.254856815615014,-11.000789666511807
GUIDED_NOGPS,1.0348198413848877,22.046160072746005,171.09097073893923,-10.819041807591548,17.169440339981623,5.824389037822457,213.76339759076436,-32.30194339503217,-2.864446802421687,1.3074596770812879,1.823895723032947,102.71257598394851,1.0850987282089362,1.8795596263844516,-0.29121945189112286,0.48998305642879836,166.8420908705382,-9.141365088367722,17.5457894850053,5.572418743301185,-11.287268564077218
GUIDED_NOGPS,1.0804014205932617,21.927332420196358,169.1774550559277,-9.470846007307694,17.4826282815864,5.332689994632583,213.91571580814897,-32.166164262639334,-2.831998199464114,0.9838056137315331,2.2378973942895146,102.17697986999279,1.1177555312650138,1.8874609435970469,-0.26663449973162917,0.48984268675947473,165.02369286913793,-8.080689248870355,17.766470797106898,5.372535792689973,-12.146705256773453
GUIDED_NOGPS,1.1226656436920166,23.66668171353767,167.34389076864082,-8.04192982438187,17.763091334451644,4.805048216111391,214.07756062251312,-32.02189295449271,-2.7972107703158766,0.7650527973060075,2.550798178564731,101.66212021035723,1.1549764241624119,1.8962236237331715,-0.24025241080556958,0.4897198489476162,163.6798852553454,-6.903735135907518,17.977013721242713,5.026972054237675,-12.3185925953127
GUIDED_NOGPS,1.1621363162994385,25.34154225398916,165.16725524450572,-6.538571797491943,18.090547925036407,4.3056159786753065,214.24901573319266,-31.86905485953521,-2.7600230452990018,0.5472232837180501,2.8192318700222248,101.12401058678694,1.195573947856464,1.9045960899492511,-0.21528079893376534,0.4895747145148323,160.52404913726076,-4.631291007697936,18.528159256759597,4.123602457602175,-12.547775713365029
GUIDED_NOGPS,1.2008848190307617,25.813325455731572,162.93194556385674,-5.012275966027532,18.481005727897305,3.833394835426917,214.4301473317725,-31.707590973426324,-2.720375515895075,0.3093404414486411,2.984754247481491,100.70723927382194,1.2353799785321913,1.9129334484729843,-0.19166974177134588,0.48939930937810383,158.59000968700133,-3.5018017544771203,18.937844205689583,3.7761516774235275,-12.375888374825783
GUIDED_NOGPS,1.2377076148986816,27.163246141790417,160.94698764640975,-3.4887437815038376,18.91012386341541,3.3764218431682274,214.62100447067078,-31.537457569979576,-2.678210618735772,0.17790865871481956,3.0669824680124513,100.25549739230647,1.2757254447879245,1.9213937124505298,-0.16882109215841137,0.48920583275892443,156.9173012833032,-2.3331385823364355,19.26436812779703,3.50571931480971,-12.261296815799618
GUIDED_NOGPS,1.275071382522583,26.771412705606014,159.0137347528353,-2.318768065532293,19.2415008359916,2.9553624775843708,214.8216194317231,-31.358625872600115,-2.633472719593396,-0.051598490662089436,3.182019929108391,99.76797897991847,1.2933971355594798,1.9306551230617426,-0.14776812387921853,0.4890625132222075,155.35742840126557,-1.1213638597833018,19.522290174488155,3.1953060816710206,-11.745634800181877
GUIDED_NOGPS,1.3168754577636719,23.925752260346254,156.92019236313655,-1.1622340390198176,19.50055624671761,2.5400136869073604,215.03200809476672,-31.171081725722257,-2.586108097371411,-0.13069453585007007,3.1961042060637803,99.35970442228096,1.315875422224176,1.9397192711922342,-0.12700068434536801,0.4889566678279555,153.2121733068518,-0.03219967493969499,19.71501043786762,2.890125856932002,-11.287268564077218
GUIDED_NOGPS,1.3549573421478271,26.265124521732595,154.847086677487,0.363398851782041,19.618637044017685,2.0953106361449065,215.25217030622494,-30.97482526624702,-2.5360649280949734,-0.30381476504924787,3.197117635381881,98.99808005667462,1.3638105361232868,1.9487992490993609,-0.10476553180724534,0.48892264901394367,150.15852070901292,2.2437600900691406,19.61861051969724,2.3230149133822238,-10.485127650894066
GUIDED_NOGPS,1.394547700881958,25.263239049775937,152.7842564735028,1.8433738017481998,19.582242686588952,1.7101848679729375,215.48209024769113,-30.76987059497969,-2.4832932689014706,-0.5220004089693979,3.3155343325696847,98.60616380209929,1.3998718341040564,1.9573314719164001,-0.08550924339864688,0.4889672320222548,148.2758586670803,3.3185609901151745,19.41310710220196,2.0646649327590865,-10.198648753328653
GUIDED_NOGPS,1.4324498176574707,26.39138724068283,150.64990754786103,3.28100840025194,19.413354486984726,1.3479223120839385,215.72173680451309,-30.55624544806734,-2.4277450420310527,-0.6343419196947396,3.4623966332164757,98.14621886339063,1.4369813277307069,1.9656437197281353,-0.06739611560419694,0.4890794502354921,146.2455566550944,4.280704120571524,19.208345839054935,1.8553552007313385,-8.708958485988513
GUIDED_NOGPS,1.4816434383392334,20.331090644692196,148.72277003740257,4.292094556567929,19.2118099150568,1.043561799260337,215.97106393437724,-30.333990868436405,-2.3693740188171653,-0.592163473857501,3.4230901752035217,97.78344702600374,1.4457637208012235,1.9733371835126718,-0.05217808996301685,0.489209408033063,145.72174084897318,5.277018559017108,19.01397680391347,1.3874959875716542,-7.219268218648373
GUIDED_NOGPS,1.5247809886932373,23.18717003245084,146.54366270729082,5.556899996147273,18.952925011116104,0.688350546946971,216.2300110358929,-30.10316087723022,-2.3081358036770876,-0.5182944977361371,3.4452426131159886,97.5144400255428,1.481899246911466,1.9820525811851768,-0.03441752734734855,0.4893694695926034,142.31663665629299,7.112977308853204,18.636452390379866,0.7603635135635614,-5.614986392282068
GUIDED_NOGPS,1.5636465549468994,25.734610358135512,144.69627520488535,6.805765670705746,18.70588079000832,0.4431812248253672,216.49850331717641,-29.863822145246555,-2.2439878181024624,-0.4791346219860739,3.5269641189878986,97.31662408680089,1.5159186284989157,1.9882146999632149,-0.02215906124126836,0.4895250656959446,140.9215831969857,8.027301144246945,18.467213175731587,0.48366433613924187,-4.870141258611998
GUIDED_NOGPS,1.6082446575164795,22.426794708643904,142.87185769977094,7.991080749533733,18.46322960474731,0.27557275524516106,216.77645216443545,-29.616053664375173,-2.176889284649835,-0.40836911306883455,3.514487070921578,97.15851886789343,1.5442937118060507,1.9925493807323402,-0.013778637762258053,0.48967994055530145,139.15377114150812,8.832963795501069,18.286023248130427,0.6126967982450111,-3.4377467707849396
GUIDED_NOGPS,1.6495118141174316,24.23738666635847,141.1630241265237,8.813592539167042,18.27103876367732,0.11039723584293208,217.06375551055334,-29.359946419035374,-2.1068012109311827,-0.3263679963277771,3.5479106016250355,97.0371942176665,1.5559828743618973,1.9969982289040074,-0.005519861792146604,0.48981108001269574,137.70138878885834,9.580512677753132,18.059879867169908,0.42461105509757147,-3.0366763141933633
GUIDED_NOGPS,1.6869051456451416,26.74734076473739,139.29396029140207,9.579377441280018,18.0579982679305,0.0005174469878842999,217.36029820367304,-29.095603057613555,-2.033686373604452,-0.19505354076924905,3.4683662185510666,96.96452100489756,1.5725169850053105,1.9999857982759406,-2.5872349394215e-05,0.4899541576792325,136.37642167336497,10.324655850585872,17.828091688491124,0.14839507568102306,-1.6615776058793874
GUIDED_NOGPS,1.7253055572509766,26.04915070024532,137.56243242383852,10.487793957543095,17.72198612903878,-0.05454051463257756,217.66595237578164,-28.82313756390073,-1.9575093023640922,-0.07008693229124126,3.4358011572489153,96.93655821043552,1.5992207785697035,2.0015214103743824,0.0027270257316288782,0.49016025228429855,133.65899731847523,11.558213344290303,17.27798683145527,0.11185851467475061,-0.5729577951308232
GUIDED_NOGPS,1.7663824558258057,24.346703507203642,135.79964151090263,11.316689558717249,17.368667580637744,-0.07475895095711604,217.98057781129447,-28.542674928530097,-1.8782362639315884,-0.01292239774454678,3.39077228137196,96.9444675694944,1.6184526350871014,2.0021100374785545,0.0037379475478558025,0.49037654807771536,132.10762863230627,12.06719948127559,16.999924221966797,0.1640300411121558,0.34377467707849396
GUIDED_NOGPS,1.8087944984436035,23.61883738871401,134.19797443096894,12.065416887893434,16.987498818614196,-0.07510509906368351,218.30402231563926,-28.25435082041458,-1.7958352460459976,-0.004071326353856507,3.3742299900890123,96.97594108118982,1.6356362672226676,2.002142324262747,0.0037552549531841757,0.4906083329676699,131.14543574183975,12.570837838114432,16.684585402420485,-0.07534551615520968,0.6875493541569879
GUIDED_NOGPS,1.840230941772461,31.78442115473511,132.60548595326054,12.67755956934645,16.590215214793236,-0.050814547947375686,218.6361220838405,-27.958311258184374,-1.7102759414544821,0.05998158737292805,3.2549710451991816,97.0138691216509,1.648941398148887,2.0014616283259126,0.0025407273973687846,0.4908497544218761,129.73894640031637,13.394641388649351,16.0861360199924,-1.0908655755837202,1.776169164905552
GUIDED_NOGPS,1.8856489658355713,22.024049316852373,131.27799089865078,13.120040205137704,16.285619147468438,-0.001635537668351554,218.97670206910365,-27.654712281624494,-1.6215297319028432,-0.02347221188701327,3.122625030972783,97.15351916942099,1.6513627908047348,2.0000471381903484,8.177688341757771e-05,0.49104642556031436,129.73894640031637,13.394641388649351,16.0861360199924,-1.0908655755837202,2.635605857601787
GUIDED_NOGPS,1.925384521484375,25.168944949173696,130.0600382858973,13.601419197632927,15.891725105252386,0.09762419314832664,219.3255763513993,-27.343719623112325,-1.5295696721260565,-0.03838132756617429,2.888779844359057,97.30590068980396,1.6632735400947622,1.9971631069789064,-0.004881209657416332,0.4912893526113108,127.5692342547077,14.014974815600102,15.502903275772322,-0.9495174643522688,3.724225668350351
GUIDED_NOGPS,1.9657206535339355,24.798117513509677,129.15235941037756,13.80819700661651,15.697314190512364,0.22515155564736372,219.68254850604745,-27.02550837905516,-1.434370473838804,-0.037351116259839515,2.7011050289873237,97.50105285476957,1.6582734236974528,1.9934681638715297,-0.011257577782368187,0.4914341576678244,127.5692342547077,14.014974815600102,15.502903275772322,-0.9495174643522688,4.640958140559668
GUIDED_NOGPS,2.0089111328125,23.15798075277307,128.11081933614764,14.144936540046393,15.25004306364768,0.38331448703834886,220.0474119723018,-26.700262681327757,-1.3359084897260116,0.02537220509546686,2.5484635345290556,97.72795173899739,1.6673671927118774,1.9888004729026998,-0.019165724351917445,0.49170702422331314,125.93773537069009,14.404859988938991,14.744322639398355,-1.008836280957624,5.156620156177409
GUIDED_NOGPS,2.0452706813812256,27.510668302057574,127.14496133680309,14.316528254452805,14.844511456437013,0.5747558244215674,220.41995042193378,-26.36817536870987,-1.2341616974333816,0.027870213382266796,2.4781104516438086,97.87060707000228,1.6642874531453338,1.9832045498078064,-0.02873779122107837,0.4919606634230648,124.9096564035935,14.529749958819346,14.28630845414032,-0.7028105820503328,5.557690612768986
GUIDED_NOGPS,2.0850706100463867,25.132749301918675,126.04485367974954,14.546808888173866,14.296306302449764,0.751109814221975,220.7999381278171,-26.029447658323818,-1.1291096835579246,0.26787801821591667,2.147764083567911,98.16774078946534,1.6681854222247434,1.9779599653364204,-0.03755549071109875,0.49228729200699617,124.23840811504859,14.705816716763287,13.858287813810573,-0.6817403454672899,6.302535746439056
GUIDED_NOGPS,2.118211269378662,30.179191250539645,124.98614526857072,14.677036940663205,13.71761262512639,0.9710497197075165,221.18714033251158,-25.684288817072026,-1.0207336276384997,0.34728574414563207,2.049557489247352,98.39700974933517,1.6648569694576023,1.9714981018482982,-0.04855248598537583,0.49263082687361753,122.27569219881367,14.79554414640701,13.00824160742823,0.047735664038214054,6.245239966925974
GUIDED_NOGPS,2.15352201461792,28.32534644371809,123.92743685739192,14.765635003192427,13.291590342889029,1.1685203693455442,221.58131361684784,-25.33291583307455,-0.9090162861463416,0.5427112500801691,1.8334276789065227,98.64514369169255,1.66078364635686,1.9657155273467093,-0.05842601846727721,0.49289969668548234,122.27569219881367,14.79554414640701,13.00824160742823,0.047735664038214054,6.531718864491385
GUIDED_NOGPS,2.194329261779785,24.510463234048025,122.91992707099227,14.86728796758903,12.721433326437525,1.373929211256208,221.9822062685111,-24.975553087106647,-0.7939419764755997,0.6764031317381772,1.8437237621934939,98.87454925534577,1.6591750124764455,1.9596424858513737,-0.06869646056281041,0.49324231234854343,120.90018643869195,15.010775609953098,12.147816764456064,0.5574719883287429,6.245239966925974
GUIDED_NOGPS,2.2319223880767822,26.651823045738176,122.11803307801196,14.93903178877106,12.434625045446802,1.6047809946887313,222.38955865062573,-24.612432024036327,-0.6754965609338712,0.8478932269021832,1.815541547904375,99.13117995303067,1.654751814237782,1.9528741557163376,-0.08023904973443657,0.49344493919680965,120.90018643869195,15.010775609953098,12.147816764456064,0.5574719883287429,6.016056848873644
GUIDED_NOGPS,2.2734906673431396,24.044117815663657,121.22549822456624,15.094647622538483,11.896308893484429,1.79770725820173,222.8031035703393,-24.243790824261875,-0.5536674307327343,0.9424657870583251,1.7906591687580184,99.36499098869854,1.6556771033605437,1.9470757791331539,-0.0898853629100865,0.4937750118378914,119.77573384781999,15.262391647709283,11.393293151541107,0.6413451688059411,5.099324376664327
GUIDED_NOGPS,2.3127176761627197,25.497598755000062,120.53354819794171,15.215694795887018,11.56859564729269,2.00498801259886,223.22256664740686,-23.869874075149404,-0.42844348997828297,0.9588792652423946,1.7942287963729964,99.48346061985241,1.6521167908538115,1.9409737845637338,-0.10024940062994302,0.4940014804313645,118.8159420656911,15.373917129998699,11.164677025880854,1.0144732414800615,4.92743703812508
GUIDED_NOGPS,2.3433098793029785,32.70131996475936,119.60874644576673,15.444104871675648,11.197772446567157,2.179321200164449,223.6476666827752,-23.49093244247044,-0.2998151396616633,0.9950340178402108,1.7828252619451312,99.57279949419618,1.6537152320664423,1.9356673191305505,-0.10896606000822245,0.49425120620688556,117.65168343793873,15.696005837318996,11.035347162279466,1.1346585637307811,4.354479242994256
GUIDED_NOGPS,2.382922649383545,25.24894352207467,118.95904584561609,15.588642934878886,11.078457116813276,2.28328805659592,224.07811602716706,-23.10722234183941,-0.16777426164960074,1.0167348094938107,1.8557461757931857,99.82160279509223,1.6473937231542515,1.9327793781916534,-0.11416440282979601,0.49437688431076854,117.65168343793873,15.696005837318996,11.035347162279466,1.1346585637307811,3.552338329811104
GUIDED_NOGPS,2.420168161392212,26.855576898450504,118.12648897444573,15.776968965725624,11.05079733851858,2.4108263928364586,224.51362094966532,-22.71900561015122,-0.03231420267494656,1.1004892571391516,1.797009964025661,99.9382282751702,1.64478912288124,1.9290426601739772,-0.12054131964182294,0.4944584442294032,116.73740208284019,15.938895222538912,11.081697690996767,1.5841429470359998,2.864788975654116
GUIDED_NOGPS,2.4562344551086426,27.73240237500165,117.31653488120291,16.070672021993342,11.058415042831685,2.5128693470052204,224.9538820062974,-22.32654917701882,0.1065702416727996,1.2568430661330274,1.8453753873121674,100.04148707504245,1.64695548728547,1.9258680356211235,-0.12564346735026102,0.4945240775994206,115.72596338160594,16.57711500612214,11.058200275218782,1.4895948840480742,2.635605857601787
GUIDED_NOGPS,2.50026798248291,22.71476460999399,116.55355438386573,16.479133034144322,11.111274046522034,2.591727334255282,225.3985944086192,-21.930124736210693,0.2488828429569523,1.4080591854888784,1.8595258317251415,100.15807840417457,1.653173076778914,1.923199796470207,-0.1295863667127641,0.49456880439821743,115.00103957900514,16.92138887377194,11.19392417335051,1.6860054112558345,1.8907607239317168
GUIDED_NOGPS,2.534101963043213,29.564834916965065,115.8393769549931,16.92765301938505,11.17056110478287,2.6790348972541946,225.84744839229958,-21.53000841708848,0.3946259559031007,1.5325930641303689,1.865198303830837,100.2197072010556,1.6594856482218507,1.9202481643778146,-0.13395174486270975,0.4946120324255601,114.08079629357547,17.2844551782611,11.259558865779276,1.7519364927848642,1.8334649444186344
GUIDED_NOGPS,2.5862700939178467,19.171770083419037,114.97809697076157,17.314076440096073,11.254132491794207,2.7345165637096063,226.30012958570452,-21.12648045604446,0.5438005344085823,1.7244246899422893,1.7798487935708867,100.32178437820144,1.6600632103320954,1.9185240015761156,-0.13672582818548032,0.4946448340213072,113.34528351678108,17.736385268255205,11.308914436252792,1.9559220460928515,1.7188733853924698
GUIDED_NOGPS,2.622682571411133,27.466350592965615,113.99084922435023,17.889072622712074,11.307419731125078,2.8333072296031796,226.7563193784813,-20.719824867939124,0.6964061475519419,1.7886487452645077,1.6041842255243866,100.40323438405383,1.6746089796160426,1.914778570244195,-0.14166536148015899,0.49469449320821346,111.80116335078344,18.64637742161994,11.353785891343122,2.045389344640114,2.3491269600363753
GUIDED_NOGPS,2.660176992416382,26.677250292576197,113.07682243961327,18.50128247001699,11.309772246692338,2.8977665320666013,227.21569529014278,-20.31032911753873,0.8524409956024028,1.829980994696605,1.5561906206608225,100.4591599729779,1.6860997699374916,1.9122035549613652,-0.14488832660333006,0.49477133437445503,111.15582945792112,19.121084720175844,11.266616412481055,2.050237154876342,1.8907607239317168
GUIDED_NOGPS,2.6959729194641113,27.944142415520734,112.140878128578,19.092764972883916,11.27010220113835,2.962633524504152,227.67793133865166,-19.898283790952828,1.0119019260293278,1.7487211669239056,1.4907625310539778,100.55199590417672,1.6956727289998308,1.9096866214767776,-0.1481316762252076,0.4948708998624455,110.32131802382881,19.510832776856,11.189904299590827,2.171762562864984,1.8907607239317168
GUIDED_NOGPS,2.7287092208862305,30.554249165901773,111.25081591977263,19.511210100227768,11.143719812881836,3.006404473661693,228.1426984090046,-19.483982267071845,1.1747844495116908,1.776924618832475,1.3120969486409033,100.58008847223297,1.6938967400608258,1.9084065689259013,-0.15032022368308465,0.4950155323183149,109.63048524954867,19.901712803651492,10.974638726573584,2.0710451723428065,1.0313240312354819
GUIDED_NOGPS,2.7634220123291016,28.813959399580945,110.3979795117657,19.91812305419427,11.038653334952736,3.0301526168240502,228.6096646218166,-19.06772038900457,1.3410827559475358,1.8065803397133182,1.2598016052607008,100.60583828540392,1.6945420992746485,1.9076276874877187,-0.15150763084120253,0.4951512147104974,109.08110147674631,20.34182358207536,10.95141697869376,2.035566854159555,0.6302535746439055
GUIDED_NOGPS,2.796759605407715,30.001316128293897,109.66332753862775,20.305288881869938,10.930353948921343,3.0400235401902274,229.0784957019051,-18.649796135515757,1.5107897304634452,1.8229578526825394,1.061324632273181,100.60164454925354,1.6936443638533487,1.9073655275545636,-0.15200117700951138,0.49529021789077105,108.1279034850937,20.672330259883005,10.865006141496647,2.3211820062746398,-0.11459155902616465
GUIDED_NOGPS,2.8386919498443604,23.859334558258862,108.8694600999834,20.64329644718532,10.802664813503744,3.020146889569565,229.5488553468743,-18.23050929246366,1.6838969694240102,1.718971851107092,1.025778300120025,100.57818284945455,1.6895632375157608,1.9082039519294214,-0.15100734447847827,0.49544061607796014,107.18649226469924,20.91573549959763,10.591571320320792,2.400507267072811,-1.3178029288008934
GUIDED_NOGPS,2.871953248977661,30.072300213659894,108.1438797299995,21.011305508303156,10.6140121828438,2.9669737337331346,230.02040559569934,-17.810161124237553,1.860394796441292,1.72010854399537,0.9186677004427082,100.50827586329946,1.6865061079886658,1.910024975786297,-0.14834868668665674,0.49562319130679877,106.69341617390936,21.445850765428876,10.38545908671393,2.405970896308034,-2.4064227395494577
GUIDED_NOGPS,2.911971092224121,24.99123523067848,107.40385569699215,21.39872012846997,10.35090949966204,2.8862235164111856,230.49280719731055,-17.389054045195316,2.0402722783842853,1.686420663626692,0.7812661722917368,100.32963909574696,1.6836686511659564,1.9126855528112534,-0.14431117582055927,0.4958446813893611,105.93036508451185,21.834574120383433,10.075698091951361,2.502014117222984,-3.2658594322456924
GUIDED_NOGPS,2.9462881088256836,29.14492189671466,106.50041045169306,22.045710542347148,9.992222722445215,2.7534342068906934,230.96571997917772,-16.96749129110093,2.2235172413883886,1.7110439224714111,0.6629136148491078,100.19110919900075,1.6946699459502197,1.9162824670925156,-0.13767171034453468,0.4961156472594716,104.56387525025077,22.856706741229164,9.515510988670316,2.526789526910619,-4.698253920072751
GUIDED_NOGPS,2.982762336730957,27.425582277322242,105.78760480472447,22.51599586761391,9.702240023097344,2.6028035331371444,231.43880321589424,-16.54577659056211,2.410116286864872,1.6823357836162014,0.6572154228123189,100.00337461947379,1.6879542348286876,1.9212835419929677,-0.13014017665685723,0.4963539381318838,104.56387525025077,22.856706741229164,9.515510988670316,2.526789526910619,-5.500394833255903
GUIDED_NOGPS,3.0170931816101074,29.133585241164702,105.04210603349966,23.30893233881,9.387646838444851,2.415938697204485,231.9117159977614,-16.124213836467735,2.6000548075103307,1.779862240505815,0.5660118001034329,99.78668003786596,1.7046107559611232,1.9263668203694064,-0.12079693486022425,0.49660620398453276,103.45899840857525,24.213383533971705,9.131918537993883,2.1635169439237814,-6.130648407899809
GUIDED_NOGPS,3.0527329444885254,28.06643380040417,104.48013600480803,24.016670603350665,9.25605550554085,2.2119539866585387,232.38411759937264,-15.70310675742548,2.793317003316167,1.7715327180912788,0.6005561221610071,99.58829719342293,1.7075704878877234,1.9326038838612578,-0.11059769933292694,0.49676863074888766,103.8835660304512,24.979921534851158,9.120736989958312,1.2431018766696837,-6.703606203030632
GUIDED_NOGPS,3.095811605453491,23.215661963723313,104.0707761939959,24.72440886789133,9.124464172636849,1.9863318764717484,232.85566784819764,-15.282758589199382,2.9898858975780485,1.7184969395163645,0.7563793108337376,99.26515411360046,1.7109776274489323,1.9394939031079552,-0.09931659382358743,0.4969327108624706,103.8835660304512,24.979921534851158,9.120736989958312,1.2431018766696837,-6.990085100596044
GUIDED_NOGPS,3.132615804672241,27.17803106390975,103.61415419284029,25.485488885842045,9.029238982493382,1.67803221120947,233.32602749316686,-14.863471746147276,3.1897433529053707,1.6111524058599747,0.7809825059977697,98.9724600170979,1.716895344989407,1.9488664748673767,-0.08390161056047352,0.497080252185206,102.28076524447269,26.49662358782385,8.846242967563482,-0.06058138382975642,-7.906817572805361
GUIDED_NOGPS,3.1621973514556885,33.8157601947853,102.92044759977617,26.22884487778337,8.947978223079176,1.412564209816847,233.79485857325537,-14.44554749265847,3.392870087230726,1.4873320685433389,0.9182031408574415,98.84270691343518,1.7226745133985557,1.9569258795182856,-0.07062821049084235,0.49722244593207576,101.09534228493024,27.209989510675133,8.876954711715689,0.7261082327053003,-7.62033867523995
GUIDED_NOGPS,3.205179452896118,23.268724862001054,102.49289116821721,27.313750544270633,8.870393733722821,1.1732430104128193,234.26182478606736,-14.029285614591195,3.599245689819373,1.140811705791145,1.1407120277179452,98.39679118328172,1.7455619406553176,1.9638394162883264,-0.05866215052064097,0.49736442597804825,101.32121625078054,28.23463853431295,8.887983521889247,-0.3751999507119166,-8.479775367936185
GUIDED_NOGPS,3.2351720333099365,33.35112355083412,101.90489194472063,28.23576190251792,8.896583443271604,0.8289148455461454,234.72659185642033,-13.614984090710202,3.8088486372786976,0.9188886143736757,1.3296731598094618,98.16313041177558,1.7556294838620718,1.9743923804640318,-0.04144574227730727,0.49745613259700355,100.94356991296831,29.262657662565704,8.924812096209836,-1.4409494645941123,-7.906817572805361
GUIDED_NOGPS,3.283977746963501,20.5308258236944,101.05895172342855,29.140027275376102,9.027977621670361,0.5837947604552283,235.18882790492918,-13.202938764124312,4.0216563095676765,0.6688053466993314,1.726387408833316,97.78729242250647,1.7623708190053062,1.9819394487343933,-0.029189738022761414,0.49749683934394867,99.65386492399078,29.92278562924969,9.271137246911962,-1.5576370336344354,-8.193296470370772
GUIDED_NOGPS,3.322897434234619,25.65386309145178,100.34791194436154,30.280137834555045,9.44275727588017,0.19855803114548634,235.64820381659067,-12.793443013723916,4.237645006006349,0.5231221608188668,1.8293982941830385,97.5364878761836,1.7853783167859674,1.9938007895635765,-0.009927901557274318,0.49739744386506307,98.72556634913768,31.654970211849772,10.132322484518678,-3.7088413529333195,-7.276563998161455
GUIDED_NOGPS,3.360168218612671,26.837190553276983,99.48460935932125,31.261225813568714,9.993090343573854,-0.09963166726642535,236.10439360936743,-12.386787425618586,4.456789961285282,0.5053205534076979,1.938021780761513,97.21384340017053,1.7962785521635303,2.0031205245626906,0.0049815833633212675,0.4972318498088557,96.77882935972883,32.205921599606704,10.575811299290885,-2.203307461525384,-7.047380880109126
GUIDED_NOGPS,3.3964149951934814,27.595557660929522,98.37259078127093,32.23869036630643,10.57273970193984,-0.37124268400621296,236.55707480277238,-11.983259464574544,4.679065361475032,0.5359799385705628,1.9729210592125164,96.96989636377435,1.8106443056876642,2.011689837018603,0.018562134200310648,0.4970531628297676,95.76112336052898,32.85517928746284,11.010085322009923,-2.5993571045982264,-6.990085100596044
GUIDED_NOGPS,3.430826425552368,29.065347248208667,97.1255009652132,32.87259434621081,11.004762222550212,-0.6390229205247406,237.00592878645276,-11.58314314545234,4.904444360035614,0.5943842991939601,2.051797791295116,96.71946064766666,1.803954721501567,2.0199947979126724,0.03195114602623703,0.4969498410687427,94.70812083267968,33.55668215156292,11.428390046349797,-3.0028363210320776,-7.276563998161455
GUIDED_NOGPS,3.464001417160034,30.155323891005825,95.81372658058801,33.514948902173266,11.325722885693663,-0.8674222680178699,237.45064118877457,-11.186718704644214,5.13289909382596,0.6452122724805207,2.0673958089253097,96.52157640703307,1.8068626353284343,2.027124529026215,0.0433711134008935,0.49690358810406615,93.09499300086486,34.13298526749408,11.538693288721237,-2.343963339208429,-6.589014644004467
GUIDED_NOGPS,3.5010592937469482,26.991067981157816,94.36561851848163,34.12429106346755,11.521209958122617,-1.0987158881128913,237.8909022454066,-10.794262271511819,5.364400699113405,0.6783062999173779,1.9195550836799142,96.26812174731222,1.8067001352154217,2.034275821751218,0.05493579440564457,0.4969215953704954,91.48502603860578,34.6832057713457,11.596546539296783,-2.08473675896947,-7.219268218648373
GUIDED_NOGPS,3.5304176807403564,34.07343861701436,93.16560394332308,34.75395126317148,11.583471655211826,-1.3629318113581523,238.3264071679049,-10.406045539823644,5.598919327583122,0.6878323327362829,1.9092026513322904,96.04909807119743,1.809394978299743,2.042471365546719,0.06814659056790762,0.49700772383618563,90.77875648393615,35.445662750674686,11.615175137617431,-2.1617694709068473,-7.333859777674538
GUIDED_NOGPS,3.568026542663574,26.592175087334446,92.10310269945873,35.50665707155445,11.57207748687776,-1.5875181957726345,238.7568565122968,-10.022335439192588,5.836424162347617,0.7174964312710301,2.068765261853897,95.77056978703348,1.8180719030232912,2.049599983704563,0.07937590978863174,0.4971321733377349,90.44861714120717,36.39110269264299,11.504510783719041,-3.840197455847999,-7.677634454753031
STABILIZE,3.6133432388305664,22.07330923022677,90.7646418114945,36.16034706163374,11.477551512569727,-1.8726928578139577,239.1819565476651,-9.643393806513629,6.076883433956176,0.7301723552360746,2.2822219069083123,95.37131107910038,1.816671660923476,2.058298525666896,0.0936346428906979,0.49729966596069325,88.01581639285848,36.644275741583556,11.312968616372684,-1.131102130964507,-8.537071147449266
STABILIZE,3.650786876678467,26.711228856735275,89.53763374301641,37.15358844444426,11.312324668447209,-2.252543028409694,239.60141962473267,-9.269477057401161,6.320264436404338,0.7160682280434099,2.403195229279816,95.05537384885227,1.7907993865155105,2.0688404613402485,0.1126271514204847,0.49750396988397855,86.95995265847446,38.42538689910624,11.119494605249875,-3.4808893260641582,-9.281916281119337
STABILIZE,3.682502269744873,31.536831657856943,88.63261906699015,37.831683179932014,11.18398594229082,-2.6040614484412172,240.01496454444623,-8.900835857626717,6.566533543143363,0.5379591993259856,2.4716115266485414,94.7961203585261,1.7848837961810602,2.0790287580447013,0.13020307242206086,0.49769127380042627,86.95995265847446,38.42538689910624,11.119494605249875,-3.4808893260641582,-10.427831871380983
STABILIZE,3.7171669006347656,28.85737481595641,87.8688583018978,38.42538689910625,11.119494605249884,-2.9181268363579496,240.42231692656085,-8.53771479455638,6.815656223089691,0.14064975000877522,2.5189131479718188,94.32123779610262,1.7802452673153681,2.088036939751468,0.1459063418178975,0.4978480808089199,86.95995265847446,38.42538689910624,11.119494605249875,-3.4808893260641582,-11.287268564077218
STABILIZE,3.751591682434082,29.058500762089512,87.17112540535126,38.42538689910624,11.119494605249884,-3.3002199912018138,240.82320957822412,-8.18035204858851,7.0675970566344155,-0.1922656229686938,2.304659078331804,93.89269806719768,1.7383384975089822,2.096755618711977,0.1650109995600907,0.49797405122569227,86.95995265847446,38.42538689910624,11.119494605249875,-3.4808893260641582,-12.605071492878112
STABILIZE,3.7837164402008057,31.136265106749413,86.95995265847446,38.42538689910624,11.119494605249884,-3.6899744024047094,241.21738286256038,-7.828979064591017,7.322319751652737,-0.4806286725061613,2.2021225709642804,93.46572245161268,1.7094863697918314,2.105872387459455,0.1844987201202355,0.49810141257320145,86.95995265847446,38.42538689910624,11.119494605249875,-3.4808893260641582,-12.261296815799618
STABILIZE,3.813508987426758,33.57511427039056,86.95995265847446,38.42538689910624,11.119494605249884,-4.0583444496506775,241.6045850672549,-7.483820223339244,7.579787159513446,-0.5221252200043094,2.177332399371719,93.31226859153,1.6815418405579026,2.1139915154043427,0.20291722248253388,0.4982301462771318,86.95995265847446,38.42538689910624,11.119494605249875,-3.4808893260641582,-12.375888374825783
STABILIZE,3.8499510288238525,27.443167840037688,86.95995265847446,38.42538689910624,11.119494605249884,-4.404802466223513,241.98457277313815,-7.145092512953177,7.839961291088375,-0.6305223498448216,1.7533944036983695,92.62018601350012,1.6571039565965315,2.121362528238141,0.22024012331117568,0.49836023334291923,86.95995265847446,38.42538689910624,11.119494605249875,-3.4808893260641582,-12.605071492878112
STABILIZE,3.883397340774536,29.90697707583158,86.95995265847446,38.42538689910624,11.119494605249884,-4.833763506127188,242.35711122277016,-6.813005200335304,8.102803332761862,-0.5990216241144285,1.6026728327271096,92.25349364752964,1.6272271351329652,2.1300051224499077,0.24168817530635944,0.498491654363756,86.95995265847446,38.42538689910624,11.119494605249875,-3.4808893260641582,-12.490479933851947
STABILIZE,3.9102792739868164,37.21290734710898,86.95995265847446,38.42538689910624,11.119494605249884,-5.214492006329882,242.7219746890245,-6.487759502607865,8.368273662440245,-0.5755610982541983,1.5272188791923325,92.03421725441555,1.5981343154329182,2.1369684750654705,0.26072460031649414,0.49862438952859517,86.95995265847446,38.42538689910624,11.119494605249875,-3.4808893260641582,-12.261296815799618
STABILIZE,3.946498155593872,27.61681646090535,86.95995265847446,38.42538689910624,11.119494605249884,-5.499670436161951,243.07894684367267,-6.169548258550726,8.636331865561285,-0.28583407861577775,1.7047322940697904,91.4943249514719,1.5775549226068957,2.141986405722873,0.27498352180809754,0.4987584186301557,86.95995265847446,38.42538689910624,11.119494605249875,-3.4808893260641582,-11.459155902616464
STABILIZE,3.980675220489502,29.262245787839678,86.95995265847446,38.42538689910624,11.119494605249884,-5.89474139636792,243.4278211259683,-5.8585556000385495,8.906936751103663,0.034602952294687864,1.9856264917292095,91.15636036115049,1.549990894183562,2.1486104852663237,0.294737069818396,0.4988937210729269,86.95995265847446,38.42538689910624,11.119494605249875,-3.4808893260641582,-11.3445643435903
STABILIZE,4.017026901245117,27.513194749650697,86.95995265847446,38.42538689910624,11.119494605249884,-6.252672415676195,243.76840111123144,-5.554956623478667,9.180046367596425,0.4517910268609857,2.4846828011726534,90.73720531216516,1.5249111154095263,2.1541855288748604,0.3126336207838098,0.49903027588117327,86.95995265847446,38.42538689910624,11.119494605249875,-3.4808893260641582,-11.058085446024888
STABILIZE,4.05338978767395,27.50507567610104,86.95995265847446,38.42538689910624,11.119494605249884,-6.631260000489638,244.10050087943273,-5.258917061248461,9.455618019128469,1.0338774103717792,3.2735845913479356,90.365704493019,1.4988547752607582,2.159706230185763,0.3315630000244819,0.4991680617069393,86.95995265847446,38.42538689910624,11.119494605249875,-3.4808893260641582,-11.287268564077218
STABILIZE,4.088053464889526,28.86690800974549,86.95995265847446,38.42538689910624,11.119494605249884,-7.000570893288893,244.4239453837775,-4.970592953132972,9.733608281358002,1.6137424349375846,4.275231833130306,89.97190310623273,1.4731209500312048,2.1646327262283114,0.35002854466444466,0.49930705683805404,86.95995265847446,38.42538689910624,11.119494605249875,-3.4808893260641582,-11.459155902616464
STABILIZE,4.127113342285156,25.60781488491361,86.95995265847446,38.42538689910624,11.119494605249884,-7.3832276402928025,244.73857081929032,-4.6901303177623035,10.013973017522,2.128497400579774,5.511251893639786,89.47319001379509,1.4482680113243773,2.169527755102798,0.36916138201464016,0.49944723920613604,86.95995265847446,38.42538689910624,11.119494605249875,-3.4808893260641582,-12.948846169956605
STABILIZE,4.157127857208252,33.34767640628106,86.95995265847446,38.42538689910624,11.119494605249884,-7.834980908915826,245.04422499139895,-4.417664824049474,10.296667394445668,2.309781079879079,6.340191398956036,89.09558300553093,1.4183928788614795,2.174685521964217,0.3917490454457913,0.4995885863945979,86.95995265847446,38.42538689910624,11.119494605249875,-3.4808893260641582,-13.750987083139758
STABILIZE,4.188819169998169,31.55011621696843,86.95995265847446,38.42538689910624,11.119494605249884,-8.189099144529811,245.34076768451862,-4.153321462627652,10.581645898551928,2.391702368784212,7.0872689526355686,88.6957164107617,1.3948713661754408,2.178293040785955,0.40945495722649056,0.49973107564665104,86.95995265847446,38.42538689910624,11.119494605249875,-3.4808893260641582,-14.152057539731334
STABILIZE,4.21908974647522,33.046051543061544,86.95995265847446,38.42538689910624,11.119494605249884,-8.589682130915836,245.62807103063653,-3.8972142172878748,10.868862351870874,2.3704668837678193,7.694238835870629,88.27268864451696,1.3690166812388265,2.1820392015332386,0.42948410654579183,0.4998746838733105,86.95995265847446,38.42538689910624,11.119494605249875,-3.4808893260641582,-14.610423775835994
STABILIZE,4.2589802742004395,25.07370321439033,86.95995265847446,38.42538689910624,11.119494605249884,-8.978823623261606,245.90601987789557,-3.6494457364164887,11.158269928049224,2.283500006056751,8.239763483558608,87.72111671809259,1.3459423352302466,2.1855526042587803,0.44894118116308035,0.5000193876613996,86.95995265847446,38.42538689910624,11.119494605249875,-3.4808893260641582,-15.01149423242757
STABILIZE,4.285741329193115,37.37372801311639,86.95995265847446,38.42538689910624,11.119494605249884,-9.507203399074102,246.17451215917907,-3.410107004432838,11.449821168359806,2.1074371526042746,8.449116465582316,87.26766045909544,1.313590635454504,2.1894975583461327,0.4753601699537051,0.5001651632815549,86.95995265847446,38.42538689910624,11.119494605249875,-3.4808893260641582,-15.183381570966816
STABILIZE,4.317516088485718,31.477425552353505,86.95995265847446,38.42538689910624,11.119494605249884,-9.858841995527925,246.4334592606947,-3.179277013226603,11.743467997711013,1.8553143797715939,8.404919165236809,86.8136987660997,1.291956380762082,2.1916757450198645,0.49294209977639625,0.5003119866962306,86.95995265847446,38.42538689910624,11.119494605249875,-3.4808893260641582,-15.29797312999298
STABILIZE,4.347442388534546,33.42501035988652,86.95995265847446,38.42538689910624,11.119494605249884,-10.266691409828896,246.6827863905589,-2.957022433595675,12.039161740656278,1.637530596434564,8.252873177896802,86.48890961068726,1.2669691381814379,2.1937898086632655,0.5133345704914448,0.5004598335677032,86.95995265847446,38.42538689910624,11.119494605249875,-3.4808893260641582,-14.381240657783664
STABILIZE,4.385295391082764,26.424807529957285,86.95995265847446,38.42538689910624,11.119494605249884,-10.619964639406865,246.92243294738083,-2.7433972866833543,12.33685313740352,1.2994927950229969,7.671174994590788,85.82080099664412,1.246118888992029,2.1953944213519505,0.5309982319703432,0.5006086792660768,86.95995265847446,38.42538689910624,11.119494605249875,-3.4808893260641582,-13.120733508495853
STABILIZE,4.419937610626221,28.869888424660836,86.95995265847446,38.42538689910624,11.119494605249884,-11.052470210132718,247.15235288884705,-2.5384426154159954,12.636492359824626,1.3286470306083733,7.2499051482836805,85.36539813373352,1.2206263453415165,2.1969077403515045,0.5526235105066359,0.5007584988772874,86.95995265847446,38.42538689910624,11.119494605249875,-3.4808893260641582,-11.917522138721123
STABILIZE,4.446131944656372,38.189055813530004,86.95995265847446,38.42538689910624,11.119494605249884,-11.408750559238367,247.37251510030524,-2.3421861559408015,12.938029027464937,1.4384008067727792,7.075837777285906,85.22113770827369,1.197459522015305,2.19734788830755,0.5704375279619184,0.5009092672111075,86.95995265847446,38.42538689910624,11.119494605249875,-3.4808893260641582,-11.3445643435903
STABILIZE,4.474768877029419,34.92895628783904,86.95995265847446,38.42538689910624,11.119494605249884,-11.647374563915177,247.5829037633489,-2.1546420090629184,13.241412223552656,1.578215419413175,6.734114875373705,84.96521052007331,1.1813237092251354,2.1973121624420515,0.5823687281957589,0.5010609588091514,86.95995265847446,38.42538689910624,11.119494605249875,-3.4808893260641582,-11.058085446024888
STABILIZE,4.509242296218872,29.015482103573753,86.95995265847446,38.42538689910624,11.119494605249884,-11.88894930979339,247.7835187244012,-1.9758103116834675,13.546590511008363,2.0690745413572516,6.126220355279754,84.36985025087998,1.1658367171183759,2.197277857851193,0.5944474654896695,0.5012135479528792,86.95995265847446,38.42538689910624,11.119494605249875,-3.4808893260641582,-10.084057194302488
STABILIZE,4.548168182373047,25.694409389970474,86.95995265847446,38.42538689910624,11.119494605249884,-12.182663509683426,247.97437586329946,-1.8056769082366841,13.853511948454477,2.309623985528169,5.651875243366593,84.0134987913129,1.148137121949242,2.1972498601718256,0.6091331754841713,0.5013670086716023,86.95995265847446,38.42538689910624,11.119494605249875,-3.4808893260641582,-9.682986737710912
STABILIZE,4.580972909927368,30.487621207495604,86.95995265847446,38.42538689910624,11.119494605249884,-12.514174559635928,248.1555074618793,-1.6442130221278504,14.16212410622469,2.2752075160741208,5.1445748955949435,83.69217254180965,1.1280292820685687,2.19690752942539,0.6257087279817964,0.5015213147504874,86.95995265847446,38.42538689910624,11.119494605249875,-3.4808893260641582,-9.969465635276325
STABILIZE,4.612794876098633,31.43566797826494,86.95995265847446,38.42538689910624,11.119494605249884,-12.76194350891449,248.32696257255887,-1.4913749271702912,14.472374082373472,2.280514146172398,4.845263626447114,83.4448513919635,1.1121623501003675,2.196270078668844,0.6380971754457245,0.5016764397385618,86.95995265847446,38.42538689910624,11.119494605249875,-3.4808893260641582,-9.052733163067007
STABILIZE,4.642113924026489,34.11084815510609,86.95995265847446,38.42538689910624,11.119494605249884,-12.991673810270132,248.488807386923,-1.3471036190236774,14.784208518685498,2.3662125296885477,4.268878903428548,83.11373065119044,1.097188236276189,2.195463780212112,0.6495836905135066,0.5018323569567178,86.95995265847446,38.42538689910624,11.119494605249875,-3.4808893260641582,-9.11002894258009
STABILIZE,4.68242073059082,24.815283307991315,86.95995265847446,38.42538689910624,11.119494605249884,-13.168459845283062,248.64112560430766,-1.2113244866308222,15.09757361668517,2.610596057861369,3.506367256658902,82.70828379186932,1.086132595716242,2.194846104648381,0.6584229922641531,0.5019890395057176,86.95995265847446,38.42538689910624,11.119494605249875,-3.4808893260641582,-7.448451336700702
STABILIZE,4.708544731140137,38.295752529126034,86.95995265847446,38.42538689910624,11.119494605249884,-13.42585199349974,248.78401880038385,-1.0839469836558138,15.412415153645993,2.610596057861369,3.506367256658902,82.70828379186932,1.069423356703414,2.1936484136150396,0.671292599674987,0.5021464602741981,86.95995265847446,38.42538689910624,11.119494605249875,-3.4808893260641582,-7.448451336700702
STABILIZE,4.744751691818237,27.624819700851603,86.95995265847446,38.42538689910624,11.119494605249884,-13.544912315833699,248.9176067957422,-0.9648642999210679,15.728678498600155,2.846611323640456,3.321236686752999,82.4164912803372,1.0613826490696363,2.1929570411497483,0.677245615791685,0.5023045919466751,86.95995265847446,38.42538689910624,11.119494605249875,-3.4808893260641582,-6.474423084978302
STABILIZE,4.779967308044434,28.40245405420047,86.95995265847446,38.42538689910624,11.119494605249884,-13.696536771084006,249.04202802447688,-0.8539530328452898,16.046308628347873,2.890103193510747,3.2503440189233213,82.17870507457238,1.051013914604927,2.1919853334236525,0.6848268385542003,0.502463407011549,86.95995265847446,38.42538689910624,11.119494605249875,-3.4808893260641582,-4.297183463481175
STABILIZE,4.804836988449097,40.22387172257706,86.95995265847446,38.42538689910624,11.119494605249884,-13.789246620712618,249.15743990277014,-0.7510728588808391,16.365250143466994,2.970326113190074,3.3314631874878007,82.1021249935982,1.0423558774267032,2.190804825249587,0.6894623310356309,0.5026228777691085,86.95995265847446,38.42538689910624,11.119494605249875,-3.4808893260641582,-3.323155211758775
STABILIZE,4.838566541671753,29.65346002658296,86.95995265847446,38.42538689910624,11.119494605249884,-13.805225096251784,249.2640191974763,-0.6560662049511237,16.68544728432228,3.0015680387839465,3.3960567133554345,82.06625967026646,1.0391826068117187,2.190196897627728,0.6902612548125893,0.5027829763395362,86.95995265847446,38.42538689910624,11.119494605249875,-3.4808893260641582,-2.46371851906254
STABILIZE,4.869733095169067,32.095498997566615,86.95995265847446,38.42538689910624,11.119494605249884,-13.818489732349184,249.361962394706,-0.5687579198886468,17.006843947075083,3.0608993307829087,3.4699030111143196,82.04882219731542,1.0352123226643886,2.1893716945748065,0.6909244866174592,0.5029436746709126,86.95995265847446,38.42538689910624,11.119494605249875,-3.4808893260641582,-0.5729577951308232
STABILIZE,4.899625062942505,33.45807275047862,86.95995265847446,38.42538689910624,11.119494605249884,-13.790944519978495,249.45148606841062,-0.4889549458718321,17.32938369969264,3.0470726800252756,3.530948253708132,82.04813917839842,1.033332954901892,2.188669812581204,0.6895472259989248,0.5031049445472214,86.95995265847446,38.42538689910624,11.119494605249875,-3.4808893260641582,0.057295779513082325
STABILIZE,4.926426649093628,37.3178639429151,86.95995265847446,38.42538689910624,11.119494605249884,-13.744706449687067,249.53282724896624,-0.41644598986324155,17.65300979795763,3.0991227769255927,3.5048044239994387,82.06300850022153,1.0322967538548204,2.187997784356288,0.6872353224843534,0.5032667575963539,86.95995265847446,38.42538689910624,11.119494605249875,-3.4808893260641582,0.4583662361046586
STABILIZE,4.958878993988037,30.8266439317659,86.95995265847446,38.42538689910624,11.119494605249884,-13.660001845119515,249.60624379175817,-0.35100119504662786,17.977665201477606,3.148292028100045,3.53366709588462,82.1335780147261,1.0337766231048116,2.187564972391395,0.6830000922559758,0.5034290852981138,86.95995265847446,38.42538689910624,11.119494605249875,-3.4808893260641582,2.177239621497128
STABILIZE,4.9932098388671875,29.133585241164702,86.95995265847446,38.42538689910624,11.119494605249884,-13.534196533342659,249.67201474576478,-0.2923718122649248,18.303292589694486,3.295303312248107,3.5556526210492447,82.26650032616372,1.036840446795579,2.187108118314041,0.676709826667133,0.5035918989922223,86.95995265847446,38.42538689910624,11.119494605249875,-3.4808893260641582,3.9534087864026803
STABILIZE,5.029844284057617,27.301512084307,86.95995265847446,38.42538689910624,11.119494605249884,-13.331327290122212,249.73044072214228,-0.24028987145732827,18.629834377894007,3.4356989178547765,3.793793142877263,82.65998752424815,1.0432290569456164,2.1866555247985895,0.6665663645061106,0.5037551698863221,86.95995265847446,38.42538689910624,11.119494605249875,-3.4808893260641582,7.104676659622208
STABILIZE,5.066904067993164,26.99280501460878,86.95995265847446,38.42538689910624,11.119494605249884,-13.060084158227015,249.78184426280845,-0.19446785309728654,18.95723273321513,3.682951552365827,4.230828773336053,83.00394219047166,1.0524835830056987,2.186099838512499,0.6530042079113508,0.5039188690639826,86.95995265847446,38.42538689910624,11.119494605249875,-3.4808893260641582,8.307888029396937
STABILIZE,5.097879409790039,32.2859804019675,86.95995265847446,38.42538689910624,11.119494605249884,-12.730685226327406,249.82657020902715,-0.15459835962958124,19.28542959065964,3.802129815646087,4.503324292915589,83.16972454200621,1.063993337266177,2.1853040795203054,0.6365342613163704,0.5040829674927049,86.95995265847446,38.42538689910624,11.119494605249875,-3.4808893260641582,9.453803619658583
STABILIZE,5.125637769699097,36.04066095534341,86.95995265847446,38.42538689910624,11.119494605249884,-12.405121900302571,249.8649860699926,-0.1203537869083462,19.614366669101486,3.994251937941144,4.825200799533848,83.50148732056124,1.0756315720312164,2.1843761653186857,0.6202560950151286,0.5042474360319258,86.95995265847446,38.42538689910624,11.119494605249875,-3.4808893260641582,10.657014989433312
STABILIZE,5.155785322189331,33.17858498924187,86.95995265847446,38.42538689910624,11.119494605249884,-12.075282717192069,249.897482391413,-0.09138599563437566,19.94398548729631,4.065879704880245,4.960168325741062,83.7174442417387,1.0878716411189941,2.183326339253085,0.6037641358596035,0.5044122454410233,86.95995265847446,38.42538689910624,11.119494605249875,-3.4808893260641582,11.745634800181877
STABILIZE,5.194189786911011,26.043651311091654,86.95995265847446,38.42538689910624,11.119494605249884,-11.674215824188344,249.9244731240958,-0.06732598279246105,20.27422737989088,4.233055415005476,5.891555545965626,84.67858163155373,1.1032670378396503,2.1818702799426077,0.5837107912094173,0.5045773663873205,86.95995265847446,38.42538689910624,11.119494605249875,-3.4808893260641582,14.55312799632291
STABILIZE,5.230071067810059,27.875241747359887,86.95995265847446,38.42538689910624,11.119494605249884,-11.100951489996561,249.94639599253117,-0.047783553089551845,20.605033513432623,4.289401060563497,6.817210103042434,85.68846608147513,1.1251711350008105,2.1792174287412687,0.5550475744998281,0.5047427694540914,86.95995265847446,38.42538689910624,11.119494605249875,-3.4808893260641582,17.1887338539247
STABILIZE,5.26069974899292,32.66006867928642,86.95995265847446,38.42538689910624,11.119494605249884,-10.474478226947287,249.96371286347636,-0.032346990391609154,20.93634490237895,4.2637805940999565,7.149825801470069,86.15759762461745,1.1491473380501254,2.175584114284253,0.5237239113473644,0.5049084251485645,86.95995265847446,38.42538689910624,11.119494605249875,-3.4808893260641582,19.365973475421825
STABILIZE,5.301115989685059,24.76020236485888,86.95995265847446,38.42538689910624,11.119494605249884,-9.875460072993487,249.97691011454003,-0.02058272916156767,21.268102425106925,4.138437231320113,7.731882569707508,87.0807386720797,1.1724078940163642,2.1714420948549678,0.49377300364967436,0.5050743039099285,86.95995265847446,38.42538689910624,11.119494605249875,-3.4808893260641582,20.91295952227505
STABILIZE,5.340092658996582,25.655275342993633,86.95995265847446,38.42538689910624,11.119494605249884,-9.049810351765483,249.98649900276655,-0.012035025896928175,21.600246839922526,3.7905983218929897,8.22650010996409,88.12061448264663,1.2042026736016342,2.1645166607860804,0.4524905175882742,0.5052403761173363,86.95995265847446,38.42538689910624,11.119494605249875,-3.4808893260641582,23.262086482311425
STABILIZE,5.373971939086914,29.526123868388076,86.95995265847446,38.42538689910624,11.119494605249884,-8.163446606882957,249.9930160332201,-0.006225630566810025,21.932718801070266,3.4845042480125143,8.338895141624882,88.75275532052048,1.238072471658483,2.1555371810518,0.40817233034414785,0.5054066120979102,86.95995265847446,38.42538689910624,11.119494605249875,-3.4808893260641582,24.35070629305999
