Mode,Time,Freq,time2delay,actualDelay,North-Desired,East-Desired,Down-Desired,Roll-UAV,Pitch-UAV,Yaw-UAV,Roll-Control,Pitch-Control,Yaw-Control,Thrust-Control,North-Pos,East-Pos,Down-Pos,Yaw-Ang,North-Vel,East-Vel,Down-Vel,Yaw-Vel,North-Acc,East-Acc,Down-Acc,North-Avg,East-Avg,Down-Avg,Yaw-Avg,North-Dif,East-Dif,Down-Dif,Yaw-Dif,North-One,East-One,Down-One,Yaw-One,North-Two,East-Two,Down-Two,Yaw-Two,Landing-State,Q-Size,Kalman-Time,Kalman-Dt
STABILIZE,0.03435873985290527,29.113161054772366,0.0327639897664388,0.03289008140563965,0.0,0.0,0.0,-0.8945917105052363,-1.3745555067843793,-0.1549239382396027,-0.24568090577627286,0.23320975687391135,0.04593582845396563,0.4,0.12665064920152508,0.13281621481854294,0.186115963838966,0.1305136505967147,-0.1832017325796187,0.1006889040581882,1.7579590901732445,-0.10899819315757994,-2.4497898295521736,0.7240887731313705,17.611505091190338,0.0,0.0,0.0,0.0,0.0,0.0,0.0,0.0,0.0,0.0,0.0,0.0,0.0,0.0,0.0,0.0,False,0,0.1444838047027588,0.034921875
STABILIZE,0.0677652359008789,29.93365686554382,0.03230431874593099,0.03243422508239746,0.0,0.0,0.0,-0.8943728242866785,-1.3734267113023289,-0.15413152957417545,-0.1342640104160966,0.12508824661909235,0.03837532127307916,0.4,0.13376289509191222,0.14290865060846197,0.21577797861105433,0.13859370949018332,-0.1832017325796187,0.1006889040581882,1.7579590901732445,-0.10899819315757994,-2.4497898295521736,0.7240887731313705,17.611505091190338,0.0,0.0,0.0,0.0,0.0,0.0,0.0,0.0,0.0,0.0,0.0,0.0,0.0,0.0,0.0,0.0,False,0,0.17742061614990234,0.034921875
STABILIZE,0.10192513465881348,29.27572608170644,0.03238538106282552,0.03334236145019531,0.0,0.0,0.0,-0.893549306244016,-1.371972948226174,-0.15425640731015297,-0.0960071996960807,0.0897570925246005,0.036312515447695995,0.4,0.14193104749427277,0.1510614675178304,0.2443930644869872,0.1439471413399811,0.18714091274887323,0.09888747008517385,1.6305364668369293,-0.15770543939759785,-0.028834480326622725,1.0331347584724426,29.061532020568848,0.0,0.0,0.0,0.0,0.0,0.0,0.0,0.0,0.0,0.0,0.0,0.0,0.0,0.0,0.0,0.0,False,0,0.20600366592407227,0.064855224609375
STABILIZE,0.13584041595458984,29.484404766089064,0.03251460393269857,0.032990455627441406,0.0,0.0,0.0,-0.8940098104044629,-1.3720521357318638,-0.1550547256900379,-0.08405153504975149,0.07879803169385163,0.039712414666865696,0.4,0.1639832838716011,0.17390519713100255,0.3095969742379106,0.16546980620610685,0.07704148883931339,-0.013660274271387607,1.8441952764987946,0.02612684761726071,-0.23177685216069221,0.7169509772211313,24.93431717157364,0.0,0.0,0.0,0.0,0.0,0.0,0.0,0.0,0.0,0.0,0.0,0.0,0.0,0.0,0.0,0.0,False,1,0.23699092864990234,0.034921875
STABILIZE,0.1692960262298584,29.89163109245494,0.032392056783040364,0.03252887725830078,0.0,0.0,0.0,-0.8939972706040337,-1.3714728503128821,-0.1547685380957717,-0.06787148273934707,0.06544286783155968,0.037724343274999565,0.4,0.16750740946165635,0.17270990488409005,0.3525953235893165,0.16177089200943276,0.17025918932631612,-0.017934892093762755,1.5202246606349945,-0.10525106733556765,-1.3045480474829674,-1.216722745448351,22.231321036815643,0.0,0.0,0.0,0.0,0.0,0.0,0.0,0.0,0.0,0.0,0.0,0.0,0.0,0.0,0.0,0.0,False,0,0.2943093776702881,0.02993408203125
STABILIZE,0.20279693603515625,29.85036046999879,0.0323822816212972,0.032509803771972656,0.0,0.0,0.0,-0.8927883271209414,-1.3720894883288872,-0.154069737706528,-0.019828730731530592,0.02014366243039068,0.03301267720131092,0.4,0.16885866301427693,0.17344586364797676,0.3716156668861697,0.15799560676760704,0.27972368989139795,0.2491771476343274,1.5896804630756378,-0.09432663332538181,4.040341079235077,1.103400718420744,25.177979469299316,0.0,0.0,0.0,0.0,0.0,0.0,0.0,0.0,0.0,0.0,0.0,0.0,0.0,0.0,0.0,0.0,False,0,0.32299113273620605,0.069843994140625
STABILIZE,0.23615550994873047,29.975586747091278,0.03232386906941732,0.03243684768676758,0.0,0.0,0.0,-0.8926816587760128,-1.3713785083249712,-0.15429245256628066,-0.023161233273285394,0.024742152164134792,0.0352030289301648,0.4,0.1871972559906844,0.19120030560382317,0.4378649634002257,0.1680848547929427,0.27972368989139795,0.2491771476343274,1.5896804630756378,-0.09432663332538181,4.040341079235077,1.103400718420744,25.177979469299316,0.0,0.0,0.0,0.0,0.0,0.0,0.0,0.0,0.0,0.0,0.0,0.0,0.0,0.0,0.0,0.0,False,0,0.35165882110595703,0.069843994140625
STABILIZE,0.2698638439178467,29.665834423736605,0.032407553990681966,0.03283095359802246,0.0,0.0,0.0,-0.8915750080479121,-1.3721811622741535,-0.15536203084183556,-0.023902994474236834,0.02613252793665543,0.03845955056942613,0.4,0.1981545787638732,0.20041230846203412,0.49509128860983814,0.18241029851345522,0.05007500294595957,-0.033904844895005226,1.308648008853197,0.400623731910893,0.8403204381465912,-1.444807555526495,21.125373244285583,0.0,0.0,0.0,0.0,0.0,0.0,0.0,0.0,0.0,0.0,0.0,0.0,0.0,0.0,0.0,0.0,False,0,0.3802978992462158,0.02993310546875
STABILIZE,0.30345916748046875,29.768160171470345,0.03242996533711751,0.03256511688232422,0.0,0.0,0.0,-0.8909765660827427,-1.372140928191074,-0.15505651327860973,-0.012449422611902442,0.014242220351642762,0.034916882973439006,0.4,0.18748782790856797,0.19179711683887596,0.5083860327640211,0.169271739687072,-0.16101953806355596,-0.03353673091623932,1.7072295770049095,-0.3270636617669135,1.84682235121727,-1.4346454292535782,19.713804125785828,0.0,0.0,0.0,0.0,0.0,0.0,0.0,0.0,0.0,0.0,0.0,0.0,0.0,0.0,0.0,0.0,False,0,0.4096658229827881,0.034921875
STABILIZE,0.33708810806274414,29.734394827696214,0.032289775212605794,0.032643795013427734,0.0,0.0,0.0,-0.8910834478710827,-1.3720500012977481,-0.15463819087237288,-0.010600960047853195,0.009852919252403025,0.033937039138391654,0.4,0.1793109473166984,0.18585986657026532,0.5261322963794516,0.16404375176800018,-0.12516273418441415,0.011032771726604551,1.6226300969719887,0.02518260064493289,-4.9188680946826935,-1.3008739799261093,25.985395908355713,0.0,0.0,0.0,0.0,0.0,0.0,0.0,0.0,0.0,0.0,0.0,0.0,0.0,0.0,0.0,0.0,False,1,0.43848180770874023,0.034923095703125
STABILIZE,0.37044763565063477,29.97665792351289,0.03235009511311849,0.03247332572937012,0.0,0.0,0.0,-0.8913879248976773,-1.3714486244856696,-0.1552931153003272,-0.004997741235737419,0.001713002566645504,0.03105476590495028,0.4,0.15950947941597213,0.17211468531786883,0.5622681321275782,0.15057748513467686,-0.22984363604336977,0.052427820628508925,2.2305525839328766,-0.10501197736408414,-0.17443308606743813,0.7858099415898323,28.955253958702087,0.0,0.0,0.0,0.0,0.0,0.0,0.0,0.0,0.0,0.0,0.0,0.0,0.0,0.0,0.0,0.0,False,0,0.49585986137390137,0.034922119140625
STABILIZE,0.40395092964172363,29.848236206687968,0.03243592580159505,0.032569169998168945,0.0,0.0,0.0,-0.8907820124131031,-1.3702797016422454,-0.15562164473136217,0.003312385385298167,-0.00866231868590286,0.029175841909645808,0.4,0.14962815128883028,0.1671247870884126,0.589921518368032,0.14329932568492496,-0.22984363604336977,0.052427820628508925,2.2305525839328766,-0.10501197736408414,-0.17443308606743813,0.7858099415898323,28.955253958702087,0.0,0.0,0.0,0.0,0.0,0.0,0.0,0.0,0.0,0.0,0.0,0.0,0.0,0.0,0.0,0.0,False,0,0.524397611618042,0.034922119140625
STABILIZE,0.43737149238586426,29.92041774264884,0.03237632115681966,0.03251385688781738,0.0,0.0,0.0,-0.8904471730612138,-1.369223156755009,-0.15566817539508288,0.008575104246687323,-0.014910960738995813,0.028176755357041207,0.4,0.14348784202750386,0.161986380847724,0.6078326922263203,0.1403922646503586,-0.02162001619581133,0.04193602944724262,1.7133498564362526,0.13823530481760216,2.2708091884851456,-1.3358758762478828,16.680246591567993,0.0,0.0,0.0,0.0,0.0,0.0,0.0,0.0,0.0,0.0,0.0,0.0,0.0,0.0,0.0,0.0,False,0,0.5531420707702637,0.034921875
STABILIZE,0.47081542015075684,29.900154693927014,0.032421143849690755,0.0325472354888916,0.0,0.0,0.0,-0.8910264584801955,-1.3684650057571377,-0.15484181588700388,0.00745385354855943,-0.012912913441452822,0.027740837268168818,0.4,0.13874019384900788,0.15684413347647258,0.6237443839434792,0.1363919971914559,0.05076898378320038,0.038732532993890345,1.6393143683671951,0.071329573152934,0.7690262515097857,0.8021549321711063,25.05597174167633,0.0,0.0,0.0,0.0,0.0,0.0,0.0,0.0,0.0,0.0,0.0,0.0,0.0,0.0,0.0,0.0,False,0,0.5818324089050293,0.02993408203125
STABILIZE,0.504298210144043,29.867365467738605,0.0324275811513265,0.03254961967468262,0.0,0.0,0.0,-0.8898407269681107,-1.3691844167758105,-0.15426957410060377,0.007259291937020689,-0.00976004157771243,0.02622982471267958,0.4,0.139294753392783,0.1518119806572256,0.627924500935077,0.12876921098062205,0.377543643116951,0.08445171406492591,1.3538016006350517,-0.10486805647373124,3.9252478629350662,0.7532006129622459,23.982931673526764,0.0,0.0,0.0,0.0,0.0,0.0,0.0,0.0,0.0,0.0,0.0,0.0,0.0,0.0,0.0,0.0,False,0,0.6107635498046875,0.034922119140625
STABILIZE,0.541356086730957,26.984816511400485,0.03238108952840169,0.03617978096008301,0.0,0.0,0.0,-0.8897481992491981,-1.3680041814315733,-0.15360130945942677,0.0042424165384290615,-0.004556426731886053,0.024729511665921335,0.4,0.13386636049177647,0.1462821470178555,0.6355581363435332,0.11999210101544419,-0.01028795595630072,-0.00028499134714365937,1.2164651416242123,-0.21648031110304183,1.0226715356111526,0.47113262116909027,14.125043153762817,0.0,0.0,0.0,0.0,0.0,0.0,0.0,0.0,0.0,0.0,0.0,0.0,0.0,0.0,0.0,0.0,False,1,0.64048171043396,0.034921875
STABILIZE,0.5748202800750732,29.882686539516527,0.03244474728902181,0.03256487846374512,0.0,0.0,0.0,-0.8897143684684654,-1.3678498618450134,-0.15295532297433165,0.005320809880070291,-0.003902818461447606,0.02273804134271534,0.4,0.1263791342641021,0.13884279458731977,0.6613681428223865,0.11006381150974277,0.13160161906853318,0.03738844534382224,1.4640717767179012,0.028731791053253658,1.0231958702206612,-1.3167701661586761,20.85699737071991,0.0,0.0,0.0,0.0,0.0,0.0,0.0,0.0,0.0,0.0,0.0,0.0,0.0,0.0,0.0,0.0,False,0,0.7003493309020996,0.02993408203125
STABILIZE,0.6082096099853516,29.9481906720361,0.032416375478108723,0.03256487846374512,0.0,0.0,0.0,-0.8888025382142687,-1.3674435723111034,-0.1525091595430991,0.0054609379303598,-0.0028923188412036467,0.021871811297341653,0.4,0.12325645332585354,0.1336747021716975,0.6657783518264035,0.10561026937695515,0.13160161906853318,0.03738844534382224,1.4640717767179012,0.028731791053253658,1.0231958702206612,-1.3167701661586761,20.85699737071991,0.0,0.0,0.0,0.0,0.0,0.0,0.0,0.0,0.0,0.0,0.0,0.0,0.0,0.0,0.0,0.0,False,0,0.7289917469024658,0.02993408203125
STABILIZE,0.6417460441589355,29.820436254017007,0.03251055081685384,0.032630205154418945,0.0,0.0,0.0,-0.8892672045212412,-1.3668959832387388,-0.15316905987058546,0.004742713785031011,-0.001680076255473746,0.020608383607018863,0.4,0.1219449680990144,0.13071314093694197,0.6725325476517959,0.09930512493005299,0.22624903358519077,0.1521485042758286,1.6008006408810616,-0.09309410434531186,0.10498566552996635,0.7385550066828728,22.524911165237427,0.0,0.0,0.0,0.0,0.0,0.0,0.0,0.0,0.0,0.0,0.0,0.0,0.0,0.0,0.0,0.0,False,0,0.7576940059661865,0.069843994140625
STABILIZE,0.675297737121582,29.804967134482148,0.03239467938741048,0.03253936767578125,0.0,0.0,0.0,-0.8894466570695126,-1.3667807237964948,-0.15352105473667912,0.0028439865778293106,-0.00302968019076981,0.02006796172711599,0.4,0.1189401445490149,0.13090218470669596,0.7194412306041494,0.09568381864935627,-0.07131111342459917,0.10607487056404352,1.4278543181717396,-0.028229011757104027,-2.4394631385803223,0.6075569894164801,20.272396504878998,0.0,0.0,0.0,0.0,0.0,0.0,0.0,0.0,0.0,0.0,0.0,0.0,0.0,0.0,0.0,0.0,False,0,0.7866110801696777,0.029932861328125
STABILIZE,0.7087409496307373,29.900154693927014,0.032320531209309895,0.03247356414794922,0.0,0.0,0.0,-0.8882920349346631,-1.3667046312202726,-0.15332992950183777,0.0026079476936513102,-0.003920188965991898,0.019149436927383665,0.4,0.11208046941154448,0.12685331247624002,0.7187018579270343,0.09039544452054527,-0.07131111342459917,0.10607487056404352,1.4278543181717396,-0.028229011757104027,-2.4394631385803223,0.6075569894164801,20.272396504878998,0.0,0.0,0.0,0.0,0.0,0.0,0.0,0.0,0.0,0.0,0.0,0.0,0.0,0.0,0.0,0.0,False,0,0.8152027130126953,0.029932861328125
STABILIZE,0.748131513595581,25.389403083553773,0.03234699567159017,0.038358449935913086,0.0,0.0,0.0,-0.8878800357894938,-1.3668273611819213,-0.15299766481110044,0.0027805702776484507,-0.003463161420491573,0.01824671869795578,0.4,0.10536941757915871,0.11830472848213591,0.7331403532398904,0.08477877639423989,0.008143766171997413,0.061044341418892145,1.7191393300890923,0.03139198298230834,1.6161028295755386,0.6757666822522879,26.35122835636139,0.0,0.0,0.0,0.0,0.0,0.0,0.0,0.0,0.0,0.0,0.0,0.0,0.0,0.0,0.0,0.0,False,0,0.8729672431945801,0.0349228515625
STABILIZE,0.7815704345703125,29.90484474706784,0.03227260907491048,0.0324091911315918,0.0,0.0,0.0,-0.8869167656731105,-1.36641680277978,-0.15319636728705227,0.002938612333389361,-0.006552203707585825,0.01694296162075351,0.4,0.09450143799129704,0.11309052585086994,0.7428871602911354,0.07830075115909456,-0.3460030071437359,-0.012887203774880618,1.707179844379425,-0.13506010728697926,-0.915843341499567,0.27397251687943935,13.644333183765411,0.0,0.0,0.0,0.0,0.0,0.0,0.0,0.0,0.0,0.0,0.0,0.0,0.0,0.0,0.0,0.0,False,0,0.9012401103973389,0.02993310546875
STABILIZE,0.8149135112762451,29.988231508955064,0.03228882153828939,0.03242897987365723,0.0,0.0,0.0,-0.8862683245887825,-1.367408674313313,-0.15272427048131482,0.003177700430576769,-0.0060491105520081,0.016643004418440674,0.4,0.09454439039927953,0.10969322048801354,0.7455185982464798,0.07595518516821143,0.26154720690101385,0.09708008728921413,1.6231654211878777,0.08908947238746215,5.327994748950005,0.626677880063653,25.664302706718445,0.0,0.0,0.0,0.0,0.0,0.0,0.0,0.0,0.0,0.0,0.0,0.0,0.0,0.0,0.0,0.0,False,0,0.930915117263794,0.034922119140625
STABILIZE,0.8486075401306152,29.680319284440543,0.03242996533711751,0.03274893760681152,0.0,0.0,0.0,-0.8855029165149179,-1.3657402938868315,-0.15171057435894972,0.004360351352042465,-0.004820473152154675,0.016309880921437682,0.4,0.09489172478748556,0.10675980987681769,0.7534960065224889,0.0738182241633467,0.26154720690101385,0.09708008728921413,1.6231654211878777,0.08908947238746215,5.327994748950005,0.626677880063653,25.664302706718445,0.0,0.0,0.0,0.0,0.0,0.0,0.0,0.0,0.0,0.0,0.0,0.0,0.0,0.0,0.0,0.0,False,0,0.9647972583770752,0.034922119140625
STABILIZE,0.8821606636047363,29.803061093978712,0.03236416180928548,0.03254199028015137,0.0,0.0,0.0,-0.8851232006857475,-1.3656535291400311,-0.15147365217211492,0.004421590178017736,-0.004464488325214094,0.016033384687817943,0.4,0.08943586136938944,0.10281704203258948,0.7666208111944289,0.07171891326817527,-0.07381803588941693,0.03365370794199407,1.9368724897503853,0.08340269290308523,0.7329912856221199,0.5415988154709339,22.482752799987793,0.0,0.0,0.0,0.0,0.0,0.0,0.0,0.0,0.0,0.0,0.0,0.0,0.0,0.0,0.0,0.0,False,0,0.9932959079742432,0.034921875
STABILIZE,0.915564775466919,29.935365992919948,0.0323064645131429,0.03242802619934082,0.0,0.0,0.0,-0.8842192678377786,-1.3654979288930018,-0.1521784423170956,0.0029005383974621893,-0.00434329412738176,0.01603932474993598,0.4,0.08444803229973884,0.09997420893190034,0.7730322312878053,0.07091698053349749,-0.05324528901837766,0.08962073479779065,1.5798185020685196,0.14935422579636143,-0.36343238316476345,0.5495129618793726,22.656457126140594,0.0,0.0,0.0,0.0,0.0,0.0,0.0,0.0,0.0,0.0,0.0,0.0,0.0,0.0,0.0,0.0,False,0,1.0225486755371094,0.02993408203125
STABILIZE,0.952183723449707,27.30880016667969,0.032345088322957356,0.03574037551879883,0.0,0.0,0.0,-0.884642472762055,-1.3658966411858013,-0.1515559346072724,0.0037240371416365514,-0.0015913953973813867,0.015515438163456385,0.4,0.08119132507435044,0.09237063178888785,0.7759609879909231,0.06754131488253096,-0.04517653724178672,-0.026734048151411116,1.5014518983662128,0.08897299898581491,2.13705375790596,-1.4811163768172264,26.13779604434967,0.0,0.0,0.0,0.0,0.0,0.0,0.0,0.0,0.0,0.0,0.0,0.0,0.0,0.0,0.0,0.0,False,0,1.080118179321289,0.034921875
STABILIZE,0.9856927394866943,29.841652911377995,0.03245690663655599,0.032590389251708984,0.0,0.0,0.0,-0.8839127097379214,-1.3651796847663615,-0.15082946661580485,0.004011051158694058,-0.0031224259866974476,0.014507086001083327,0.4,0.07725678602516654,0.08846081632443169,0.7827430898002579,0.0626672596263424,-0.01640959089854732,0.007707891927566379,1.6427664086222649,-0.10342181727783394,5.8679163455963135,0.35950893070548773,21.7184379696846,0.0,0.0,0.0,0.0,0.0,0.0,0.0,0.0,0.0,0.0,0.0,0.0,0.0,0.0,0.0,0.0,False,0,1.1085913181304932,0.029932861328125
STABILIZE,1.0190746784210205,29.9563186538489,0.03239634831746419,0.032472848892211914,0.0,0.0,0.0,-0.8834763246829811,-1.3642873845843229,-0.15231597991542145,0.003848099559656158,-0.003280162179925922,0.013692805031358573,0.4,0.07713803326936,0.08615414295773902,0.7815188125333528,0.0586793498707667,0.20307020749896765,0.10126248234882951,1.4867586083710194,-0.05682537296572102,2.823724038898945,2.36996877938509,22.248907387256622,0.0,0.0,0.0,0.0,0.0,0.0,0.0,0.0,0.0,0.0,0.0,0.0,0.0,0.0,0.0,0.0,False,0,1.139899492263794,0.034922119140625
STABILIZE,1.0527937412261963,29.657443874845324,0.032370599110921223,0.032799482345581055,0.0,0.0,0.0,-0.8832327323895349,-1.3637268821855586,-0.1524895094090221,0.0032036839544984444,-0.0012706774701265076,0.012908584937804602,0.4,0.07725077611812048,0.08412189140206067,0.7853480404748497,0.05483050691257346,0.20307020749896765,0.10126248234882951,1.4867586083710194,-0.05682537296572102,2.823724038898945,2.36996877938509,22.248907387256622,0.0,0.0,0.0,0.0,0.0,0.0,0.0,0.0,0.0,0.0,0.0,0.0,0.0,0.0,0.0,0.0,False,0,1.1688001155853271,0.034922119140625
STABILIZE,1.0862479209899902,29.890992018244013,0.03244498570760091,0.03256988525390625,0.0,0.0,0.0,-0.8822634324967749,-1.3631332960580023,-0.1519097704227908,0.0031409478517220213,3.417369412582812e-07,0.012677918980525008,0.4,0.07588292840057734,0.08161986835578527,0.7952966697951483,0.05356685658044012,0.11092763161286712,0.06790550542064011,1.8640391528606415,0.08789326880799755,4.567128047347069,2.4273809045553207,27.32861638069153,0.0,0.0,0.0,0.0,0.0,0.0,0.0,0.0,0.0,0.0,0.0,0.0,0.0,0.0,0.0,0.0,False,0,1.1974985599517822,0.034923095703125
STABILIZE,1.1198148727416992,29.792899660467956,0.03244617780049642,0.03256821632385254,0.0,0.0,0.0,-0.8812187870797331,-1.3620774982227064,-0.1523817071459696,0.0014724691810069264,-0.0016639855185433322,0.011081641042928168,0.4,0.06883709574491403,0.0794850621099026,0.8037237534391183,0.046089116379697995,-0.22304803133010864,0.08356338948942721,1.7940007150173187,-0.2787362314076651,2.4525586515665054,0.35495494958013296,20.695234835147858,0.0,0.0,0.0,0.0,0.0,0.0,0.0,0.0,0.0,0.0,0.0,0.0,0.0,0.0,0.0,0.0,False,0,1.2263102531433105,0.029932861328125
STABILIZE,1.1531071662902832,30.03655113148095,0.03230741818745931,0.03241276741027832,0.0,0.0,0.0,-0.8804025794739166,-1.3618344928986421,-0.15319395270845898,0.0010043510448349586,0.0007748448528532863,0.011714361642893242,0.4,0.07144944566159946,0.07704828507529175,0.8011427701282242,0.048067922981365856,0.3412404330447316,0.06708092987537384,1.454465091228485,0.26269910731903384,2.091544307768345,0.42988676577806473,25.167381763458252,0.0,0.0,0.0,0.0,0.0,0.0,0.0,0.0,0.0,0.0,0.0,0.0,0.0,0.0,0.0,0.0,False,1,1.2549498081207275,0.034921875
STABILIZE,1.186598300933838,29.858010322121373,0.03245571454366048,0.03259706497192383,0.0,0.0,0.0,-0.8797625160434924,-1.3614623543105822,-0.1532624947239971,0.0026366283272198183,-0.002825909066892086,0.00972805998376203,0.4,0.062043033278585895,0.0706898745692209,0.8163914883686048,0.038794762791932134,-0.010370841482654214,0.03334502689540386,1.7055995762348175,-0.33443084787999205,-2.981892414391041,0.4594649188220501,22.866526246070862,0.0,0.0,0.0,0.0,0.0,0.0,0.0,0.0,0.0,0.0,0.0,0.0,0.0,0.0,0.0,0.0,False,0,1.3122682571411133,0.02993408203125
STABILIZE,1.2200531959533691,29.890352971358936,0.03242686589558919,0.03253817558288574,0.0,0.0,0.0,-0.8799394072708251,-1.3612508318897232,-0.15254401752024996,0.00240549590596535,-0.003121481706415643,0.009273495825734182,0.4,0.06136048531649405,0.06939570869654164,0.8153464029057935,0.03621604102589641,0.1312284730374813,0.11493801139295101,1.5717299655079842,-0.02364953000116915,5.417810007929802,0.4821022506803274,20.605111122131348,0.0,0.0,0.0,0.0,0.0,0.0,0.0,0.0,0.0,0.0,0.0,0.0,0.0,0.0,0.0,0.0,False,0,1.3410167694091797,0.034921875
STABILIZE,1.2534546852111816,29.93942595275995,0.03240183194478353,0.03251028060913086,0.0,0.0,0.0,-0.879698749824288,-1.3607043100344165,-0.15262704700734792,0.0022310936460162517,-0.004235690133799746,0.008869383078302946,0.4,0.05721009762172611,0.06750930485936894,0.8251624783498923,0.03419461891742979,-0.08299318142235279,0.06854669190943241,1.921798288822174,0.01039138577023393,0.7577344309538603,0.5766827147454023,27.45864987373352,0.0,0.0,0.0,0.0,0.0,0.0,0.0,0.0,0.0,0.0,0.0,0.0,0.0,0.0,0.0,0.0,False,0,1.3695285320281982,0.034921875
STABILIZE,1.2869365215301514,29.866940106670086,0.03243592580159505,0.03256702423095703,0.0,0.0,0.0,-0.8791568170023297,-1.3607798690021098,-0.15248444012799747,0.0016929370238028961,-0.0025156403995825038,0.008939973350830672,0.4,0.05510954786174949,0.06689200611135235,0.8307036345578306,0.03343195811080959,0.034509217948652804,0.13838571030646563,1.6869781538844109,0.07823263323767565,2.5187579914927483,0.5309120286256075,22.636766731739044,0.0,0.0,0.0,0.0,0.0,0.0,0.0,0.0,0.0,0.0,0.0,0.0,0.0,0.0,0.0,0.0,False,0,1.3982765674591064,0.034922119140625
STABILIZE,1.3203682899475098,29.91145595618439,0.03239897092183431,0.032514333724975586,0.0,0.0,0.0,-0.879806645468833,-1.3603794491620178,-0.1533611322605656,0.001011323016259914,-0.004229640818570345,0.00875364004122335,0.4,0.05309373668905969,0.06636803741568964,0.8359100595220191,0.03278380946046304,0.034509217948652804,0.13838571030646563,1.6869781538844109,0.07823263323767565,2.5187579914927483,0.5309120286256075,22.636766731739044,0.0,0.0,0.0,0.0,0.0,0.0,0.0,0.0,0.0,0.0,0.0,0.0,0.0,0.0,0.0,0.0,False,0,1.4270718097686768,0.034922119140625
STABILIZE,1.3548283576965332,29.019697923657574,0.032398255666097005,0.033582448959350586,0.0,0.0,0.0,-0.8790301383375672,-1.3596787144418567,-0.1537049095553141,-0.0004865056697672601,-0.0020218291091581,0.008665078576498515,0.4,0.049991179824581754,0.06426625488754789,0.8416380797777474,0.031093476573331405,-0.03411038196645677,0.04085478431079537,1.736360788345337,0.010972338715868472,0.270143523812294,-1.3395067304372787,27.588725090026855,0.0,0.0,0.0,0.0,0.0,0.0,0.0,0.0,0.0,0.0,0.0,0.0,0.0,0.0,0.0,0.0,False,1,1.455712080001831,0.02993408203125
STABILIZE,1.388361930847168,29.819800220397426,0.0324583371480306,0.03263688087463379,0.0,0.0,0.0,-0.8794315720338641,-1.3593257857608374,-0.15350037740618397,0.0010402549783220046,-0.0020150472987703434,0.00903256203148159,0.4,0.049353794038910014,0.059109030770994046,0.8635867952954747,0.03226268602275927,0.11747819371521473,-0.003969684621552005,1.270968560129404,0.1403901361192486,-1.900848001241684,0.5120562389492989,22.953881323337555,0.0,0.0,0.0,0.0,0.0,0.0,0.0,0.0,0.0,0.0,0.0,0.0,0.0,0.0,0.0,0.0,False,0,1.5130698680877686,0.069843994140625
STABILIZE,1.4261715412139893,26.44930287112417,0.03242448170979818,0.036916255950927734,0.0,0.0,0.0,-0.8794937907883347,-1.3602739013949998,-0.15460500042187486,0.0016996311482005402,0.0005444143777684124,0.008802508035333403,0.4,0.05240309222465776,0.055228896534412236,0.8894143611149545,0.03087675327424333,0.2629585796967149,-0.06544421194121242,1.3882104307413101,0.01969287612017481,3.245541825890541,-1.5146286226809025,22.983554005622864,0.0,0.0,0.0,0.0,0.0,0.0,0.0,0.0,0.0,0.0,0.0,0.0,0.0,0.0,0.0,0.0,False,0,1.5420362949371338,0.02993310546875
STABILIZE,1.4597244262695312,29.80539073214755,0.0324275811513265,0.032556772232055664,0.0,0.0,0.0,-0.8784867647725809,-1.360238683232092,-0.15424522821147238,0.0023707552844263904,0.0016298054242148948,0.009055096096933495,0.4,0.053233307880376037,0.05290751119663122,0.8751561181165631,0.031783816861436984,0.17463060794398189,0.03263271355535835,1.313833985477686,0.13119471380464126,4.091359302401543,0.52518080919981,24.682477116584778,0.0,0.0,0.0,0.0,0.0,0.0,0.0,0.0,0.0,0.0,0.0,0.0,0.0,0.0,0.0,0.0,False,0,1.5705528259277344,0.034921875
STABILIZE,1.4933433532714844,29.747469804322076,0.03232005437215169,0.03244423866271973,0.0,0.0,0.0,-0.8775964923029521,-1.3604410275862537,-0.1543015906123382,0.0031361033800067473,0.00126399854307879,0.00882405413615379,0.4,0.05040862602421366,0.050434132987189295,0.8753654515238192,0.03060546378492204,-0.02153221721528098,0.017026705609168857,1.7802286893129349,0.022133361407558547,4.4760458171367645,-1.5920480713248253,16.905349493026733,0.0,0.0,0.0,0.0,0.0,0.0,0.0,0.0,0.0,0.0,0.0,0.0,0.0,0.0,0.0,0.0,False,0,1.5991036891937256,0.034923095703125
STABILIZE,1.526693344116211,29.98072909220872,0.03213075002034505,0.03241991996765137,0.0,0.0,0.0,-0.8764696178116058,-1.3595279166715877,-0.15472519574301122,0.0037659902956226994,0.002744022583273404,0.0072045062471398835,0.4,0.05142132513947627,0.04689694780989292,0.8627324009990707,0.023275331535676125,0.17126317834481597,-0.043692864710465074,1.1059978976845741,-0.29642530078008744,2.2915445268154144,0.3505983389914036,16.63143038749695,0.0,0.0,0.0,0.0,0.0,0.0,0.0,0.0,0.0,0.0,0.0,0.0,0.0,0.0,0.0,0.0,False,1,1.6277027130126953,0.029932861328125
STABILIZE,1.560126543045044,29.910176139199887,0.0324132760365804,0.03253984451293945,0.0,0.0,0.0,-0.8750814352236536,-1.3592233329232872,-0.15407540729714764,0.003179924760521578,0.0036442650973414793,0.006094584463349543,0.4,0.05312850019702141,0.04363590076032536,0.8555472713007639,0.01854516208443939,-0.0071548522100783885,0.0641722057480365,1.702829822897911,-0.053808790570315804,-0.806034542620182,0.4805125296115875,18.904435634613037,0.0,0.0,0.0,0.0,0.0,0.0,0.0,0.0,0.0,0.0,0.0,0.0,0.0,0.0,0.0,0.0,True,0,1.685044527053833,0.034923095703125
STABILIZE,1.5961360931396484,27.770410831926373,0.032427104314168294,0.03511643409729004,0.0,0.0,0.0,-0.8744077544559081,-1.3601686737930994,-0.15315162421190343,0.0022745882595360083,0.0013037470682322326,0.005454268140804941,0.4,0.04932791830219218,0.042718220657510714,0.8620154236056866,0.015523961768805963,-0.0888238602783531,0.07465974194929004,2.0362433046102524,-0.0909366316814473,6.213275343179703,0.6454105488955975,26.411432027816772,0.0,0.0,0.0,0.0,0.0,0.0,0.0,0.0,0.0,0.0,0.0,0.0,0.0,0.0,0.0,0.0,True,0,1.7138843536376953,0.034921875
STABILIZE,1.6321544647216797,27.76452832187043,0.0324278195699056,0.03509402275085449,0.0,0.0,0.0,-0.8743857164236642,-1.3605443341974501,-0.1555018095959828,0.001736231681204925,-0.0003479854425056727,0.004768806388453275,0.4,0.04558024476055671,0.04188964118874337,0.8685925014387993,0.012593913525019318,-0.0888238602783531,0.07465974194929004,2.0362433046102524,-0.0909366316814473,6.213275343179703,0.6454105488955975,26.411432027816772,0.0,0.0,0.0,0.0,0.0,0.0,0.0,0.0,0.0,0.0,0.0,0.0,0.0,0.0,0.0,0.0,True,0,1.742600917816162,0.034921875
STABILIZE,1.665602207183838,29.89631847179158,0.032388957341512044,0.03252005577087402,0.0,0.0,0.0,-0.8758389992521431,-1.3597696413351825,-0.16404230748263585,0.0009288742080882987,-0.001230196305276929,0.0056429434213663655,0.4,0.04068506242360912,0.0416663191040141,0.8704052230148321,0.016195992803224587,-0.1537900068797171,0.10279457783326507,1.776997186243534,0.25496423824911174,-6.0011908411979675,0.5772727075964212,23.01616668701172,0.0,0.0,0.0,0.0,0.0,0.0,0.0,0.0,0.0,0.0,0.0,0.0,0.0,0.0,0.0,0.0,True,0,1.7712292671203613,0.02993310546875
STABILIZE,1.698983907699585,29.95546286905969,0.03240254720052083,0.03257298469543457,0.0,0.0,0.0,-0.8756656298411012,-1.3615754793187105,-0.16340520557954705,0.002411720605841909,-0.0028680327312414367,0.006931537509450804,0.4,0.03738360337639821,0.03458664166531261,0.8579516367881743,0.020791811654782257,-0.054928509052842855,-0.10706288740038872,1.338875200599432,0.21050029372171056,0.3361341543495655,-3.3151134848594666,25.24348795413971,0.0,0.0,0.0,0.0,0.0,0.0,0.0,0.0,0.0,0.0,0.0,0.0,0.0,0.0,0.0,0.0,True,0,1.8286259174346924,0.029932861328125
STABILIZE,1.7325413227081299,29.800943557096573,0.03252223332722982,0.03264355659484863,0.0,0.0,0.0,-0.8755843612621487,-1.3627700153715223,-0.1637507838030806,0.0022528820511523396,0.0008432097567925077,0.00794820588380935,0.4,0.04849135718315953,0.03196689434900172,0.8513766485011969,0.024527905660919953,0.7250147871673107,-0.04380210011731833,1.517243403941393,0.2643453963524185,12.403345853090286,0.5481439642608166,23.464730381965637,0.0,0.0,0.0,0.0,0.0,0.0,0.0,0.0,0.0,0.0,0.0,0.0,0.0,0.0,0.0,0.0,True,0,1.857278823852539,0.034922119140625
STABILIZE,1.7661211490631104,29.7806305026981,0.032399924596150716,0.03253316879272461,0.0,0.0,0.0,-0.8787020758139951,-1.3631149399246079,-0.1581665171872134,0.0032079970615675746,0.0028984930513211173,0.005902385831435053,0.4,0.0504981802920876,0.02870951412583752,0.8537172301903504,0.01521957914117629,0.20887779537588358,-0.08212404209189117,1.7494702711701393,-0.4719256774822428,-2.179773710668087,-3.563828021287918,17.063991725444794,0.0,0.0,0.0,0.0,0.0,0.0,0.0,0.0,0.0,0.0,0.0,0.0,0.0,0.0,0.0,0.0,True,0,1.8874282836914062,0.034921875
STABILIZE,1.7994544506072998,29.999384892678076,0.03226784070332845,0.03240633010864258,0.0,0.0,0.0,-0.8800819874697492,-1.3635098102359993,-0.15282851090743685,0.0041628039804020404,0.004939724621705591,0.0038503355182497945,0.4,0.05251308606317584,0.025532419549339293,0.8560686698227852,0.005922207309821506,0.20887779537588358,-0.08212404209189117,1.7494702711701393,-0.4719256774822428,-2.179773710668087,-3.563828021287918,17.063991725444794,0.0,0.0,0.0,0.0,0.0,0.0,0.0,0.0,0.0,0.0,0.0,0.0,0.0,0.0,0.0,0.0,True,0,1.9160535335540771,0.034921875
STABILIZE,1.8328959941864014,29.901859997576086,0.03240063985188802,0.03252863883972168,0.0,0.0,0.0,-0.874493291903092,-1.3653227985738146,-0.18469930749284028,0.001670675833090749,0.0021712687449707848,0.003352665255357382,0.4,0.0408599601406811,0.03172377754475993,0.8541919568818803,0.004213457210229505,-0.5627256818115711,0.4420560784637928,1.5106413513422012,-0.04595753481013243,-14.38165158033371,6.395931541919708,18.533620238304138,0.0,0.0,0.0,0.0,0.0,0.0,0.0,0.0,0.0,0.0,0.0,0.0,0.0,0.0,0.0,0.0,True,0,1.9451475143432617,0.02993408203125
STABILIZE,1.8663666248321533,29.877577769388033,0.032408746083577473,0.03253030776977539,0.0,0.0,0.0,-0.8798158235355302,-1.363537237714385,-0.1684711515508602,-0.005795679353570834,0.0025732685754162638,0.0018922063987268551,0.4,0.03883192443723644,0.044378967588700316,0.8428451963225804,-0.0015372525140967324,-0.012867766781710088,0.8140827529132366,1.2097162194550037,-0.29300172181947143,-4.986238107085228,27.708950638771057,11.396969109773636,0.0,0.0,0.0,0.0,0.0,0.0,0.0,0.0,0.0,0.0,0.0,0.0,0.0,0.0,0.0,0.0,True,0,1.973639965057373,0.034922119140625
STABILIZE,1.8998074531555176,29.90335229784261,0.03237775166829427,0.0325014591217041,0.0,0.0,0.0,-0.8818289684325386,-1.3618749404251331,-0.16285720296057252,0.0008085042040348418,-0.005090775772026411,0.011208779147135082,0.4,0.029351736703429894,0.024981666734546083,0.8453121034877296,0.039356363179693654,-0.4490411374717951,-1.0326879099011421,1.7342114821076393,2.3924761011511277,12.990835309028625,-9.111770242452621,26.739615201950073,0.0,0.0,0.0,0.0,0.0,0.0,0.0,0.0,0.0,0.0,0.0,0.0,0.0,0.0,0.0,0.0,True,0,2.0024092197418213,0.034921875
STABILIZE,1.9332475662231445,29.90420510773004,0.0323825200398763,0.03251147270202637,0.0,0.0,0.0,-0.8785261450820143,-1.3654115910330247,-0.1888195257281579,-0.007221940645365797,-0.007667104001865533,0.010671782128148724,0.4,0.024578309173495218,0.04261964446021805,0.8288575706571326,0.03570620149547608,0.11447799624875188,0.42274375446140766,1.1881540529429913,0.7523478450369904,12.789852917194366,-32.169583439826965,24.847012758255005,0.0,0.0,0.0,0.0,0.0,0.0,0.0,0.0,0.0,0.0,0.0,0.0,0.0,0.0,0.0,0.0,True,0,2.059938430786133,0.0349228515625
STABILIZE,1.9666404724121094,29.945624857208134,0.03239301045735677,0.032509565353393555,0.0,0.0,0.0,-0.8805072734672882,-1.3647740355626863,-0.16081257516035863,-0.0024968062589585827,-0.008263665546922793,0.012245599488790695,0.4,0.024885380580282793,0.027529810090143974,0.8227341636327137,0.04122275820513923,0.10532310698181391,-0.804067961871624,1.213375385850668,0.3558066719394874,2.8575871139764786,-8.857955783605576,23.274138569831848,0.0,0.0,0.0,0.0,0.0,0.0,0.0,0.0,0.0,0.0,0.0,0.0,0.0,0.0,0.0,0.0,True,0,2.0884296894073486,0.034922119140625
STABILIZE,2.0000674724578857,29.917003095621904,0.032440932591756184,0.03254556655883789,0.0,0.0,0.0,-0.87872598147609,-1.3651149046909523,-0.19115603739368406,-0.0077840355726895415,-0.0047802019218495095,0.007071215105049883,0.4,0.023084578511740533,0.04679788683840061,0.8264142712345787,0.01844191549566319,-0.022288606851361692,1.201791688799858,1.7853554338216782,-1.2893341692930722,2.36089825630188,46.07491195201874,26.73737406730652,0.0,0.0,0.0,0.0,0.0,0.0,0.0,0.0,0.0,0.0,0.0,0.0,0.0,0.0,0.0,0.0,True,0,2.117182731628418,0.034921875
STABILIZE,2.03367280960083,29.75886705973337,0.03243568738301595,0.03257393836975098,0.0,0.0,0.0,-0.8772871594387446,-1.363392202916228,-0.19193450553629363,0.0006395635427986433,-0.006253381318447568,0.013914882214884855,0.4,0.017404533973061846,0.03679688088068149,0.8183102357230457,0.04732722231924938,-0.25141346268355846,-0.5109743680804968,1.096202339977026,1.7287950505157454,-26.407665014266968,-50.08189082145691,16.934357583522797,0.0,0.0,0.0,0.0,0.0,0.0,0.0,0.0,0.0,0.0,0.0,0.0,0.0,0.0,0.0,0.0,True,0,2.146476984024048,0.02993408203125
STABILIZE,2.0671322345733643,29.90889643172937,0.03227690060933431,0.032419681549072266,0.0,0.0,0.0,-0.875418142205394,-1.362088917445225,-0.1437564188640732,-0.005347948712964588,-0.0038285355973858523,0.012058522019355802,0.4,0.01489354240169109,0.03426794972491749,0.811436988320692,0.04444330168502643,-0.07827135268598795,-0.06437663687393069,1.3879199512302876,-0.10492963489796714,23.353101313114166,39.96941149234772,10.327671468257904,0.0,0.0,0.0,0.0,0.0,0.0,0.0,0.0,0.0,0.0,0.0,0.0,0.0,0.0,0.0,0.0,True,0,2.175208568572998,0.034922119140625
STABILIZE,2.100458860397339,29.98244359934807,0.03227976163228353,0.03239774703979492,0.0,0.0,0.0,-0.8737985869593077,-1.3699411803915067,-0.16091498797726916,0.0018977289782899005,-0.0031146028621093654,0.011624376141661721,0.4,0.012308824403648666,0.03189191578723369,0.8087884173206961,0.041958684309166286,-0.07827135268598795,-0.06437663687393069,1.3879199512302876,-0.10492963489796714,23.353101313114166,39.96941149234772,10.327671468257904,0.0,0.0,0.0,0.0,0.0,0.0,0.0,0.0,0.0,0.0,0.0,0.0,0.0,0.0,0.0,0.0,True,0,2.203665256500244,0.034922119140625
STABILIZE,2.1339614391326904,29.848448619413606,0.032396825154622395,0.03252577781677246,0.0,0.0,0.0,-0.8706557394457498,-1.3728932094951274,-0.16419138436539932,-0.011103327043007686,0.006932858919935304,0.007939916803830199,0.4,0.03843930795162705,0.05136883116156543,0.8021087698372843,0.026572278575346393,0.7358559407293797,-0.9644242003560066,1.4277631416916847,0.8056670764624603,5.363427102565765,-59.69629883766174,3.455977141857147,0.0,0.0,0.0,0.0,0.0,0.0,0.0,0.0,0.0,0.0,0.0,0.0,0.0,0.0,0.0,0.0,True,0,2.2617971897125244,0.034922119140625
STABILIZE,2.16743540763855,29.87502403931764,0.03232839902242025,0.032449960708618164,0.0,0.0,0.0,-0.8692958914706825,-1.382139684805738,-0.10997491687899838,0.007460124249712431,0.006831084199921599,0.008067351959192521,0.4,0.03647762057685191,0.021410719772239024,0.8135110533959754,0.024091609599529357,-0.06211770232766867,-1.6783684492111206,2.2061824798583984,-0.09228770179621401,24.1318017244339,-2.918795309960842,21.92542999982834,0.0,0.0,0.0,0.0,0.0,0.0,0.0,0.0,0.0,0.0,0.0,0.0,0.0,0.0,0.0,0.0,True,0,2.2902846336364746,0.02993408203125
STABILIZE,2.2007806301116943,29.988445918892637,0.032299311955769856,0.032433271408081055,0.0,0.0,0.0,-0.8745989463918157,-1.3888298550977654,-0.0817185910353209,-0.007172958197212904,0.026217427916656596,-0.0036040577632486374,0.4,0.08107820905762332,0.04984474418823691,0.8097116296280883,-0.022857019516325325,2.7101369574666023,1.7648493871092796,1.5337551943957806,-2.72174009768699,32.52669870853424,57.7231228351593,20.088130235671997,0.0,0.0,0.0,0.0,0.0,0.0,0.0,0.0,0.0,0.0,0.0,0.0,0.0,0.0,0.0,0.0,True,0,2.3190293312072754,0.034921875
STABILIZE,2.2342875003814697,29.84398858696039,0.03242495854695638,0.032567501068115234,0.0,0.0,0.0,-0.8672720210422431,-1.3882915508138038,-0.12564449141291834,-0.01676753463326865,0.02495363070753548,-0.008917245885389526,0.4,0.07545014316402762,0.07219153926691986,0.8115394364205459,-0.04620936183667351,-0.2964718732982874,1.3909664936363697,1.615331694483757,-1.3062590578912465,-37.0280921459198,2.9812896624207497,30.144858360290527,0.0,0.0,0.0,0.0,0.0,0.0,0.0,0.0,0.0,0.0,0.0,0.0,0.0,0.0,0.0,0.0,True,0,2.3485820293426514,0.02993310546875
STABILIZE,2.2677841186523438,29.85439740341087,0.0323827584584554,0.032518863677978516,0.0,0.0,0.0,-0.8862320392088168,-1.398735016776459,-0.043362152971966834,-0.003148248759885444,0.019351921200585417,0.0029994916933810036,0.4,0.05865469147304743,0.03487343174774993,0.8062326958107715,0.005290584270404693,-0.9057707153260708,-2.1254409104585648,1.4222643338143826,3.0904078824314793,-55.70356249809265,-13.460038602352142,12.545226514339447,0.0,0.0,0.0,0.0,0.0,0.0,0.0,0.0,0.0,0.0,0.0,0.0,0.0,0.0,0.0,0.0,True,0,2.3782262802124023,0.034921875
STABILIZE,2.301154613494873,29.96530734718372,0.03233817418416341,0.03246355056762695,0.0,0.0,0.0,-0.8867826698497961,-1.392585285202509,-0.029140405119317685,0.01828629969528412,0.003657613611008012,0.015306983576052341,0.4,0.042338599130208404,-0.0022766924151729484,0.8051437166704183,0.05665667308005354,-0.9057707153260708,-2.1254409104585648,1.4222643338143826,3.0904078824314793,-55.70356249809265,-13.460038602352142,12.545226514339447,0.0,0.0,0.0,0.0,0.0,0.0,0.0,0.0,0.0,0.0,0.0,0.0,0.0,0.0,0.0,0.0,True,0,2.4066505432128906,0.034921875
STABILIZE,2.335233449935913,29.34536728025803,0.03242090543111165,0.033087968826293945,0.0,0.0,0.0,-0.8876784918481256,-1.3844498895707888,-0.1054345486282324,-0.007043038977383266,0.008805919169201907,-9.114716530239132e-05,0.4,0.05395545513201379,0.035764762236513876,0.7938599029388386,-0.010747649975080788,1.122207660228014,1.5802815556526184,1.1209841817617416,-1.1471010293562574,17.683903872966766,-32.32399821281433,32.62231647968292,0.0,0.0,0.0,0.0,0.0,0.0,0.0,0.0,0.0,0.0,0.0,0.0,0.0,0.0,0.0,0.0,True,0,2.4639837741851807,0.029932861328125
STABILIZE,2.3686015605926514,29.967662420245638,0.032315762837727864,0.032440185546875,0.0,0.0,0.0,-0.8989698617632145,-1.3863207210731376,-0.05096974973763794,0.014945458871592564,-0.00796534828911495,0.012729290117095978,0.4,0.05192259374679852,0.005439500690748049,0.782057836703655,0.03880282763002536,-0.026852457085624337,-1.7393341287970543,1.0112728923559189,2.988740303192428,-12.498705089092255,-58.128929138183594,33.18737745285034,0.0,0.0,0.0,0.0,0.0,0.0,0.0,0.0,0.0,0.0,0.0,0.0,0.0,0.0,0.0,0.0,True,0,2.4927523136138916,0.0349228515625
STABILIZE,2.4020748138427734,29.874385675009616,0.03240040143330892,0.03253817558288574,0.0,0.0,0.0,-0.9115963202176293,-1.384372729777509,-0.010484926511588045,0.019314328520018548,-0.01869897282760133,0.004265724631745061,0.4,0.019128549381887225,0.014800198244596234,0.7723947418225915,-0.0010465884356611332,-1.8799684941768646,0.635500019416213,0.9049816988408566,-2.3579616611711725,-26.58737003803253,74.81537461280823,27.70090401172638,0.0,0.0,0.0,0.0,0.0,0.0,0.0,0.0,0.0,0.0,0.0,0.0,0.0,0.0,0.0,0.0,True,0,2.5214345455169678,0.034922119140625
STABILIZE,2.435635805130005,29.797767815912305,0.032389195760091145,0.03255009651184082,0.0,0.0,0.0,-0.8443399810690426,-1.33955164106171,-0.18453678367514836,-0.004142119670173737,-0.010792749939956934,0.0006599625620184401,0.4,0.023965318516713786,0.04071578468210403,0.7772518741939393,-0.01000908898882753,0.3802525345236063,1.603175513446331,1.772390864789486,-0.48894165305630155,33.78262221813202,-5.068055912852287,24.405787885189056,0.0,0.0,0.0,0.0,0.0,0.0,0.0,0.0,0.0,0.0,0.0,0.0,0.0,0.0,0.0,0.0,True,0,2.5504274368286133,0.034921875
STABILIZE,2.4689788818359375,29.98994687430733,0.032299311955769856,0.03242063522338867,0.0,0.0,0.0,-0.8412184778966411,-1.3479025078174027,-0.18879347229173402,-0.027712906600364188,-0.002973753540335896,-0.002952203903446255,0.4,0.02897775024537337,0.06701123177550306,0.7822347574522519,-0.01898247879792175,0.3802525345236063,1.603175513446331,1.772390864789486,-0.48894165305630155,33.78262221813202,-5.068055912852287,24.405787885189056,0.0,0.0,0.0,0.0,0.0,0.0,0.0,0.0,0.0,0.0,0.0,0.0,0.0,0.0,0.0,0.0,True,0,2.579052686691284,0.034921875
STABILIZE,2.5027379989624023,29.623510633038343,0.03240373929341634,0.03276824951171875,0.0,0.0,0.0,-0.8740421258919009,-1.3683209314543328,-0.0857703806469128,-0.0017731086077829358,-0.016408848655807492,0.0009824372707032756,0.4,0.004839077025427324,0.03462285068034899,0.787311983354338,-0.010459822301752303,-1.346941664814949,-1.8714582547545433,1.7725419253110886,0.5413348602407058,-102.89672613143921,-56.459951400756836,46.96395993232727,0.0,0.0,0.0,0.0,0.0,0.0,0.0,0.0,0.0,0.0,0.0,0.0,0.0,0.0,0.0,0.0,True,0,2.6078972816467285,0.03492236328125
STABILIZE,2.5360805988311768,29.988660331896213,0.03230145772298177,0.03242850303649902,0.0,0.0,0.0,-0.8650490079108155,-1.354386705217272,-0.17047657246441264,-0.02385694876711462,-0.028772453547921482,-0.007635779944494779,0.4,-0.02887687772962244,0.06338444077601992,0.7974562498901855,-0.04138572522799999,5.222547799348831,2.060270868241787,1.3467904180288315,-5.655058538406642,202.91788578033447,64.85018730163574,136.0882043838501,0.0,0.0,0.0,0.0,0.0,0.0,0.0,0.0,0.0,0.0,0.0,0.0,0.0,0.0,0.0,0.0,True,0,2.6650454998016357,0.029932861328125
STABILIZE,2.5695841312408447,29.848448619413606,0.0324430783589681,0.032588958740234375,0.0,0.0,0.0,-0.857748442822571,-1.3680462297836513,-0.20082340977168342,-0.006007605116769683,-0.015111002183341379,0.01430744896280152,0.4,-0.023919917932025192,0.026174043324405365,0.7751062634317821,0.04874281361245432,0.3212361363694072,-2.151172235608101,0.3353736363351345,5.416255915115956,-41.91283881664276,-120.26095390319824,127.9578447341919,0.0,0.0,0.0,0.0,0.0,0.0,0.0,0.0,0.0,0.0,0.0,0.0,0.0,0.0,0.0,0.0,True,0,2.6937406063079834,0.034861572265625
STABILIZE,2.6029577255249023,29.963380744529616,0.032404216130574544,0.03251838684082031,0.0,0.0,0.0,-0.8680477277607156,-1.3599585387544157,-0.09195475008449572,0.017763723704932812,-0.015039708330928589,0.035525687574481046,0.4,-0.01939560197015966,-0.010986790006722102,0.7566178628291566,0.1394591466754908,0.3212361363694072,-2.151172235608101,0.3353736363351345,5.416255915115956,-41.91283881664276,-120.26095390319824,127.9578447341919,0.0,0.0,0.0,0.0,0.0,0.0,0.0,0.0,0.0,0.0,0.0,0.0,0.0,0.0,0.0,0.0,True,0,2.7225139141082764,0.034861572265625
STABILIZE,2.6364197731018066,29.885454519544552,0.032467158635457356,0.03258037567138672,0.0,0.0,0.0,-0.8639500945063839,-1.3621060996398557,-0.14143060604955163,0.02817179463515403,-0.03823257579764311,0.03553776801676767,0.4,-0.0744415163452351,-0.013335172136929176,0.7472428893101825,0.13794313604305547,-3.244474157691002,-0.05115961539559066,0.894356332719326,-0.13651621824066135,-64.32221531867981,48.824524879455566,107.6034665107727,0.0,0.0,0.0,0.0,0.0,0.0,0.0,0.0,0.0,0.0,0.0,0.0,0.0,0.0,0.0,0.0,True,0,2.7514467239379883,0.034922119140625
STABILIZE,2.6708436012268066,29.0518587270473,0.03243687947591146,0.03344988822937012,0.0,0.0,0.0,-0.8621250466158153,-1.3684308548112876,-0.1516035058076245,0.006385676419904407,-0.038608999726758186,0.026695201359348504,0.4,-0.09790311965413898,0.013601010940018327,0.7683507400066486,0.1001536811182322,-1.3368083164095879,1.6761817038059235,2.7050724253058434,-2.2523735533485336,78.49425673484802,16.312827169895172,93.49321126937866,0.0,0.0,0.0,0.0,0.0,0.0,0.0,0.0,0.0,0.0,0.0,0.0,0.0,0.0,0.0,0.0,True,0,2.780376434326172,0.034923095703125
STABILIZE,2.70438551902771,29.81386521470256,0.03234246571858724,0.032480716705322266,0.0,0.0,0.0,-0.8654041777476562,-1.3577793882440643,-0.1118636442773854,0.02913784776016039,0.006347662414923252,0.033689425599392586,0.4,-0.013476385972996135,-0.01859808943687504,0.7803943385194717,0.12618989215402757,5.0385259091854095,-1.8542125821113586,2.1478556096553802,1.5838039015364205,116.62310361862183,-93.59493851661682,82.21794962882996,0.0,0.0,0.0,0.0,0.0,0.0,0.0,0.0,0.0,0.0,0.0,0.0,0.0,0.0,0.0,0.0,True,0,2.8098807334899902,0.029932861328125
STABILIZE,2.7410409450531006,27.278074414188254,0.03225115140279134,0.0357973575592041,0.0,0.0,0.0,-0.8617363661633594,-1.366390976126981,-0.13017840300048453,0.01454172464801311,-0.005552709627362703,0.03403136314951918,0.4,-0.04183455811432459,-0.015000153515790841,0.7742652771228221,0.13910439713055428,-1.724538393318653,0.24718781933188438,1.2853287160396576,0.9052167100894258,-111.86503171920776,75.91341137886047,-10.092070698738098,0.0,0.0,0.0,0.0,0.0,0.0,0.0,0.0,0.0,0.0,0.0,0.0,0.0,0.0,0.0,0.0,True,1,2.8386149406433105,0.034922119140625
STABILIZE,2.7745110988616943,29.87821627012395,0.03248551686604818,0.032604217529296875,0.0,0.0,0.0,-0.8608471075499354,-1.3689277510734061,-0.14607397408660994,0.0008850627781275852,-0.017424132134150307,0.033300016443086264,0.4,-0.06808073375207202,-0.014102049904230113,0.7708176849373821,0.1473000136056523,1.7298975959420204,-1.3388869352638721,1.051819883286953,2.0283984169722986,94.39207911491394,-36.693075299263,3.9489630609750748,0.0,0.0,0.0,0.0,0.0,0.0,0.0,0.0,0.0,0.0,0.0,0.0,0.0,0.0,0.0,0.0,True,0,2.8999500274658203,0.02993310546875
STABILIZE,2.8079841136932373,29.874811248183708,0.03245118459065755,0.032582998275756836,0.0,0.0,0.0,-0.862360634781328,-1.364350777277557,-0.1277417463542957,-0.0017730797257651404,0.014068989075533193,0.029519861894358932,0.4,-0.03785292451457911,-0.009625678248274282,0.7651044314199382,0.1302807733454883,1.7385391518473625,0.287656974978745,1.297712605446577,-0.8400723401374012,-43.19156110286713,53.483378887176514,27.438178658485413,0.0,0.0,0.0,0.0,0.0,0.0,0.0,0.0,0.0,0.0,0.0,0.0,0.0,0.0,0.0,0.0,True,0,2.9286184310913086,0.034922119140625
STABILIZE,2.8530609607696533,22.184220408638208,0.03242615063985189,0.04423975944519043,0.0,0.0,0.0,-0.859171416686608,-1.3701965654334418,-0.15011707254928724,0.0030328657849845813,0.0066892517821277205,0.030477744690215827,0.4,-0.09045229009888314,0.005991067324538342,0.7670917557446284,0.12911469332615527,-3.1899254769086838,0.9656199254095554,1.5264452435076237,0.0411802243622118,-78.90186309814453,-15.051142871379852,27.95998454093933,0.0,0.0,0.0,0.0,0.0,0.0,0.0,0.0,0.0,0.0,0.0,0.0,0.0,0.0,0.0,0.0,True,0,2.9573099613189697,0.0349228515625
STABILIZE,2.888394355773926,28.302601302338136,0.03249481519063314,0.03446459770202637,0.0,0.0,0.0,-0.8591340107287316,-1.3693676579446372,-0.13641748732260028,0.003351179565796149,-0.03228999036308336,0.036390564663138614,0.4,-0.11391854651830038,-0.02579019636166844,0.7781288547392112,0.15793034644039755,-0.7665494922548532,-0.9340542368590832,1.8500562757253647,1.029332239644253,63.5057806968689,-22.544412314891815,29.963979125022888,0.0,0.0,0.0,0.0,0.0,0.0,0.0,0.0,0.0,0.0,0.0,0.0,0.0,0.0,0.0,0.0,True,0,3.0147287845611572,0.029932861328125
STABILIZE,2.921876907348633,29.865664096155626,0.03242090543111165,0.03255009651184082,0.0,0.0,0.0,-0.8562694400629989,-1.3715104163533172,-0.1407603670568177,0.0012091726591049441,-0.0036150450117172846,0.03336258498571777,0.4,-0.06385000838624974,-0.017460774334096936,0.7785545990675137,0.1458584703854774,2.917839400470257,0.5084783304482698,1.6435381025075912,-0.5126263478595257,41.55922830104828,30.388030409812927,36.491549015045166,0.0,0.0,0.0,0.0,0.0,0.0,0.0,0.0,0.0,0.0,0.0,0.0,0.0,0.0,0.0,0.0,True,0,3.043408155441284,0.0399111328125
STABILIZE,2.9625823497772217,24.56602005435292,0.0324125607808431,0.039864301681518555,0.0,0.0,0.0,-0.8568944557329079,-1.369307680345988,-0.13944122007229284,-0.00018801028097734082,0.0006310167649492294,0.033841821012660436,0.4,-0.07972234808003262,-0.012186883014484956,0.78645876556458,0.14854469259304157,-0.9998713620007038,0.3526478772982955,1.6165252774953842,0.24021076283761977,-75.62829852104187,-18.896375596523285,34.83661413192749,0.0,0.0,0.0,0.0,0.0,0.0,0.0,0.0,0.0,0.0,0.0,0.0,0.0,0.0,0.0,0.0,True,0,3.0722758769989014,0.029933837890625
STABILIZE,2.996079206466675,29.854184906009554,0.03249839146931966,0.03262066841125488,0.0,0.0,0.0,-0.8555421316380982,-1.3717837306418235,-0.14296360999224925,0.006399682049064803,-0.02428187446020433,0.03543064412047411,0.4,-0.11592123275400865,-0.024825244339473272,0.7811349338749255,0.1527979741370302,-2.2960662841796875,-0.7624957710504532,1.3160723261535168,0.4967400749020165,-6.19475431740284,-11.007442325353622,31.287899613380432,0.0,0.0,0.0,0.0,0.0,0.0,0.0,0.0,0.0,0.0,0.0,0.0,0.0,0.0,0.0,0.0,True,0,3.1011085510253906,0.02993310546875
STABILIZE,3.029684543609619,29.75738914508691,0.032438071568806966,0.032763004302978516,0.0,0.0,0.0,-0.8545719246108391,-1.369173317718409,-0.13544737367683368,0.011754353742433402,-0.013854032089997477,0.03327240981917024,0.4,-0.12510762480854662,-0.027994874358094717,0.7728956648516466,0.14287306972650107,1.4649437740445137,0.5505751818418503,1.4090640470385551,-0.6105149648577088,68.23258996009827,20.546860992908478,28.972384333610535,0.0,0.0,0.0,0.0,0.0,0.0,0.0,0.0,0.0,0.0,0.0,0.0,0.0,0.0,0.0,0.0,True,0,3.1584248542785645,0.034921875
STABILIZE,3.071884870529175,23.696766648399144,0.03246954282124837,0.04117727279663086,0.0,0.0,0.0,-0.8550610301884355,-1.3690867664150204,-0.13156617204182683,0.002862618905743482,-0.01733764640999159,0.032570727482448915,0.4,-0.16127799089644335,-0.03401082574539869,0.7772829698464538,0.14284855961343712,-2.2827062755823135,-0.36110852379351854,1.6292130574584007,0.19029812828133344,-54.32882905006409,4.303367808461189,24.411986768245697,0.0,0.0,0.0,0.0,0.0,0.0,0.0,0.0,0.0,0.0,0.0,0.0,0.0,0.0,0.0,0.0,True,0,3.187103271484375,0.064856201171875
STABILIZE,3.105210781097412,30.006252638055244,0.03229263623555501,0.0324094295501709,0.0,0.0,0.0,-0.8520376576244999,-1.3739919094561475,-0.15280171041907248,0.000743248460330314,-0.037659545023081165,0.03169938155015416,0.4,-0.16727641310784883,-0.020757950665345762,0.8021007964090534,0.13709137879026956,0.13623591512441635,0.8874381892383099,1.5109221450984478,-0.4240672089786246,43.66564750671387,18.40701401233673,27.075421810150146,0.0,0.0,0.0,0.0,0.0,0.0,0.0,0.0,0.0,0.0,0.0,0.0,0.0,0.0,0.0,0.0,True,0,3.2156529426574707,0.034921875
STABILIZE,3.1386446952819824,29.910176139199887,0.032414944966634114,0.03253602981567383,0.0,0.0,0.0,-0.852973713705909,-1.3728196782398439,-0.13434950080903346,-0.004127192023455129,-0.030801458837795573,0.028938754673086767,0.4,-0.16156003206077496,-0.004294815092375365,0.8018796070097461,0.1250064589035282,0.13623591512441635,0.8874381892383099,1.5109221450984478,-0.4240672089786246,43.66564750671387,18.40701401233673,27.075421810150146,0.0,0.0,0.0,0.0,0.0,0.0,0.0,0.0,0.0,0.0,0.0,0.0,0.0,0.0,0.0,0.0,True,0,3.2446398735046387,0.034921875
STABILIZE,3.172207832336426,29.792688037618177,0.03242638905843099,0.03267979621887207,0.0,0.0,0.0,-0.85444844759725,-1.3718954682677766,-0.12421918301156741,-0.0025032412362093054,0.0037452120280109533,0.02951951514675678,0.4,-0.10589164054099351,-0.020361090228367268,0.7969813707228386,0.12771380688105619,1.340133510529995,-0.4855060949921608,1.3808908872306347,0.33080695227762424,-4.679704084992409,-17.231419682502747,14.476166665554047,0.0,0.0,0.0,0.0,0.0,0.0,0.0,0.0,0.0,0.0,0.0,0.0,0.0,0.0,0.0,0.0,True,0,3.3017709255218506,0.034923095703125
STABILIZE,3.2056307792663574,29.919777436958306,0.032447131474812825,0.03256821632385254,0.0,0.0,0.0,-0.8505230098151967,-1.3722862831543483,-0.1602093440586422,-0.000940835309360851,0.0065078157978543235,0.028211451201908613,0.4,-0.10718239905223394,-0.027293970899810713,0.7961823456748832,0.12038929642222511,-0.30747426208108664,-0.4166050348430872,1.4702835120260715,-0.15726777368218814,-42.03170835971832,6.505570560693741,29.68961000442505,0.0,0.0,0.0,0.0,0.0,0.0,0.0,0.0,0.0,0.0,0.0,0.0,0.0,0.0,0.0,0.0,True,0,3.330439567565918,0.02993310546875
STABILIZE,3.2392101287841797,29.782956635352093,0.032463820775349934,0.03259468078613281,0.0,0.0,0.0,-0.8522049972591652,-1.3726319547593744,-0.14413030502006527,0.0011738181671811644,0.027282603454919795,0.030473292064852033,0.4,-0.08025817154880055,-0.037259951359397324,0.7930314012456482,0.12984775104914045,1.271242555230856,-0.6066212896257639,1.546619925647974,0.8121864920252374,35.31518578529358,-17.209850251674652,16.459660232067108,0.0,0.0,0.0,0.0,0.0,0.0,0.0,0.0,0.0,0.0,0.0,0.0,0.0,0.0,0.0,0.0,True,0,3.3593201637268066,0.074833740234375
STABILIZE,3.2726311683654785,29.92105807574601,0.032325061162312825,0.03244972229003906,0.0,0.0,0.0,-0.8534588172195386,-1.3712997477061046,-0.13283257182326916,0.007234122644771541,0.03432089703424307,0.028869722775808807,0.4,-0.06769863379364487,-0.04061803566940297,0.8177185603742712,0.12176892997479988,0.3970712423324585,-0.04205786681268364,1.2392201460897923,-0.4197987943146162,-32.93143808841705,21.75256907939911,17.369355261325836,0.0,0.0,0.0,0.0,0.0,0.0,0.0,0.0,0.0,0.0,0.0,0.0,0.0,0.0,0.0,0.0,True,0,3.3880105018615723,0.0249443359375
STABILIZE,3.3060131072998047,29.95674656458018,0.03233030637105306,0.032445669174194336,0.0,0.0,0.0,-0.8514952445548657,-1.3719160655569924,-0.1568926335461531,0.012785571871610063,0.03664083510730791,0.026115107629690076,0.4,-0.05646336852348746,-0.03967678175368077,0.8021286166358342,0.10790326122611246,0.3970712423324585,-0.04205786681268364,1.2392201460897923,-0.4197987943146162,-32.93143808841705,21.75256907939911,17.369355261325836,0.0,0.0,0.0,0.0,0.0,0.0,0.0,0.0,0.0,0.0,0.0,0.0,0.0,0.0,0.0,0.0,True,0,3.4164998531341553,0.0249443359375
STABILIZE,3.3394737243652344,29.88438985115888,0.03240540822347005,0.03253316879272461,0.0,0.0,0.0,-0.8513610953706985,-1.373176128737154,-0.15240773390196705,0.003190008509804274,0.006824875528896914,0.02398272579906609,0.4,-0.08186242674861377,-0.029614549591366224,0.7937314118629822,0.09869158625669144,-1.5760540962219238,0.46402234584093094,1.5559096820652485,-0.21504178255038722,-16.316045820713043,-5.332847684621811,28.81631851196289,0.0,0.0,0.0,0.0,0.0,0.0,0.0,0.0,0.0,0.0,0.0,0.0,0.0,0.0,0.0,0.0,True,0,3.44610857963562,0.034921875
STABILIZE,3.3733060359954834,29.557751124015166,0.03239634831746419,0.0328822135925293,0.0,0.0,0.0,-0.8534991046634711,-1.3731152973648586,-0.1290451118665781,0.003254158749290111,0.01180255895781961,0.02688307685343579,0.4,-0.07010822047088547,-0.03625107226555342,0.7914684993301593,0.11004702243966728,0.44624279253184795,-0.4166227299720049,1.4349632896482944,0.8839968064420771,38.32028806209564,-15.124186873435974,22.6091206073761,0.0,0.0,0.0,0.0,0.0,0.0,0.0,0.0,0.0,0.0,0.0,0.0,0.0,0.0,0.0,0.0,True,1,3.475099563598633,0.034923095703125
STABILIZE,3.4067065715789795,29.938784833257195,0.03236964543660482,0.032515525817871094,0.0,0.0,0.0,-0.8513773170699772,-1.373096087457818,-0.14613235085967238,-6.75893407825229e-05,0.0014426351164369467,0.027354255078236894,0.4,-0.07187333654612424,-0.036833604036331555,0.787234838773241,0.11299732613363121,-0.9305785410106182,0.2823557471856475,1.4224340207874775,-0.2337569277630453,-34.463125467300415,-3.544273227453232,17.7255779504776,0.0,0.0,0.0,0.0,0.0,0.0,0.0,0.0,0.0,0.0,0.0,0.0,0.0,0.0,0.0,0.0,True,0,3.5333125591278076,0.06485498046875
STABILIZE,3.4401214122772217,29.928317100146277,0.032442839940389,0.03255724906921387,0.0,0.0,0.0,-0.8514004756801318,-1.3746198599729655,-0.1394448486102894,0.0011678631102889567,-0.006599244576579923,0.03200474088345614,0.4,-0.08093549890932586,-0.04304215552760458,0.8041667925093426,0.13179046825989366,-0.5995269864797592,-0.2959462581202388,1.2893632054328918,1.0710898817955954,7.045502960681915,-7.459229230880737,15.007390081882477,0.0,0.0,0.0,0.0,0.0,0.0,0.0,0.0,0.0,0.0,0.0,0.0,0.0,0.0,0.0,0.0,True,0,3.561025381088257,0.034923095703125
STABILIZE,3.473601818084717,29.86715278568987,0.03245547612508138,0.032576560974121094,0.0,0.0,0.0,-0.8518768280138873,-1.3751172898436128,-0.12892451633904506,-0.0012508513115958616,-0.0003667960528425426,0.029537590372539033,0.4,-0.05447549487962089,-0.03596922202199424,0.7967273624947991,0.11890691280913625,1.1800345033407211,0.29463041573762894,1.2745958752930164,-0.40820006588687674,30.30543327331543,10.475553572177887,23.503929376602173,0.0,0.0,0.0,0.0,0.0,0.0,0.0,0.0,0.0,0.0,0.0,0.0,0.0,0.0,0.0,0.0,True,0,3.5896928310394287,0.034921875
STABILIZE,3.5070722103118896,29.877790599934464,0.032427342732747395,0.032553911209106445,0.0,0.0,0.0,-0.8510178783649053,-1.3752915663891538,-0.1363345245365684,0.0006383761786015951,0.01203754261195408,0.026124726911545482,0.4,-0.04600059226343134,-0.031590073705515254,0.7970649079838475,0.10256696235171865,0.26679192669689655,0.15751885948702693,1.6561146825551987,-0.5933812218813203,-16.31937325000763,-5.167635157704353,23.544885218143463,0.0,0.0,0.0,0.0,0.0,0.0,0.0,0.0,0.0,0.0,0.0,0.0,0.0,0.0,0.0,0.0,True,0,3.620100498199463,0.029932861328125
STABILIZE,3.540496826171875,29.917003095621904,0.03236988385518392,0.032494306564331055,0.0,0.0,0.0,-0.8506338403066508,-1.3765163046847018,-0.14519933634687807,-0.000918076816990509,0.0021288996022837577,0.0264643047069915,0.4,-0.06071994283143252,-0.03358747976008191,0.782376174542067,0.10519933005848053,-0.9290269576013088,-0.17988955369219184,1.0415161028504372,0.3978414970411706,-13.843902945518494,-3.205403685569763,22.810985147953033,0.0,0.0,0.0,0.0,0.0,0.0,0.0,0.0,0.0,0.0,0.0,0.0,0.0,0.0,0.0,0.0,True,0,3.6486871242523193,0.0349228515625
STABILIZE,3.573979616165161,29.866302087783758,0.03241995175679525,0.03255152702331543,0.0,0.0,0.0,-0.8496159820377601,-1.3764350894666022,-0.13718621710955728,-0.00028189556379603096,-0.00289831284600106,0.02713570895349051,0.4,-0.07525807677461342,-0.03572285122165948,0.7720449344555937,0.10818843255174929,-0.9290269576013088,-0.17988955369219184,1.0415161028504372,0.3978414970411706,-13.843902945518494,-3.205403685569763,22.810985147953033,0.0,0.0,0.0,0.0,0.0,0.0,0.0,0.0,0.0,0.0,0.0,0.0,0.0,0.0,0.0,0.0,True,0,3.677658796310425,0.0349228515625
STABILIZE,3.607404947280884,29.91721648822728,0.032389195760091145,0.032560110092163086,0.0,0.0,0.0,-0.8491260760473704,-1.3769650694575128,-0.13464249191204322,-0.0041792382476242024,0.012840679120435135,0.02325668151002649,0.4,-0.04310565815699066,-0.031485187024536176,0.7583269258443862,0.09348889200101491,0.741209089756012,-0.08392648305743933,1.2303984723985195,-0.40423684862097686,5.568428710103035,-7.118460536003113,19.358021020889282,0.0,0.0,0.0,0.0,0.0,0.0,0.0,0.0,0.0,0.0,0.0,0.0,0.0,0.0,0.0,0.0,True,0,3.7349233627319336,0.02993310546875
STABILIZE,3.64090633392334,29.84972315925815,0.032464059193929036,0.03258872032165527,0.0,0.0,0.0,-0.8485180824895335,-1.3767578159048852,-0.14261282908555886,-0.0016409104766048606,0.0010958256570155983,0.021028211330951948,0.4,-0.048904918256279906,-0.031427391257219425,0.7497284145947021,0.0818817787700243,-0.45746187679469585,-0.06957108853384852,1.2632442638278008,-0.396364148468038,-11.107530444860458,8.302547037601471,9.82595980167389,0.0,0.0,0.0,0.0,0.0,0.0,0.0,0.0,0.0,0.0,0.0,0.0,0.0,0.0,0.0,0.0,True,0,3.7636284828186035,0.0349228515625
STABILIZE,3.6743950843811035,29.86098632360584,0.03237417538960775,0.03251767158508301,0.0,0.0,0.0,-0.8482760376608212,-1.3777564109058822,-0.1433778236128135,-0.0021092401401953975,-0.0055297964670853045,0.022543396354799284,0.4,-0.05809911605149135,-0.02613975293421622,0.7554395734003214,0.0860958432744935,-0.6469659972935915,0.22671881597489119,1.8357926979660988,0.45389685955946524,7.098310440778732,-1.1099448427557945,19.38517540693283,0.0,0.0,0.0,0.0,0.0,0.0,0.0,0.0,0.0,0.0,0.0,0.0,0.0,0.0,0.0,0.0,True,0,3.7921810150146484,0.034922119140625
