Mode,Time,Freq,time2delay,actualDelay,North-Desired,East-Desired,Down-Desired,Roll-UAV,Pitch-UAV,Yaw-UAV,Roll-Control,Pitch-Control,Yaw-Control,Thrust-Control,North-Pos,East-Pos,Down-Pos,Yaw-Ang,North-Vel,East-Vel,Down-Vel,Yaw-Vel,North-Acc,East-Acc,Down-Acc,North-Avg,East-Avg,Down-Avg,Yaw-Avg,North-Dif,East-Dif,Down-Dif,Yaw-Dif,North-One,East-One,Down-One,Yaw-One,North-Two,East-Two,Down-Two,Yaw-Two,Landing-State,Q-Size,Kalman-Time,Kalman-Dt
STABILIZE,0.03432512283325195,29.140669617113517,0.03279617627461751,0.03293633460998535,0.0,0.0,0.0,-0.6844842060216544,-0.8047805392525338,130.02952141844264,-0.0654051700653064,0.06615195037026367,0.020881272948134598,0.4,0.10435561930255788,0.10280342201924918,0.15083045137103687,0.10406228938475084,0.2195684239268303,0.010590134479571134,1.7031362280249596,0.07846138454391158,3.762265294790268,-1.008764375001192,25.83158016204834,0.0,0.0,0.0,0.0,0.0,0.0,0.0,0.0,0.0,0.0,0.0,0.0,0.0,0.0,0.0,0.0,False,0,0.17529034614562988,0.034926025390625
STABILIZE,0.06766533851623535,29.99337819380582,0.03235057195027669,0.03247952461242676,0.0,0.0,0.0,-0.6861682745388856,-0.8044093611598259,130.02591507856087,-0.011985181128256178,0.012354752244373903,0.023376949942205377,0.4,0.11901402429028332,0.11687026486114525,0.18247800173229786,0.11615245860911738,0.1416585873812437,0.08994408999569714,1.7540723085403442,-0.2796469410839511,-0.17038618680089712,1.0887258686125278,21.457360684871674,0.0,0.0,0.0,0.0,0.0,0.0,0.0,0.0,0.0,0.0,0.0,0.0,0.0,0.0,0.0,0.0,False,0,0.20398426055908203,0.03492578125
STABILIZE,0.10113382339477539,29.879919072179636,0.032492669423421223,0.03264188766479492,0.0,0.0,0.0,-0.6852026031841222,-0.8047687465040448,130.01815598366375,-0.011280879016944483,0.010486338129146847,0.02564805781550128,0.4,0.1299775940847825,0.12912634113088217,0.21527648994610568,0.1270827711813855,-0.10440829209983349,0.12434375239536166,1.942979358136654,-0.04534201737203792,-5.456643924117088,-1.0118681006133556,20.143334567546844,0.0,0.0,0.0,0.0,0.0,0.0,0.0,0.0,0.0,0.0,0.0,0.0,0.0,0.0,0.0,0.0,False,0,0.23275327682495117,0.03492626953125
STABILIZE,0.1345806121826172,29.900367846245974,0.03248289426167806,0.032587528228759766,0.0,0.0,0.0,-0.6857890923182441,-0.8055139841755168,130.01174926622227,-0.010572496011767239,0.009450445470012999,0.027515581703055434,0.4,0.13871647479013016,0.13961594334837815,0.24823056454791065,0.13596618496215604,-0.10440829209983349,0.12434375239536166,1.942979358136654,-0.04534201737203792,-5.456643924117088,-1.0118681006133556,20.143334567546844,0.0,0.0,0.0,0.0,0.0,0.0,0.0,0.0,0.0,0.0,0.0,0.0,0.0,0.0,0.0,0.0,False,0,0.261444091796875,0.03492626953125
STABILIZE,0.1680009365081787,29.918923738667086,0.03245404561360677,0.03259086608886719,0.0,0.0,0.0,-0.6853907535514149,-0.8055778037555741,130.00769213385527,-0.0089693544989919,0.007869645819008545,0.029349296078483467,0.4,0.14449160479903733,0.1470328394755633,0.28097174016713694,0.1446506605845756,-0.2182874595746398,-0.048459251411259174,1.9119121134281158,0.14352783431050256,-0.4240802489221096,-2.9665296897292137,24.595095217227936,0.0,0.0,0.0,0.0,0.0,0.0,0.0,0.0,0.0,0.0,0.0,0.0,0.0,0.0,0.0,0.0,False,0,0.29006052017211914,0.02993701171875
STABILIZE,0.2014915943145752,29.860561144215914,0.03250244458516439,0.03263044357299805,0.0,0.0,0.0,-0.686116834676699,-0.8057046425028953,130.00251485046442,-0.010473117477437198,0.009103909952357667,0.03062337850283582,0.4,0.15191836509515746,0.15643522996754586,0.3382620243756792,0.15051778260292736,0.03607185499276966,0.11656763963401318,1.8617426976561546,-0.08892886289036768,-1.8984988331794739,1.038107369095087,26.34349763393402,0.0,0.0,0.0,0.0,0.0,0.0,0.0,0.0,0.0,0.0,0.0,0.0,0.0,0.0,0.0,0.0,False,0,0.3475534915924072,0.029937255859375
STABILIZE,0.2447657585144043,23.107839788441407,0.03244617780049642,0.04237675666809082,0.0,0.0,0.0,-0.6872274341079136,-0.8041009887909704,129.99440058573043,-0.006115795091661845,0.0055086967906576145,0.03130932359622792,0.4,0.15354899727214685,0.1589572216415468,0.36366438362106046,0.15328425999248393,0.035570235922932625,0.10177914518862963,1.8620491027832031,0.14585989034481234,5.204882845282555,3.027893416583538,21.579791605472565,0.0,0.0,0.0,0.0,0.0,0.0,0.0,0.0,0.0,0.0,0.0,0.0,0.0,0.0,0.0,0.0,False,0,0.37601304054260254,0.03492578125
STABILIZE,0.2806854248046875,27.84248957807812,0.032422574361165364,0.035111427307128906,0.0,0.0,0.0,-0.6869106307243015,-0.8055217748600388,129.98403235857037,-0.006646617475186246,0.006341177305919938,0.032059585000260925,0.4,0.15621117877120994,0.1617985586638154,0.39466968324517493,0.15647265695158935,-0.006176479655550793,-0.018181501945946366,1.814398355782032,0.036332177433677906,3.829166293144226,-1.1223074048757553,22.920086979866028,0.0,0.0,0.0,0.0,0.0,0.0,0.0,0.0,0.0,0.0,0.0,0.0,0.0,0.0,0.0,0.0,False,0,0.40482282638549805,0.034926025390625
STABILIZE,0.31427717208862305,29.770061750301654,0.03250077565511068,0.03262209892272949,0.0,0.0,0.0,-0.687124714466099,-0.8057455169162095,129.9803167356619,-0.005125181491276346,0.005824022716475458,0.032322992747979076,0.4,0.1576963420155928,0.16185023989081426,0.4245753350537567,0.15726356458690377,-0.01982867397600785,-0.16314657405018806,1.774795912206173,-0.08608272172920205,-0.8544523268938065,-1.1019250378012657,28.086423873901367,0.0,0.0,0.0,0.0,0.0,0.0,0.0,0.0,0.0,0.0,0.0,0.0,0.0,0.0,0.0,0.0,False,0,0.4334142208099365,0.03492626953125
STABILIZE,0.34966325759887695,28.26026668104058,0.03235009511311849,0.03369617462158203,0.0,0.0,0.0,-0.6865876374817539,-0.8050399797192884,129.9760956787548,-0.0039031316963019417,0.006262528916429385,0.032114261308334634,0.4,0.15983030081019145,0.1598403502417658,0.46773613773839,0.15568023276130527,0.119078962597996,-0.04955939366482198,1.4621579088270664,-0.030721603917335555,0.24182454217225313,0.7612171582877636,18.1972935795784,0.0,0.0,0.0,0.0,0.0,0.0,0.0,0.0,0.0,0.0,0.0,0.0,0.0,0.0,0.0,0.0,False,0,0.4909098148345947,0.029936767578125
STABILIZE,0.3835735321044922,29.485855688656432,0.031542332967122395,0.0330042839050293,0.0,0.0,0.0,-0.6877709677554585,-0.8042421816077192,129.96753062153562,-0.004841174951153076,0.0036591811927999484,0.03188634150626555,0.4,0.15752173071719422,0.15944034024044648,0.4872303841241755,0.15400515031647696,-0.029174101655371487,0.12822879943996668,1.640787348151207,0.02525120936153714,-4.390094801783562,-0.9202385321259499,22.43206650018692,0.0,0.0,0.0,0.0,0.0,0.0,0.0,0.0,0.0,0.0,0.0,0.0,0.0,0.0,0.0,0.0,False,0,0.5197570323944092,0.034926025390625
STABILIZE,0.4170382022857666,29.88247363921345,0.03249934514363607,0.03263378143310547,0.0,0.0,0.0,-0.6875758804772901,-0.8040863145564254,129.96298171554838,-0.005031829082661315,0.004312732998565454,0.032081563035460704,0.4,0.15640689388963647,0.1593322335788024,0.5122072385233684,0.15446452429704147,-0.026003411039710045,0.05264313658699393,1.6206871718168259,0.09864724157362395,-3.4228820353746414,-0.9375154040753841,20.09699195623398,0.0,0.0,0.0,0.0,0.0,0.0,0.0,0.0,0.0,0.0,0.0,0.0,0.0,0.0,0.0,0.0,False,0,0.5483901500701904,0.03492626953125
STABILIZE,0.4505348205566406,29.853334946653664,0.032486947377522786,0.03261828422546387,0.0,0.0,0.0,-0.6877462616805702,-0.8037068121706665,129.95464888476096,-0.0043799138126465464,0.004016740760095198,0.03200155728872849,0.4,0.1548302261709859,0.15815058073117946,0.540260477816791,0.15355098273155443,-0.015132056432776153,0.013750378275290132,1.918923668563366,0.032625599189755945,1.9584625959396362,2.8541645035147667,23.97294044494629,0.0,0.0,0.0,0.0,0.0,0.0,0.0,0.0,0.0,0.0,0.0,0.0,0.0,0.0,0.0,0.0,False,0,0.5770609378814697,0.03492578125
STABILIZE,0.4839468002319336,29.929171334584453,0.032440932591756184,0.03256392478942871,0.0,0.0,0.0,-0.6877164329638042,-0.8036014778470603,129.950632733529,-0.004048497804094799,0.003666727937383696,0.03182575455205413,0.4,0.15272937588279564,0.15645769158016753,0.5675497993962824,0.15216310849793488,-0.015132056432776153,0.013750378275290132,1.918923668563366,0.032625599189755945,1.9584625959396362,2.8541645035147667,23.97294044494629,0.0,0.0,0.0,0.0,0.0,0.0,0.0,0.0,0.0,0.0,0.0,0.0,0.0,0.0,0.0,0.0,False,0,0.6059303283691406,0.03492578125
STABILIZE,0.5178766250610352,29.471559968239916,0.03247836430867513,0.03311777114868164,0.0,0.0,0.0,-0.6885932584985046,-0.802987774677964,129.94153492155453,-0.0021906137940063924,0.0016082514645709253,0.03122401595885567,0.4,0.14732405826870798,0.15178674323489733,0.613127716111001,0.14864951870677198,-0.02474399807397276,-0.04053611482959241,1.4657407999038696,-0.016075405498000402,0.7950553670525551,0.864157360047102,24.349045753479004,0.0,0.0,0.0,0.0,0.0,0.0,0.0,0.0,0.0,0.0,0.0,0.0,0.0,0.0,0.0,0.0,False,0,0.6631166934967041,0.02993603515625
STABILIZE,0.5513620376586914,29.86502613178394,0.032473119099934895,0.03259086608886719,0.0,0.0,0.0,-0.6887872251987625,-0.8033157304798304,129.9385842798331,-0.002052251735656274,0.0020897969526991315,0.03048875942439027,0.4,0.1429853484749396,0.14714754976583083,0.6245555634369859,0.14449017294456995,-0.02474399807397276,-0.04053611482959241,1.4657407999038696,-0.016075405498000402,0.7950553670525551,0.864157360047102,24.349045753479004,0.0,0.0,0.0,0.0,0.0,0.0,0.0,0.0,0.0,0.0,0.0,0.0,0.0,0.0,0.0,0.0,False,0,0.6918656826019287,0.02993603515625
STABILIZE,0.5847575664520264,29.94434211465696,0.03246000607808431,0.03258395195007324,0.0,0.0,0.0,-0.6883991317156882,-0.8032704271157263,129.9358522041651,-0.0035915477495342156,0.004378175021234795,0.029358396689534928,0.4,0.14246397116413897,0.14513262668706883,0.6377130824471074,0.1383756361766027,0.2323885215446353,0.1375670894049108,1.6182050108909607,-0.14385691069027964,6.072591245174408,0.9414377622306347,20.01459002494812,0.0,0.0,0.0,0.0,0.0,0.0,0.0,0.0,0.0,0.0,0.0,0.0,0.0,0.0,0.0,0.0,False,0,0.7206075191497803,0.03492578125
STABILIZE,0.6182794570922852,29.83231386383681,0.032506736119588216,0.032633304595947266,0.0,0.0,0.0,-0.6880968958449151,-0.8030057572853883,129.9272188450542,-0.0031832624568087055,0.0038470947876234405,0.028744918266636825,0.4,0.1410826051769495,0.14252854508130958,0.6602611468756008,0.13485731504354528,0.11764728697016835,0.04255294625181705,1.8681135028600693,-0.017958881854957656,-3.9059825241565704,1.0893382132053375,27.599459886550903,0.0,0.0,0.0,0.0,0.0,0.0,0.0,0.0,0.0,0.0,0.0,0.0,0.0,0.0,0.0,0.0,False,0,0.7498006820678711,0.034927001953125
STABILIZE,0.6516735553741455,29.9439145582272,0.03241923650105794,0.03256082534790039,0.0,0.0,0.0,-0.6884908590218073,-0.803039534705268,129.92190495787992,-0.003000405372351646,0.0037308603985277402,0.028086470432660573,0.4,0.1395431299636617,0.139719735208773,0.6818968728944683,0.1311263596248534,0.11764728697016835,0.04255294625181705,1.8681135028600693,-0.017958881854957656,-3.9059825241565704,1.0893382132053375,27.599459886550903,0.0,0.0,0.0,0.0,0.0,0.0,0.0,0.0,0.0,0.0,0.0,0.0,0.0,0.0,0.0,0.0,False,0,0.7779734134674072,0.034927001953125
STABILIZE,0.6867272853851318,28.52724651086868,0.03247097333272298,0.03425335884094238,0.0,0.0,0.0,-0.6886045709993175,-0.8036448602204604,129.9142551460095,-0.0016983108579738976,0.0010385687636984735,0.02794401649045886,0.4,0.13347760597937194,0.1347216416598188,0.6960583049277164,0.12995805201174604,-0.1610663952305913,-0.08559284615330398,1.4524172060191631,0.15573266198580132,2.225847728550434,-1.2480968609452248,15.913313627243042,0.0,0.0,0.0,0.0,0.0,0.0,0.0,0.0,0.0,0.0,0.0,0.0,0.0,0.0,0.0,0.0,False,0,0.8067600727081299,0.064862060546875
STABILIZE,0.7202394008636475,29.841865230414584,0.032549174626668294,0.03268146514892578,0.0,0.0,0.0,-0.6891312426173489,-0.8029851599961724,129.90984284380568,-0.004876273729899412,-5.461504868175327e-06,0.027800714292385394,0.4,0.12628371597465626,0.13521407627664425,0.7626306669659032,0.1288104656909502,0.0460091105196625,0.2794763306155801,1.6927672550082207,0.04013747992555432,-0.6894063670188189,3.0832575634121895,24.677398800849915,0.0,0.0,0.0,0.0,0.0,0.0,0.0,0.0,0.0,0.0,0.0,0.0,0.0,0.0,0.0,0.0,False,0,0.8643448352813721,0.02993603515625
STABILIZE,0.7558321952819824,28.0959506983287,0.032479079564412434,0.03467702865600586,0.0,0.0,0.0,-0.6882333395457567,-0.8029286508529612,129.9051709944134,-0.0011645838092384099,0.0010366782005097747,0.027491270099526687,0.4,0.12074126402401915,0.12940900218352,0.7679873365487084,0.12681279262014972,-0.027999142184853554,-0.03616083413362503,1.6513366252183914,0.1731254585627611,-1.1363288387656212,0.8381102234125137,21.77843600511551,0.0,0.0,0.0,0.0,0.0,0.0,0.0,0.0,0.0,0.0,0.0,0.0,0.0,0.0,0.0,0.0,False,0,0.8931021690368652,0.034926025390625
STABILIZE,0.7892165184020996,29.953537532047392,0.03240326245625814,0.03253579139709473,0.0,0.0,0.0,-0.6870406177619433,-0.8034704769532136,129.89812223918995,-0.0011921586930695011,0.001018288590952128,0.02730175692350665,0.4,0.11571245560766433,0.12421572778494955,0.7789815773408119,0.12544571391830958,-0.027999142184853554,-0.03616083413362503,1.6513366252183914,0.1731254585627611,-1.1363288387656212,0.8381102234125137,21.77843600511551,0.0,0.0,0.0,0.0,0.0,0.0,0.0,0.0,0.0,0.0,0.0,0.0,0.0,0.0,0.0,0.0,False,0,0.9217731952667236,0.034926025390625
STABILIZE,0.8226878643035889,29.874172892969323,0.03247645696004232,0.032647132873535156,0.0,0.0,0.0,-0.6872028881155839,-0.8037226603439751,129.8936416350944,-0.001666358480747703,0.00033559167755443096,0.026665625050097477,0.4,0.10980052990709217,0.11998986502318157,0.7941954321741173,0.12185692445308008,-0.07941625081002712,0.02019476523855701,1.9359147176146507,0.04490740323040288,1.3697503134608269,-1.1094547808170319,21.315626800060272,0.0,0.0,0.0,0.0,0.0,0.0,0.0,0.0,0.0,0.0,0.0,0.0,0.0,0.0,0.0,0.0,False,0,0.9614896774291992,0.034926025390625
STABILIZE,0.8568837642669678,29.245106994191843,0.03246501286824544,0.033362388610839844,0.0,0.0,0.0,-0.6877486629189502,-0.804138714913964,129.8891337102422,-0.002022701565038419,0.0007584674477371851,0.025990070378716444,0.4,0.1047212541556817,0.11643342012210874,0.8020182849674787,0.11807560053482631,-0.03370370250195265,0.05705573130398989,1.5540185384452343,0.03414299508298304,-2.7504488825798035,-0.9861622005701065,22.748224437236786,0.0,0.0,0.0,0.0,0.0,0.0,0.0,0.0,0.0,0.0,0.0,0.0,0.0,0.0,0.0,0.0,False,0,0.9874646663665771,0.02993701171875
STABILIZE,0.8905434608459473,29.710383713599626,0.032422574361165364,0.03257131576538086,0.0,0.0,0.0,-0.6872196967842445,-0.8050163408614579,129.88010420015945,-0.0006272718155518057,-0.00019683145300681892,0.02588985231348435,0.4,0.09842951792569113,0.11086503201223057,0.8113274607369028,0.1171821544556462,-0.09788904571905732,-0.043099839240312576,2.003650553524494,0.22122158296494138,-6.735658645629883,0.9579801931977272,25.411707162857056,0.0,0.0,0.0,0.0,0.0,0.0,0.0,0.0,0.0,0.0,0.0,0.0,0.0,0.0,0.0,0.0,False,0,1.0160810947418213,0.034926025390625
STABILIZE,0.9240820407867432,29.815136802746718,0.032282384236653645,0.03270244598388672,0.0,0.0,0.0,-0.6872706030379022,-0.8047402518086012,129.8764022376293,-0.0006891181763018339,0.0004818077621186894,0.025046831313906403,0.4,0.09346244822780622,0.10559597916040633,0.8191194071178814,0.11258742862154753,-0.038976207724772394,-0.050249986816197634,1.5988610684871674,-0.02114556864421859,-1.290862262248993,-0.9511947631835938,26.264989376068115,0.0,0.0,0.0,0.0,0.0,0.0,0.0,0.0,0.0,0.0,0.0,0.0,0.0,0.0,0.0,0.0,False,0,1.0447664260864258,0.034926025390625
STABILIZE,0.9576616287231445,29.77851615193468,0.032486708958943684,0.03283262252807617,0.0,0.0,0.0,-0.6878563984809366,-0.8043164065540902,129.866266236901,0.0014646920065553737,-0.002041755654773306,0.02501749025635837,0.4,0.08467189607574079,0.0971220715985344,0.8283019906287491,0.11206361944777292,-0.014120683772489429,0.004129533044761047,1.47729916498065,0.22464284072845664,-0.8480045013129711,-1.032328512519598,19.6865513920784,0.0,0.0,0.0,0.0,0.0,0.0,0.0,0.0,0.0,0.0,0.0,0.0,0.0,0.0,0.0,0.0,False,0,1.1023900508880615,0.034927001953125
STABILIZE,0.9912419319152832,29.78084195428823,0.03258660634358724,0.03272676467895508,0.0,0.0,0.0,-0.6884579353755738,-0.8051589744212347,129.86297408572105,-0.0029801280491557713,0.0024378057421932347,0.023357237598266932,0.4,0.08347540011526912,0.09614024893960944,0.836721293025685,0.10341616149894704,0.15917746350169182,0.18302728421986103,1.752198114991188,-0.2584160717813334,1.404174417257309,1.1056098155677319,25.99358856678009,0.0,0.0,0.0,0.0,0.0,0.0,0.0,0.0,0.0,0.0,0.0,0.0,0.0,0.0,0.0,0.0,False,0,1.13084077835083,0.02993603515625
STABILIZE,1.0246474742889404,29.933870495792863,0.03245571454366048,0.03258776664733887,0.0,0.0,0.0,-0.6883115665560945,-0.805991937334859,129.85245559439923,-0.002146315024165779,0.00010669716195516405,0.022466563884428477,0.4,0.07860025171939843,0.09385957726595906,0.8434155135740297,0.09863282490425898,-0.05686902441084385,0.11238297447562218,1.9905582070350647,-0.02487933090763507,-2.4214088916778564,1.0141394101083279,26.06724500656128,0.0,0.0,0.0,0.0,0.0,0.0,0.0,0.0,0.0,0.0,0.0,0.0,0.0,0.0,0.0,0.0,False,0,1.159675121307373,0.03492578125
STABILIZE,1.058135747909546,29.862049325055533,0.0325048287709554,0.03261399269104004,0.0,0.0,0.0,-0.6881978012177314,-0.8062916118846932,129.84823453749217,-0.0004156545716776797,0.0010370452985292045,0.0218403787284817,0.4,0.07541664747058713,0.08890772012972539,0.8511037708222546,0.09518364026493754,0.030676249298267066,-0.058850517962127924,1.7414037138223648,0.03160035044274001,1.619468443095684,0.6291655823588371,14.502483606338501,0.0,0.0,0.0,0.0,0.0,0.0,0.0,0.0,0.0,0.0,0.0,0.0,0.0,0.0,0.0,0.0,False,0,1.1883225440979004,0.034926025390625
STABILIZE,1.0915892124176025,29.891844123264633,0.03244450887044271,0.03257107734680176,0.0,0.0,0.0,-0.6876140334871069,-0.8064338185576471,129.8486853299774,-0.0005947742026423664,-0.0010291740432488163,0.021322815640339998,0.4,0.06907747229074114,0.08446020243223239,0.8533568832721581,0.09228723506937947,-0.1574993133544922,-0.0335189513862133,1.4605353586375713,0.05966746537217358,5.499634891748428,2.667292393743992,15.864121913909912,0.0,0.0,0.0,0.0,0.0,0.0,0.0,0.0,0.0,0.0,0.0,0.0,0.0,0.0,0.0,0.0,False,0,1.2228460311889648,0.02993701171875
STABILIZE,1.1250228881835938,29.91060273269247,0.032434972127278645,0.032576799392700195,0.0,0.0,0.0,-0.6861810277827265,-0.8062029261471889,129.83962849913794,-0.001862500958424723,0.0017256938004879025,0.02156692069810268,0.4,0.06741138746290273,0.08221317330147629,0.8537266525873975,0.09319595648841837,0.10368851944804192,0.09323909180238843,1.6809090971946716,0.28650791946608184,0.7513218559324741,0.9116240777075291,25.52506923675537,0.0,0.0,0.0,0.0,0.0,0.0,0.0,0.0,0.0,0.0,0.0,0.0,0.0,0.0,0.0,0.0,False,0,1.25146484375,0.034926025390625
STABILIZE,1.1585965156555176,29.784648596445134,0.032456191380818684,0.03259563446044922,0.0,0.0,0.0,-0.6866073276364706,-0.8060702710669025,129.83192404575416,-0.0020889259827170307,0.0008299322670341471,0.020829464489725367,0.4,0.06438033245226765,0.08041462444515406,0.8633340170011982,0.08921011122840493,0.01871853892225772,0.10689940536394715,1.916247420012951,-0.0167967558501704,0.6332777440547943,-1.0202113538980484,26.405084133148193,0.0,0.0,0.0,0.0,0.0,0.0,0.0,0.0,0.0,0.0,0.0,0.0,0.0,0.0,0.0,0.0,False,0,1.2802278995513916,0.034926025390625
STABILIZE,1.1923279762268066,29.645705077006806,0.03234437306722005,0.03295087814331055,0.0,0.0,0.0,-0.6860221725236708,-0.8068802354529309,129.82312676210321,2.215075642377721e-05,-0.001906019106640145,0.020719559385494076,0.4,0.057026821913305784,0.07526356928737002,0.8639840312517794,0.0883611297596185,-0.2389772329479456,-0.0936849566642195,1.4220820739865303,0.16271610352531624,-2.2776393219828606,-1.2708104215562344,18.33157241344452,0.0,0.0,0.0,0.0,0.0,0.0,0.0,0.0,0.0,0.0,0.0,0.0,0.0,0.0,0.0,0.0,False,0,1.3109164237976074,0.02993701171875
STABILIZE,1.2258474826812744,29.83316262660749,0.03254202206929525,0.032678842544555664,0.0,0.0,0.0,-0.6862860419412155,-0.8062508975539376,129.82065423362366,0.00037422537482524284,-0.001130149779114633,0.019587680407576663,0.4,0.05133410831981031,0.06983840394449202,0.8769452821484468,0.08242588756473838,-0.13383326586335897,-0.07758853025734425,1.9157547503709793,-0.020240268424394393,-1.9047508016228676,-3.1514935195446014,23.272143304347992,0.0,0.0,0.0,0.0,0.0,0.0,0.0,0.0,0.0,0.0,0.0,0.0,0.0,0.0,0.0,0.0,False,0,1.3683559894561768,0.034926025390625
STABILIZE,1.2592787742614746,29.91209590574878,0.03244021733601888,0.032558441162109375,0.0,0.0,0.0,-0.6859541907970881,-0.8068770871626103,129.815927742718,-6.759315836526388e-06,-0.0009770388243643927,0.018890281671699066,0.4,0.046148674050970825,0.06526407497937882,0.8852736686706063,0.07867573755302948,-0.13383326586335897,-0.07758853025734425,1.9157547503709793,-0.020240268424394393,-1.9047508016228676,-3.1514935195446014,23.272143304347992,0.0,0.0,0.0,0.0,0.0,0.0,0.0,0.0,0.0,0.0,0.0,0.0,0.0,0.0,0.0,0.0,False,0,1.3970959186553955,0.034926025390625
STABILIZE,1.2926781177520752,29.940708274143926,0.03248027165730794,0.032587289810180664,0.0,0.0,0.0,-0.6854257582709112,-0.8071289503882545,129.80516336458606,-0.0009953689723662656,0.00263724031319181,0.018140823042024985,0.4,0.04695525446550296,0.062462108615776356,0.884965730186384,0.07467900008130077,0.21006877068430185,0.021357141667976975,1.4346125535666943,-0.037851254193771056,1.1516004800796509,0.7413316052407026,19.32407319545746,0.0,0.0,0.0,0.0,0.0,0.0,0.0,0.0,0.0,0.0,0.0,0.0,0.0,0.0,0.0,0.0,False,0,1.4259560108184814,0.02993701171875
STABILIZE,1.326232671737671,29.80242580131735,0.032514127095540364,0.03266334533691406,0.0,0.0,0.0,-0.6850767782930058,-0.8073771850759022,129.80075106238223,-0.0001895628699588782,0.002218994382020528,0.017025958190866306,0.4,0.047044130166589156,0.05848931757602436,0.8871486526439497,0.06887409733145713,0.1538686454296112,-0.05567935295403004,1.8974529579281807,-0.14506142522258197,3.456072136759758,-1.0558302514255047,30.063095688819885,0.0,0.0,0.0,0.0,0.0,0.0,0.0,0.0,0.0,0.0,0.0,0.0,0.0,0.0,0.0,0.0,False,0,1.4544947147369385,0.034926025390625
STABILIZE,1.3681678771972656,23.846176587640002,0.03240826924641927,0.04053092002868652,0.0,0.0,0.0,-0.6854344027290795,-0.8073356703323532,129.79468585439926,-0.0015767162674783974,-0.0005926119462744591,0.015949266017800726,0.4,0.041649396859583805,0.05654921802708746,0.8949370713335737,0.06322863202621691,-0.1708105206489563,0.05956325912848115,1.9258290529251099,-0.14465328139903405,-5.234231427311897,-1.0578781366348267,24.936187267303467,0.0,0.0,0.0,0.0,0.0,0.0,0.0,0.0,0.0,0.0,0.0,0.0,0.0,0.0,0.0,0.0,False,1,1.483062505722046,0.03492578125
STABILIZE,1.4011075496673584,30.359188164104346,0.03192165692647298,0.03208637237548828,0.0,0.0,0.0,-0.6839288262647677,-0.8073368976319697,129.7867081934487,-0.0011726164319724528,-0.001092693496615627,0.014919253580189215,0.4,0.036691217377164895,0.05439869676953509,0.8934842431963909,0.05788476790612197,-0.07258863770402968,0.2838253043591976,1.589035801589489,-0.03545120976277188,-0.018705485854297876,2.838251180946827,19.190624356269836,0.0,0.0,0.0,0.0,0.0,0.0,0.0,0.0,0.0,0.0,0.0,0.0,0.0,0.0,0.0,0.0,False,0,1.5404436588287354,0.03492578125
STABILIZE,1.4345588684082031,29.892057157110788,0.03245285352071126,0.032575368881225586,0.0,0.0,0.0,-0.6848626411903554,-0.8064288559983283,129.78154457043615,-0.0002376437024294267,0.0025152569578240644,0.01385658950283047,0.4,0.037708337109047814,0.05084592849770007,0.8978423324164763,0.05239624014596685,0.19128196872770786,-0.05642211763188243,1.7595989629626274,-0.15354806866845505,2.624746412038803,-1.0878544300794601,26.421532034873962,0.0,0.0,0.0,0.0,0.0,0.0,0.0,0.0,0.0,0.0,0.0,0.0,0.0,0.0,0.0,0.0,False,0,1.5691602230072021,0.034926025390625
STABILIZE,1.4682152271270752,29.714172363713647,0.03246024449666341,0.03282761573791504,0.0,0.0,0.0,-0.6842664403810074,-0.8058977554295068,129.7758208719117,-0.0012941042945858515,0.0007027466007111867,0.013850787280914496,0.4,0.03576981135767624,0.04912245170766206,0.90126091281234,0.05219143727408217,0.008540924318367615,0.047653247020207345,1.7236830666661263,0.1544361133224757,1.5834920108318329,2.7792586013674736,23.194952309131622,0.0,0.0,0.0,0.0,0.0,0.0,0.0,0.0,0.0,0.0,0.0,0.0,0.0,0.0,0.0,0.0,False,0,1.597874641418457,0.02993701171875
STABILIZE,1.5016388893127441,29.917856684308887,0.03248742421468099,0.03268170356750488,0.0,0.0,0.0,-0.6846164875759705,-0.8057718238166848,129.7668186825856,-0.00041316508827876625,0.002721530893788861,0.014506338122246148,0.4,0.03714194842459907,0.04607115294725093,0.899864061009772,0.05528407180337397,0.19570791628211737,-0.03887706552632153,1.742265373468399,0.3409887632981299,3.4663449972867966,-5.092651769518852,21.315380930900574,0.0,0.0,0.0,0.0,0.0,0.0,0.0,0.0,0.0,0.0,0.0,0.0,0.0,0.0,0.0,0.0,False,0,1.6266226768493652,0.034926025390625
STABILIZE,1.5351674556732178,29.826585978111687,0.03258660634358724,0.032708168029785156,0.0,0.0,0.0,-0.6849677620705501,-0.8056810570059176,129.7620375501666,-0.0003582863934739854,0.002794381734828699,0.015186381447050645,0.4,0.03855320238439369,0.04306871121193671,0.9034740414418847,0.05848859314143016,0.19570791628211737,-0.03887706552632153,1.742265373468399,0.3409887632981299,3.4663449972867966,-5.092651769518852,21.315380930900574,0.0,0.0,0.0,0.0,0.0,0.0,0.0,0.0,0.0,0.0,0.0,0.0,0.0,0.0,0.0,0.0,False,0,1.6553912162780762,0.034926025390625
STABILIZE,1.5691478252410889,29.42854937730223,0.03249529202779134,0.03316617012023926,0.0,0.0,0.0,-0.6835754706969254,-0.8053833034467873,129.75461996472796,0.0006787352822993812,-0.002788014143684987,0.014667231815745096,0.4,0.03088000397223381,0.038487978933601126,0.8994841586862543,0.05570350530801567,-0.05190918454900384,-0.008144268940668553,1.632220670580864,-0.09110428481112336,-1.2513129971921444,-3.242751955986023,21.098415553569794,0.0,0.0,0.0,0.0,0.0,0.0,0.0,0.0,0.0,0.0,0.0,0.0,0.0,0.0,0.0,0.0,True,0,1.7127981185913086,0.02993701171875
STABILIZE,1.6026520729064941,29.84547511634195,0.032506497701009114,0.03264880180358887,0.0,0.0,0.0,-0.6835079692180186,-0.8065065494001371,129.75347249294742,0.00046265573127453953,0.00021642468822098647,0.015530270182246047,0.4,0.028464710351129893,0.03452170319199096,0.8934597842328832,0.0598183913627678,-0.04671183996833861,-0.11631128145381808,1.4940999448299408,0.38926808884849723,-3.7217799574136734,-1.4134770259261131,17.05520451068878,0.0,0.0,0.0,0.0,0.0,0.0,0.0,0.0,0.0,0.0,0.0,0.0,0.0,0.0,0.0,0.0,True,0,1.7414329051971436,0.034926025390625
STABILIZE,1.6360764503479004,29.92041774264884,0.03245976765950521,0.03258991241455078,0.0,0.0,0.0,-0.6837128215322661,-0.8063671174915337,129.7452352848084,-0.0012798684490005652,0.00029221723449418665,0.014396728913341528,0.4,0.026285208833974432,0.03351579103850579,0.8967543422692371,0.05397028882754996,-0.032211485086008906,0.060848984867334366,1.7634261399507523,-0.21714283945253307,-3.650880604982376,0.6106141954660416,20.41616588830948,0.0,0.0,0.0,0.0,0.0,0.0,0.0,0.0,0.0,0.0,0.0,0.0,0.0,0.0,0.0,0.0,True,0,1.7701587677001953,0.034926025390625
STABILIZE,1.669579267501831,29.848236206687968,0.03248194058736165,0.032653093338012695,0.0,0.0,0.0,-0.6826242067724424,-0.8053955764429522,129.73216230273698,-0.001650475782060075,0.0006451331604947442,0.013855531074524374,0.4,0.02476283853491726,0.033137809398020336,0.894139139351281,0.05109323618715011,0.0029110593459336087,0.09193120058625937,1.4249603264033794,-0.03903997057856442,-1.43892178311944,-3.3408377319574356,15.83409309387207,0.0,0.0,0.0,0.0,0.0,0.0,0.0,0.0,0.0,0.0,0.0,0.0,0.0,0.0,0.0,0.0,True,0,1.7987275123596191,0.02993701171875
STABILIZE,1.70302152633667,29.90164682398232,0.032463820775349934,0.032602787017822266,0.0,0.0,0.0,-0.6823350443106275,-0.8058944470566276,129.73408841608293,-0.0017455120115264827,0.0007080311445669987,0.013309371763436793,0.4,0.023408391315240844,0.03292075749390544,0.8869018326048804,0.04820119796960281,0.0029110593459336087,0.09193120058625937,1.4249603264033794,-0.03903997057856442,-1.43892178311944,-3.3408377319574356,15.83409309387207,0.0,0.0,0.0,0.0,0.0,0.0,0.0,0.0,0.0,0.0,0.0,0.0,0.0,0.0,0.0,0.0,True,0,1.8273513317108154,0.02993701171875
STABILIZE,1.738234281539917,28.398992497901038,0.032477410634358723,0.03260087966918945,0.0,0.0,0.0,-0.6824922987440966,-0.8053021415895406,129.7294438874473,-0.0013768636351547726,0.0011544580579411843,0.013416143079606355,0.4,0.02282337311904088,0.03211813241675328,0.8844101639709457,0.04857264560334748,0.045206653885543346,0.05295194569043815,1.6901124268770218,0.15253773427982206,1.1226789094507694,4.490889981389046,18.755437433719635,0.0,0.0,0.0,0.0,0.0,0.0,0.0,0.0,0.0,0.0,0.0,0.0,0.0,0.0,0.0,0.0,True,1,1.856130838394165,0.034926025390625
STABILIZE,1.7698915004730225,31.58837174273234,0.0307040532430013,0.030848264694213867,0.0,0.0,0.0,-0.6817900165592017,-0.8055122232673714,129.7155786034322,-0.0019052752112711205,-0.0007206065467440858,0.008678691550491797,0.4,0.019273836132098703,0.03218857390400501,0.9045938620081923,0.024802415285826836,-0.02427450817776844,0.09951918618753552,2.0364228636026382,-0.5831479976790545,1.1337930336594582,2.7606120333075523,31.4488023519516,0.0,0.0,0.0,0.0,0.0,0.0,0.0,0.0,0.0,0.0,0.0,0.0,0.0,0.0,0.0,0.0,True,0,1.9134154319763184,0.039916015625
STABILIZE,1.8034083843231201,29.836558160710222,0.03247550328572591,0.03260445594787598,0.0,0.0,0.0,-0.6815418885932598,-0.8061700558618082,129.71663045256437,0.00025252785981203906,0.000810680056241857,0.008372794173018776,0.4,0.018326216173177777,0.028809105701023803,0.9079194934722427,0.023195307725241594,0.022254581563174725,-0.1070857048034668,1.5406614169478416,0.0427591453188219,2.083117887377739,-5.21741583943367,25.680753588676453,0.0,0.0,0.0,0.0,0.0,0.0,0.0,0.0,0.0,0.0,0.0,0.0,0.0,0.0,0.0,0.0,True,0,1.9422650337219238,0.029936767578125
STABILIZE,1.836787462234497,29.95674656458018,0.03243711789449056,0.032569169998168945,0.0,0.0,0.0,-0.6815952494461506,-0.8053347450706568,129.7136115089512,0.0002946607990521644,0.0009372172865147177,0.008194615320435717,0.4,0.017621300140954404,0.025519618021915016,0.9016621167463538,0.022230080591535757,0.022254581563174725,-0.1070857048034668,1.5406614169478416,0.0427591453188219,2.083117887377739,-5.21741583943367,25.680753588676453,0.0,0.0,0.0,0.0,0.0,0.0,0.0,0.0,0.0,0.0,0.0,0.0,0.0,0.0,0.0,0.0,True,0,1.9710071086883545,0.029936767578125
STABILIZE,1.8704025745391846,29.75232312341283,0.032521994908650716,0.03266429901123047,0.0,0.0,0.0,-0.6823998243860369,-0.8053529411214926,129.697533243645,-0.00041871349745304444,0.0011726700479923271,0.006502661397088188,0.4,0.017320361266504963,0.023515037458763745,0.900500532792285,0.013724376258013728,0.04325502086430788,-0.036728306440636516,1.8197959288954735,-0.41057366334516193,2.5079023092985153,-3.4452464431524277,17.9577574133873,0.0,0.0,0.0,0.0,0.0,0.0,0.0,0.0,0.0,0.0,0.0,0.0,0.0,0.0,0.0,0.0,True,0,1.9996883869171143,0.06985205078125
STABILIZE,1.9037468433380127,29.988660331896213,0.03234866460164388,0.032499074935913086,0.0,0.0,0.0,-0.6825244219775367,-0.8051424325568386,129.6928887150094,-0.0007805745018955019,0.00010215949746837684,0.006706100431827202,0.4,0.015324594398208987,0.02217775642804864,0.9357285132889087,0.014692410769539154,-0.025880133034661412,0.035901530645787716,1.8688514828681946,0.2670658660349199,2.9885735362768173,-1.3302297331392765,20.63688635826111,0.0,0.0,0.0,0.0,0.0,0.0,0.0,0.0,0.0,0.0,0.0,0.0,0.0,0.0,0.0,0.0,True,0,2.028522253036499,0.02993701171875
STABILIZE,1.937185287475586,29.90335229784261,0.03248623212178548,0.032631874084472656,0.0,0.0,0.0,-0.6816938603022926,-0.8041238805968605,129.6910445639335,-0.0019547885336001036,0.0016520128618117745,0.00544465711360235,0.4,0.015889026887389995,0.022768482621666686,0.9230885420313885,0.008357234143063965,0.08251926628872752,0.10261400602757931,1.3601213693618774,-0.28302377593743483,1.4092803932726383,4.504226520657539,17.542538046836853,0.0,0.0,0.0,0.0,0.0,0.0,0.0,0.0,0.0,0.0,0.0,0.0,0.0,0.0,0.0,0.0,True,0,2.0589964389801025,0.02993603515625
STABILIZE,1.970646619796753,29.884815709410113,0.03251055081685384,0.03263354301452637,0.0,0.0,0.0,-0.6818232070096998,-0.8036822661783368,129.68614048810943,-0.0007155326797857243,0.003023775725494605,0.0028228489894178716,0.4,0.018607048259098827,0.021351562004351645,0.9033204163617349,-0.004735955500696462,0.16974047757685184,-0.04870139237027615,1.5394069254398346,-0.3415323769869541,2.793760970234871,0.6632445380091667,22.662726044654846,0.0,0.0,0.0,0.0,0.0,0.0,0.0,0.0,0.0,0.0,0.0,0.0,0.0,0.0,0.0,0.0,True,0,2.1162517070770264,0.06985302734375
STABILIZE,2.014040470123291,23.048032486907974,0.032503398259480794,0.04241752624511719,0.0,0.0,0.0,-0.6810425910927613,-0.8033058587220456,129.67900977061592,-0.0015669729531980106,0.001403683519273442,0.0028187577998315745,0.4,0.018607048259098827,0.021351562004351645,0.9033204163617349,-0.004735955500696462,0.16974047757685184,-0.04870139237027615,1.5394069254398346,-0.3415323769869541,2.793760970234871,0.6632445380091667,22.662726044654846,0.0,0.0,0.0,0.0,0.0,0.0,0.0,0.0,0.0,0.0,0.0,0.0,0.0,0.0,0.0,0.0,True,1,2.1162517070770264,0.06985302734375
STABILIZE,2.047459602355957,29.9212715262024,0.032320531209309895,0.03246760368347168,0.0,0.0,0.0,-0.6807851249775636,-0.8032533516428012,129.6751712043024,-0.0030452555132928047,0.0009179509942660819,0.0028489147369434183,0.4,0.017827877974979943,0.023701475883683393,0.9198570536638319,-0.004569870919757535,0.13287784531712532,0.13714280212298036,1.7054438591003418,0.2788365498110997,7.912807911634445,-5.014891177415848,25.926613807678223,0.0,0.0,0.0,0.0,0.0,0.0,0.0,0.0,0.0,0.0,0.0,0.0,0.0,0.0,0.0,0.0,True,0,2.1736528873443604,0.034894287109375
STABILIZE,2.0809450149536133,29.862687162253565,0.03237465222676595,0.03251290321350098,0.0,0.0,0.0,-0.6804649064993663,-0.8035291205305405,129.662822222283,-0.0024017779853459866,-3.438665785833187e-05,0.001908959566105643,0.4,0.015564559797463903,0.02490607557404769,0.9178790790671124,-0.009238729230749358,-0.07559345685876906,0.12054700637236238,1.744139939546585,-0.21379199133440713,3.5116642713546753,4.620911180973053,21.86255156993866,0.0,0.0,0.0,0.0,0.0,0.0,0.0,0.0,0.0,0.0,0.0,0.0,0.0,0.0,0.0,0.0,True,0,2.202228546142578,0.03492578125
STABILIZE,2.1157994270324707,28.688809849521203,0.03234437306722005,0.03401541709899902,0.0,0.0,0.0,-0.6802631491145865,-0.8036819460132195,129.656716033165,-0.0024877591335263406,0.0011502498859416502,0.0014281606918135708,0.4,0.01528079369431467,0.026237803938641384,0.913044975334263,-0.01160214834757354,0.027815898647531867,0.1259070821106434,1.5753528103232384,-0.09693491181468043,2.8427481651306152,-1.2510569766163826,23.54150116443634,0.0,0.0,0.0,0.0,0.0,0.0,0.0,0.0,0.0,0.0,0.0,0.0,0.0,0.0,0.0,0.0,True,1,2.2309484481811523,0.029937255859375
STABILIZE,2.1493399143218994,29.817892282318148,0.0324895699818929,0.03262686729431152,0.0,0.0,0.0,-0.6804397201768019,-0.8043820404031458,129.65771324078383,0.001389339108451565,0.001513300170162937,0.0015480151481138868,0.4,0.015597698537873572,0.02126906536311057,0.8964730960683516,-0.010966183063763717,0.07250894559547305,-0.2797805005684495,1.5834376215934753,0.14358654458889558,4.943913593888283,-1.3248778879642487,24.76966232061386,0.0,0.0,0.0,0.0,0.0,0.0,0.0,0.0,0.0,0.0,0.0,0.0,0.0,0.0,0.0,0.0,True,0,2.288242816925049,0.03492578125
STABILIZE,2.182680368423462,29.990590186909206,0.03239181836446126,0.03253173828125,0.0,0.0,0.0,-0.6803153360287136,-0.8044350277300663,129.64723573059703,-0.0029588585511627183,0.0008735446423720096,0.0011068803646615568,0.4,0.014875265438090316,0.023456980441458015,0.8943845435637435,-0.013127958504326792,-0.001168984454125166,0.17353201983496547,1.6362806782126427,-0.10147355917794068,-3.6785606294870377,2.6316650211811066,20.073628425598145,0.0,0.0,0.0,0.0,0.0,0.0,0.0,0.0,0.0,0.0,0.0,0.0,0.0,0.0,0.0,0.0,True,0,2.3171000480651855,0.034926025390625
STABILIZE,2.216167688369751,29.862899780708,0.03252580960591634,0.0326540470123291,0.0,0.0,0.0,-0.6805072750165616,-0.8049123405591738,129.63972252251003,-0.0015111566830855148,0.002098012506348528,0.0002655963536760757,0.4,0.016133556840362565,0.02322989903786236,0.8934165770044779,-0.01727657378444436,0.10718203848227859,0.038639179547317326,1.6913240775465965,-0.2155881176427089,1.5770461410284042,-1.2510898523032665,21.30289077758789,0.0,0.0,0.0,0.0,0.0,0.0,0.0,0.0,0.0,0.0,0.0,0.0,0.0,0.0,0.0,0.0,True,0,2.3461754322052,0.029937255859375
STABILIZE,2.249751091003418,29.775345188655805,0.032479317982991536,0.032782554626464844,0.0,0.0,0.0,-0.6815536279808958,-0.8066324810129593,129.63700410722035,-0.0009831834709050438,-0.0002511549856415792,0.0003736857243528315,0.4,0.013575124701650822,0.022160943374208934,0.8869004575692462,-0.016680063471000834,-0.10444795479997993,-0.004998086660634726,1.6070235520601273,0.026296655191372215,-1.5047681517899036,0.6881061941385269,21.647875010967255,0.0,0.0,0.0,0.0,0.0,0.0,0.0,0.0,0.0,0.0,0.0,0.0,0.0,0.0,0.0,0.0,True,0,2.374878406524658,0.03492578125
STABILIZE,2.2832367420196533,29.868216226224302,0.03252151807149251,0.03264427185058594,0.0,0.0,0.0,-0.6807794153663043,-0.8067183386252604,129.63031052183374,-0.0010144878600190418,-0.00029554503642226525,0.00043060918512277235,0.4,0.01107699384666595,0.02119214644350857,0.8850852394411535,-0.016340787195812598,-0.10444795479997993,-0.004998086660634726,1.6070235520601273,0.026296655191372215,-1.5047681517899036,0.6881061941385269,21.647875010967255,0.0,0.0,0.0,0.0,0.0,0.0,0.0,0.0,0.0,0.0,0.0,0.0,0.0,0.0,0.0,0.0,True,0,2.403437614440918,0.03492578125
STABILIZE,2.316734552383423,29.85014803006149,0.03245714505513509,0.032584190368652344,0.0,0.0,0.0,-0.6799232938425255,-0.8067455526602346,129.62402674779733,-0.00339254538766277,-0.0007883065280782542,0.0009730366629480125,0.4,0.00791074930461416,0.02405008413232665,0.8843578713426156,-0.01358321798055177,0.07840230828151107,0.10498750489205122,1.6088295727968216,0.08930237552038953,0.7343608886003494,2.701050601899624,20.351463556289673,0.0,0.0,0.0,0.0,0.0,0.0,0.0,0.0,0.0,0.0,0.0,0.0,0.0,0.0,0.0,0.0,True,0,2.4610090255737305,0.034926025390625
STABILIZE,2.350189447402954,29.88992695528238,0.032415183385213216,0.032558441162109375,0.0,0.0,0.0,-0.6803144288942145,-0.8073243578315403,129.61768833224755,-0.0023360020564007645,0.0016364147142639265,0.001307900951863983,0.4,0.008755347717449189,0.025083312387840805,0.8822868786422087,-0.011869190829507175,0.07840230828151107,0.10498750489205122,1.6088295727968216,0.08930237552038953,0.7343608886003494,2.701050601899624,20.351463556289673,0.0,0.0,0.0,0.0,0.0,0.0,0.0,0.0,0.0,0.0,0.0,0.0,0.0,0.0,0.0,0.0,True,0,2.4896695613861084,0.034926025390625
STABILIZE,2.3835930824279785,29.93579330526015,0.03242066701253255,0.03255057334899902,0.0,0.0,0.0,-0.680557380857426,-0.8076683752501269,129.61268863377512,-0.0004179276959692085,0.0008793295541843066,0.0010093651911091271,0.4,0.008352007723726858,0.02300510227660241,0.878999221232205,-0.013317302133375548,0.006798867252655327,-0.069132458884269,1.5354388393461704,-0.08965850585258223,0.7273050956428051,-3.1166983768343925,25.66637098789215,0.0,0.0,0.0,0.0,0.0,0.0,0.0,0.0,0.0,0.0,0.0,0.0,0.0,0.0,0.0,0.0,True,0,2.518333673477173,0.034926025390625
STABILIZE,2.417039632797241,29.89866271278264,0.03247550328572591,0.03260636329650879,0.0,0.0,0.0,-0.6796891997808939,-0.8075889743010255,129.60229308585835,-0.00035075946323590907,0.002487214758176416,0.00090883082951924,0.4,0.010524325886060944,0.02091686280939833,0.8787711020836606,-0.013773938365413489,0.14964902075007558,-0.06958312005735934,1.7017073929309845,-0.035639326779531515,1.5520615503191948,-3.0811429023742676,26.116883754730225,0.0,0.0,0.0,0.0,0.0,0.0,0.0,0.0,0.0,0.0,0.0,0.0,0.0,0.0,0.0,0.0,True,0,2.546964645385742,0.02993701171875
STABILIZE,2.4553825855255127,26.08073622683746,0.03247550328572591,0.0375363826751709,0.0,0.0,0.0,-0.6786889505934572,-0.808114151815176,129.59785346289783,-0.0005795685530130738,0.0016353337576406938,0.0004810928641477926,0.4,0.01133304625544464,0.019058111353360774,0.8722766649202898,-0.015851803855054712,0.0734436558559537,-0.05484991706907749,1.5715328976511955,-0.13785947099047954,2.383037842810154,0.7347775157541037,19.506463408470154,0.0,0.0,0.0,0.0,0.0,0.0,0.0,0.0,0.0,0.0,0.0,0.0,0.0,0.0,0.0,0.0,True,0,2.5757670402526855,0.034926025390625
STABILIZE,2.488870620727539,29.861198917841378,0.03251794179280599,0.03266096115112305,0.0,0.0,0.0,-0.6799599527484614,-0.80879925180544,129.59225270777844,-8.209799313785747e-05,5.867148492222725e-05,0.0011616071036828352,0.4,0.009490122744953543,0.016716488444844087,0.8701052183685282,-0.012407705945498074,-0.07284224266186357,-0.02802765229716897,1.76139734685421,-0.09108901693709,-0.7392564788460732,0.857678335160017,23.10907691717148,0.0,0.0,0.0,0.0,0.0,0.0,0.0,0.0,0.0,0.0,0.0,0.0,0.0,0.0,0.0,0.0,True,0,2.6333670616149902,0.03492578125
STABILIZE,2.52262806892395,29.62853287935407,0.032489808400472005,0.03271961212158203,0.0,0.0,0.0,-0.6791748545198801,-0.8091975372114164,129.58540885823007,-0.0033813553078778005,0.0014793865879148267,0.0014773906362281182,0.4,0.00999691241287946,0.01974785232801176,0.8672199325742613,-0.010792557098711466,0.053814443526789546,0.2175650792196393,1.5094110742211342,0.07682079178157303,0.9517030790448189,0.9071685373783112,22.15864360332489,0.0,0.0,0.0,0.0,0.0,0.0,0.0,0.0,0.0,0.0,0.0,0.0,0.0,0.0,0.0,0.0,True,0,2.662160873413086,0.02993017578125
STABILIZE,2.55586314201355,30.08286892594585,0.03221109708150228,0.032392263412475586,0.0,0.0,0.0,-0.679378106008541,-0.8090867600808153,129.5796168578139,-0.003433551974642619,0.0014875075388023173,0.0018081759009594643,0.4,0.010488238279409498,0.02270222539542946,0.8603898812601195,-0.00910815108217261,0.053814443526789546,0.2175650792196393,1.5094110742211342,0.07682079178157303,0.9517030790448189,0.9071685373783112,22.15864360332489,0.0,0.0,0.0,0.0,0.0,0.0,0.0,0.0,0.0,0.0,0.0,0.0,0.0,0.0,0.0,0.0,True,0,2.6906094551086426,0.02993017578125
STABILIZE,2.5893776416778564,29.838680762061948,0.032544644673665364,0.03268146514892578,0.0,0.0,0.0,-0.6787387896300572,-0.8080827756336763,129.5742893102613,-0.0002690370740970583,0.001063861588732589,0.0023944272799738178,0.4,0.01027919880474036,0.02046795114406809,0.8564101902602014,-0.006156292942923268,0.012897653505206108,-0.08365705725736916,1.6458125784993172,0.1535613288403984,-2.086898311972618,-1.140519604086876,20.384666323661804,0.0,0.0,0.0,0.0,0.0,0.0,0.0,0.0,0.0,0.0,0.0,0.0,0.0,0.0,0.0,0.0,True,0,2.719322443008423,0.03492578125
STABILIZE,2.622849464416504,29.87715211739146,0.03248122533162435,0.03260517120361328,0.0,0.0,0.0,-0.6784516015197993,-0.8086297243758062,129.56823776265668,-0.0017546972565179973,0.0003556891602687803,0.0021026376084901316,0.4,0.008950110820117325,0.020701654590526693,0.8569305830220103,-0.007589861622042834,-0.055245147086679935,0.0544823647942394,1.6486236825585365,-0.10195187252303992,-0.7685375399887562,0.789280328899622,18.64318996667862,0.0,0.0,0.0,0.0,0.0,0.0,0.0,0.0,0.0,0.0,0.0,0.0,0.0,0.0,0.0,0.0,True,0,2.7480199337005615,0.039916015625
STABILIZE,2.661498785018921,25.87192045300337,0.03245118459065755,0.037848711013793945,0.0,0.0,0.0,-0.6784740664388663,-0.807134553277808,129.55918093181722,-0.0004932235235036429,0.003010617108472599,0.0027925509254215406,0.4,0.012347001905914116,0.018644411246659814,0.8591370170679552,-0.004124337446951153,0.1862699748016894,-0.07955805631354451,1.7392823472619057,0.02258453742390954,5.411233007907867,-1.0484958067536354,24.56268072128296,0.0,0.0,0.0,0.0,0.0,0.0,0.0,0.0,0.0,0.0,0.0,0.0,0.0,0.0,0.0,0.0,True,0,2.8064255714416504,0.034927001953125
STABILIZE,2.6949899196624756,29.85949824871145,0.032529385884602864,0.03264427185058594,0.0,0.0,0.0,-0.6783795110075439,-0.8066031859047222,129.55562923344883,-0.00028700659660436684,0.003021320776456956,0.0029244410558338114,0.4,0.01515700696695495,0.016617532216504312,0.8616834634926125,-0.0034533330467640937,0.1862699748016894,-0.07955805631354451,1.7392823472619057,0.02258453742390954,5.411233007907867,-1.0484958067536354,24.56268072128296,0.0,0.0,0.0,0.0,0.0,0.0,0.0,0.0,0.0,0.0,0.0,0.0,0.0,0.0,0.0,0.0,True,0,2.835218906402588,0.034927001953125
STABILIZE,2.728426456451416,29.90804335424986,0.03246334393819173,0.03259778022766113,0.0,0.0,0.0,-0.6777833635590488,-0.8073982092519412,129.5446736100201,-0.0026550699604845998,0.0011640055000436138,0.0032826506035483,0.4,0.014870240373132698,0.018453911746889727,0.8611093777246339,-0.001656744070790386,0.0021224514057394117,0.14911104226484895,1.5566783025860786,0.0897720110567874,-0.22356559056788683,0.917354878038168,22.544309496879578,0.0,0.0,0.0,0.0,0.0,0.0,0.0,0.0,0.0,0.0,0.0,0.0,0.0,0.0,0.0,0.0,True,0,2.8641910552978516,0.034926025390625
STABILIZE,2.7664806842803955,26.280100250626568,0.032486947377522786,0.036786794662475586,0.0,0.0,0.0,-0.677281771541876,-0.8061928943068455,129.5405071946264,-0.0013566194778042644,0.0016441412611119994,0.003600272807196754,0.4,0.015414737627895662,0.018091096330919404,0.8583590522226252,-6.83758466041033e-05,0.052392121870070696,0.017363645019941032,1.4324366115033627,0.07763282390065085,1.8183881416916847,-1.1255845427513123,19.309131801128387,0.0,0.0,0.0,0.0,0.0,0.0,0.0,0.0,0.0,0.0,0.0,0.0,0.0,0.0,0.0,0.0,True,0,2.893970012664795,0.02993701171875
STABILIZE,2.7995004653930664,30.2820342507292,0.03203872044881185,0.032186269760131836,0.0,0.0,0.0,-0.6761050046530768,-0.8073434076560223,129.5318328543805,-0.0002958694172249002,-0.0003672565242355958,0.004322192022501661,0.4,0.012667760350584763,0.01608930014932633,0.8512212853252854,0.0035294082559741546,-0.13618390075862408,-0.0769841019064188,1.4157675206661224,0.2032208195105711,2.9369063675403595,-1.1527538299560547,20.949216187000275,0.0,0.0,0.0,0.0,0.0,0.0,0.0,0.0,0.0,0.0,0.0,0.0,0.0,0.0,0.0,0.0,True,0,2.9225544929504395,0.034926025390625
STABILIZE,2.8332772254943848,29.60511028763014,0.03249409993489583,0.03302884101867676,0.0,0.0,0.0,-0.6760561261118289,-0.8076142139844428,129.52687413704308,-0.0007799249002434821,-0.00035057664436278607,0.004024104034687193,0.4,0.010048194335122343,0.014938223244177285,0.8496019607518599,0.002032090861332577,-0.1330010942183435,-0.029874156462028623,1.480464730411768,-0.1044881405413625,-3.8768135011196136,-1.1717259883880615,16.099931299686432,0.0,0.0,0.0,0.0,0.0,0.0,0.0,0.0,0.0,0.0,0.0,0.0,0.0,0.0,0.0,0.0,True,1,2.9511938095092773,0.03492578125
STABILIZE,2.8668863773345947,29.755700279515885,0.03258946736653646,0.03270888328552246,0.0,0.0,0.0,-0.6751169217400993,-0.8062925723800453,129.52233889143417,-3.799626895523943e-06,0.003322464615722986,0.0043979732464717,0.4,0.013429117055974557,0.012614953832970649,0.8411648157708507,0.003888429148433694,0.14374804450199008,-0.1329829334281385,1.2821657583117485,-0.04122518088077223,4.2168594896793365,0.8018712513148785,16.248232126235962,0.0,0.0,0.0,0.0,0.0,0.0,0.0,0.0,0.0,0.0,0.0,0.0,0.0,0.0,0.0,0.0,True,0,3.008575916290283,0.034926025390625
STABILIZE,2.9003803730010986,29.85673507449406,0.03240397771199544,0.03253340721130371,0.0,0.0,0.0,-0.673786849120945,-0.8070287387065257,129.51492130599556,-0.001000718277541133,0.0039102309465934345,0.004671828878357815,0.4,0.01758040547540197,0.011987039866527441,0.8396980536150439,0.005240176228368337,0.26858714409172535,-0.0004836813786823768,1.4742045663297176,0.07097657777084863,8.267707377672195,-1.0690774768590927,18.920035660266876,0.0,0.0,0.0,0.0,0.0,0.0,0.0,0.0,0.0,0.0,0.0,0.0,0.0,0.0,0.0,0.0,True,0,3.0373332500457764,0.03492578125
STABILIZE,2.933687448501587,30.021501682055685,0.032323392232259114,0.032453060150146484,0.0,0.0,0.0,-0.6746387017764925,-0.806854302078426,129.50925224898444,-0.0023510539257434967,0.0009186232131426949,0.004563152602568624,0.4,0.016764359071081383,0.013535982455780292,0.8326512133172399,0.004681142951784514,-0.028879736782982945,0.12760234531015158,1.1461702175438404,-0.0413812613754776,1.79164819419384,0.8585008792579174,16.35795086622238,0.0,0.0,0.0,0.0,0.0,0.0,0.0,0.0,0.0,0.0,0.0,0.0,0.0,0.0,0.0,0.0,True,0,3.0660245418548584,0.029937255859375
STABILIZE,2.967115640640259,29.91465597786162,0.03250578244527181,0.032616376876831055,0.0,0.0,0.0,-0.6743937754617242,-0.8087267344063614,129.49945775771462,-0.002226636018176476,0.0023058218020371567,0.004013510992248208,0.4,0.01818982163500997,0.014808220975129464,0.8311578163257596,0.0019264972646743143,0.11438780929893255,0.11122343130409718,1.7069648951292038,-0.1658552824802379,5.362220481038094,0.9165112860500813,19.832269847393036,0.0,0.0,0.0,0.0,0.0,0.0,0.0,0.0,0.0,0.0,0.0,0.0,0.0,0.0,0.0,0.0,True,0,3.0947535037994385,0.03492578125
STABILIZE,3.000636577606201,29.83252605000178,0.03250578244527181,0.03275036811828613,0.0,0.0,0.0,-0.673736102949846,-0.8084341568499617,129.4952503611859,-0.0023027791987059367,0.0024326255749832324,0.0034684681980574864,0.4,0.01974998135682501,0.016142244911835107,0.8338755877805251,-0.0007960450621812927,0.11438780929893255,0.11122343130409718,1.7069648951292038,-0.1658552824802379,5.362220481038094,0.9165112860500813,19.832269847393036,0.0,0.0,0.0,0.0,0.0,0.0,0.0,0.0,0.0,0.0,0.0,0.0,0.0,0.0,0.0,0.0,True,0,3.123279094696045,0.03492578125
STABILIZE,3.034309148788452,29.698813266491065,0.03255346616109212,0.03278994560241699,0.0,0.0,0.0,-0.674004134513916,-0.807971518255399,129.49109760617054,-0.002200489319811092,0.0020646364860636784,0.002962272216572405,0.4,0.02064211503507526,0.017244858589382094,0.8386018400481693,-0.0033158916859304826,0.07504706154577434,0.09597236639820039,1.826452650129795,-0.1508709013180745,0.3549282904714346,2.8168389573693275,18.10704618692398,0.0,0.0,0.0,0.0,0.0,0.0,0.0,0.0,0.0,0.0,0.0,0.0,0.0,0.0,0.0,0.0,True,1,3.1520891189575195,0.034926025390625
STABILIZE,3.0676796436309814,29.964879191849914,0.032433541615804036,0.03255915641784668,0.0,0.0,0.0,-0.6742661896624624,-0.8074292652683235,129.48112552998234,-0.002148898460677404,-0.00243110393274652,0.003523928907511395,0.4,0.014327520054667846,0.018203238605344542,0.8302342849999641,-0.0005059166693508195,-0.16880581388249993,0.04257966065779328,1.4070278033614159,0.14180174412161983,-3.9114173501729965,0.9076433256268501,21.63781374692917,0.0,0.0,0.0,0.0,0.0,0.0,0.0,0.0,0.0,0.0,0.0,0.0,0.0,0.0,0.0,0.0,True,0,3.2096126079559326,0.034926025390625
STABILIZE,3.101156234741211,29.87183249056335,0.032517226537068684,0.032640933990478516,0.0,0.0,0.0,-0.6742437247433954,-0.8068335980675043,129.47689081269692,-0.0020656331241403294,0.0024590061489560533,0.003392691159802401,0.4,0.01609550559090742,0.018978608207445184,0.8273576322006034,-0.001158231467953791,0.134052406065166,0.0756847090087831,1.3582505285739899,-0.04121308130737926,3.5326771438121796,0.7546763867139816,16.887640953063965,0.0,0.0,0.0,0.0,0.0,0.0,0.0,0.0,0.0,0.0,0.0,0.0,0.0,0.0,0.0,0.0,True,0,3.2384064197540283,0.034926025390625
STABILIZE,3.134793996810913,29.728915192968778,0.03247669537862142,0.03283572196960449,0.0,0.0,0.0,-0.6749259966084562,-0.8077207756076655,129.46754711391233,-0.0012618976339801254,-0.0005153566376769011,0.0030828745923973423,0.4,0.013020174382577307,0.018428603422625395,0.8220327788397312,-0.0026982312398638707,-0.15535098500549793,-0.0030839641112834215,1.2186679989099503,-0.09330517986902773,0.3047233447432518,0.6559364032000303,13.104061782360077,0.0,0.0,0.0,0.0,0.0,0.0,0.0,0.0,0.0,0.0,0.0,0.0,0.0,0.0,0.0,0.0,True,0,3.2671597003936768,0.02993701171875
STABILIZE,3.1683030128479004,29.842714536774174,0.032520564397176106,0.032653093338012695,0.0,0.0,0.0,-0.6739743591580031,-0.8077624504337733,129.46260205695324,-0.0011758848641067379,-0.0006407161835546422,0.002778706368755257,0.4,0.00990667881890071,0.017766160725881674,0.8129467744526876,-0.0042050004627146136,-0.15535098500549793,-0.0030839641112834215,1.2186679989099503,-0.09330517986902773,0.3047233447432518,0.6559364032000303,13.104061782360077,0.0,0.0,0.0,0.0,0.0,0.0,0.0,0.0,0.0,0.0,0.0,0.0,0.0,0.0,0.0,0.0,True,0,3.296074151992798,0.02993701171875
STABILIZE,3.201725721359253,29.92041774264884,0.03246501286824544,0.03259444236755371,0.0,0.0,0.0,-0.6731244274931596,-0.8077889707776599,129.4593508869083,-0.003200548279413461,-0.00010545417036395745,0.002914637802667505,0.4,0.007793735390283473,0.020354390892756792,0.8103275330327532,-0.0035135920424542496,-0.09816179517656565,0.19313013181090355,1.583700254559517,0.038359522987661814,-5.644461885094643,0.8721846155822277,19.96745616197586,0.0,0.0,0.0,0.0,0.0,0.0,0.0,0.0,0.0,0.0,0.0,0.0,0.0,0.0,0.0,0.0,True,0,3.32456111907959,0.034926025390625
STABILIZE,3.235811233520508,29.337362206927423,0.0324886163075765,0.033260345458984375,0.0,0.0,0.0,-0.6729537794856151,-0.8089916710409639,129.45041699947396,-0.00211320115075282,0.003856271783153166,0.0028436484854047336,0.4,0.012164414777149152,0.021095333935533207,0.8089801334961194,-0.0038553999662017053,0.2938485238701105,0.0735817477107048,1.4172298833727837,-0.02197073086816084,5.052487552165985,0.8329909294843674,19.07837986946106,0.0,0.0,0.0,0.0,0.0,0.0,0.0,0.0,0.0,0.0,0.0,0.0,0.0,0.0,0.0,0.0,True,1,3.353951930999756,0.034926025390625
STABILIZE,3.2692623138427734,29.894400729843767,0.03249672253926595,0.03261542320251465,0.0,0.0,0.0,-0.6726313198515964,-0.8084069428149874,129.44588175386505,-0.0005677722598824639,0.004408112039544032,0.0026901040515543225,0.4,0.01712538387036422,0.019321116410463104,0.8080904471799432,-0.0046077046909448124,0.05237282020971179,-0.11926513398066163,1.5364231541752815,-0.027182672132983032,-0.9581795893609524,-1.278762612491846,15.663646161556244,0.0,0.0,0.0,0.0,0.0,0.0,0.0,0.0,0.0,0.0,0.0,0.0,0.0,0.0,0.0,0.0,True,0,3.4113290309906006,0.0349267578125
STABILIZE,3.30275559425354,29.858010322121373,0.032464059193929036,0.032625675201416016,0.0,0.0,0.0,-0.6722584875724489,-0.8092069287215251,129.43834122502136,-0.002663339095679521,0.002747451530033476,0.002596204494897507,0.4,0.019198604807176174,0.020964493766425715,0.8039912823250833,-0.005060268332505087,0.146964390296489,0.1309083541855216,1.2623819522559643,-0.029691299229508222,4.113233834505081,-1.1734151281416416,17.20651239156723,0.0,0.0,0.0,0.0,0.0,0.0,0.0,0.0,0.0,0.0,0.0,0.0,0.0,0.0,0.0,0.0,True,0,3.4415485858917236,0.029937255859375
STABILIZE,3.336193799972534,29.90484474706784,0.03246334393819173,0.03259563446044922,0.0,0.0,0.0,-0.6725425273923863,-0.8087965837627955,129.43376499827747,-0.002634249376116225,0.002712935049702082,0.002514616957114463,0.4,0.021111086896643545,0.02247621894925132,0.7962710852617755,-0.005449977725968015,0.146964390296489,0.1309083541855216,1.2623819522559643,-0.029691299229508222,4.113233834505081,-1.1734151281416416,17.20651239156723,0.0,0.0,0.0,0.0,0.0,0.0,0.0,0.0,0.0,0.0,0.0,0.0,0.0,0.0,0.0,0.0,True,0,3.4701156616210938,0.029937255859375
STABILIZE,3.3697102069854736,29.83804394994629,0.03247645696004232,0.03260207176208496,0.0,0.0,0.0,-0.6718578009280924,-0.809808145451045,129.42901118661513,-0.0014056035261009875,0.0018118255017270288,0.0028433196479025,0.4,0.021491655641831798,0.021953284402748883,0.7952237973048856,-0.0037937795488853002,0.056093797320500016,0.008821756637189537,1.6419697552919388,0.09375263730094291,0.16733934171497822,0.8335142396390438,23.03180992603302,0.0,0.0,0.0,0.0,0.0,0.0,0.0,0.0,0.0,0.0,0.0,0.0,0.0,0.0,0.0,0.0,True,0,3.502882480621338,0.069851806640625
STABILIZE,3.4033799171447754,29.698392692770657,0.03240016301472982,0.03292393684387207,0.0,0.0,0.0,-0.6714625037298779,-0.8088790796413645,129.40652620386743,-0.001896133537724487,0.002358156461595219,0.002765285106134152,0.4,0.02273133388725678,0.022233420639602885,0.8252118133464164,-0.004169845799060235,0.028306484455242753,-0.00378537479264196,1.7555588856339455,-0.015514361153074061,1.4798949472606182,0.7942792028188705,19.748245179653168,0.0,0.0,0.0,0.0,0.0,0.0,0.0,0.0,0.0,0.0,0.0,0.0,0.0,0.0,0.0,0.0,True,0,3.5315730571746826,0.02993701171875
STABILIZE,3.4369304180145264,29.80581434185374,0.032587560017903645,0.03272581100463867,0.0,0.0,0.0,-0.6732981704301718,-0.8094197851637063,129.41515956297835,-0.0013837236396708878,2.9104390117256978e-05,0.0030966892873288045,0.4,0.02018248429742282,0.02167472755877056,0.8164563655347059,-0.0025044421284990907,-0.1003375044092536,0.015353978960774839,1.3410743325948715,0.08553187097470448,-4.1457295417785645,0.6796312984079123,16.532672941684723,0.0,0.0,0.0,0.0,0.0,0.0,0.0,0.0,0.0,0.0,0.0,0.0,0.0,0.0,0.0,0.0,True,0,3.5620932579040527,0.034926025390625
STABILIZE,3.471766233444214,28.706284947745207,0.032488139470418294,0.0340573787689209,0.0,0.0,0.0,-0.6729500442259128,-0.8104711540482121,129.40158114690834,0.004560857469598802,0.0011455540515796225,0.00254780906156975,0.4,0.019504047097261695,0.011269079955485106,0.8193554039654043,-0.005230603690843788,-0.003076366556342691,-0.5424816627055407,1.7538798972964287,-0.15953246163972337,1.5557019971311092,-18.538419902324677,37.53257989883423,0.0,0.0,0.0,0.0,0.0,0.0,0.0,0.0,0.0,0.0,0.0,0.0,0.0,0.0,0.0,0.0,True,1,3.5906074047088623,0.034926025390625
STABILIZE,3.505295515060425,29.824040957087497,0.032547744115193684,0.03274822235107422,0.0,0.0,0.0,-0.6754053905108265,-0.8027918869870022,129.39133586315333,-0.0013704729448164744,0.0016058487902590156,0.0025241998589120985,0.4,0.01961154234214436,0.011207458187940373,0.8190600524367405,-0.005330777135212745,0.08029294549487531,0.6263062357902527,1.383204199373722,0.1428027136805705,6.590472161769867,40.04163444042206,24.099205434322357,0.0,0.0,0.0,0.0,0.0,0.0,0.0,0.0,0.0,0.0,0.0,0.0,0.0,0.0,0.0,0.0,True,0,3.6478030681610107,0.02993701171875
STABILIZE,3.538776159286499,29.869067033178325,0.03254392941792806,0.03266000747680664,0.0,0.0,0.0,-0.6755701154637002,-0.8065718630840754,129.40725020391946,0.010484902534803298,0.002012965217662715,0.006739157336018484,0.4,0.020352178091255415,-0.007729182646811907,0.8108959100531061,0.01569152713094843,0.08314427104778588,-1.0365484282374382,1.3231392949819565,1.17986085777146,7.761544734239578,-28.447777032852173,17.0671284198761,0.0,0.0,0.0,0.0,0.0,0.0,0.0,0.0,0.0,0.0,0.0,0.0,0.0,0.0,0.0,0.0,True,0,3.6788930892944336,0.069851806640625
STABILIZE,3.572267532348633,29.858860547728714,0.03249338467915853,0.032634735107421875,0.0,0.0,0.0,-0.6739781477785582,-0.8108643701731639,129.36065465340164,0.013577211776428436,0.0026612331665713507,0.011782718731544389,0.4,0.022073512585898764,-0.030685370482549143,0.8324652790185764,0.04077292482819219,0.08314427104778588,-1.0365484282374382,1.3231392949819565,1.17986085777146,7.761544734239578,-28.447777032852173,17.0671284198761,0.0,0.0,0.0,0.0,0.0,0.0,0.0,0.0,0.0,0.0,0.0,0.0,0.0,0.0,0.0,0.0,True,0,3.7075562477111816,0.069851806640625
STABILIZE,3.6056416034698486,29.961240365452063,0.0324590524037679,0.03257584571838379,0.0,0.0,0.0,-0.6723568316243265,-0.8120074663637891,129.34527306739076,-0.0012710381640888269,0.0063317929873077956,0.015571443386962251,0.4,0.02956384963796768,-0.028894421017671937,0.856973257154372,0.059517567513873895,0.35217900294810534,0.3048545215278864,1.6468355432152748,0.6788597586835604,14.607591927051544,25.008463859558105,46.70947194099426,0.0,0.0,0.0,0.0,0.0,0.0,0.0,0.0,0.0,0.0,0.0,0.0,0.0,0.0,0.0,0.0,True,0,3.7362005710601807,0.029937255859375
STABILIZE,3.639214515686035,29.788456211870486,0.032528193791707356,0.03278064727783203,0.0,0.0,0.0,-0.6771266515425226,-0.8178739585305953,129.39410891995635,0.0025715489156542468,0.009104418686664284,0.01003339533558602,0.4,0.04113481570833837,-0.0333095862281397,0.8411261849742927,0.03172088847422986,0.6218548398464918,-0.25453795678913593,1.239863596856594,-1.2605453488282916,9.259273111820221,-29.797253012657166,45.18725275993347,0.0,0.0,0.0,0.0,0.0,0.0,0.0,0.0,0.0,0.0,0.0,0.0,0.0,0.0,0.0,0.0,True,0,3.7649576663970947,0.034927001953125
