Mode,Time,Freq,time2delay,actualDelay,North-Desired,East-Desired,Down-Desired,Roll-UAV,Pitch-UAV,Yaw-UAV,Roll-Control,Pitch-Control,Yaw-Control,Thrust-Control,North-Pos,East-Pos,Down-Pos,Yaw-Ang,North-Vel,East-Vel,Down-Vel,Yaw-Vel,North-Acc,East-Acc,Down-Acc,North-Avg,East-Avg,Down-Avg,Yaw-Avg,North-Dif,East-Dif,Down-Dif,Yaw-Dif,North-One,East-One,Down-One,Yaw-One,North-Two,East-Two,Down-Two,Yaw-Two,Landing-State,Q-Size,Kalman-Time,Kalman-Dt
STABILIZE,0.034317731857299805,29.146744682181748,0.032775195439656575,0.032897233963012695,0.0,0.0,0.0,0.10300672320319698,-1.4397734613525401,-132.04864828050347,-0.12063775983409637,-0.040918248357515265,0.003801345942647006,0.4,-0.010771053270425535,0.031790449342858795,0.6426159641031159,0.018944185460799245,0.07950065191835165,8.575120773457456e-05,1.1272391304373741,-0.007951287349033652,-0.02302748616784811,-0.2808698220178485,14.402163028717041,0.0,0.0,0.0,0.0,0.0,0.0,0.0,0.0,0.0,0.0,0.0,0.0,0.0,0.0,0.0,0.0,False,0,3.525817394256592,0.029929931640625
STABILIZE,0.0677804946899414,29.884815709410113,0.032352479298909505,0.032485008239746094,0.0,0.0,0.0,0.10262946197325956,-1.4402009885059006,-132.04965914850064,-0.06121390753523682,-0.022619749967739137,0.0038539043741823505,0.4,-0.01143231645159099,0.030933982031212406,0.6355566724820748,0.019142841879741943,-0.058999855536967516,0.024273106828331947,0.9524569846689701,0.055334677509259134,2.2606516256928444,-0.29425888787955046,13.997691869735718,0.0,0.0,0.0,0.0,0.0,0.0,0.0,0.0,0.0,0.0,0.0,0.0,0.0,0.0,0.0,0.0,False,0,3.5543460845947266,0.034921142578125
STABILIZE,0.1011962890625,29.925754689384046,0.03232601483662923,0.03247189521789551,0.0,0.0,0.0,0.1037781076925853,-1.4404744095161128,-132.05310156384232,-0.042488944982480244,-0.017954423931914543,0.0029275901301064285,0.4,-0.013095357785017619,0.030936505063309954,0.6354709421689927,0.014462958774908625,-0.11449564481154084,0.06870439392514527,1.1747414246201515,-0.24506305195395847,1.2150775641202927,-0.33082272857427597,11.728789657354355,0.0,0.0,0.0,0.0,0.0,0.0,0.0,0.0,0.0,0.0,0.0,0.0,0.0,0.0,0.0,0.0,False,0,3.5830371379852295,0.0349189453125
STABILIZE,0.13464879989624023,29.89418766259221,0.03242472012837728,0.03255105018615723,0.0,0.0,0.0,0.10447089164566557,-1.4404868959556891,-132.05536918664677,-0.03382816657203955,-0.016886604295384244,0.0024353549191341133,0.4,-0.01582550499949751,0.0315955533498012,0.6341974279378495,0.011961774141532159,-0.17824892420321703,0.10687126778066158,1.1044717393815517,-0.11036187644394868,-5.809411779046059,-0.1300670439377427,19.054505228996277,0.0,0.0,0.0,0.0,0.0,0.0,0.0,0.0,0.0,0.0,0.0,0.0,0.0,0.0,0.0,0.0,False,0,3.611708641052246,0.029930908203125
STABILIZE,0.16808176040649414,29.91145595618439,0.0324130376180013,0.032540082931518555,0.0,0.0,0.0,0.10317315570336316,-1.4395578835068616,-132.0607103945777,-0.030357529089338794,-0.008279523811300767,0.0017024700165233077,0.4,-0.009281239550380994,0.03416174612665611,0.638102056695217,0.008269700192326842,0.18005690071731806,0.14115228550508618,1.2900692410767078,-0.07105409774988564,8.399292081594467,1.7491672188043594,16.9401615858078,0.0,0.0,0.0,0.0,0.0,0.0,0.0,0.0,0.0,0.0,0.0,0.0,0.0,0.0,0.0,0.0,False,0,3.6695687770843506,0.0399091796875
STABILIZE,0.2016918659210205,29.75506700434872,0.03242185910542806,0.03255867958068848,0.0,0.0,0.0,0.10334657847525801,-1.4396711152366959,-132.06249990414025,-0.007231672933662284,-0.0052473300839087425,0.0013236996081923834,0.4,-0.014746736669174991,0.03412322751023355,0.6413599566915581,0.00635458123909136,-0.3381971037015319,0.05164635367691517,1.1987882666289806,-0.07180279053658217,-4.234021529555321,1.7331363633275032,14.693489670753479,0.0,0.0,0.0,0.0,0.0,0.0,0.0,0.0,0.0,0.0,0.0,0.0,0.0,0.0,0.0,0.0,False,0,3.6983022689819336,0.0298955078125
STABILIZE,0.2351844310760498,29.853972411633237,0.032245667775472005,0.032380104064941406,0.0,0.0,0.0,0.10381433971169811,-1.4393793380930893,-132.06478118732304,-0.008747835086061567,-0.004236957762765264,0.0020681915628242304,0.4,-0.01412614690258892,0.03513208830503995,0.6369346210964028,0.010043441502503405,0.012633952428586781,0.13369630323722959,1.1206797324120998,0.24887037548813812,1.869826391339302,1.7302853986620903,14.468635618686676,0.0,0.0,0.0,0.0,0.0,0.0,0.0,0.0,0.0,0.0,0.0,0.0,0.0,0.0,0.0,0.0,False,0,3.7271268367767334,0.02993115234375
STABILIZE,0.2684774398803711,30.035690756495086,0.032228978474934895,0.03237295150756836,0.0,0.0,0.0,0.1047952189095354,-1.439899606408774,-132.0682099422864,-0.008116522114280673,-0.0026887760655222304,0.001949441739363321,0.4,-0.013715755610909585,0.03439446178752335,0.6372622243244372,0.009418177011925943,0.0005014764610677958,0.0292249460471794,1.3837032951414585,-0.007076682959834842,-2.5000520050525665,-0.2533508464694023,16.19129776954651,0.0,0.0,0.0,0.0,0.0,0.0,0.0,0.0,0.0,0.0,0.0,0.0,0.0,0.0,0.0,0.0,False,0,3.7558534145355225,0.034919921875
STABILIZE,0.30193638801574707,29.887584083912895,0.032378228505452473,0.032536983489990234,0.0,0.0,0.0,0.10465706766140132,-1.4403831624576695,-132.07036828206412,-0.0071730061164787156,-0.00045890200150963873,0.001831639583884506,0.4,-0.013399505168468606,0.03383803418491925,0.6409201810077213,0.00879971032171633,0.0005014764610677958,0.0292249460471794,1.3837032951414585,-0.007076682959834842,-2.5000520050525665,-0.2533508464694023,16.19129776954651,0.0,0.0,0.0,0.0,0.0,0.0,0.0,0.0,0.0,0.0,0.0,0.0,0.0,0.0,0.0,0.0,False,0,3.784297466278076,0.034919921875
STABILIZE,0.33530235290527344,29.970446165718695,0.03242042859395345,0.032535552978515625,0.0,0.0,0.0,0.1044955443597011,-1.4410103659225473,-132.07566850886005,-0.006450259387950642,-0.003854863436415584,0.001956024842677234,0.4,-0.011910522132844534,0.0350932588880009,0.6419197994652044,0.009390255420800481,0.0689689302816987,0.1374694285914302,1.226489432156086,0.06366415323304918,3.01003847271204,1.6092179343104362,11.739948391914368,0.0,0.0,0.0,0.0,0.0,0.0,0.0,0.0,0.0,0.0,0.0,0.0,0.0,0.0,0.0,0.0,False,0,3.815741539001465,0.034919921875
STABILIZE,0.36883091926574707,29.825949682135594,0.03249982198079427,0.032613515853881836,0.0,0.0,0.0,0.1051404102668855,-1.4411129254818031,-132.07796345242116,-0.006534277926123938,0.0001621417478667122,0.0017565236608561854,0.4,-0.011792724621743701,0.03513668728903099,0.6444269064796153,0.008364775016847268,0.055277987848967314,0.060305342776700854,1.2246772646903992,0.06537223413408128,-0.42062001302838326,-0.2548040123656392,16.85100793838501,0.0,0.0,0.0,0.0,0.0,0.0,0.0,0.0,0.0,0.0,0.0,0.0,0.0,0.0,0.0,0.0,False,0,3.8707659244537354,0.029930908203125
STABILIZE,0.40657830238342285,26.493074022372834,0.03239038785298665,0.036806344985961914,0.0,0.0,0.0,0.10535129235750965,-1.4423756567046093,-132.07941145252522,-0.005294784833141625,-0.0024305625124923075,0.0020333053203159483,0.4,-0.014480656802277884,0.034464736196040915,0.6410270571714138,0.009712028966693688,-0.18513398244976997,0.03348795580677688,1.1600679717957973,0.10484116260387431,-4.093148559331894,-0.36809835582971573,12.561045587062836,0.0,0.0,0.0,0.0,0.0,0.0,0.0,0.0,0.0,0.0,0.0,0.0,0.0,0.0,0.0,0.0,False,0,3.9007177352905273,0.034919921875
STABILIZE,0.4421713352203369,28.09331609722771,0.032378228505452473,0.03468728065490723,0.0,0.0,0.0,0.10379432939186409,-1.4431596343552797,-132.08376911321568,-0.004902867023150665,0.0014629788123108674,0.0017634539583734703,0.4,-0.00945144869097291,0.03333792256062976,0.6445360897407271,0.008333085357612666,0.278586195781827,-0.004194936991552822,1.3710245490074158,-0.05884119924558715,2.2760437801480293,-0.18444258021190763,18.66268962621689,0.0,0.0,0.0,0.0,0.0,0.0,0.0,0.0,0.0,0.0,0.0,0.0,0.0,0.0,0.0,0.0,False,0,3.929386615753174,0.039908203125
STABILIZE,0.47648167610168457,29.145124417174504,0.032425912221272786,0.03345656394958496,0.0,0.0,0.0,0.10338990748780529,-1.4434881237656751,-132.0883453399596,-0.005900265620036674,-2.316274702975766e-05,0.0020680453263159904,0.4,-0.010911396224651836,0.034014786664946096,0.6460432279752456,0.009822297066721466,-0.10747892083600163,0.09443681337870657,1.072587352246046,0.10972582841770447,2.13515218347311,-0.1483810250647366,18.171198666095734,0.0,0.0,0.0,0.0,0.0,0.0,0.0,0.0,0.0,0.0,0.0,0.0,0.0,0.0,0.0,0.0,False,0,3.9591708183288574,0.02494287109375
STABILIZE,0.5108919143676758,29.061319512769703,0.03247788747151693,0.03353762626647949,0.0,0.0,0.0,0.10325890659395855,-1.4450203272955793,-132.0909408118442,-0.0038207349004997643,0.0027241053834678557,0.0017921069734731843,0.4,-0.006461373449819215,0.032622150987947046,0.6413296526985223,0.008413688304030947,0.23919788654893637,-0.000582524944547913,1.2792712077498436,-0.059081269722742524,2.735975757241249,-0.2288416028022766,16.529929637908936,0.0,0.0,0.0,0.0,0.0,0.0,0.0,0.0,0.0,0.0,0.0,0.0,0.0,0.0,0.0,0.0,False,1,3.986786127090454,0.034919921875
STABILIZE,0.5443253517150879,29.90974955787552,0.03244641621907552,0.032568931579589844,0.0,0.0,0.0,0.10317790481927043,-1.4454134900596782,-132.092580057245,-0.003264936230808199,-0.00043918902148699956,0.0020542147093318194,0.4,-0.009964176387256466,0.0320065304995053,0.6425799325223732,0.009691809145412362,-0.15001225983723998,0.12927857460454106,1.201119925826788,0.0065256321021389405,-2.46888417750597,-0.1548344036564231,17.40114986896515,0.0,0.0,0.0,0.0,0.0,0.0,0.0,0.0,0.0,0.0,0.0,0.0,0.0,0.0,0.0,0.0,False,0,4.044041633605957,0.029931884765625
STABILIZE,0.5778264999389648,29.849935593147965,0.03246334393819173,0.032575368881225586,0.0,0.0,0.0,0.1035157857397745,-1.4469354483058274,-132.09755243496076,-0.0018011897194896746,0.0038324525476797736,0.0013954913583560792,0.4,-0.007038374991802116,0.02983228135846708,0.6378630853019145,0.006376843372360675,0.15335038769990206,-0.06005869363434613,1.0682381689548492,-0.17666439034711365,2.3003440350294113,-0.2484324388206005,17.00870841741562,0.0,0.0,0.0,0.0,0.0,0.0,0.0,0.0,0.0,0.0,0.0,0.0,0.0,0.0,0.0,0.0,False,0,4.07273530960083,0.0349189453125
STABILIZE,0.6112358570098877,29.932802375039252,0.03239110310872396,0.032507896423339844,0.0,0.0,0.0,0.10343899947246475,-1.4469137837995538,-132.09965613322512,-0.0029577709991987547,-0.001149342198955588,0.0017349212204899427,0.4,-0.008846556465640523,0.030267975978064344,0.6376277460997135,0.008047125022958379,-0.1288550440222025,0.08829826256260276,1.1387627571821213,0.12109695946765177,-2.8892207890748978,1.6334224492311478,11.727190762758255,0.0,0.0,0.0,0.0,0.0,0.0,0.0,0.0,0.0,0.0,0.0,0.0,0.0,0.0,0.0,0.0,False,0,4.1014440059661865,0.034919921875
STABILIZE,0.6451191902160645,29.516358083335092,0.032416375478108723,0.03299975395202637,0.0,0.0,0.0,0.10231361908499936,-1.4467284081966114,-132.10405477505063,-0.0031660167685197966,0.0006940893415006229,0.0014861016495727828,0.4,-0.007893245087655886,0.031034135387435425,0.6347223090440118,0.006780045546740478,0.037703500129282475,0.10681543499231339,0.9857951663434505,-0.0560216918201206,0.7128881756216288,-0.2815981628373265,12.341251224279404,0.0,0.0,0.0,0.0,0.0,0.0,0.0,0.0,0.0,0.0,0.0,0.0,0.0,0.0,0.0,0.0,False,0,4.130060434341431,0.02993115234375
STABILIZE,0.6786055564880371,29.85949824871145,0.03241899808247884,0.03253674507141113,0.0,0.0,0.0,0.10210311052034546,-1.4468703480653007,-132.1064043601251,-0.00471906902989161,-0.0015716061520779706,0.0012382669652812612,0.4,-0.006929738596448533,0.031678013773921626,0.6287671524844701,0.005522396085503911,0.037703500129282475,0.10681543499231339,0.9857951663434505,-0.0560216918201206,0.7128881756216288,-0.2815981628373265,12.341251224279404,0.0,0.0,0.0,0.0,0.0,0.0,0.0,0.0,0.0,0.0,0.0,0.0,0.0,0.0,0.0,0.0,False,0,4.159060955047607,0.02993115234375
STABILIZE,0.7123236656188965,29.65681477500919,0.032389195760091145,0.03278517723083496,0.0,0.0,0.0,0.10356674535428514,-1.4474344790020615,-132.10946428487327,-0.005704775371524097,-0.0006582710139233463,0.00020391083213458847,0.4,-0.008760016981263856,0.032282975614831844,0.6268948072712692,0.00034943751579094573,-0.1303133089095354,0.10422025807201862,1.215057633817196,-0.29499971223425886,-0.6879877299070358,-0.2330576302483678,13.873152434825897,0.0,0.0,0.0,0.0,0.0,0.0,0.0,0.0,0.0,0.0,0.0,0.0,0.0,0.0,0.0,0.0,False,1,4.187528371810913,0.039908935546875
STABILIZE,0.7463212013244629,29.4145154390468,0.03238991101582845,0.03311753273010254,0.0,0.0,0.0,0.10513672836803604,-1.4489481129551598,-132.11287937945826,-0.006544077833268093,-0.005102809533813532,-0.0005054063151622689,0.4,-0.011467690195516415,0.031432297225752165,0.6291637951927462,-0.003186298574069049,-0.04645659355446696,0.0747352431062609,1.1561015620827675,-0.23658555989435617,2.9270462691783905,1.6659723594784737,10.715923458337784,0.0,0.0,0.0,0.0,0.0,0.0,0.0,0.0,0.0,0.0,0.0,0.0,0.0,0.0,0.0,0.0,False,0,4.244948625564575,0.029930908203125
STABILIZE,0.779865026473999,29.81238183239747,0.032442601521809895,0.03257441520690918,0.0,0.0,0.0,0.10468337456187644,-1.4497027421367406,-132.11498307772263,-0.006357878491679196,-0.004184007228472964,-0.001328731225878525,0.4,-0.011895639322166791,0.031558711175954,0.626419042287314,-0.007278569452798998,-0.04645659355446696,0.0747352431062609,1.1561015620827675,-0.23658555989435617,2.9270462691783905,1.6659723594784737,10.715923458337784,0.0,0.0,0.0,0.0,0.0,0.0,0.0,0.0,0.0,0.0,0.0,0.0,0.0,0.0,0.0,0.0,False,0,4.2736546993255615,0.029930908203125
STABILIZE,0.8148982524871826,28.543165516584324,0.03236201604207357,0.03416013717651367,0.0,0.0,0.0,0.10551927232240965,-1.4496140563992361,-132.1202969648969,-0.0070878871853659675,-0.0035161884878162197,-0.0019690182358688656,0.4,-0.01029843569842881,0.03304597746310892,0.6247321956654159,-0.010443351344925618,0.0769392994698137,0.15735197812318802,1.2064484879374504,-0.18461858586262983,-4.1588883846998215,-0.1610971987247467,19.636644423007965,0.0,0.0,0.0,0.0,0.0,0.0,0.0,0.0,0.0,0.0,0.0,0.0,0.0,0.0,0.0,0.0,False,0,4.3022141456604,0.034919921875
STABILIZE,0.8484170436859131,29.83464807767543,0.032449992497762044,0.0325779914855957,0.0,0.0,0.0,0.10520780502408648,-1.4494045616907871,-132.1227831537548,-0.0063365714425814255,-0.003737815539017348,-0.0020508603608030552,0.4,-0.00975735735578509,0.03269716929732411,0.6229259831885857,-0.010816357649006032,0.015804817667230964,0.03452444216236472,1.0059578344225883,-0.0037314243910492022,-3.033106029033661,-0.2492101164534688,16.02964997291565,0.0,0.0,0.0,0.0,0.0,0.0,0.0,0.0,0.0,0.0,0.0,0.0,0.0,0.0,0.0,0.0,False,0,4.331822395324707,0.034919921875
STABILIZE,0.8818488121032715,29.91038943442512,0.0323825200398763,0.03249621391296387,0.0,0.0,0.0,0.10528709925148211,-1.4484958263660581,-132.1250371161809,-0.005208620658019457,-0.006269409150142319,-0.002519536307523879,0.4,-0.01412168619644514,0.03188309523551773,0.620907875225307,-0.013115836599543164,-0.2814493840560317,0.007542600360466167,1.0019808076322079,-0.12467161634301464,-5.633855611085892,-0.2588462084531784,13.774636387825012,0.0,0.0,0.0,0.0,0.0,0.0,0.0,0.0,0.0,0.0,0.0,0.0,0.0,0.0,0.0,0.0,False,0,4.360743999481201,0.02993115234375
STABILIZE,0.9155642986297607,29.66688357617768,0.032390864690144856,0.03256487846374512,0.0,0.0,0.0,0.10436961274687899,-1.4489359466807008,-132.12898496552117,-0.006000720542253643,-0.0005256957044600728,-0.0021355106289724125,0.4,-0.009744211586273362,0.03208571226714513,0.6194333126913457,-0.011158371606844793,-0.009407271863892674,0.10808713268488646,0.980557594448328,-0.05750677771692236,0.3492623567581177,-0.3578069154173136,12.928664684295654,0.0,0.0,0.0,0.0,0.0,0.0,0.0,0.0,0.0,0.0,0.0,0.0,0.0,0.0,0.0,0.0,False,0,4.418148040771484,0.034920166015625
STABILIZE,0.9488217830657959,30.06389368732663,0.03214910825093587,0.032280683517456055,0.0,0.0,0.0,0.10443252519243715,-1.4498660263465861,-132.13167606005416,-0.005630445877295216,0.00020584506466219055,-0.0015520816150620643,0.4,-0.00925473079880595,0.03174912974101277,0.6198306082098209,-0.008213756899712266,0.010972173913614824,0.03678933426272124,1.146452035754919,0.18151976105270679,-1.46697536110878,-0.28394698165357113,15.641650557518005,0.0,0.0,0.0,0.0,0.0,0.0,0.0,0.0,0.0,0.0,0.0,0.0,0.0,0.0,0.0,0.0,False,0,4.447047472000122,0.029930908203125
STABILIZE,0.9826152324676514,29.590072453032516,0.032351287206014,0.0329127311706543,0.0,0.0,0.0,0.10565496897131076,-1.4508240670993862,-132.13712655101182,-0.005571921126424848,-9.291269227378045e-05,-0.001981624421113446,0.4,-0.008336744738804807,0.032833215282405376,0.6198538334808803,-0.010326501489531247,0.034912448609247804,0.1325029181316495,1.3030139729380608,-0.1352590498867691,2.115132659673691,1.6424033790826797,15.069626271724701,0.0,0.0,0.0,0.0,0.0,0.0,0.0,0.0,0.0,0.0,0.0,0.0,0.0,0.0,0.0,0.0,False,0,4.475573778152466,0.034919921875
STABILIZE,1.0161945819854736,29.781476327075463,0.03244975407918294,0.03258800506591797,0.0,0.0,0.0,0.10515924664795592,-1.4499182132607131,-132.13853356998084,-0.008953098276831202,0.0005716131659931891,-0.002135115669452656,0.4,-0.007133116318411096,0.03638351779629425,0.6228299681414657,-0.01105693707549222,0.05374461761675775,0.27071640361100435,1.291730161756277,-0.044623867003514714,1.081688143312931,1.7118915915489197,14.102154970169067,0.0,0.0,0.0,0.0,0.0,0.0,0.0,0.0,0.0,0.0,0.0,0.0,0.0,0.0,0.0,0.0,False,0,4.5041663646698,0.034920166015625
STABILIZE,1.0496416091918945,29.899088977915913,0.03231051762898763,0.0324249267578125,0.0,0.0,0.0,0.10471635156896292,-1.450096118344251,-132.14096511732538,-0.012712192852695132,0.0047660896304103344,-0.00228340213018899,0.4,-0.005917517488824635,0.03997852200379954,0.6257454041126089,-0.011759060125974241,0.05374461761675775,0.27071640361100435,1.291730161756277,-0.044623867003514714,1.081688143312931,1.7118915915489197,14.102154970169067,0.0,0.0,0.0,0.0,0.0,0.0,0.0,0.0,0.0,0.0,0.0,0.0,0.0,0.0,0.0,0.0,False,0,4.532896518707275,0.034920166015625
STABILIZE,1.0830373764038086,29.943487014006884,0.03229382832845052,0.03244614601135254,0.0,0.0,0.0,0.10518678084804754,-1.4510553330358145,-132.14580089125775,-0.010996751552756487,0.004702552275771273,-0.00207937682604335,0.4,-0.002408337675585278,0.03816651578157626,0.6252770349396115,-0.010703113945977592,0.19053667783737183,-0.05410529556684196,1.0934319347143173,0.058812344364386496,3.450315073132515,-0.3043864155188203,17.66446828842163,0.0,0.0,0.0,0.0,0.0,0.0,0.0,0.0,0.0,0.0,0.0,0.0,0.0,0.0,0.0,0.0,False,0,4.561591148376465,0.034919921875
STABILIZE,1.1168336868286133,29.588819989700394,0.03237107594807943,0.03256487846374512,0.0,0.0,0.0,0.10456806175877958,-1.4512853183117735,-132.14761772157695,-0.006756300560250106,0.006930546612531479,-0.002250705108479953,0.4,0.0005367796840403235,0.03303124145739122,0.6253035821710935,-0.011521132695023903,-0.05238738958723843,-0.020699389278888702,0.8500097319483757,-0.003398726143382146,2.3922663182020187,-0.48812790773808956,10.452195256948471,0.0,0.0,0.0,0.0,0.0,0.0,0.0,0.0,0.0,0.0,0.0,0.0,0.0,0.0,0.0,0.0,False,0,4.619028091430664,0.024943115234375
STABILIZE,1.1501283645629883,30.033324979413553,0.032096179326375325,0.032312870025634766,0.0,0.0,0.0,0.10474612692487593,-1.4509996243053966,-132.15183877848403,-0.007371776606816782,0.004427104630074426,-0.0021862572227471853,0.4,-0.0015766369230665765,0.03458980760328872,0.627270313357618,-0.011161499630453568,-0.13325465843081474,0.17412781016901135,1.6235707327723503,-0.0014174076600697897,-0.43488326482474804,-0.15649242559447885,22.79071807861328,0.0,0.0,0.0,0.0,0.0,0.0,0.0,0.0,0.0,0.0,0.0,0.0,0.0,0.0,0.0,0.0,False,0,4.64760422706604,0.0349189453125
STABILIZE,1.1836438179016113,29.838256217631326,0.03236058553059896,0.03251838684082031,0.0,0.0,0.0,0.10427708502796647,-1.4513896921400278,-132.15440692961195,-0.006900227016153341,0.0028325866571187806,-0.0017643317945365172,0.4,-0.0024097872965520737,0.03693384090135607,0.6246213940803629,-0.009021650001472387,-0.06412831135094166,0.20069393794983625,0.9639695286750793,0.11687322117772614,-4.852362722158432,1.6940686851739883,15.69707989692688,0.0,0.0,0.0,0.0,0.0,0.0,0.0,0.0,0.0,0.0,0.0,0.0,0.0,0.0,0.0,0.0,False,0,4.677146673202515,0.02993212890625
STABILIZE,1.2170073986053467,29.97130280683702,0.03231504758199056,0.03243303298950195,0.0,0.0,0.0,0.10484110924302142,-1.450921290573353,-132.1563740240929,-0.003993697075747504,0.001191602265975692,-0.0015026888329670268,0.4,-0.0032824210088228233,0.036541825575229586,0.6205577327314263,-0.007687733374860968,-0.06359280669130385,0.048692862037569284,1.0627501644194126,0.06369256121710688,0.20062439143657684,-0.3672420512884855,12.36175075173378,0.0,0.0,0.0,0.0,0.0,0.0,0.0,0.0,0.0,0.0,0.0,0.0,0.0,0.0,0.0,0.0,False,0,4.705019235610962,0.034935791015625
STABILIZE,1.2517454624176025,28.786866343632894,0.0306275208791097,0.03207087516784668,0.0,0.0,0.0,0.10511319623191123,-1.4512579975550934,-132.16021259040647,-0.005153036702452,-0.00206996845899486,-0.001247400977421442,0.4,-0.004156081776581598,0.03635429654263552,0.6196428740297285,-0.006389081537935064,-0.06359280669130385,0.048692862037569284,1.0627501644194126,0.06369256121710688,0.20062439143657684,-0.3672420512884855,12.36175075173378,0.0,0.0,0.0,0.0,0.0,0.0,0.0,0.0,0.0,0.0,0.0,0.0,0.0,0.0,0.0,0.0,False,0,4.733869314193726,0.034935791015625
STABILIZE,1.2854583263397217,29.663526549548784,0.032421143849690755,0.03265023231506348,0.0,0.0,0.0,0.10527808126734357,-1.451524374932724,-132.16211138299573,-0.007794208214725422,-0.003770664578798336,-0.001971191771900037,0.4,-0.0036889977527997894,0.03515085672535812,0.623091586648849,-0.009974569142198665,0.017748636309988797,-0.01061823422787711,1.329837180674076,-0.2286971983310939,0.13396060094237328,-0.33794797491282225,12.460490316152573,0.0,0.0,0.0,0.0,0.0,0.0,0.0,0.0,0.0,0.0,0.0,0.0,0.0,0.0,0.0,0.0,False,0,4.762413263320923,0.0349189453125
STABILIZE,1.3192367553710938,29.603438662365985,0.03225091298421224,0.032875776290893555,0.0,0.0,0.0,0.10578394215274764,-1.4500635682239875,-132.16392821331496,-0.008071769957318094,-0.0015473137971968311,-0.0022542452715735893,0.4,-0.0028698761645003157,0.03673671379175291,0.6190885675682699,-0.011351330165896638,0.31721077393740416,0.15800766414031386,0.7327203638851643,-0.11355490983965032,8.25776755809784,1.7117597162723541,10.858087241649628,0.0,0.0,0.0,0.0,0.0,0.0,0.0,0.0,0.0,0.0,0.0,0.0,0.0,0.0,0.0,0.0,False,0,4.820882081985474,0.034919921875
STABILIZE,1.3527514934539795,29.8405913615117,0.03241780598958333,0.03255105018615723,0.0,0.0,0.0,0.10469820887898007,-1.449773285184262,-132.16737062865664,-0.006971287346615286,0.0026241201164388206,-0.0022000097328761284,0.4,0.0012054865012593443,0.037376231526684796,0.6203569417814996,-0.011043189168667183,0.23238728754222393,0.09967397199943662,1.1975767090916634,0.00572775394929038,8.656877279281616,1.8019955605268478,16.153287887573242,0.0,0.0,0.0,0.0,0.0,0.0,0.0,0.0,0.0,0.0,0.0,0.0,0.0,0.0,0.0,0.0,False,0,4.849388360977173,0.034920166015625
STABILIZE,1.3862409591674805,29.858647986787403,0.032340081532796223,0.032474517822265625,0.0,0.0,0.0,0.10473001194730294,-1.4502705016114978,-132.16842247778882,-0.0071273414333543695,0.00836931055394717,-0.0017413589700799165,0.4,0.0070379018977255545,0.03721287528611559,0.6158189862189192,-0.00872074770964466,0.334158050827682,0.052408763440325856,0.8569843135774136,0.12406639754952804,6.626977026462555,-0.18769885646179318,14.498105645179749,0.0,0.0,0.0,0.0,0.0,0.0,0.0,0.0,0.0,0.0,0.0,0.0,0.0,0.0,0.0,0.0,False,0,4.878378629684448,0.02993115234375
STABILIZE,1.4197463989257812,29.847598986649967,0.03232410748799642,0.0324702262878418,0.0,0.0,0.0,0.10276884052101014,-1.4506095564707655,-132.17320361020782,-0.0066772412960758,0.00735519651673553,-0.0014923457380264348,0.4,0.005192368978651015,0.03653123071969578,0.6162792065467131,-0.007450762031180762,-0.11536685051396489,0.03396667598281056,1.3310456648468971,0.05778738910206146,-1.359096635133028,-0.08280242327600718,18.584394454956055,0.0,0.0,0.0,0.0,0.0,0.0,0.0,0.0,0.0,0.0,0.0,0.0,0.0,0.0,0.0,0.0,False,0,4.907059907913208,0.0349189453125
STABILIZE,1.453251600265503,29.84632462819327,0.03226211865743001,0.032410383224487305,0.0,0.0,0.0,0.10186800260250892,-1.4509866042572912,-132.17519802544547,-0.008089276158894666,0.003575271526762619,-0.0016342511707547933,0.4,0.0012617121136490241,0.03713803747977002,0.610721471397502,-0.008133061121308287,-0.24532019160687923,0.09933165274560452,0.7860212586820126,-0.0572513059636014,-6.582938879728317,-0.3138772211968899,7.750210911035538,0.0,0.0,0.0,0.0,0.0,0.0,0.0,0.0,0.0,0.0,0.0,0.0,0.0,0.0,0.0,0.0,False,0,4.935545206069946,0.034919921875
STABILIZE,1.4869053363800049,29.71164648961868,0.03223732312520345,0.03270745277404785,0.0,0.0,0.0,0.1009534509448148,-1.4521654522193532,-132.17805304451855,-0.007670948148149929,0.004739476000708592,-0.001945226183304793,0.4,0.003262926877465179,0.03792469224770426,0.60998161644351,-0.00965531858169856,0.1131358090788126,0.11024411069229245,1.082268264144659,-0.10634041580711856,2.7218084782361984,1.7375627532601357,11.390861868858337,0.0,0.0,0.0,0.0,0.0,0.0,0.0,0.0,0.0,0.0,0.0,0.0,0.0,0.0,0.0,0.0,False,0,4.964117527008057,0.029931884765625
STABILIZE,1.5204689502716064,29.794592751502407,0.03238514264424642,0.03250408172607422,0.0,0.0,0.0,0.10126219683964052,-1.4529125041598232,-132.1799791578645,-0.007706010836371537,0.006660311621591617,-0.0019114278319966704,0.4,0.008774964261781879,0.038465373661781266,0.6126660342190627,-0.009454715559456539,0.1609178725630045,0.08575316169299185,1.2847678735852242,-0.010667208018826086,2.4310559034347534,-0.12780566466972232,17.15976893901825,0.0,0.0,0.0,0.0,0.0,0.0,0.0,0.0,0.0,0.0,0.0,0.0,0.0,0.0,0.0,0.0,False,0,5.021774768829346,0.034919189453125
STABILIZE,1.5538544654846191,29.953537532047392,0.03226497968037923,0.0323939323425293,0.0,0.0,0.0,0.09679381237942414,-1.4563924855419448,-132.18014308240456,-0.010704562978281783,0.002958275531395495,-0.0013796135295690616,0.4,0.009317333306831032,0.041726669978205164,0.6099559052459366,-0.006772968680724068,0.026399895432405174,0.25821521412581205,0.9549043141305447,0.144193190785197,1.7096932977437973,9.584305435419083,15.981157124042511,0.0,0.0,0.0,0.0,0.0,0.0,0.0,0.0,0.0,0.0,0.0,0.0,0.0,0.0,0.0,0.0,False,0,5.050219297409058,0.034919921875
STABILIZE,1.5872442722320557,29.948618350589076,0.03231957753499349,0.03245735168457031,0.0,0.0,0.0,0.09063815775080304,-1.4735431972695525,-132.18814806411183,-0.008555633240733067,0.0020563590193590476,-0.004146031298305976,0.4,0.006776225899557059,0.03870085184941903,0.6136725388001979,-0.020536425104912322,-0.15400320990011096,-0.1159336999990046,1.3426106423139572,-0.8329463717598151,-10.492940247058868,-6.170261278748512,11.461727321147919,0.0,0.0,0.0,0.0,0.0,0.0,0.0,0.0,0.0,0.0,0.0,0.0,0.0,0.0,0.0,0.0,False,0,5.079158782958984,0.034919921875
STABILIZE,1.620772361755371,29.825525499900447,0.032396586736043294,0.03259444236755371,0.0,0.0,0.0,0.08109387552020936,-1.46294509155522,-132.2131192357174,-0.018293924593032296,0.00833885304566036,-0.007413206004832341,0.4,0.010715623718225056,0.05029159837475834,0.6102864270743974,-0.03674910431112503,0.23313865531235933,0.7512940559536219,0.923807080835104,-0.9669163701830897,2.2496305406093597,5.393260717391968,6.151646003127098,0.0,0.0,0.0,0.0,0.0,0.0,0.0,0.0,0.0,0.0,0.0,0.0,0.0,0.0,0.0,0.0,False,0,5.114196300506592,0.02993115234375
STABILIZE,1.6549601554870605,29.249797762838572,0.03238848050435384,0.03334951400756836,0.0,0.0,0.0,0.08785229434308409,-1.4540300938627666,-132.15969349602955,-0.027387966848899912,0.010181038196046373,-0.010582885121843173,0.4,0.014483986980191429,0.06147563131323067,0.6040450425161592,-0.052417942089980116,0.23313865531235933,0.7512940559536219,0.923807080835104,-0.9669163701830897,2.2496305406093597,5.393260717391968,6.151646003127098,0.0,0.0,0.0,0.0,0.0,0.0,0.0,0.0,0.0,0.0,0.0,0.0,0.0,0.0,0.0,0.0,False,0,5.14295768737793,0.02993115234375
STABILIZE,1.6886961460113525,29.6413054232449,0.032483609517415364,0.03284120559692383,0.0,0.0,0.0,0.10191506687475854,-1.4605657311248226,-132.1825063278574,-0.018759371884932912,-0.0011111161243030437,-0.0015991647991809815,0.4,0.006097237842002563,0.05198808287762657,0.5867175553162174,-0.007474158096001174,-0.49471789970993996,-0.4827676806598902,0.23786923848092556,2.6672780902360125,-22.24564403295517,6.754688918590546,-6.390136480331421,0.0,0.0,0.0,0.0,0.0,0.0,0.0,0.0,0.0,0.0,0.0,0.0,0.0,0.0,0.0,0.0,False,0,5.171527624130249,0.034919921875
STABILIZE,1.722247838973999,29.804967134482148,0.032431634267171223,0.03254580497741699,0.0,0.0,0.0,0.10361615750406195,-1.4592652204181698,-132.19710927230287,-0.022650171255089387,0.07503234396344373,0.008416242013994634,0.4,0.09326668571743336,0.058988151578775745,0.5761109175457183,0.042460877205291535,5.233323946595192,0.48538688570261,0.47465255483984947,2.9610041856334757,53.663170337677,-7.58514478802681,-26.074767112731934,0.0,0.0,0.0,0.0,0.0,0.0,0.0,0.0,0.0,0.0,0.0,0.0,0.0,0.0,0.0,0.0,False,0,5.20020866394043,0.064850830078125
STABILIZE,1.7559809684753418,29.645914616906982,0.032308371861775716,0.032823801040649414,0.0,0.0,0.0,0.0999673957442471,-1.4573279012931193,-132.16966557221775,-0.019620283736505748,0.11004561166701052,0.022610374534500415,0.4,0.13137356776039602,0.052789633170070356,0.6003815479903646,0.11304926745574531,-4.157544672489166,-0.9208994917571545,1.6354452818632126,0.07062244847063934,-151.90187692642212,-11.272738128900528,-25.50716996192932,0.0,0.0,0.0,0.0,0.0,0.0,0.0,0.0,0.0,0.0,0.0,0.0,0.0,0.0,0.0,0.0,False,0,5.257622718811035,0.034920166015625
STABILIZE,1.7896230220794678,29.72659749390486,0.03240040143330892,0.03253936767578125,0.0,0.0,0.0,0.10154911814563396,-1.4547631652597794,-132.21544150003518,-0.0268731052270889,0.10884443379439492,0.02122976896205148,0.4,0.13315637511937958,0.07050332592997158,0.5965250670671307,0.10579203348316446,0.2707209438085556,1.0236931033432484,1.0596532374620438,-0.29927477032445216,34.45342481136322,28.58130633831024,12.613214552402496,0.0,0.0,0.0,0.0,0.0,0.0,0.0,0.0,0.0,0.0,0.0,0.0,0.0,0.0,0.0,0.0,False,0,5.286338806152344,0.02993115234375
STABILIZE,1.8229269981384277,30.023220855821677,0.03222349484761556,0.03236055374145508,0.0,0.0,0.0,0.10010613396176297,-1.4528781397705617,-132.20214995191034,0.0029464571067276805,0.14290000753535398,0.0239725276272989,0.4,0.17481076852522812,0.045315625268521384,0.5929595932343598,0.11910742516247351,2.4246802553534508,-1.1784707196056843,1.1858249083161354,0.8499371076504566,38.412582874298096,-46.67982757091522,-28.59063148498535,0.0,0.0,0.0,0.0,0.0,0.0,0.0,0.0,0.0,0.0,0.0,0.0,0.0,0.0,0.0,0.0,False,0,5.315151691436768,0.0349208984375
STABILIZE,1.8563921451568604,29.882686539516527,0.03238991101582845,0.0325160026550293,0.0,0.0,0.0,0.09144689483721485,-1.4398861594738455,-132.16067704327003,0.017608558297036333,0.18638917795564405,0.026945246688774856,0.4,0.21739097264067836,0.02074122758119333,0.5924137175571269,0.13352448760579494,2.4246802553534508,-1.1784707196056843,1.1858249083161354,0.8499371076504566,38.412582874298096,-46.67982757091522,-28.59063148498535,0.0,0.0,0.0,0.0,0.0,0.0,0.0,0.0,0.0,0.0,0.0,0.0,0.0,0.0,0.0,0.0,False,0,5.343736171722412,0.0349208984375
STABILIZE,1.889946460723877,29.801790535739663,0.032372506459554036,0.032494544982910156,0.0,0.0,0.0,0.0767616145957172,-1.419703804250104,-132.1964399137642,0.01466683232307538,0.09633441897267611,0.024342571397300283,0.4,0.1859221601245382,0.0300776379610661,0.6061708346786596,0.12010875022568708,-1.4603665098547935,0.6035659927874804,1.9303487613797188,-0.6018761629398178,-72.08443284034729,54.02941107749939,25.083237886428833,0.0,0.0,0.0,0.0,0.0,0.0,0.0,0.0,0.0,0.0,0.0,0.0,0.0,0.0,0.0,0.0,False,0,5.3724024295806885,0.0349189453125
STABILIZE,1.92326021194458,30.01763426084965,0.032256158192952473,0.0323941707611084,0.0,0.0,0.0,0.09367929947875121,-1.4393825397442628,-132.16399651520666,-0.021703400397060722,0.055368703725928115,0.020234825475797927,0.4,0.17006102863229625,0.06654751885674898,0.5980395005580342,0.09923859389001416,-0.6175498943775892,2.0396606996655464,0.7626449223607779,-0.9856569151617238,33.19087326526642,18.714675307273865,12.795619666576385,0.0,0.0,0.0,0.0,0.0,0.0,0.0,0.0,0.0,0.0,0.0,0.0,0.0,0.0,0.0,0.0,False,0,5.401068210601807,0.034919921875
STABILIZE,1.956702709197998,29.90228635388224,0.0324130376180013,0.03253889083862305,0.0,0.0,0.0,0.081535489938733,-1.4307579318132406,-132.15321847669637,0.009636833287126684,-0.020374141395866772,0.012276740608777688,0.4,0.08510605951075832,0.04541159089630495,0.5994608284270714,0.05925000437984675,-4.731166362762451,-0.04444403457455337,2.307526022195816,-0.4352367293861375,-135.8203887939453,7.294280827045441,60.10441184043884,0.0,0.0,0.0,0.0,0.0,0.0,0.0,0.0,0.0,0.0,0.0,0.0,0.0,0.0,0.0,0.0,False,0,5.458643674850464,0.034919189453125
STABILIZE,1.9900920391082764,29.949473744341145,0.03241160710652669,0.0325169563293457,0.0,0.0,0.0,0.08874923691932428,-1.440646658349244,-132.16843613816715,-0.030737675218765165,-0.03960964060330172,-0.017355499396374572,0.4,0.09713867043818546,0.07067563697493792,0.598749458496064,-0.08861502866960728,0.9097723290324211,1.4804871752858162,1.1209530755877495,-7.94788303334093,34.84089970588684,-44.2527174949646,88.67331743240356,0.0,0.0,0.0,0.0,0.0,0.0,0.0,0.0,0.0,0.0,0.0,0.0,0.0,0.0,0.0,0.0,False,0,5.487130165100098,0.034919921875
STABILIZE,2.023648977279663,29.800308354707383,0.032450230916341145,0.032598257064819336,0.0,0.0,0.0,0.08238029896169895,-1.428796280139272,-132.14414798547858,-0.035813019116031526,-0.01447937939730405,-0.026758292720593845,0.4,0.1605095646375235,0.05635042331922733,0.6086965971869784,-0.13517646733537436,3.720276430249214,-0.6898411549627781,1.7037970945239067,-2.414853508419382,-104.16178703308105,-75.94103813171387,14.784544706344604,0.0,0.0,0.0,0.0,0.0,0.0,0.0,0.0,0.0,0.0,0.0,0.0,0.0,0.0,0.0,0.0,False,0,5.5160651206970215,0.02993212890625
STABILIZE,2.057230234146118,29.782110726889293,0.03236821492513021,0.0325009822845459,0.0,0.0,0.0,0.07737008840123014,-1.4243552697965884,-132.17037591189145,-0.03329522047662804,-0.07322065800790663,-0.018294950304644918,0.4,0.06785852237058802,0.0609737381306125,0.6141249922244596,-0.09255012536966717,-4.879836365580559,0.3770354203879833,1.6274496912956238,2.3486350378595198,-46.78005874156952,82.21918940544128,33.69913399219513,0.0,0.0,0.0,0.0,0.0,0.0,0.0,0.0,0.0,0.0,0.0,0.0,0.0,0.0,0.0,0.0,False,0,5.54655647277832,0.0349189453125
STABILIZE,2.091012477874756,29.600095978094412,0.032229216893514,0.03275299072265625,0.0,0.0,0.0,0.07866275506250794,-1.4352071597272693,-132.19549734765874,-0.011435315394755664,-0.14135338753610144,-0.010248280647865569,0.4,-0.02358677579175396,0.0659266329342131,0.6228951295718821,-0.05214030600594428,-4.879836365580559,0.3770354203879833,1.6274496912956238,2.3486350378595198,-46.78005874156952,82.21918940544128,33.69913399219513,0.0,0.0,0.0,0.0,0.0,0.0,0.0,0.0,0.0,0.0,0.0,0.0,0.0,0.0,0.0,0.0,False,0,5.573362827301025,0.0349189453125
STABILIZE,2.12453031539917,29.832738239185172,0.032286914189656575,0.032579898834228516,0.0,0.0,0.0,0.07747430214692573,-1.4305330691791591,-132.1313208902173,-0.02796207930566431,-0.04819834817178532,-0.016342881554250635,0.4,0.013188322629263886,0.06751091316738089,0.6298258291846177,-0.08233670556366059,2.308454178273678,0.18967774230986834,1.527664065361023,-1.6457111353478293,114.0642762184143,-39.90798890590668,76.16889476776123,0.0,0.0,0.0,0.0,0.0,0.0,0.0,0.0,0.0,0.0,0.0,0.0,0.0,0.0,0.0,0.0,False,0,5.601975202560425,0.034919921875
STABILIZE,2.157989501953125,29.88737111381888,0.03238371213277181,0.0325465202331543,0.0,0.0,0.0,0.07475412594911526,-1.441843542279583,-132.22018165131917,0.013148828751580778,-0.055714559995345796,-0.01355414012442025,0.4,0.014526189892257329,0.0412904715043415,0.6128186164609835,-0.06816472651323377,-1.2284337542951107,-0.0920032849535346,0.8484113030135632,-2.1217214260362987,-47.18934893608093,42.288655042648315,42.55552291870117,0.0,0.0,0.0,0.0,0.0,0.0,0.0,0.0,0.0,0.0,0.0,0.0,0.0,0.0,0.0,0.0,False,0,5.659578561782837,0.034920166015625
STABILIZE,2.1924939155578613,28.98199984798336,0.032418044408162434,0.0336155891418457,0.0,0.0,0.0,0.06067993419492219,-1.4516499863804289,-132.1799518371078,-0.013055406654870075,-0.11115563115688472,-0.02048486224933973,0.4,0.0027786740241984445,0.05972531670743224,0.6028163351315032,-0.1024647518757177,-0.4942295141518116,1.1625820770859718,0.5619419738650322,-1.950672571764846,42.5236850976944,-10.57315468788147,38.011687994003296,0.0,0.0,0.0,0.0,0.0,0.0,0.0,0.0,0.0,0.0,0.0,0.0,0.0,0.0,0.0,0.0,False,0,5.6888346672058105,0.034920166015625
STABILIZE,2.2260379791259766,29.81238183239747,0.032433303197224934,0.03254342079162598,0.0,0.0,0.0,0.055283924668053444,-1.4539798279393437,-132.149024740546,0.03574371030857296,0.005432657552981351,-0.010013560985939838,0.4,0.05992232175689794,0.008124456853900543,0.5746557707547031,-0.04994120944101117,3.437633067369461,-2.856629714369774,-0.4733594600111246,3.013816702399895,94.29301619529724,-64.8596704006195,6.547983735799789,0.0,0.0,0.0,0.0,0.0,0.0,0.0,0.0,0.0,0.0,0.0,0.0,0.0,0.0,0.0,0.0,False,0,5.717307090759277,0.029930908203125
STABILIZE,2.2593932151794434,29.979871912168345,0.03231838544209798,0.03243708610534668,0.0,0.0,0.0,0.050963990100579046,-1.4576280027297766,-132.21615183970886,0.0837544038535094,0.12012541349499453,0.0005736723522637758,0.4,0.11660051708028712,-0.04255479673775971,0.5442988536818009,0.002984977373439647,3.437633067369461,-2.856629714369774,-0.4733594600111246,3.013816702399895,94.29301619529724,-64.8596704006195,6.547983735799789,0.0,0.0,0.0,0.0,0.0,0.0,0.0,0.0,0.0,0.0,0.0,0.0,0.0,0.0,0.0,0.0,False,0,5.745907783508301,0.029930908203125
STABILIZE,2.2936437129974365,29.194826890147983,0.03240803082784017,0.03334832191467285,0.0,0.0,0.0,0.046727832072143094,-1.4637167962097257,-132.2212744815864,0.07622349492095923,0.10705309109859734,-0.015954583069067094,0.4,0.1319836639536076,-0.03229249037279337,0.5313381073297783,-0.07938444192118596,1.0792761109769344,0.6595814600586891,0.4941860679537058,-4.885441360466068,-84.70765352249146,71.01359367370605,18.088382482528687,0.0,0.0,0.0,0.0,0.0,0.0,0.0,0.0,0.0,0.0,0.0,0.0,0.0,0.0,0.0,0.0,False,0,5.7746422290802,0.034919921875
STABILIZE,2.327713966369629,29.35234962734875,0.032434972127278645,0.033127784729003906,0.0,0.0,0.0,0.05036458764005754,-1.4681936650455516,-132.2221077646651,0.09912758055890743,0.07549451355668327,-0.004510008072971967,0.4,0.09648681257374375,-0.08056755223782436,0.5163563687864072,-0.022086413807028915,-1.9776277244091034,-2.7346769347786903,0.2333321375772357,3.354278153749759,-46.53746783733368,-78.55087518692017,-10.03323346376419,0.0,0.0,0.0,0.0,0.0,0.0,0.0,0.0,0.0,0.0,0.0,0.0,0.0,0.0,0.0,0.0,False,1,5.803318977355957,0.034919921875
STABILIZE,2.3611795902252197,29.88204784770807,0.03237179120381673,0.032506465911865234,0.0,0.0,0.0,0.04775161339570454,-1.4736857774684766,-132.2219301797467,0.11704754565189521,0.10023288064769995,0.0018402857709381249,0.4,0.11524059699235029,-0.08638244504861693,0.504044116426576,0.00963282430664095,-0.43111369013786316,-0.19361934391781688,0.9044184349477291,1.4391156287581033,34.38251316547394,20.93743532896042,-17.410291731357574,0.0,0.0,0.0,0.0,0.0,0.0,0.0,0.0,0.0,0.0,0.0,0.0,0.0,0.0,0.0,0.0,False,0,5.8607177734375,0.034919921875
STABILIZE,2.39455246925354,29.964022917887096,0.03235820134480794,0.03246641159057617,0.0,0.0,0.0,0.05184545802948093,-1.4761825317752337,-132.21727199073274,0.06334855432474766,0.08449960921497604,-0.004010943138310248,0.4,0.1439827972239513,-0.06730649762163315,0.49896252466540253,-0.01955795923700665,1.846306212246418,1.190710999071598,0.7685653865337372,-1.7932998906458748,45.565009117126465,21.42554074525833,8.17641094326973,0.0,0.0,0.0,0.0,0.0,0.0,0.0,0.0,0.0,0.0,0.0,0.0,0.0,0.0,0.0,0.0,False,0,5.8896472454071045,0.029931884765625
STABILIZE,2.428046226501465,29.855884969925615,0.03242019017537435,0.032536983489990234,0.0,0.0,0.0,0.042531000992287606,-1.4783307329909083,-132.21224497150362,0.009090934604596508,0.06780482971852637,-0.009876961116288456,0.4,0.17121096342342576,-0.04687170895072597,0.4923530301581943,-0.048725053910906396,1.846306212246418,1.190710999071598,0.7685653865337372,-1.7932998906458748,45.565009117126465,21.42554074525833,8.17641094326973,0.0,0.0,0.0,0.0,0.0,0.0,0.0,0.0,0.0,0.0,0.0,0.0,0.0,0.0,0.0,0.0,False,0,5.917958736419678,0.029931884765625
STABILIZE,2.4615273475646973,29.868641623642514,0.03235772450764974,0.03249239921569824,0.0,0.0,0.0,0.03563656535539442,-1.4723121623933635,-132.1990353856488,0.040576207919855015,0.04594787860144138,0.00022280605559686726,0.4,0.1584869093857808,-0.0745827629024293,0.4893244584650496,0.001767868070241499,-0.5417271051555872,-1.7113396897912025,0.960194505751133,3.002465995216392,-21.873891353607178,-86.36515736579895,13.090279698371887,0.0,0.0,0.0,0.0,0.0,0.0,0.0,0.0,0.0,0.0,0.0,0.0,0.0,0.0,0.0,0.0,False,0,5.946763277053833,0.0349189453125
STABILIZE,2.494990587234497,29.88524157979864,0.03233483632405599,0.032451629638671875,0.0,0.0,0.0,0.04682532235037445,-1.476586259988205,-132.26822520194105,0.008746518006597398,0.07821162436342854,-0.005786040196593815,0.4,0.16663028635338123,-0.07702206011550249,0.4785561492310909,-0.02818214529521053,0.6395817268639803,-0.13336424017325044,0.3638013266026974,-1.8630162718344296,73.99455904960632,101.59536600112915,4.646115377545357,0.0,0.0,0.0,0.0,0.0,0.0,0.0,0.0,0.0,0.0,0.0,0.0,0.0,0.0,0.0,0.0,False,0,5.975406646728516,0.034919921875
STABILIZE,2.528378963470459,29.948618350589076,0.03227880795796712,0.03239893913269043,0.0,0.0,0.0,0.02683517291874541,-1.4866126575246663,-132.1792005162991,0.023399248799223966,0.06924554069024898,-0.0021586775184832207,0.4,0.17164345145016435,-0.09844586748851497,0.4874388424512524,-0.010011845496487804,0.46348446048796177,-1.290704868733883,1.5409727580845356,1.0585648089616728,-44.4496750831604,-119.92058753967285,27.901363372802734,0.0,0.0,0.0,0.0,0.0,0.0,0.0,0.0,0.0,0.0,0.0,0.0,0.0,0.0,0.0,0.0,False,0,6.004058361053467,0.034919921875
STABILIZE,2.5618984699249268,29.832738239185172,0.03235796292622884,0.03248429298400879,0.0,0.0,0.0,0.03311558522142503,-1.4836312799519558,-132.16491176055544,0.0558983728602985,0.05288213811453781,0.0015367064980353088,0.4,0.1764109276431396,-0.11985787137432914,0.49666402444944724,0.008436799276601464,0.46348446048796177,-1.290704868733883,1.5409727580845356,1.0585648089616728,-44.4496750831604,-119.92058753967285,27.901363372802734,0.0,0.0,0.0,0.0,0.0,0.0,0.0,0.0,0.0,0.0,0.0,0.0,0.0,0.0,0.0,0.0,False,0,6.039642572402954,0.034919921875
STABILIZE,2.5955047607421875,29.758233649766577,0.030578406651814778,0.03089118003845215,0.0,0.0,0.0,0.052842185400626775,-1.4731472597411035,-132.24966074777694,0.10196110176957651,0.020357195606641447,0.005720369691475239,0.4,0.16141994086425443,-0.15566393777607132,0.5016066200758678,0.029256894120154545,-0.6996926385909319,-2.1538620814681053,1.269550621509552,1.1891507688163236,-11.90556287765503,48.173484206199646,-1.747935451567173,0.0,0.0,0.0,0.0,0.0,0.0,0.0,0.0,0.0,0.0,0.0,0.0,0.0,0.0,0.0,0.0,False,0,6.068481206893921,0.02993212890625
STABILIZE,2.6288816928863525,29.960170290579732,0.032306941350301106,0.03242349624633789,0.0,0.0,0.0,0.04254796974350685,-1.4738589867969598,-132.18801146032843,0.0710400099316329,0.02092467658980111,0.0032176358354115736,0.4,0.1516208376483314,-0.14300689988992604,0.5168677431454008,0.01668746354836345,-0.959232822060585,-3.627273440361023,1.9396722316741943,4.4734746586953404,-72.57799506187439,-158.58598947525024,54.66832518577576,0.0,0.0,0.0,0.0,0.0,0.0,0.0,0.0,0.0,0.0,0.0,0.0,0.0,0.0,0.0,0.0,False,0,6.13157844543457,0.034919921875
STABILIZE,2.6624369621276855,29.799884901491307,0.032383235295613606,0.03267693519592285,0.0,0.0,0.0,0.06573859640981577,-1.4742326194889008,-132.21198542431517,0.07748904933011712,-0.012052411260831628,4.839138197052264e-05,0.4,0.1205369890538994,-0.152292506607463,0.5194269441741617,0.0008384236901015918,-1.6164138913154602,-0.6153636611998081,1.0926359333097935,-0.9974759171901962,25.00329613685608,73.97201657295227,-6.173123046755791,0.0,0.0,0.0,0.0,0.0,0.0,0.0,0.0,0.0,0.0,0.0,0.0,0.0,0.0,0.0,0.0,False,0,6.160242557525635,0.029931884765625
STABILIZE,2.6959457397460938,29.8437762377083,0.03244498570760091,0.03257608413696289,0.0,0.0,0.0,0.06378937781457049,-1.4707772908208148,-132.2553434651664,0.04865137845825881,0.0015878450701716019,-0.003218409332216877,0.4,0.1401214811700063,-0.136865804952566,0.5116157019695194,-0.015443906195196137,1.4650716446340084,0.7523446343839169,0.6220309063792229,-1.0049842160787443,69.08764839172363,-3.7850115448236465,19.14927214384079,0.0,0.0,0.0,0.0,0.0,0.0,0.0,0.0,0.0,0.0,0.0,0.0,0.0,0.0,0.0,0.0,False,0,6.189929485321045,0.0349189453125
STABILIZE,2.729459285736084,29.838256217631326,0.03238371213277181,0.03252148628234863,0.0,0.0,0.0,0.04498453300820312,-1.4790401121692378,-132.22896527459181,0.02088267148284364,0.016120736806296068,-0.006520742519899266,0.4,0.16048987825374852,-0.12260795695680703,0.5064221317556585,-0.031848977671509696,1.4650716446340084,0.7523446343839169,0.6220309063792229,-1.0049842160787443,69.08764839172363,-3.7850115448236465,19.14927214384079,0.0,0.0,0.0,0.0,0.0,0.0,0.0,0.0,0.0,0.0,0.0,0.0,0.0,0.0,0.0,0.0,False,0,6.21882963180542,0.0349189453125
STABILIZE,2.768066167831421,25.900837980202176,0.03233459790547689,0.037729740142822266,0.0,0.0,0.0,0.02651351369752012,-1.4822767680621776,-132.1657177228775,0.03283975516409942,-0.008020401510607596,0.0019886077780202015,0.4,0.11569757802566696,-0.17063033823651008,0.5010231329584373,0.010656529887991553,-2.4412911385297775,-2.998632937669754,0.6173122208565474,2.5262491980272355,-90.90439081192017,-112.22167015075684,-5.29383160173893,0.0,0.0,0.0,0.0,0.0,0.0,0.0,0.0,0.0,0.0,0.0,0.0,0.0,0.0,0.0,0.0,False,0,6.247368812561035,0.06485205078125
STABILIZE,2.80159592628479,29.825313413307356,0.0324585755666097,0.03256392478942871,0.0,0.0,0.0,0.04711187013039764,-1.476484554202595,-132.33425947083674,-0.00900846451843908,0.012524341748972368,-0.022969888224924278,0.4,0.13099385878385225,-0.11251818940997847,0.47280481190411766,-0.11375567462332703,0.639364356175065,1.7049701884388924,-0.15647007385268807,-3.5038620713373883,70.08468508720398,126.9912600517273,-5.0602056086063385,0.0,0.0,0.0,0.0,0.0,0.0,0.0,0.0,0.0,0.0,0.0,0.0,0.0,0.0,0.0,0.0,False,0,6.30472993850708,0.034920166015625
STABILIZE,2.835082769393921,29.862899780708,0.03235438664754232,0.032552242279052734,0.0,0.0,0.0,0.017022432237258498,-1.473019620580989,-132.16331349628965,-0.013117242462769034,0.035551483604386674,-0.00783369941589889,0.4,0.13187425916683188,-0.1153335666542319,0.4847191415855284,-0.03794751248497058,0.30841538682579994,-0.39757173508405685,1.680499128997326,4.187581296172001,-49.938976764678955,-160.9832525253296,17.928293347358704,0.0,0.0,0.0,0.0,0.0,0.0,0.0,0.0,0.0,0.0,0.0,0.0,0.0,0.0,0.0,0.0,False,0,6.334262132644653,0.034919921875
STABILIZE,2.8685436248779297,29.88524157979864,0.03237942059834798,0.03250885009765625,0.0,0.0,0.0,0.027795774992484236,-1.469259067834368,-132.28826497696588,0.0711038562948729,-0.013748325557415649,0.0007255172590733516,0.4,0.09164788413431112,-0.19862178361467475,0.4782888697610295,0.00483240482157192,-1.9603194668889046,-4.830356314778328,0.6490481086075306,2.3222506574259953,-17.561252415180206,-87.0657742023468,-15.434381365776062,0.0,0.0,0.0,0.0,0.0,0.0,0.0,0.0,0.0,0.0,0.0,0.0,0.0,0.0,0.0,0.0,False,0,6.362991571426392,0.029930908203125
STABILIZE,2.902175188064575,29.735238027719685,0.03233078320821126,0.03257465362548828,0.0,0.0,0.0,0.01789904432854732,-1.467622170311092,-132.26724165470057,0.023597178801414986,-0.017740955734127116,-0.015756736793175897,0.4,0.10375953318613101,-0.1326036931373054,0.4766214024199785,-0.07731936844429281,0.9421921335160732,3.380086272954941,1.0055553168058395,-4.632320953127742,26.033350825309753,70.17242312431335,17.96717345714569,0.0,0.0,0.0,0.0,0.0,0.0,0.0,0.0,0.0,0.0,0.0,0.0,0.0,0.0,0.0,0.0,False,0,6.391685247421265,0.034920166015625
STABILIZE,2.935744285583496,29.78909090909091,0.032297404607137044,0.03251791000366211,0.0,0.0,0.0,-0.0009270380972705587,-1.4648858257748556,-132.14757674044193,0.035510632429332216,-0.023768123795975444,0.007255852772880593,0.4,0.06504298203233452,-0.1800837025866042,0.4779084947002123,0.037617375690747246,-1.9162114709615707,-2.899330295622349,1.0445056483149529,6.413558729699375,-50.38386583328247,-208.14929008483887,17.491671442985535,0.0,0.0,0.0,0.0,0.0,0.0,0.0,0.0,0.0,0.0,0.0,0.0,0.0,0.0,0.0,0.0,False,0,6.420288324356079,0.039907958984375
STABILIZE,2.969111919403076,29.970232013090484,0.032271655400594075,0.03240704536437988,0.0,0.0,0.0,0.019501524101708672,-1.4691600300914027,-132.2862295805932,0.08795508090929922,-0.06729395851700361,0.0022428914803559992,0.4,0.02795204116640789,-0.19219304375789903,0.47089368648638735,0.012510732005724876,-1.7762873321771622,-0.8209405466914177,0.4656003788113594,-1.5020531539171262,-34.39245522022247,207.0824146270752,17.924533784389496,0.0,0.0,0.0,0.0,0.0,0.0,0.0,0.0,0.0,0.0,0.0,0.0,0.0,0.0,0.0,0.0,False,0,6.448919296264648,0.02494287109375
STABILIZE,3.002882957458496,29.60845410457507,0.03236130078633626,0.03290367126464844,0.0,0.0,0.0,-0.0050418535462330065,-1.4783947660143772,-132.26676354145866,0.10553828808591101,-0.05379059814942708,0.011418711140585819,0.4,0.044083916760862665,-0.21456737945228554,0.4648719979829223,0.05819292521512441,1.1753040365874767,-6.307118386030197,1.008341833949089,7.5192152383890525,30.3873211145401,-188.25699090957642,1.5302655287086964,0.0,0.0,0.0,0.0,0.0,0.0,0.0,0.0,0.0,0.0,0.0,0.0,0.0,0.0,0.0,0.0,False,0,6.506340980529785,0.034920166015625
STABILIZE,3.0380148887634277,28.4652930477509,0.03246477444966634,0.03424859046936035,0.0,0.0,0.0,-0.007700237876396016,-1.475276571214855,-132.19798353651663,0.045869817663700414,-0.024968984189331668,0.01145957587385542,0.4,0.044083916760862665,-0.21456737945228554,0.4648719979829223,0.05819292521512441,1.1753040365874767,-6.307118386030197,1.008341833949089,7.5192152383890525,30.3873211145401,-188.25699090957642,1.5302655287086964,0.0,0.0,0.0,0.0,0.0,0.0,0.0,0.0,0.0,0.0,0.0,0.0,0.0,0.0,0.0,0.0,False,1,6.506340980529785,0.034920166015625
STABILIZE,3.0740246772766113,27.770410831926373,0.03243378003438314,0.03505253791809082,0.0,0.0,0.0,0.02523125240255601,-1.465459881830254,-132.39980196611216,0.1451818925170809,-0.056386259959940434,0.035798737183296535,0.4,0.0160763391564226,-0.2771779745198628,0.4536331495408828,0.17924411936131324,-2.3715032264590263,2.2930309176445007,0.2086537191644311,-0.7727499936137887,-43.892523646354675,-14.876393973827362,-12.70533949136734,0.0,0.0,0.0,0.0,0.0,0.0,0.0,0.0,0.0,0.0,0.0,0.0,0.0,0.0,0.0,0.0,False,0,6.571144104003906,0.034919921875
STABILIZE,3.107445478439331,29.920631183969295,0.032355578740437825,0.03247952461242676,0.0,0.0,0.0,0.02403538232842198,-1.458112732717436,-132.29198059987434,0.07175128245781281,-0.06847348522602287,0.03329166568130311,0.4,-0.02895306540279501,-0.23205720603292923,0.441082248402812,0.16615315570421668,-2.3715032264590263,2.2930309176445007,0.2086537191644311,-0.7727499936137887,-43.892523646354675,-14.876393973827362,-12.70533949136734,0.0,0.0,0.0,0.0,0.0,0.0,0.0,0.0,0.0,0.0,0.0,0.0,0.0,0.0,0.0,0.0,False,0,6.600341081619263,0.034919921875
STABILIZE,3.140885591506958,29.90697707583158,0.03238657315572103,0.032529592514038086,0.0,0.0,0.0,0.0337658405747514,-1.4937833956578275,-132.13237273934948,0.10495176817432945,-0.05755066332748489,0.049455617025854756,0.4,-0.047091378174386495,-0.27958269080805787,0.4545392778666535,0.24614950400667066,-0.8469934575259686,-3.025330789387226,1.685861498117447,4.576331758067032,5.841789394617081,-86.41467690467834,23.039977252483368,0.0,0.0,0.0,0.0,0.0,0.0,0.0,0.0,0.0,0.0,0.0,0.0,0.0,0.0,0.0,0.0,False,0,6.628859758377075,0.034919921875
STABILIZE,3.174351453781128,29.877790599934464,0.03240683873494466,0.03254342079162598,0.0,0.0,0.0,0.013636846203900693,-1.484857298907973,-132.29081946771544,0.09934853645018389,-0.08238583925869905,0.03528494691465724,0.4,-0.062157393410226115,-0.2911177333768671,0.46088035012957107,0.1747114041899811,-0.6955101154744625,-0.9768486022949219,1.2672056443989277,-4.038047964672912,-31.397369503974915,50.78038573265076,23.783215880393982,0.0,0.0,0.0,0.0,0.0,0.0,0.0,0.0,0.0,0.0,0.0,0.0,0.0,0.0,0.0,0.0,False,0,6.659125566482544,0.029930908203125
STABILIZE,3.207819700241089,29.879280498664293,0.032406123479207356,0.03252434730529785,0.0,0.0,0.0,0.009262323483919088,-1.4681126632708636,-132.39511645634155,0.024189083328133517,-0.0901163545347124,0.014484825577085823,0.4,-0.07061211440805151,-0.2055460059386795,0.43767554375650985,0.07047518649073116,-0.4387103486806154,4.466831684112549,-0.3235593670979142,-5.811440842095962,38.172703981399536,117.06056594848633,-50.155216455459595,0.0,0.0,0.0,0.0,0.0,0.0,0.0,0.0,0.0,0.0,0.0,0.0,0.0,0.0,0.0,0.0,False,0,6.6875598430633545,0.034919921875
STABILIZE,3.241525173187256,29.671710633360924,0.03237584431966146,0.032735347747802734,0.0,0.0,0.0,-0.01283029691245739,-1.4710948946172204,-132.30863260107085,0.0707406939448185,-0.08231621863976862,0.04849598598986412,0.4,-0.08334374377082887,-0.3062894391860725,0.40187297323877214,0.2397240332930921,-2.725999429821968,-2.604418992996216,0.5086184479296207,3.015439512658008,-42.477503418922424,214.2277956008911,-11.342490464448929,0.0,0.0,0.0,0.0,0.0,0.0,0.0,0.0,0.0,0.0,0.0,0.0,0.0,0.0,0.0,0.0,False,0,6.744910717010498,0.034919921875
STABILIZE,3.2748827934265137,29.97644368210406,0.03232529958089193,0.032440185546875,0.0,0.0,0.0,0.00863207845042674,-1.460110349606253,-132.4400864218369,0.009612222118787782,-0.06957112297303661,0.03689219589896068,0.4,-0.10528809436926383,-0.19974552917413838,0.38127698136591065,0.1810992775551084,-1.1860144324600697,5.783752724528313,-0.3075582440942526,-3.2610247272379285,0.7298093289136887,169.07284259796143,-40.85773825645447,0.0,0.0,0.0,0.0,0.0,0.0,0.0,0.0,0.0,0.0,0.0,0.0,0.0,0.0,0.0,0.0,False,0,6.773684740066528,0.02993115234375
STABILIZE,3.3096752166748047,28.741299089308107,0.032434972127278645,0.033878326416015625,0.0,0.0,0.0,0.04734516377923589,-1.474586508665272,-132.1947323664717,0.012311095843613467,-0.08538325981401176,0.05662552079871825,0.4,-0.13912525493090633,-0.24262599953048777,0.3984057207511641,0.27879701637700816,-2.018394134938717,-2.9704054817557335,1.9368760287761688,5.983396403979733,71.280837059021,-9.936760365962982,1.6191335394978523,0.0,0.0,0.0,0.0,0.0,0.0,0.0,0.0,0.0,0.0,0.0,0.0,0.0,0.0,0.0,0.0,False,0,6.802266359329224,0.039907958984375
STABILIZE,3.3431224822998047,29.897170880526904,0.032399924596150716,0.03251910209655762,0.0,0.0,0.0,0.10360761976759944,-1.3995169667147198,-132.15894217522083,0.04494554218105941,-0.1078557615593314,0.07774546454035793,0.4,-0.1772213014768827,-0.2887321509865543,0.41881254038702276,0.3831150915077565,-2.018394134938717,-2.9704054817557335,1.9368760287761688,5.983396403979733,71.280837059021,-9.936760365962982,1.6191335394978523,0.0,0.0,0.0,0.0,0.0,0.0,0.0,0.0,0.0,0.0,0.0,0.0,0.0,0.0,0.0,0.0,False,0,6.830997943878174,0.039907958984375
STABILIZE,3.3765993118286133,29.87183249056335,0.03240683873494466,0.03254961967468262,0.0,0.0,0.0,0.055744268745941725,-1.4617058391076858,-132.0866787738021,0.03911535419698979,-0.0330481382771997,0.03698030450952451,0.4,-0.09859295262603061,-0.2126299969597468,0.44193116733083554,0.17869123460492817,4.617120698094368,4.039242118597031,2.0471127703785896,-11.670090244187758,176.65510177612305,133.1080436706543,73.00277948379517,0.0,0.0,0.0,0.0,0.0,0.0,0.0,0.0,0.0,0.0,0.0,0.0,0.0,0.0,0.0,0.0,False,0,6.862000226974487,0.029931884765625
STABILIZE,3.4101767539978027,29.785071616756262,0.032388957341512044,0.03250551223754883,0.0,0.0,0.0,0.03850844645797322,-1.459001937970007,-132.012994693036,-0.048320497343257766,0.03756407956845917,0.024702030813965166,0.4,-0.028220684544332617,-0.19494137276611573,0.4618788357135845,0.11690894915256905,3.924708068370819,0.5234620533883572,2.104699984192848,-3.1735157032614905,-110.77262163162231,-168.58490705490112,75.30678510665894,0.0,0.0,0.0,0.0,0.0,0.0,0.0,0.0,0.0,0.0,0.0,0.0,0.0,0.0,0.0,0.0,False,0,6.890374660491943,0.029930908203125
STABILIZE,3.443495035171509,30.010976037321388,0.03222611745198568,0.03235650062561035,0.0,0.0,0.0,0.04515758225412774,-1.4614255879083038,-132.11921779500804,0.06097638504717493,-0.016080708825168665,0.014605939147042234,0.4,-0.10740935692323306,-0.23213464598658337,0.42377013659615403,0.06620709354854018,-4.714499413967133,-2.6489177718758583,-1.2672758661210537,-2.6126284660262713,-176.03492736816406,-29.807698726654053,-6.4482130110263824,0.0,0.0,0.0,0.0,0.0,0.0,0.0,0.0,0.0,0.0,0.0,0.0,0.0,0.0,0.0,0.0,False,1,6.919102907180786,0.034920166015625
STABILIZE,3.4780521392822266,28.938608232485613,0.03237942059834798,0.03366398811340332,0.0,0.0,0.0,0.024479664789590152,-1.4666063931154643,-132.0921019440031,0.024394336933017874,-0.0989617517231285,0.024417339936183516,0.4,-0.23168364288082657,-0.22362618616415825,0.3625820802447869,0.11486675688288729,-2.636081352829933,2.3126645013689995,-0.6478117313235998,6.141575901194412,100.8743405342102,55.70850372314453,33.27409029006958,0.0,0.0,0.0,0.0,0.0,0.0,0.0,0.0,0.0,0.0,0.0,0.0,0.0,0.0,0.0,0.0,False,0,6.976441860198975,0.034919921875
STABILIZE,3.511547088623047,29.854184906009554,0.03242996533711751,0.03255414962768555,0.0,0.0,0.0,0.03185274727691314,-1.473935186094888,-132.02765227899485,0.02696048972073078,-0.1146620724827255,0.019814661373035104,0.4,-0.2805688280770301,-0.2641234348120519,0.3414845215884186,0.0915470376647648,-2.910125255584717,-2.7901850640773773,-0.39848750457167625,-1.0825023808467462,-59.30755138397217,-14.604075253009796,105.96228837966919,0.0,0.0,0.0,0.0,0.0,0.0,0.0,0.0,0.0,0.0,0.0,0.0,0.0,0.0,0.0,0.0,False,0,7.006119251251221,0.06485107421875
STABILIZE,3.545045852661133,29.852272565515083,0.032375605901082356,0.0325164794921875,0.0,0.0,0.0,0.049748483232581235,-1.469943153968427,-132.10726496396052,0.011401181885403379,-0.1650885346859168,-0.002143015115000942,0.4,-0.27356911071759626,-0.18434598703138608,0.32424756762599677,-0.0181805142536096,1.3461285270750523,4.3854862451553345,-0.35932555329054594,-5.621408757686928,25.76821744441986,144.6316957473755,15.265178680419922,0.0,0.0,0.0,0.0,0.0,0.0,0.0,0.0,0.0,0.0,0.0,0.0,0.0,0.0,0.0,0.0,False,0,7.0343358516693115,0.034919921875
STABILIZE,3.578399658203125,29.98008620258322,0.032308371861775716,0.03243374824523926,0.0,0.0,0.0,0.033720323767235605,-1.4766950094063962,-132.24440150211603,-0.05580230080262267,-0.18885078839109518,-0.024072818628462722,0.4,-0.24310072463647137,-0.0936791453880219,0.3024058230681473,-0.12740349612688515,1.3461285270750523,4.3854862451553345,-0.35932555329054594,-5.621408757686928,25.76821744441986,144.6316957473755,15.265178680419922,0.0,0.0,0.0,0.0,0.0,0.0,0.0,0.0,0.0,0.0,0.0,0.0,0.0,0.0,0.0,0.0,False,0,7.063435316085815,0.034919921875
STABILIZE,3.611910581588745,29.84207755247243,0.032442363103230794,0.03256630897521973,0.0,0.0,0.0,0.03495914932794667,-1.487226093889498,-132.14297319294135,-0.0799364269831106,-0.1472655021056192,-0.0260342765545636,0.4,-0.2604037850986463,-0.09646272201121035,0.3210439816275756,-0.1367533960828194,-1.2635383754968643,-0.6504512391984463,1.8049366772174835,-0.2551314178012184,-12.750127911567688,-114.74472284317017,42.76790916919708,0.0,0.0,0.0,0.0,0.0,0.0,0.0,0.0,0.0,0.0,0.0,0.0,0.0,0.0,0.0,0.0,False,0,7.092029094696045,0.02993212890625
STABILIZE,3.6453123092651367,29.93857113285795,0.032344849904378255,0.03245902061462402,0.0,0.0,0.0,0.05674905360587407,-1.4764044062015533,-132.07023167828072,-0.02063067517095139,-0.049806520631544976,-0.009904693275876474,0.4,-0.24727225713984124,-0.1568477764896305,0.3229056229615965,-0.055918576661354996,0.26463125832378864,-3.7312019616365433,0.9135053493082523,4.473314576136668,-41.19543731212616,-76.44509077072144,36.57141327857971,0.0,0.0,0.0,0.0,0.0,0.0,0.0,0.0,0.0,0.0,0.0,0.0,0.0,0.0,0.0,0.0,False,1,7.120687961578369,0.034919921875
