Mode,Time,Freq,time2delay,actualDelay,North-Desired,East-Desired,Down-Desired,Roll-UAV,Pitch-UAV,Yaw-UAV,Roll-Control,Pitch-Control,Yaw-Control,Thrust-Control,North-Pos,East-Pos,Down-Pos,Yaw-Ang,North-Vel,East-Vel,Down-Vel,Yaw-Vel,North-Acc,East-Acc,Down-Acc,North-Avg,East-Avg,Down-Avg,Yaw-Avg,North-Dif,East-Dif,Down-Dif,Yaw-Dif,North-One,East-One,Down-One,Yaw-One,North-Two,East-Two,Down-Two,Yaw-Two,Landing-State,Q-Size,Kalman-Time,Kalman-Dt
STABILIZE,0.034320831298828125,29.145934527159902,0.0327177365620931,0.032848358154296875,0.0,0.0,0.0,0.11702179113238713,-1.34110849730565,-0.9856673738888904,-0.010310899361662986,0.01944647704636529,0.003489400080791978,0.4,0.006070813567582075,0.0032165029657170133,0.6556394779023066,0.01738967791425131,-0.15434196684509516,0.016253355715889484,1.338171772658825,0.16862567124061853,-0.8397024124860764,-0.9549807757139206,18.881528079509735,0.0,0.0,0.0,0.0,0.0,0.0,0.0,0.0,0.0,0.0,0.0,0.0,0.0,0.0,0.0,0.0,False,1,3.5108184814453125,0.034921142578125
STABILIZE,0.06770849227905273,29.951184678444424,0.03235605557759603,0.03248262405395508,0.0,0.0,0.0,0.11734515790090493,-1.3407711499936747,-0.990058972081797,-0.0060826015255501294,0.010960789544177871,0.0029341117288121527,0.4,0.006503356872298232,0.0036087948471235838,0.6566731328370594,0.014564529771400794,0.018976893625222147,0.016868958482518792,1.3741585426032543,-0.13780410910560542,-0.3121586050838232,-0.77041145414114,26.22581720352173,0.0,0.0,0.0,0.0,0.0,0.0,0.0,0.0,0.0,0.0,0.0,0.0,0.0,0.0,0.0,0.0,False,0,3.568218946456909,0.034919921875
STABILIZE,0.10115694999694824,29.89631847179158,0.03244903882344564,0.03257393836975098,0.0,0.0,0.0,0.11850607661639553,-1.3400911192844354,-0.9915202056773567,-0.00371200720546027,0.009913957225514148,0.0027965125121633388,0.4,0.00842041034499569,0.0031383512045656103,0.6567201532616389,0.013830275199330836,0.1280511263757944,-0.006544336065417156,1.2382027693092823,-0.015424694909897809,3.820328786969185,-0.9964557364583015,16.830353438854218,0.0,0.0,0.0,0.0,0.0,0.0,0.0,0.0,0.0,0.0,0.0,0.0,0.0,0.0,0.0,0.0,False,0,3.596890687942505,0.034922119140625
STABILIZE,0.13461780548095703,29.88524157979864,0.032441171010335286,0.03257632255554199,0.0,0.0,0.0,0.1184988195404024,-1.340378947724928,-0.9909244851156847,-0.0026601063285236833,0.0038757978465332964,0.0030414948534530756,0.4,0.004148498732754205,0.00285795878103437,0.6569013603126963,0.015004991798456596,-0.2349090063944459,0.003086090146098286,1.2460114434361458,0.09644259124569739,-1.526972558349371,-0.9625804610550404,16.52013510465622,0.0,0.0,0.0,0.0,0.0,0.0,0.0,0.0,0.0,0.0,0.0,0.0,0.0,0.0,0.0,0.0,False,0,3.626521587371826,0.029931884765625
STABILIZE,0.1683192253112793,29.672760201482824,0.03243735631306966,0.03289461135864258,0.0,0.0,0.0,0.11737664080411045,-1.3399549423878583,-0.9952137371927469,-0.0017318521594947532,0.003995772552048314,0.0030919172265492464,0.4,0.005135119494473438,0.0022099876961885574,0.6559385750633122,0.015205804650707136,0.07365536876022816,-0.022970058489590883,1.3641759753227234,0.04356741549777093,1.0508757084608078,-0.877736508846283,20.22954225540161,0.0,0.0,0.0,0.0,0.0,0.0,0.0,0.0,0.0,0.0,0.0,0.0,0.0,0.0,0.0,0.0,False,0,3.6544086933135986,0.034921142578125
STABILIZE,0.20189690589904785,29.783168119976143,0.03250244458516439,0.03264760971069336,0.0,0.0,0.0,0.11729852051547843,-1.3398088403726434,-0.9950977306985624,0.0007419110706802925,0.001073298863836433,0.0031595013706483166,0.4,0.006124997225932891,0.0015300233914126498,0.6584624020505785,0.015491840700217209,0.07365536876022816,-0.022970058489590883,1.3641759753227234,0.04356741549777093,1.0508757084608078,-0.877736508846283,20.22954225540161,0.0,0.0,0.0,0.0,0.0,0.0,0.0,0.0,0.0,0.0,0.0,0.0,0.0,0.0,0.0,0.0,False,0,3.6833016872406006,0.034921142578125
STABILIZE,0.23625802993774414,29.103262604254848,0.03239563306172689,0.033353328704833984,0.0,0.0,0.0,0.1186184012117305,-1.3404005055094959,-0.9930458991832083,-0.0005109579814721814,0.0023910881997745597,0.003413442820670394,0.4,0.00821598025889732,0.0035027646558944458,0.6619284837588465,0.016704299050970758,0.1372955390252173,0.13209591852501035,1.420436892658472,0.09820906226000516,3.861658275127411,3.1088557094335556,18.96158903837204,0.0,0.0,0.0,0.0,0.0,0.0,0.0,0.0,0.0,0.0,0.0,0.0,0.0,0.0,0.0,0.0,False,1,3.711883783340454,0.034921142578125
STABILIZE,0.2695653438568115,30.021716568009218,0.03230741818745931,0.03242301940917969,0.0,0.0,0.0,0.11967894816293366,-1.3400123586655686,-0.992905880305223,-0.0011397490647829214,-0.00023028452469147232,0.0020837768108701283,0.4,0.0062948737007180846,0.003955357293011674,0.6549050427499258,0.010022461900492411,-0.0816776358988136,0.012371233606245369,1.0587950237095356,-0.4367827533769405,-1.508684828877449,1.1511053889989853,17.131125926971436,0.0,0.0,0.0,0.0,0.0,0.0,0.0,0.0,0.0,0.0,0.0,0.0,0.0,0.0,0.0,0.0,False,0,3.769132614135742,0.034921142578125
STABILIZE,0.3030831813812256,29.84653701371247,0.03141072591145833,0.031571388244628906,0.0,0.0,0.0,0.1190044669823949,-1.340143092755151,-0.996434420063475,-0.0013134139910489344,0.0010861954199255681,0.0005094689106722761,0.4,0.004681154788592541,0.003962415208656647,0.6524410519557482,0.002143745206888306,-0.0816776358988136,0.012371233606245369,1.0587950237095356,-0.4367827533769405,-1.508684828877449,1.1511053889989853,17.131125926971436,0.0,0.0,0.0,0.0,0.0,0.0,0.0,0.0,0.0,0.0,0.0,0.0,0.0,0.0,0.0,0.0,False,0,3.7980785369873047,0.034921142578125
STABILIZE,0.33646345138549805,29.945838658318042,0.03240469296773275,0.03251528739929199,0.0,0.0,0.0,0.11799493300655528,-1.340077138740978,-0.992953691629413,-0.0022072928190987567,-0.0023936533623995344,0.0015463095395879237,0.4,0.0009144627867854744,0.004625323865720187,0.6528725711010441,0.00730354367661786,-0.20819730125367641,0.05058693350292742,1.2346280738711357,0.33759882835526145,-5.21877184510231,-0.9824596345424652,11.321397125720978,0.0,0.0,0.0,0.0,0.0,0.0,0.0,0.0,0.0,0.0,0.0,0.0,0.0,0.0,0.0,0.0,False,0,3.8265912532806396,0.0349208984375
STABILIZE,0.36998558044433594,29.831465149359886,0.03246429761250814,0.032601356506347656,0.0,0.0,0.0,0.11937073587663684,-1.3392962560197752,-0.9945973126201532,-0.001660929256924741,-0.005804624210329866,0.0014227616642740195,0.4,-0.002759526570176822,0.003384189510951945,0.6488091207046247,0.006663497499672602,-0.20109910983592272,-0.06255218177102506,0.9714140556752682,-0.010983104267939177,-2.542957477271557,-2.87700816988945,12.660899758338928,0.0,0.0,0.0,0.0,0.0,0.0,0.0,0.0,0.0,0.0,0.0,0.0,0.0,0.0,0.0,0.0,False,0,3.8554446697235107,0.029932861328125
STABILIZE,0.4034736156463623,29.864175555017585,0.032259496053059895,0.03240704536437988,0.0,0.0,0.0,0.12031410239489196,-1.3384200708153093,-0.9977213771134935,0.00043290698842382634,-0.009732843810212874,0.0013100161086237207,0.4,-0.0062863412217005355,0.0021563777374652648,0.641690949629236,0.006079425559132711,-0.20109910983592272,-0.06255218177102506,0.9714140556752682,-0.010983104267939177,-2.542957477271557,-2.87700816988945,12.660899758338928,0.0,0.0,0.0,0.0,0.0,0.0,0.0,0.0,0.0,0.0,0.0,0.0,0.0,0.0,0.0,0.0,False,0,3.883937358856201,0.029932861328125
STABILIZE,0.4368410110473633,29.96659188660103,0.032344849904378255,0.0324549674987793,0.0,0.0,0.0,0.11865991595527949,-1.3384439764774045,-0.9974625769769735,-0.00035219384895553184,-0.010277252928223433,0.0011731795779065378,0.4,-0.008488914808379744,0.0035297706349561053,0.642962540134168,0.005377270738502961,-0.12605080846697092,0.09254422620870173,1.454377081245184,-0.019578030224540747,-1.983896642923355,1.1180384084582329,21.39436900615692,0.0,0.0,0.0,0.0,0.0,0.0,0.0,0.0,0.0,0.0,0.0,0.0,0.0,0.0,0.0,0.0,False,1,3.912620782852173,0.069842041015625
STABILIZE,0.4703235626220703,29.866940106670086,0.03243401845296224,0.03256583213806152,0.0,0.0,0.0,0.11923589300138197,-1.3388053361731804,-1.0034615107806546,0.00013434783385030116,-0.016280188349951482,0.0007896298872258706,0.4,-0.017559565368031178,0.0029011095167184604,0.6524195584794757,0.0034479870805188785,-0.21561130415648222,-0.008438633813057095,1.0100619867444038,-0.026151940558332573,-5.8290135115385056,-0.9093031287193298,18.14737170934677,0.0,0.0,0.0,0.0,0.0,0.0,0.0,0.0,0.0,0.0,0.0,0.0,0.0,0.0,0.0,0.0,False,0,3.9701268672943115,0.02993212890625
STABILIZE,0.5038127899169922,29.861411515104052,0.03240040143330892,0.03256392478942871,0.0,0.0,0.0,0.1192409089215537,-1.3373753720374149,-1.0158422958683604,0.00020797166215585097,-0.013707992226491718,-0.00017064382222400682,0.4,-0.017142718389989927,0.003319784264440054,0.6475948963875451,-0.0013488677183562873,0.011242437176406384,0.03257135394960642,1.1821645312011242,-0.25500236457850217,5.503752827644348,-0.8305453695356846,22.115972638130188,0.0,0.0,0.0,0.0,0.0,0.0,0.0,0.0,0.0,0.0,0.0,0.0,0.0,0.0,0.0,0.0,False,0,3.9988181591033936,0.0349208984375
STABILIZE,0.5372574329376221,29.900154693927014,0.032343419392903645,0.03246331214904785,0.0,0.0,0.0,0.1171388114827765,-1.3359007982286326,-1.0113599842255396,0.002348089376172625,-0.014591587931238447,0.000505978116799837,0.4,-0.021148820145116,-0.0004321859145610036,0.6433519394004196,0.0020274587962756567,-0.22596570197492838,-0.20334424916654825,1.0219731368124485,0.21055358787353518,-1.936231181025505,-4.877514019608498,15.622472763061523,0.0,0.0,0.0,0.0,0.0,0.0,0.0,0.0,0.0,0.0,0.0,0.0,0.0,0.0,0.0,0.0,False,0,4.027752161026001,0.034921142578125
STABILIZE,0.5707056522369385,29.895253029223092,0.03239277203877767,0.032521963119506836,0.0,0.0,0.0,0.11462252710386148,-1.3384467512417548,-1.0087979162348444,0.002399986797992128,-0.016534084557525544,0.0039847706737697755,0.4,-0.026420085644816117,-0.0014485955409271692,0.6363009531037249,0.0193566668244647,-0.2995025832206011,-0.04771249950863421,0.8581705391407013,0.992698306587478,-1.3459955342113972,0.7076425943523645,6.079941615462303,0.0,0.0,0.0,0.0,0.0,0.0,0.0,0.0,0.0,0.0,0.0,0.0,0.0,0.0,0.0,0.0,False,0,4.057548761367798,0.0349208984375
STABILIZE,0.6043331623077393,29.737557074388135,0.03240326245625814,0.03268599510192871,0.0,0.0,0.0,0.11373102733461615,-1.3383742872035291,-1.0258730689947588,-0.0022226493717209766,-0.019843331159878876,0.004935067109315221,0.4,-0.03245778604819623,0.00566736932432455,0.6320794211247687,0.024027436644228555,-0.3452424891293049,0.40937340818345547,1.0133439674973488,0.2716769640961925,22.86515086889267,10.50828993320465,3.3047452569007874,0.0,0.0,0.0,0.0,0.0,0.0,0.0,0.0,0.0,0.0,0.0,0.0,0.0,0.0,0.0,0.0,False,0,4.087657928466797,0.029931884765625
STABILIZE,0.637768030166626,29.910176139199887,0.032380135854085286,0.032523155212402344,0.0,0.0,0.0,0.1142869940608846,-1.3343089372651964,-1.0230274414318024,-0.002696168838680493,0.004076992214176914,0.003195626936102144,0.4,-0.008356176619755913,0.005781385998086021,0.6293143718505637,0.015279094592147636,1.3439173810184002,0.01475154422223568,1.2468056753277779,-0.4726327087830449,29.494479298591614,-7.011603564023972,10.047857463359833,0.0,0.0,0.0,0.0,0.0,0.0,0.0,0.0,0.0,0.0,0.0,0.0,0.0,0.0,0.0,0.0,False,0,4.114773750305176,0.034921142578125
STABILIZE,0.6712043285369873,29.905697642084547,0.03238728841145833,0.0325169563293457,0.0,0.0,0.0,0.1150630743053273,-1.334819920792478,-1.0049763186725165,0.0027311977203276997,-0.023902498199480718,0.009029350676209259,0.4,-0.04446059591290618,-0.0009342684777431999,0.621946623284057,0.04429954764370665,-1.0461574420332909,-0.1852528308518231,1.00995609536767,0.8412571645149868,-43.19917559623718,-1.208532601594925,12.164092063903809,0.0,0.0,0.0,0.0,0.0,0.0,0.0,0.0,0.0,0.0,0.0,0.0,0.0,0.0,0.0,0.0,False,0,4.172062158584595,0.0349208984375
STABILIZE,0.7084701061248779,26.835816884737195,0.03242448170979818,0.0363004207611084,0.0,0.0,0.0,0.10664571992693284,-1.3449327629106222,-1.0194952731355538,-0.003128774935703187,-0.03402984470588337,0.008730539916301065,0.4,-0.062132481242008306,0.004184716222860083,0.6221461863208804,0.04264690137110322,-1.0190417990088463,0.2994075184687972,1.225903443992138,-0.08101457462270713,-13.715839385986328,12.367480993270874,5.323975160717964,0.0,0.0,0.0,0.0,0.0,0.0,0.0,0.0,0.0,0.0,0.0,0.0,0.0,0.0,0.0,0.0,False,0,4.200740337371826,0.02993310546875
STABILIZE,0.7418580055236816,29.950970800991154,0.03235462506612142,0.03247880935668945,0.0,0.0,0.0,0.09196316108893261,-1.3468667736627937,-1.023922196213074,-0.014081300475047086,-0.008448951057765358,0.0033480827715954968,0.4,-0.032914147474844294,0.01762411468656248,0.6172550037109829,0.015682154156609958,1.626514457166195,0.7831853814423084,1.0877301916480064,-1.5073363052401312,79.55158948898315,8.846649527549744,14.982718229293823,0.0,0.0,0.0,0.0,0.0,0.0,0.0,0.0,0.0,0.0,0.0,0.0,0.0,0.0,0.0,0.0,False,0,4.229484558105469,0.034829833984375
STABILIZE,0.7753400802612305,29.865664096155626,0.032410653432210286,0.032549381256103516,0.0,0.0,0.0,0.07856531814512949,-1.3506678806576116,-1.007004031082364,0.004560167816395373,0.007568230907873744,0.007550653396848743,0.4,-0.01673923442325654,-0.0011478433756603248,0.6125525790534014,0.03657263473420381,0.9013277478516102,-1.0822703130543232,0.921136699616909,1.2398306657361124,-55.13598918914795,-22.765381634235382,11.567729711532593,0.0,0.0,0.0,0.0,0.0,0.0,0.0,0.0,0.0,0.0,0.0,0.0,0.0,0.0,0.0,0.0,False,0,4.262407302856445,0.0349208984375
STABILIZE,0.8087825775146484,29.902499536594757,0.032392056783040364,0.0325016975402832,0.0,0.0,0.0,0.08953721663396161,-1.3707493838693896,-0.9690867695135671,0.009954822824972964,-0.020900258585151495,0.008488226375606714,0.4,-0.035048352722548,-0.008053601353204171,0.6083242965706873,0.04112303080957205,-1.0959936305880547,-0.387216848321259,0.9441687725484371,0.28904437424738955,-11.825546622276306,18.447068333625793,32.18609690666199,0.0,0.0,0.0,0.0,0.0,0.0,0.0,0.0,0.0,0.0,0.0,0.0,0.0,0.0,0.0,0.0,False,0,4.291306734085083,0.034921142578125
STABILIZE,0.842210054397583,29.915722803914296,0.03237155278523763,0.0325014591217041,0.0,0.0,0.0,0.08898103646428158,-1.3699266662395204,-0.9700935820859093,-0.0024545701327081905,0.014718190215182819,0.009706588820020713,0.4,-0.01676852750497857,0.002838676675835674,0.6124000768125328,0.04705748116063534,1.0191339068114758,0.6388138048350811,1.4202751219272614,0.37202930503319326,108.42514038085938,18.536894023418427,41.367945075035095,0.0,0.0,0.0,0.0,0.0,0.0,0.0,0.0,0.0,0.0,0.0,0.0,0.0,0.0,0.0,0.0,False,0,4.3198487758636475,0.029931884765625
STABILIZE,0.875676155090332,29.880131936083664,0.03240183194478353,0.032538652420043945,0.0,0.0,0.0,0.08086858599930472,-1.3561269093517443,-0.9857172129254903,-0.011203940659350006,0.05005713020595153,0.002492785983683244,0.4,0.01689809175926472,0.01782956806184918,0.6091611106867658,0.010951796265064071,-1.4214408583939075,0.28702972922474146,1.201251894235611,1.359954056442773,-131.91758394241333,-26.576149463653564,-37.83099353313446,0.0,0.0,0.0,0.0,0.0,0.0,0.0,0.0,0.0,0.0,0.0,0.0,0.0,0.0,0.0,0.0,False,0,4.377558946609497,0.0349208984375
STABILIZE,0.909092903137207,29.926181727373265,0.03239420255025228,0.0325014591217041,0.0,0.0,0.0,0.07799184905911287,-1.3542462594524636,-0.9709141652816629,0.013981316962851346,0.0014327013637650545,-0.0018752648464921513,0.4,-0.023620487750337135,-0.004463669862456332,0.6275025840769897,-0.010852214014620732,-2.394833229482174,-1.2946698814630508,2.226145751774311,-1.2271847839312453,-64.59329724311829,-4.460737854242325,-14.987872540950775,0.0,0.0,0.0,0.0,0.0,0.0,0.0,0.0,0.0,0.0,0.0,0.0,0.0,0.0,0.0,0.0,False,0,4.406361818313599,0.02993212890625
STABILIZE,0.9425754547119141,29.866089420879113,0.032401116689046223,0.0325467586517334,0.0,0.0,0.0,0.07828106488178059,-1.3847773117641264,-0.9722710250489682,0.019705601432253316,-0.03908685995795562,-0.006151166624218927,0.4,-0.0637900687464178,-0.0265627441701765,0.6426919957755656,-0.0321242133895548,-2.394833229482174,-1.2946698814630508,2.226145751774311,-1.2271847839312453,-64.59329724311829,-4.460737854242325,-14.987872540950775,0.0,0.0,0.0,0.0,0.0,0.0,0.0,0.0,0.0,0.0,0.0,0.0,0.0,0.0,0.0,0.0,False,0,4.4347875118255615,0.02993212890625
STABILIZE,0.9761784076690674,29.7624568922697,0.03238943417867025,0.03252696990966797,0.0,0.0,0.0,0.07776149025718361,-1.3730859488957687,-0.9690747099608138,0.0036127345465866204,0.02427306810601449,-0.0012670629672924365,0.4,0.004478382383935678,-0.010942961005132808,0.6472255345598759,-0.007677993812615181,4.017141833901405,0.9256111457943916,1.5963397920131683,1.4682947305009266,116.28261804580688,18.370424211025238,-52.874332666397095,0.0,0.0,0.0,0.0,0.0,0.0,0.0,0.0,0.0,0.0,0.0,0.0,0.0,0.0,0.0,0.0,False,0,4.463557958602905,0.034921875
STABILIZE,1.0094079971313477,30.088911526073016,0.032234938939412434,0.03234720230102539,0.0,0.0,0.0,0.07692703323967845,-1.3644967725710662,-0.9738865782310878,0.017939914175797038,0.03007440072352322,-0.005775322114095997,0.4,0.026255599008596177,-0.02108687087455931,0.6689632473200767,-0.030118671464452976,1.2534437701106071,-0.5929357837885618,2.404240146279335,-1.3012116548163128,-1.5640858560800552,-31.636905670166016,-7.50420019030571,0.0,0.0,0.0,0.0,0.0,0.0,0.0,0.0,0.0,0.0,0.0,0.0,0.0,0.0,0.0,0.0,False,0,4.492168426513672,0.02993212890625
STABILIZE,1.0430736541748047,29.70470254957507,0.03242996533711751,0.03273439407348633,0.0,0.0,0.0,0.07694971160215701,-1.3699797069272939,-0.967357237549673,0.021609272203020946,0.009043778612229275,-0.002168187757782771,0.4,0.025039977972198972,-0.014192078058460702,0.6727997160901139,-0.012042503455149622,-0.08501216652803123,0.4052357282489538,1.5670852735638618,1.0882595899868321,-43.20704936981201,25.242838263511658,3.4248027950525284,0.0,0.0,0.0,0.0,0.0,0.0,0.0,0.0,0.0,0.0,0.0,0.0,0.0,0.0,0.0,0.0,False,0,4.520816802978516,0.0349208984375
STABILIZE,1.0765349864959717,29.88524157979864,0.032412083943684895,0.0325474739074707,0.0,0.0,0.0,0.07486933203050633,-1.372331319714188,-0.9347891880397596,0.021779918437642244,0.05008560354626671,-0.004763870891167747,0.4,0.046889440204529106,-0.031770281040101364,0.6464032697918785,-0.024937489229982304,0.7060212548822165,-0.7597899064421654,-0.03380357229616493,-0.19031452340338412,29.596799612045288,9.79403704404831,4.095685854554176,0.0,0.0,0.0,0.0,0.0,0.0,0.0,0.0,0.0,0.0,0.0,0.0,0.0,0.0,0.0,0.0,False,0,4.578235387802124,0.02993212890625
STABILIZE,1.1100471019744873,29.841865230414584,0.032408984502156575,0.032540082931518555,0.0,0.0,0.0,0.07051076420553906,-1.3668408081168497,-0.9733744207650427,0.018017455105360642,0.082887558896774,-0.005385887986061295,0.4,0.05833423972136793,-0.0440378054082124,0.6234735699462042,-0.027954058693414413,0.7060212548822165,-0.7597899064421654,-0.03380357229616493,-0.19031452340338412,29.596799612045288,9.79403704404831,4.095685854554176,0.0,0.0,0.0,0.0,0.0,0.0,0.0,0.0,0.0,0.0,0.0,0.0,0.0,0.0,0.0,0.0,False,0,4.606909275054932,0.02993212890625
STABILIZE,1.1435091495513916,29.88438985115888,0.03233388264973958,0.03247213363647461,0.0,0.0,0.0,0.07183160539714316,-1.3682960652968856,-0.9700273079066191,0.003295034166685374,0.03194576542046088,-0.011133291119518758,0.4,0.04509683253433085,-0.012719763769529706,0.6104958444093598,-0.056502058095417085,-0.777422683313489,1.873898133635521,0.5381263792514801,-1.7472365612747798,-33.00824165344238,58.8959276676178,17.562511563301086,0.0,0.0,0.0,0.0,0.0,0.0,0.0,0.0,0.0,0.0,0.0,0.0,0.0,0.0,0.0,0.0,False,0,4.635754108428955,0.0349208984375
STABILIZE,1.1770260334014893,29.83698265682132,0.03234055836995443,0.032579660415649414,0.0,0.0,0.0,0.07282070216632563,-1.3495597891864828,-0.9479884218891035,-9.910349961869799e-05,0.014494849441831737,-0.005573690531224,0.4,0.039324613652497516,-0.01624524099841857,0.6098556321268319,-0.028608069555276505,-0.3558404045179486,-0.23136369418352842,1.1036005802452564,1.7105381683077128,9.36306118965149,-54.40632700920105,19.585612416267395,0.0,0.0,0.0,0.0,0.0,0.0,0.0,0.0,0.0,0.0,0.0,0.0,0.0,0.0,0.0,0.0,False,0,4.664398670196533,0.034922119140625
STABILIZE,1.2104475498199463,29.918283496918512,0.03236845334370931,0.03249216079711914,0.0,0.0,0.0,0.09427400618421834,-1.3373401538745069,-1.0160533914023961,0.03548462304689405,0.008833999865182377,-0.0001965212229863382,0.4,0.031007716835062385,-0.0572411762979012,0.6058702804783946,-0.001716481688494198,-0.4924438428133726,-2.4833284318447113,0.9033553302288055,1.609520310813459,-8.25318843126297,-31.16595447063446,17.84263551235199,0.0,0.0,0.0,0.0,0.0,0.0,0.0,0.0,0.0,0.0,0.0,0.0,0.0,0.0,0.0,0.0,False,0,4.6933488845825195,0.029931884765625
STABILIZE,1.243969202041626,29.83231386383681,0.03240826924641927,0.03253507614135742,0.0,0.0,0.0,0.09968100804678258,-1.3472964352502699,-0.9981515723094986,0.055890555120660206,-0.010921098863930485,0.0051972652024187115,0.4,0.0222540775785667,-0.09747648459184129,0.5992115059429948,0.02516826168438778,-0.4924438428133726,-2.4833284318447113,0.9033553302288055,1.609520310813459,-8.25318843126297,-31.16595447063446,17.84263551235199,0.0,0.0,0.0,0.0,0.0,0.0,0.0,0.0,0.0,0.0,0.0,0.0,0.0,0.0,0.0,0.0,False,0,4.722071647644043,0.029931884765625
STABILIZE,1.2774014472961426,29.91038943442512,0.03233292897542318,0.032529354095458984,0.0,0.0,0.0,0.09007146549310355,-1.35742304446846,-0.9673781550040061,0.08815989796606037,-0.03993306347943276,0.007388335255578913,0.4,-0.0066963920516835244,-0.14907052091797254,0.6121042562262287,0.0360029618422163,0.1004386693239212,-1.368204690515995,1.633378490805626,-3.1905066525955434,69.91878747940063,-14.529313147068024,31.180274486541748,0.0,0.0,0.0,0.0,0.0,0.0,0.0,0.0,0.0,0.0,0.0,0.0,0.0,0.0,0.0,0.0,False,0,4.779378652572632,0.029931884765625
STABILIZE,1.3108670711517334,29.88162206833661,0.032422574361165364,0.03254866600036621,0.0,0.0,0.0,0.10427596445005576,-1.3318150644444955,-1.0571324969483802,0.09284271362124982,-0.0035308522282088968,0.012154296004658475,0.4,0.03033804431930859,-0.13079357005152725,0.5973989871846412,0.05963332689812867,2.107994444668293,0.8580387569963932,0.5368882790207863,1.4052905042757904,-7.88729190826416,44.06517446041107,-56.371188163757324,0.0,0.0,0.0,0.0,0.0,0.0,0.0,0.0,0.0,0.0,0.0,0.0,0.0,0.0,0.0,0.0,False,0,4.8081676959991455,0.034921142578125
STABILIZE,1.3443753719329834,29.841652911377995,0.032387526830037434,0.03259134292602539,0.0,0.0,0.0,0.10267855395791903,-1.3406041305241267,-1.0467288381819813,0.11535824686114618,-0.042254050564639774,0.022609248970303242,0.4,-0.024823847832258245,-0.16277330399423842,0.6158375046289858,0.1115342079741169,-3.1074339523911476,-1.9020797684788704,2.2361434996128082,2.9685498371190473,29.691395163536072,-93.30233335494995,7.611364871263504,0.0,0.0,0.0,0.0,0.0,0.0,0.0,0.0,0.0,0.0,0.0,0.0,0.0,0.0,0.0,0.0,False,0,4.836757183074951,0.0349208984375
STABILIZE,1.3777997493743896,29.91913715867264,0.03242495854695638,0.03254508972167969,0.0,0.0,0.0,0.10219099584505648,-1.355575798463089,-0.9822549473465285,0.08215407089405485,0.013488783173186764,0.020334917057170533,0.4,0.041372301906894574,-0.15156973109894029,0.6100559959947911,0.09982873190074965,3.7558022886514664,0.5260306876152754,0.8515768684446812,-0.6292805894372014,166.69797897338867,114.29187059402466,4.761767387390137,0.0,0.0,0.0,0.0,0.0,0.0,0.0,0.0,0.0,0.0,0.0,0.0,0.0,0.0,0.0,0.0,False,0,4.865478992462158,0.02993310546875
STABILIZE,1.4113223552703857,29.831889500561886,0.03244045575459798,0.03258490562438965,0.0,0.0,0.0,0.1099591087263295,-1.3413915232693823,-1.0598100378247308,0.04173538485052249,0.009043536054563307,0.015964739472463643,0.4,0.02887089570283824,-0.13021742215116197,0.5963838933636972,0.07771775480934448,-0.6801262032240629,0.9990843012928963,0.555034726858139,-1.1394377705509147,-112.31875419616699,-51.202207803726196,-19.90063786506653,0.0,0.0,0.0,0.0,0.0,0.0,0.0,0.0,0.0,0.0,0.0,0.0,0.0,0.0,0.0,0.0,False,0,4.894278526306152,0.0349208984375
STABILIZE,1.4447121620178223,29.94840450978572,0.03237202962239583,0.03248262405395508,0.0,0.0,0.0,0.09928715159159614,-1.3584403157679688,-0.968035027103091,-0.0045677872553393315,0.016953773382971635,0.01173941857430195,0.4,0.01675523309898926,-0.11001649448533105,0.5857682771661359,0.056402621344369706,-0.6801262032240629,0.9990843012928963,0.555034726858139,-1.1394377705509147,-112.31875419616699,-51.202207803726196,-19.90063786506653,0.0,0.0,0.0,0.0,0.0,0.0,0.0,0.0,0.0,0.0,0.0,0.0,0.0,0.0,0.0,0.0,False,0,4.923099040985107,0.0349208984375
STABILIZE,1.4781558513641357,29.902925911138993,0.03241470654805501,0.03252911567687988,0.0,0.0,0.0,0.10206863940937805,-1.3580394690410538,-1.010246449947416,-0.005137007895475718,-0.032819519605963555,0.016146834791231253,0.4,-0.01919808258796541,-0.09495211663131803,0.6036064936899218,0.07817834584931563,2.209717221558094,2.451161853969097,1.7144111916422844,-1.4682396621007434,98.89717698097229,89.55290913581848,23.015622794628143,0.0,0.0,0.0,0.0,0.0,0.0,0.0,0.0,0.0,0.0,0.0,0.0,0.0,0.0,0.0,0.0,False,0,4.980450630187988,0.03492138671875
STABILIZE,1.5116736888885498,29.83337482484654,0.03240636189778646,0.03254961967468262,0.0,0.0,0.0,0.10724917781227404,-1.3480947136095152,-1.050754167480646,-0.012804709909349687,0.03390906642860426,0.019695333230251327,0.4,0.02488259529769711,-0.10993583126672972,0.596098429122516,0.09560079461470193,2.512269653379917,-1.038362830877304,0.7154191378504038,1.085215993659651,-7.647372782230377,-83.80861282348633,-8.271024376153946,0.0,0.0,0.0,0.0,0.0,0.0,0.0,0.0,0.0,0.0,0.0,0.0,0.0,0.0,0.0,0.0,False,0,5.009371995925903,0.029931640625
STABILIZE,1.5450952053070068,29.920631183969295,0.032349618275960286,0.03249025344848633,0.0,0.0,0.0,0.10311520581712383,-1.3508282833814012,-0.9798216924547115,0.0043196349169858025,-0.06058671613500904,0.02574691889239089,0.4,-0.04664575312699897,-0.12324153408588778,0.5972349358805455,0.12543913639759505,-4.0921758860349655,-0.9844237938523293,1.3641317375004292,1.8614547198354354,-109.93719100952148,28.27446460723877,18.978016078472137,0.0,0.0,0.0,0.0,0.0,0.0,0.0,0.0,0.0,0.0,0.0,0.0,0.0,0.0,0.0,0.0,False,0,5.037883758544922,0.034921142578125
STABILIZE,1.578552484512329,29.88843599464128,0.03239396413167318,0.032534122467041016,0.0,0.0,0.0,0.10488619916371408,-1.3548755973514568,-1.0238455700283229,-0.021411154803879454,-0.04557500096680306,0.018311246869586975,0.4,-0.03676346370580849,-0.07317907172380159,0.5968400265405486,0.08796648114979638,0.5904668476432562,2.6949165388941765,1.1005803011357784,-2.0583176337447164,59.54141020774841,54.204124212265015,12.007203698158264,0.0,0.0,0.0,0.0,0.0,0.0,0.0,0.0,0.0,0.0,0.0,0.0,0.0,0.0,0.0,0.0,False,0,5.067014217376709,0.034921142578125
STABILIZE,1.6120591163635254,29.846749402254353,0.03240230878194173,0.032531023025512695,0.0,0.0,0.0,0.10517584187320494,-1.3484166929958579,-0.998981973902184,0.022004310959225167,-0.0045296731196517856,0.023518632085171243,0.4,0.007146234507094791,-0.11403570752751291,0.5921073664283504,0.11362333573068235,2.5242142379283905,-2.543175406754017,0.8526848629117012,1.5925189027522395,71.41638398170471,-98.34139943122864,9.869803488254547,0.0,0.0,0.0,0.0,0.0,0.0,0.0,0.0,0.0,0.0,0.0,0.0,0.0,0.0,0.0,0.0,False,0,5.095602512359619,0.029932861328125
STABILIZE,1.6454405784606934,29.95567681067299,0.032335551579793294,0.03246259689331055,0.0,0.0,0.0,0.10462195622019922,-1.3488338681437575,-0.9986160251730595,0.0186507101095382,-0.001038810544299276,0.020122829326636837,0.4,-0.016295039000938448,-0.09792747966383675,0.5858150628063485,0.09632219417011254,-1.367930881679058,0.7150099147111177,0.9181850589811802,-0.8293456347676019,-77.49127745628357,65.87940454483032,15.018777549266815,0.0,0.0,0.0,0.0,0.0,0.0,0.0,0.0,0.0,0.0,0.0,0.0,0.0,0.0,0.0,0.0,False,0,5.1243932247161865,0.034921142578125
STABILIZE,1.6788585186004639,29.9229792394949,0.03240707715352376,0.03252720832824707,0.0,0.0,0.0,0.10591851822373805,-1.349030342804101,-1.030865510391215,-0.01796665128573196,-0.06409845361105092,0.015860354561318988,0.4,-0.06401459222539557,-0.061799641939859325,0.5878777519696734,0.07475989903968244,-1.4035144820809364,1.0020449757575989,1.4224465005099773,-0.15055385781062428,44.97361183166504,-78.48303318023682,13.763153553009033,0.0,0.0,0.0,0.0,0.0,0.0,0.0,0.0,0.0,0.0,0.0,0.0,0.0,0.0,0.0,0.0,False,0,5.181770324707031,0.0349208984375
STABILIZE,1.7124114036560059,29.80539073214755,0.03243902524312337,0.03256702423095703,0.0,0.0,0.0,0.10423188838556802,-1.3524052033060279,-0.9995642475289276,-0.010517098927284854,0.00789542571253873,0.018681309713170568,0.4,-0.02595150420536374,-0.08197628485576956,0.5869521765775968,0.08856832394504194,2.2016871720552444,-1.3615920208394527,1.0545911267399788,0.9431479522016801,53.128838539123535,5.606132745742798,11.90442442893982,0.0,0.0,0.0,0.0,0.0,0.0,0.0,0.0,0.0,0.0,0.0,0.0,0.0,0.0,0.0,0.0,False,0,5.2103564739227295,0.034880615234375
STABILIZE,1.7458436489105225,29.91060273269247,0.03232458432515462,0.0324702262878418,0.0,0.0,0.0,0.1065827007596689,-1.3482946033644438,-1.016044746944228,-0.003672941467042429,-0.002390578262738169,0.013675805862465303,0.4,-0.03166541494210752,-0.05187669355553469,0.5836295261709962,0.06332887368467865,-0.35823313519358635,1.5612478367984295,0.9181717410683632,-1.3192030134203612,-69.42881941795349,56.14587664604187,9.900492429733276,0.0,0.0,0.0,0.0,0.0,0.0,0.0,0.0,0.0,0.0,0.0,0.0,0.0,0.0,0.0,0.0,False,0,5.239231586456299,0.029931884765625
STABILIZE,1.779242992401123,29.939639665362762,0.03233769734700521,0.03247404098510742,0.0,0.0,0.0,0.10691124353091709,-1.3483826487717134,-1.0321182097736779,-0.01817320743971488,-0.05869626912694624,0.016862628706749636,0.4,-0.07075923411402033,-0.0646919077431264,0.5800010223132489,0.07899874739641782,-2.333974838256836,-0.9259258396923542,1.0535294190049171,1.0769156062707932,-27.32720375061035,-65.03430604934692,8.05698111653328,0.0,0.0,0.0,0.0,0.0,0.0,0.0,0.0,0.0,0.0,0.0,0.0,0.0,0.0,0.0,0.0,False,0,5.267868995666504,0.034922119140625
STABILIZE,1.8127529621124268,29.841652911377995,0.03242066701253255,0.032569169998168945,0.0,0.0,0.0,0.10579317358029773,-1.3542845725448391,-1.0050346954455789,-0.006730106469762467,-0.027881928039466736,0.017203962049415947,0.4,-0.048886742500949806,-0.06709274759281195,0.582541157938739,0.08043615853051618,1.2634947896003723,-0.3126237541437149,1.2419462203979492,0.2246038873058464,77.88099646568298,33.10641050338745,9.852083027362823,0.0,0.0,0.0,0.0,0.0,0.0,0.0,0.0,0.0,0.0,0.0,0.0,0.0,0.0,0.0,0.0,False,0,5.296476602554321,0.029931884765625
STABILIZE,1.8461427688598633,29.949473744341145,0.0323822816212972,0.032497406005859375,0.0,0.0,0.0,0.10844856970269887,-1.3513400139606233,-1.0326397587498317,0.016641069604151654,0.017961553080826385,0.017457367628168102,0.4,-0.02641360030717256,-0.06945193122154654,0.5823633962648314,0.0814309522334998,1.2634947896003723,-0.3126237541437149,1.2419462203979492,0.2246038873058464,77.88099646568298,33.10641050338745,9.852083027362823,0.0,0.0,0.0,0.0,0.0,0.0,0.0,0.0,0.0,0.0,0.0,0.0,0.0,0.0,0.0,0.0,False,0,5.325116872787476,0.029931884765625
STABILIZE,1.880333423614502,29.248777902525088,0.032425673802693684,0.033186912536621094,0.0,0.0,0.0,0.10431230319087434,-1.3508474932884418,-1.0000315818785446,0.002660074003772914,-0.020653157663420182,0.017824954955969755,0.4,-0.047327641228650574,-0.06683004315242792,0.5786540651241888,0.08298626139735209,-2.337266691029072,-1.4128359034657478,1.0604116134345531,1.557754947424167,-69.63001489639282,-41.37081801891327,15.927520394325256,0.0,0.0,0.0,0.0,0.0,0.0,0.0,0.0,0.0,0.0,0.0,0.0,0.0,0.0,0.0,0.0,False,0,5.383243083953857,0.034921142578125
STABILIZE,1.9138462543487549,29.838256217631326,0.0322749932607015,0.03239107131958008,0.0,0.0,0.0,0.10442340048659284,-1.3556166728764032,-1.01119275131258,0.007032183435991745,-0.013977569152173823,0.014209618415314521,0.4,-0.04307980103456376,-0.049110421394167436,0.5787359791259242,0.06469321915923196,0.2181408228352666,0.9055789560079575,1.0706143453717232,-0.9536313320822977,60.69272756576538,47.04771339893341,14.618949592113495,0.0,0.0,0.0,0.0,0.0,0.0,0.0,0.0,0.0,0.0,0.0,0.0,0.0,0.0,0.0,0.0,False,0,5.4142279624938965,0.029931884765625
STABILIZE,1.9471487998962402,30.02945451160926,0.0322454293568929,0.03236961364746094,0.0,0.0,0.0,0.10751566191161033,-1.3509545351593406,-1.025930698715881,-0.002999492650789352,0.02461174176064676,0.01238405719562477,0.4,-0.023249861978072193,-0.04606889693066393,0.5780269560100807,0.05538017096897813,1.1253680102527142,0.03253713366575539,1.188591681420803,-0.402994981491651,14.621643722057343,-21.557921171188354,10.021624714136124,0.0,0.0,0.0,0.0,0.0,0.0,0.0,0.0,0.0,0.0,0.0,0.0,0.0,0.0,0.0,0.0,False,0,5.442835807800293,0.034922119140625
STABILIZE,1.9812378883361816,29.333874182606568,0.032372268040974934,0.03319692611694336,0.0,0.0,0.0,0.1056064105951802,-1.3506493110808058,-0.9968136022841165,0.0002378558006931123,-0.008379807777164572,0.015925996411661376,0.4,-0.049602880267454144,-0.052194463615703006,0.5831929485350004,0.07284121239871058,-1.6304831951856613,-0.5141209345310926,1.3621526770293713,1.189313626139346,-65.3386116027832,-11.801761388778687,18.31684708595276,0.0,0.0,0.0,0.0,0.0,0.0,0.0,0.0,0.0,0.0,0.0,0.0,0.0,0.0,0.0,0.0,False,0,5.471520662307739,0.0349208984375
STABILIZE,2.0158073902130127,28.926034992862117,0.032442363103230794,0.03318667411804199,0.0,0.0,0.0,0.11000820071098896,-1.355443890434743,-1.0461895734026676,-0.019947650254088775,-0.02870889154305832,0.01065490514858526,0.4,-0.058663153758344855,-0.02737822125112044,0.5883740628227604,0.046327958631689856,-0.5796042736619711,1.340530626475811,1.3634923845529556,-1.4474192177981349,13.308839499950409,45.08902430534363,15.528625249862671,0.0,0.0,0.0,0.0,0.0,0.0,0.0,0.0,0.0,0.0,0.0,0.0,0.0,0.0,0.0,0.0,False,0,5.50024676322937,0.02993212890625
STABILIZE,2.048779249191284,30.329551453095284,0.030592711766560872,0.03072500228881836,0.0,0.0,0.0,0.10897284008235024,-1.3530001768157593,-1.023046117730314,-0.009103880997351741,0.0030034495512989414,0.012343328798454489,0.4,-0.03334822533411229,-0.03952886460659366,0.5885862971529117,0.05458733838181917,1.446852646768093,-0.8585977368056774,1.242570299655199,0.6394707514311845,39.497941732406616,-40.65476357936859,23.361393809318542,0.0,0.0,0.0,0.0,0.0,0.0,0.0,0.0,0.0,0.0,0.0,0.0,0.0,0.0,0.0,0.0,False,0,5.529272794723511,0.0349208984375
STABILIZE,2.0826449394226074,29.527163162007476,0.03243306477864583,0.03304791450500488,0.0,0.0,0.0,0.10720435469584584,-1.3505317037610345,-1.0009221745132908,-0.0033761160495419415,-0.005077458919652795,0.013226233876493111,0.4,-0.04064099859274317,-0.033103416965726405,0.5885761391500267,0.058802432266932166,-0.49669728614389896,0.25503775104880333,1.0431516915559769,0.3872702051554156,-46.07912302017212,47.00491726398468,19.747084379196167,0.0,0.0,0.0,0.0,0.0,0.0,0.0,0.0,0.0,0.0,0.0,0.0,0.0,0.0,0.0,0.0,False,1,5.557858943939209,0.0349208984375
STABILIZE,2.1162612438201904,29.75168999198451,0.03250745137532552,0.032631635665893555,0.0,0.0,0.0,0.11179781699523808,-1.3548840283662136,-1.0407268094488327,-0.02423578790566126,-0.03835476326984712,0.009078914156290658,0.4,-0.06851162393793178,-0.003539444899739789,0.5925946316670705,0.03793890313203848,-1.272114273160696,1.2547186575829983,1.305650733411312,-1.3732505137660838,-26.287299394607544,33.28683078289032,13.843944668769836,0.0,0.0,0.0,0.0,0.0,0.0,0.0,0.0,0.0,0.0,0.0,0.0,0.0,0.0,0.0,0.0,False,0,5.6155877113342285,0.02993212890625
STABILIZE,2.1496381759643555,29.95910029214077,0.032284053166707356,0.0324101448059082,0.0,0.0,0.0,0.10879915050619092,-1.354209974072498,-1.0229484673695242,-0.017646262863834722,-0.013071467276203824,0.012099276720337273,0.4,-0.055683449688413364,-0.01680811884889808,0.5924071790132172,0.05286389437867871,0.6813956890255213,-0.8907577954232693,1.2246562168002129,1.025023884381856,34.040796756744385,-21.229805052280426,18.019630014896393,0.0,0.0,0.0,0.0,0.0,0.0,0.0,0.0,0.0,0.0,0.0,0.0,0.0,0.0,0.0,0.0,False,0,5.644329786300659,0.0349208984375
STABILIZE,2.1830148696899414,29.961240365452063,0.03238108952840169,0.0325016975402832,0.0,0.0,0.0,0.10879413458601919,-1.3525597363359994,-1.010168863267313,-0.016518159164430703,-0.008184017365012269,0.009961580939877925,0.4,-0.05624216714258509,0.0006830087886840024,0.5939087661353358,0.04203488741859875,-0.09384157019667327,0.937609001994133,1.138670090585947,-0.5256301742655837,-33.536675572395325,41.35603606700897,24.51295554637909,0.0,0.0,0.0,0.0,0.0,0.0,0.0,0.0,0.0,0.0,0.0,0.0,0.0,0.0,0.0,0.0,False,0,5.672997951507568,0.034922119140625
STABILIZE,2.2166829109191895,29.702598966078888,0.032456191380818684,0.032644033432006836,0.0,0.0,0.0,0.11010846575357064,-1.3549177524252405,-1.029956881788192,-0.026339104251991142,-0.03538789176308801,0.008442741783350152,0.4,-0.07200027752610384,0.004047581824978762,0.5931484036301193,0.034325453547235436,-1.0034473612904549,0.09262854582630098,1.0109133087098598,-0.3342282634019924,-28.449848294258118,-23.36646318435669,17.45579093694687,0.0,0.0,0.0,0.0,0.0,0.0,0.0,0.0,0.0,0.0,0.0,0.0,0.0,0.0,0.0,0.0,False,0,5.701799154281616,0.02993310546875
STABILIZE,2.2500503063201904,29.968090655120427,0.0322909673055013,0.03241419792175293,0.0,0.0,0.0,0.10907620005439957,-1.3555663002312743,-1.0202254630465104,-0.019466240942155773,-0.03081153715954689,0.011259419642834414,0.4,-0.07162834013272655,4.317800012596223e-05,0.590420204349946,0.04824772506769348,-0.07874114671722054,-0.30805582646280527,1.0731163434684277,0.9535611091998935,34.846168756484985,-1.866997592151165,11.302752047777176,0.0,0.0,0.0,0.0,0.0,0.0,0.0,0.0,0.0,0.0,0.0,0.0,0.0,0.0,0.0,0.0,False,0,5.730561256408691,0.03492138671875
STABILIZE,2.2839300632476807,29.51677351705501,0.03238514264424642,0.03277277946472168,0.0,0.0,0.0,0.10828219056338559,-1.3549109222360705,-1.0210459395205582,-0.014971609791269401,-0.005462415294430617,0.008336470815522008,0.4,-0.06025105948776977,0.01726638649415292,0.5947264853116071,0.033520061515377286,0.6143230944871902,0.9453891776502132,1.3098139315843582,-0.772010092027606,-0.3394787199795246,23.542535305023193,16.48603081703186,0.0,0.0,0.0,0.0,0.0,0.0,0.0,0.0,0.0,0.0,0.0,0.0,0.0,0.0,0.0,0.0,False,1,5.759520053863525,0.0349208984375
STABILIZE,2.317274570465088,29.98780269827765,0.03220966657002767,0.032347679138183594,0.0,0.0,0.0,0.10859259064465093,-1.3529674132520846,-1.0212292874110906,-0.008965643944329636,-0.03575870005852586,0.009952797078619702,0.4,-0.08972727895228297,-0.0008719923082037995,0.5948126837924451,0.04146285078715467,-0.9556632488965988,-0.6136720068752766,1.0633789002895355,0.3468947958569282,-34.75096821784973,-25.40830671787262,16.570280492305756,0.0,0.0,0.0,0.0,0.0,0.0,0.0,0.0,0.0,0.0,0.0,0.0,0.0,0.0,0.0,0.0,False,0,5.8166937828063965,0.0349208984375
STABILIZE,2.3506650924682617,29.94883219444623,0.03232458432515462,0.03251075744628906,0.0,0.0,0.0,0.10793625215409501,-1.3549834929960018,-1.0216177544201352,-0.0009455597786705746,-0.039519413912079714,0.010768789324415572,0.4,-0.09505638674307545,0.002320500525185439,0.5959938864429097,0.045390774763808185,-0.39279060438275337,0.13864209176972508,1.141212321817875,0.33216680025269146,21.723094582557678,13.807584345340729,12.64161616563797,0.0,0.0,0.0,0.0,0.0,0.0,0.0,0.0,0.0,0.0,0.0,0.0,0.0,0.0,0.0,0.0,False,0,5.845469236373901,0.02993310546875
STABILIZE,2.3842251300811768,29.798826321099224,0.03244784673055013,0.0325775146484375,0.0,0.0,0.0,0.11029373463480723,-1.3537378372461208,-1.0291092980008756,-0.006378007849183272,-0.013478845649046847,0.00898071342266335,0.4,-0.07335441411801744,0.011972750658825183,0.5933994694949285,0.036328884204912815,1.1600173078477383,0.5449031479656696,1.093174796551466,-0.4365457511488263,25.305449962615967,4.112081602215767,14.556308090686798,0.0,0.0,0.0,0.0,0.0,0.0,0.0,0.0,0.0,0.0,0.0,0.0,0.0,0.0,0.0,0.0,False,0,5.874101400375366,0.0349208984375
STABILIZE,2.4176008701324463,29.960170290579732,0.03232458432515462,0.032453298568725586,0.0,0.0,0.0,0.10940212814385611,-1.3528762729153472,-1.0153769892311533,-0.0021182213193435134,-0.025519048970711132,0.010234138137606548,0.4,-0.08872532062019257,0.003318640490517749,0.5988460510658329,0.04245407024205468,-1.0172048583626747,-0.5617412272840738,1.3881403021514416,0.46243240822701265,-40.111932158470154,-15.560542047023773,21.102480590343475,0.0,0.0,0.0,0.0,0.0,0.0,0.0,0.0,0.0,0.0,0.0,0.0,0.0,0.0,0.0,0.0,False,0,5.903238534927368,0.0349208984375
STABILIZE,2.451047658920288,29.899088977915913,0.0324125607808431,0.03255152702331543,0.0,0.0,0.0,0.1100079339067245,-1.3555829488173763,-1.0376206742020635,-0.0007420680843001008,-0.03823498236892033,0.008821211219882974,0.4,-0.09647644271528076,0.014851140165010844,0.5946602372966844,0.03527138431045152,-0.558481877669692,0.6497061811387539,0.8197515271604061,-0.33452169473203847,-1.3581318780779839,23.289166390895844,6.048692390322685,0.0,0.0,0.0,0.0,0.0,0.0,0.0,0.0,0.0,0.0,0.0,0.0,0.0,0.0,0.0,0.0,False,0,5.931403398513794,0.02993212890625
STABILIZE,2.4846584796905518,29.75190103279991,0.03241995175679525,0.03275322914123535,0.0,0.0,0.0,0.1099453416262837,-1.354331530095383,-1.0285333209547731,-0.006855238688539789,-0.006439574976864059,0.00968723303943296,0.4,-0.07789779227687012,0.00865100322633986,0.5883275799110682,0.03946873318662076,0.9622928686439991,-0.38524644915014505,0.8681634441018105,0.34694642248209995,13.883312046527863,-23.28854501247406,17.27679967880249,0.0,0.0,0.0,0.0,0.0,0.0,0.0,0.0,0.0,0.0,0.0,0.0,0.0,0.0,0.0,0.0,False,0,5.9602978229522705,0.039909912109375
STABILIZE,2.5181305408477783,29.874811248183708,0.03244593938191732,0.03257036209106445,0.0,0.0,0.0,0.10879797656742733,-1.3529731762241968,-1.013807219660814,-0.0004519687909465266,0.010471067832234305,0.010620412646632108,0.4,-0.060017989244871735,0.002779021533843124,0.5877206914214274,0.043987523860538835,0.9622928686439991,-0.38524644915014505,0.8681634441018105,0.34694642248209995,13.883312046527863,-23.28854501247406,17.27679967880249,0.0,0.0,0.0,0.0,0.0,0.0,0.0,0.0,0.0,0.0,0.0,0.0,0.0,0.0,0.0,0.0,False,0,5.989128351211548,0.039909912109375
STABILIZE,2.5515825748443604,29.894826873458683,0.03244617780049642,0.03255796432495117,0.0,0.0,0.0,0.11028103475181923,-1.3552253243813026,-1.0392673901222713,0.0024730743327871486,-0.0048101849966617274,0.010916923924719863,0.4,-0.06300977348498732,0.006498612594244228,0.593406108339449,0.04531857224973178,-0.29565729200839996,0.19234613282606006,1.2631544843316078,0.15065971240254625,-23.307670652866364,17.618688941001892,16.371871531009674,0.0,0.0,0.0,0.0,0.0,0.0,0.0,0.0,0.0,0.0,0.0,0.0,0.0,0.0,0.0,0.0,False,1,6.02663779258728,0.029931884765625
STABILIZE,2.585050106048584,29.88077054599339,0.032416375478108723,0.03254294395446777,0.0,0.0,0.0,0.11083881574708598,-1.3552426132976392,-1.0300386306148204,-0.019928610385487378,-0.016071571465220452,0.004240970249192334,0.4,-0.08962631483436378,0.0289245145019955,0.5924241392934101,0.011898999864682788,-0.9293239563703537,0.6578747183084488,1.2344000861048698,-0.8906068287330627,-18.587501347064972,23.48230332136154,15.589335560798645,0.0,0.0,0.0,0.0,0.0,0.0,0.0,0.0,0.0,0.0,0.0,0.0,0.0,0.0,0.0,0.0,False,0,6.084155321121216,0.02993310546875
STABILIZE,2.618593454360962,29.813017549595912,0.032392295201619466,0.032505035400390625,0.0,0.0,0.0,0.1115176191567089,-1.3525392457684893,-1.0263611073552974,-0.01835279441294571,-0.009987712362209937,0.0024548982248253277,0.4,-0.08772464699643456,0.03583512554755569,0.5900113066200685,0.002958745663893865,-0.03905834164470434,0.42129470966756344,1.1005925945937634,-0.45541438885482455,-8.755730837583542,19.52965408563614,16.063734889030457,0.0,0.0,0.0,0.0,0.0,0.0,0.0,0.0,0.0,0.0,0.0,0.0,0.0,0.0,0.0,0.0,False,0,6.112801551818848,0.069842041015625
STABILIZE,2.6520602703094482,29.879067646891208,0.03228739102681478,0.03242921829223633,0.0,0.0,0.0,0.11311022717208545,-1.353321729315279,-1.0363514329552048,-0.028108984632302762,-0.027989804957045707,-0.0010111105492753851,0.4,-0.09677910065869058,0.04372471421730911,0.612760694968059,-0.014323364515184152,-0.38566754665225744,0.21038111299276352,1.24320974573493,-0.7076445237235214,-18.63367110490799,-3.901001065969467,19.656935334205627,0.0,0.0,0.0,0.0,0.0,0.0,0.0,0.0,0.0,0.0,0.0,0.0,0.0,0.0,0.0,0.0,False,0,6.1418843269348145,0.029931884765625
STABILIZE,2.6859240531921387,29.528202528793894,0.03228762944539388,0.03300905227661133,0.0,0.0,0.0,0.1119432253193653,-1.3548595890955897,-1.0279145485046521,-0.03383354337191518,-0.0414109772326069,-0.0037085964979889545,0.4,-0.10037284916163969,0.046618480974840844,0.6108247947410599,-0.027716523937101042,-0.38566754665225744,0.21038111299276352,1.24320974573493,-0.7076445237235214,-18.63367110490799,-3.901001065969467,19.656935334205627,0.0,0.0,0.0,0.0,0.0,0.0,0.0,0.0,0.0,0.0,0.0,0.0,0.0,0.0,0.0,0.0,False,0,6.171754837036133,0.029931884765625
STABILIZE,2.7194502353668213,29.82870716078883,0.03247192700703939,0.03259873390197754,0.0,0.0,0.0,0.11232214073574234,-1.3540125389168023,-1.0309604927093605,-0.03635717724429715,-0.03058695672587226,-0.00569157668144479,0.4,-0.08859929724074635,0.05279498376594381,0.6050006910744001,-0.03750592592345739,0.4746985621750355,0.4008667543530464,1.003299281001091,-0.5269621145145891,9.061024338006973,17.657475173473358,18.43305230140686,0.0,0.0,0.0,0.0,0.0,0.0,0.0,0.0,0.0,0.0,0.0,0.0,0.0,0.0,0.0,0.0,False,0,6.2004218101501465,0.069843017578125
STABILIZE,2.7528076171875,29.977300666113955,0.03239110310872396,0.032501935958862305,0.0,0.0,0.0,0.11199514542922799,-1.3541003708806605,-1.033275393229466,-0.027976913679525674,-0.020775250165329127,-0.0070012600518611105,0.4,-0.09651983997610214,0.05933270762474198,0.6239144545333553,-0.04390760423183807,-0.38150802720338106,0.13349178479984403,1.0980930179357529,0.026057371786796985,-21.856684982776642,-7.9871997237205505,12.842211127281189,0.0,0.0,0.0,0.0,0.0,0.0,0.0,0.0,0.0,0.0,0.0,0.0,0.0,0.0,0.0,0.0,False,1,6.229269981384277,0.02993212890625
STABILIZE,2.7862789630889893,29.87736494187372,0.03246906598409017,0.03258490562438965,0.0,0.0,0.0,0.11222635800480349,-1.3554832707441764,-1.0278872277479723,-0.02505410793519088,-0.027984180365087697,-0.005115217429979816,0.4,-0.10439783339529204,0.06089669035462607,0.6124183886696346,-0.03436248830786055,-0.4451875574886799,0.14220239827409387,1.0999427177011967,0.4025245522125664,4.6796005219221115,3.9695963263511658,17.967315018177032,0.0,0.0,0.0,0.0,0.0,0.0,0.0,0.0,0.0,0.0,0.0,0.0,0.0,0.0,0.0,0.0,False,0,6.286841869354248,0.0349208984375
STABILIZE,2.8197884559631348,29.843563891478052,0.03243378003438314,0.032567501068115234,0.0,0.0,0.0,0.11230154344652653,-1.3541256639249306,-1.0326603560390475,-0.02276401425114555,-0.012648857129874114,-0.00753612984948957,0.4,-0.091457745222545,0.06405318709895945,0.6063384290376805,-0.046312059791451296,0.5212583113461733,0.23495657369494438,0.8854965679347515,-0.6469412174750331,10.177099704742432,7.659891992807388,11.172331869602203,0.0,0.0,0.0,0.0,0.0,0.0,0.0,0.0,0.0,0.0,0.0,0.0,0.0,0.0,0.0,0.0,False,0,6.315239191055298,0.034921142578125
STABILIZE,2.8595213890075684,25.16652866280256,0.03232720692952474,0.03871798515319824,0.0,0.0,0.0,0.11263307442553659,-1.3537691067059148,-1.0302632798054905,-0.023116753046016087,-0.0018037171536967956,-0.009944154603633348,0.4,-0.07848107410868461,0.06710020696083177,0.6004094066691027,-0.05812129909382654,0.5212583113461733,0.23495657369494438,0.8854965679347515,-0.6469412174750331,10.177099704742432,7.659891992807388,11.172331869602203,0.0,0.0,0.0,0.0,0.0,0.0,0.0,0.0,0.0,0.0,0.0,0.0,0.0,0.0,0.0,0.0,False,0,6.34406590461731,0.034921142578125
STABILIZE,2.892859935760498,29.99616671911205,0.03230479558308919,0.032408714294433594,0.0,0.0,0.0,0.11150390541751598,-1.3549926710626992,-1.0341203089741378,-0.013998974675919065,-0.01587804366948518,-0.008865672874859131,0.4,-0.0876046099437959,0.06001611816670681,0.6054240284241607,-0.05255338314202421,-0.6645001471042633,-0.30349406879395247,1.4655420556664467,0.2770053654224487,-19.57123726606369,-9.925588220357895,17.35616773366928,0.0,0.0,0.0,0.0,0.0,0.0,0.0,0.0,0.0,0.0,0.0,0.0,0.0,0.0,0.0,0.0,False,0,6.3725738525390625,0.034922119140625
STABILIZE,2.9267659187316895,29.494356817878163,0.03244021733601888,0.03284955024719238,0.0,0.0,0.0,0.111601555778306,-1.3546920360175128,-1.0348173084345964,-0.013518705493869767,-0.0063090169393267065,-0.008490486390890013,0.4,-0.08126183396381051,0.06451357655190817,0.5968358132244871,-0.05050716696400611,0.5734222009778023,0.114144675899297,0.9153083898127079,-0.020651083625640165,23.429208993911743,-0.24793327320367098,10.297144949436188,0.0,0.0,0.0,0.0,0.0,0.0,0.0,0.0,0.0,0.0,0.0,0.0,0.0,0.0,0.0,0.0,False,0,6.430074453353882,0.03492138671875
STABILIZE,2.964467763900757,26.526752510814845,0.03226807912190755,0.03665447235107422,0.0,0.0,0.0,0.11225661360839254,-1.353040944507368,-1.0299159006531717,-0.012588854331638161,-0.0016101545273824298,-0.008528578847122065,0.4,-0.08126183396381051,0.06451357655190817,0.5968358132244871,-0.05050716696400611,0.5734222009778023,0.114144675899297,0.9153083898127079,-0.020651083625640165,23.429208993911743,-0.24793327320367098,10.297144949436188,0.0,0.0,0.0,0.0,0.0,0.0,0.0,0.0,0.0,0.0,0.0,0.0,0.0,0.0,0.0,0.0,False,1,6.430074453353882,0.03492138671875
STABILIZE,2.997858762741089,29.94434211465696,0.03225115140279134,0.03240346908569336,0.0,0.0,0.0,0.11233804226990378,-1.3535989923068992,-1.0364139718747927,-0.012364208977861115,-0.013292492761590384,-0.008825991512854556,0.4,-0.0863944384124912,0.06665407792287126,0.59140152453607,-0.05182068312259738,-0.4532541148364544,0.4393450915813446,0.9963328950107098,-0.26415439117949613,-16.700007021427155,11.532775312662125,18.024195730686188,0.0,0.0,0.0,0.0,0.0,0.0,0.0,0.0,0.0,0.0,0.0,0.0,0.0,0.0,0.0,0.0,False,0,6.4957451820373535,0.029931884765625
STABILIZE,3.031301975250244,29.899515255203877,0.03235343297322591,0.032494306564331055,0.0,0.0,0.0,0.1114237574164741,-1.3533639911107684,-1.0289403575406235,-0.00972808075802069,-0.013517014313654643,-0.007785599100022936,0.4,-0.07815910422254857,0.06520862993894873,0.5891838361097937,-0.046463256565964076,0.2740986179560423,0.039815722266212106,1.1860133148729801,0.22105875232234534,18.87534409761429,-10.147905349731445,6.7436583340168,0.0,0.0,0.0,0.0,0.0,0.0,0.0,0.0,0.0,0.0,0.0,0.0,0.0,0.0,0.0,0.0,False,0,6.524454116821289,0.034922119140625
STABILIZE,3.0647687911987305,29.88204784770807,0.03238085110982259,0.03251242637634277,0.0,0.0,0.0,0.11159936798333749,-1.3532155412180265,-1.0314275068938603,-0.01504384497417243,-0.008202489393490787,-0.007288070029195322,0.4,-0.07834464624668207,0.06660098555448406,0.5857936151272283,-0.043828978688848295,-0.17451627645641565,0.1719312509521842,0.9455657564103603,0.09320574858977247,-7.53776878118515,9.52225923538208,13.41288834810257,0.0,0.0,0.0,0.0,0.0,0.0,0.0,0.0,0.0,0.0,0.0,0.0,0.0,0.0,0.0,0.0,False,0,6.554351329803467,0.0349208984375
STABILIZE,3.0981569290161133,29.94968760041415,0.03235987027486165,0.03247499465942383,0.0,0.0,0.0,0.11257485773503281,-1.3546162636064079,-1.0341270324416019,-0.014173431733540057,-0.015880618017229328,-0.007195962832818788,0.4,-0.08342516861312368,0.06892108010111639,0.5803992211468703,-0.04322396209084494,-0.44889794662594795,0.2275858772918582,0.8306422270834446,-0.02523682861168309,-19.525110721588135,5.512676388025284,15.302839875221252,0.0,0.0,0.0,0.0,0.0,0.0,0.0,0.0,0.0,0.0,0.0,0.0,0.0,0.0,0.0,0.0,False,0,6.583146572113037,0.02993212890625
STABILIZE,3.1316215991973877,29.88204784770807,0.0324132760365804,0.03254270553588867,0.0,0.0,0.0,0.11207086447947992,-1.3534590801506197,-1.0303886778097835,-0.015527779395212105,-0.019462574322555774,-0.0070341657169243205,0.4,-0.08807509028855987,0.0706692439808943,0.5724692506989848,-0.04227358293563574,-0.44889794662594795,0.2275858772918582,0.8306422270834446,-0.02523682861168309,-19.525110721588135,5.512676388025284,15.302839875221252,0.0,0.0,0.0,0.0,0.0,0.0,0.0,0.0,0.0,0.0,0.0,0.0,0.0,0.0,0.0,0.0,False,0,6.611709117889404,0.02993212890625
STABILIZE,3.1650123596191406,29.948618350589076,0.0323973019917806,0.03250479698181152,0.0,0.0,0.0,0.11192332172123708,-1.3521631584773155,-1.0348832624487694,-0.009825195652090191,-0.018075297059536623,-0.006264684336943135,0.4,-0.09023628109776223,0.06490408681747185,0.5677736779547824,-0.03829820137971602,-0.3089561592787504,-0.20672834943979979,0.99236611276865,0.1520258169376149,5.602053180336952,-8.16303864121437,13.219811022281647,0.0,0.0,0.0,0.0,0.0,0.0,0.0,0.0,0.0,0.0,0.0,0.0,0.0,0.0,0.0,0.0,False,1,6.640462398529053,0.0349208984375
STABILIZE,3.198516607284546,29.848661035162504,0.03243902524312337,0.03255653381347656,0.0,0.0,0.0,0.11343428763169083,-1.3525467162878941,-1.0336834970323743,-0.00656942228518205,-0.02979079083874656,-0.006026032863734728,0.4,-0.09906216416255204,0.05951940704813243,0.5905133169950947,-0.036981239535664456,-0.3316041547805071,-0.16040639020502567,1.4173190109431744,0.04843680676746111,-0.9825684130191803,-2.375858463346958,14.180479943752289,0.0,0.0,0.0,0.0,0.0,0.0,0.0,0.0,0.0,0.0,0.0,0.0,0.0,0.0,0.0,0.0,False,0,6.697772979736328,0.0349208984375
STABILIZE,3.2319722175598145,29.890139961802685,0.03237036069234212,0.03250527381896973,0.0,0.0,0.0,0.11420407129549243,-1.3526154450664174,-1.033336864931996,-0.0017513181994125646,-0.03189225061097858,-0.005596336900634818,0.4,-0.10192124398562452,0.054319550984726524,0.5948243273018893,-0.03471663627070586,-0.3316041547805071,-0.16040639020502567,1.4173190109431744,0.04843680676746111,-0.9825684130191803,-2.375858463346958,14.180479943752289,0.0,0.0,0.0,0.0,0.0,0.0,0.0,0.0,0.0,0.0,0.0,0.0,0.0,0.0,0.0,0.0,False,0,6.726503372192383,0.0349208984375
STABILIZE,3.265329599380493,29.97665792351289,0.03235963185628255,0.03250575065612793,0.0,0.0,0.0,0.11601657938563166,-1.3520363730908471,-1.0376011441299056,-0.0015873314434839152,-0.02602865788685612,-0.006128708692019905,0.4,-0.09822671386258582,0.05590723302518121,0.5930534081039335,-0.03725387255829731,0.022592738969251513,0.20616697147488594,1.0779991745948792,-0.21115321711768145,3.2399680465459824,5.570240318775177,20.63254415988922,0.0,0.0,0.0,0.0,0.0,0.0,0.0,0.0,0.0,0.0,0.0,0.0,0.0,0.0,0.0,0.0,False,0,6.75528359413147,0.0349208984375
STABILIZE,3.2988522052764893,29.830616483172598,0.032488139470418294,0.03262972831726074,0.0,0.0,0.0,0.11639912334000527,-1.3515358482907323,-1.034987956442141,-0.0017938997678715691,-0.020407416509539644,-0.006665836428416956,0.4,-0.09450869537667071,0.057532101560556735,0.5914127374011912,-0.03980624779783708,0.022592738969251513,0.20616697147488594,1.0779991745948792,-0.21115321711768145,3.2399680465459824,5.570240318775177,20.63254415988922,0.0,0.0,0.0,0.0,0.0,0.0,0.0,0.0,0.0,0.0,0.0,0.0,0.0,0.0,0.0,0.0,False,0,6.783840894699097,0.0349208984375
STABILIZE,3.332423210144043,29.787609990980563,0.0324285348256429,0.03258013725280762,0.0,0.0,0.0,0.1167061616875385,-1.352923230465891,-1.0366979583338771,-0.006392639291660989,-0.02242452172220585,-0.006745148784614844,0.4,-0.09880933303828973,0.05901583054812094,0.588905881030024,-0.04006868284076637,-0.4150059539824724,0.19716527312994003,1.0245715267956257,-0.08621957230654692,-8.472707867622375,3.411630168557167,14.198842644691467,0.0,0.0,0.0,0.0,0.0,0.0,0.0,0.0,0.0,0.0,0.0,0.0,0.0,0.0,0.0,0.0,False,0,6.812634468078613,0.064854248046875
STABILIZE,3.3660662174224854,29.72533344672648,0.03232768376668294,0.0327305793762207,0.0,0.0,0.0,0.11709297451014336,-1.3533865093906883,-1.0374243062634256,-0.010819066190777509,-0.01419037686975584,-0.007323453648583132,0.4,-0.09492236689926876,0.06059329013811353,0.6013675978671006,-0.04281584126060156,0.18023865995928645,0.1103813061490655,0.9515134617686272,-0.1443578890576442,10.028990358114243,3.374004364013672,8.541569858789444,0.0,0.0,0.0,0.0,0.0,0.0,0.0,0.0,0.0,0.0,0.0,0.0,0.0,0.0,0.0,0.0,False,1,6.841116666793823,0.0349208984375
STABILIZE,3.399433135986328,29.96851890223426,0.032398255666097005,0.03250241279602051,0.0,0.0,0.0,0.11682851812321693,-1.3535055040926347,-1.0355442966943795,-0.0019806152094137223,-0.009488960292315727,-0.005093427232598353,0.4,-0.09100470322404883,0.04504751837850964,0.5811227719537023,-0.031560259353814776,-0.10712628718465567,-0.27420560363680124,0.7865603081882,0.20652112156079633,-4.003498703241348,-6.4643219113349915,13.221199810504913,0.0,0.0,0.0,0.0,0.0,0.0,0.0,0.0,0.0,0.0,0.0,0.0,0.0,0.0,0.0,0.0,False,0,6.898605823516846,0.029931884765625
STABILIZE,3.433662176132202,29.21577286626777,0.032482179005940755,0.0333399772644043,0.0,0.0,0.0,0.1186765645413814,-1.3548186079605695,-1.0407621343334463,-0.0020931398817942786,-0.010056688463814498,-0.004471147714188117,0.4,-0.08881554693740448,0.04644531240654853,0.5753709043760363,-0.028351969136526375,-0.09570038528181612,0.19613744225353003,1.0361640714108944,0.0900295105225182,-2.3458613082766533,7.248867303133011,16.89450740814209,0.0,0.0,0.0,0.0,0.0,0.0,0.0,0.0,0.0,0.0,0.0,0.0,0.0,0.0,0.0,0.0,False,0,6.927295684814453,0.034921142578125
STABILIZE,3.4671220779418945,29.88609335698966,0.03242162068684896,0.032553911209106445,0.0,0.0,0.0,0.11900820224209725,-1.354477952275715,-1.038092170698206,-1.6813317050111628e-05,-0.01166443860895228,-0.0036589229155176515,0.4,-0.08799976952517054,0.04499725509615708,0.5784294348899329,-0.02420982775308381,-0.1439373241737485,0.03708577714860439,1.3437766581773758,0.1471178857919244,-6.35802298784256,3.403136506676674,17.794565856456757,0.0,0.0,0.0,0.0,0.0,0.0,0.0,0.0,0.0,0.0,0.0,0.0,0.0,0.0,0.0,0.0,False,0,6.958728313446045,0.069843017578125
STABILIZE,3.5005664825439453,29.899941544647056,0.03242090543111165,0.0325465202331543,0.0,0.0,0.0,0.11920857224470192,-1.3541289722978098,-1.0371568616687372,0.0015393307030038567,-0.010379327060845938,-0.0027542943259949723,0.4,-0.08965683298220556,0.044118891764299145,0.6002800427594366,-0.019621012973260868,-0.1439373241737485,0.03708577714860439,1.3437766581773758,0.1471178857919244,-6.35802298784256,3.403136506676674,17.794565856456757,0.0,0.0,0.0,0.0,0.0,0.0,0.0,0.0,0.0,0.0,0.0,0.0,0.0,0.0,0.0,0.0,False,0,6.987855672836304,0.069843017578125
STABILIZE,3.5340445041656494,29.872257990997664,0.03242472012837728,0.03255867958068848,0.0,0.0,0.0,0.11928082283951597,-1.355157769541543,-1.040460858958025,0.0030711565215782236,-0.009612865010801093,-0.003576477829011806,0.4,-0.08564189435866838,0.04333477211090961,0.6169540486549588,-0.023652849191408552,0.09908942738547921,0.04747598432004452,1.1593414470553398,-0.2724132371443787,-9.510712325572968,3.4436725080013275,21.409933269023895,0.0,0.0,0.0,0.0,0.0,0.0,0.0,0.0,0.0,0.0,0.0,0.0,0.0,0.0,0.0,0.0,False,0,7.017467498779297,0.029931884765625
STABILIZE,3.567498207092285,29.89163109245494,0.032393487294514973,0.03252077102661133,0.0,0.0,0.0,0.11922911617306485,-1.3562778138437193,-1.038350010339374,-0.003221262619518132,-0.012808898957121525,-0.0031768948412900498,0.4,-0.08673815518646767,0.03940327423765833,0.609553771252768,-0.021582743817969333,-0.26752790436148643,-0.07213213830254972,1.1405635625123978,0.03460651746667162,1.3626350089907646,-4.365348070859909,19.013942778110504,0.0,0.0,0.0,0.0,0.0,0.0,0.0,0.0,0.0,0.0,0.0,0.0,0.0,0.0,0.0,0.0,False,0,7.045398235321045,0.034921142578125
STABILIZE,3.6009113788604736,29.92789000121301,0.03239301045735677,0.03251004219055176,0.0,0.0,0.0,0.11921807047651647,-1.355612404008172,-1.0392667497920365,-0.0015654366806050967,-0.0048798558591077006,-0.00315166842486875,0.4,-0.07473593518475957,0.03830999480212601,0.5919463918352176,-0.02138512055523089,-0.18022547010332346,0.09066984639503062,1.07141500338912,-0.1990646093799787,-9.127762913703918,1.2195396237075329,10.228805243968964,0.0,0.0,0.0,0.0,0.0,0.0,0.0,0.0,0.0,0.0,0.0,0.0,0.0,0.0,0.0,0.0,False,0,7.1029052734375,0.0349208984375
