Mode,Time,Freq,time2delay,actualDelay,North-Desired,East-Desired,Down-Desired,Roll-UAV,Pitch-UAV,Yaw-UAV,Roll-Control,Pitch-Control,Yaw-Control,Thrust-Control,North-Pos,East-Pos,Down-Pos,Yaw-Ang,North-Vel,East-Vel,Down-Vel,Yaw-Vel,North-Acc,East-Acc,Down-Acc,North-Avg,East-Avg,Down-Avg,Yaw-Avg,North-Dif,East-Dif,Down-Dif,Yaw-Dif,North-One,East-One,Down-One,Yaw-One,North-Two,East-Two,Down-Two,Yaw-Two,Landing-State,Q-Size,Kalman-Time,Kalman-Dt
STABILIZE,0.03443026542663574,29.054273661168875,0.0327489693959554,0.03288435935974121,0.0,0.0,0.0,-0.2250748235130335,-1.1866535876227435,-3.7427746179850296,-0.045488296007678,0.15712480593448402,-0.018272439441841416,0.4,0.11969815282264837,0.028319771222536108,0.7956171146676658,-0.09106164824681068,-0.3396573243662715,2.454296126961708,1.2318231165409088,-1.7071471928282131,-0.2240290865302086,33.4045946598053,36.098694801330566,0.0,0.0,0.0,0.0,0.0,0.0,0.0,0.0,0.0,0.0,0.0,0.0,0.0,0.0,0.0,0.0,False,0,3.4154343605041504,0.029936279296875
STABILIZE,0.06779050827026367,29.972587860338148,0.03221276601155599,0.032332658767700195,0.0,0.0,0.0,-0.24456778319785322,-1.188031791731205,-3.6855444629294927,0.03576452059065886,0.05254645071740977,0.0005484459277262555,0.4,0.07390414407070972,-0.042488101324033446,0.7875736256408139,0.003032643408400426,-2.492748945951462,-4.220032691955566,1.205546036362648,5.554189450970248,-76.19080543518066,-141.67797565460205,32.00078904628754,0.0,0.0,0.0,0.0,0.0,0.0,0.0,0.0,0.0,0.0,0.0,0.0,0.0,0.0,0.0,0.0,False,0,3.4447131156921387,0.0349267578125
STABILIZE,0.10108637809753418,30.03375509298046,0.03235319455464681,0.03249049186706543,0.0,0.0,0.0,-0.26163677277925884,-1.1831065850093911,-3.713357847003431,0.003763298641672926,0.01477780504976766,-0.004899257999096507,0.4,0.028321954206126043,-0.006538734049255833,0.7962749711698467,-0.024125171469717724,-2.476317249238491,2.207595854997635,1.9738748669624329,-1.72386077244894,139.73382711410522,156.36703968048096,60.711050033569336,0.0,0.0,0.0,0.0,0.0,0.0,0.0,0.0,0.0,0.0,0.0,0.0,0.0,0.0,0.0,0.0,False,0,3.4733455181121826,0.034926025390625
STABILIZE,0.13482880592346191,29.636697662587263,0.03252390225728353,0.0328526496887207,0.0,0.0,0.0,-0.25897569372602486,-1.1888154492167582,-3.728166977784488,-0.04406507605597223,0.05656772748424862,-0.015943538625448946,0.4,0.14086611524523923,0.09341615919821643,0.7332737039022708,-0.07908037360914599,3.60395610332489,3.0132703483104706,-0.3241389989852905,-1.7192333192862563,123.37651252746582,25.33363699913025,-13.011252880096436,0.0,0.0,0.0,0.0,0.0,0.0,0.0,0.0,0.0,0.0,0.0,0.0,0.0,0.0,0.0,0.0,False,0,3.5307657718658447,0.02993701171875
STABILIZE,0.16831088066101074,29.866940106670086,0.03242972691853841,0.032561302185058594,0.0,0.0,0.0,-0.26046536865617526,-1.1784989820839828,-3.65914663556104,-0.012853310696173105,0.027321931844668534,-0.007005665332081201,0.4,0.0797474364192919,0.032457246167586176,0.7392004111379802,-0.03427635068075343,-3.478284925222397,-3.650718182325363,1.9987232983112335,2.6282371558270428,-166.69328212738037,15.179228782653809,50.05081295967102,0.0,0.0,0.0,0.0,0.0,0.0,0.0,0.0,0.0,0.0,0.0,0.0,0.0,0.0,0.0,0.0,False,0,3.559522867202759,0.034927001953125
STABILIZE,0.20190215110778809,29.77386563689023,0.03239324887593587,0.03252840042114258,0.0,0.0,0.0,-0.2560189421869234,-1.1813778000974375,-3.731521454440611,-0.02875121159515082,-0.01644310736064426,-0.0027981182177959033,0.4,0.03623562943508722,0.09374105447673263,0.7429239482554837,-0.013194470629705881,-2.417806349694729,3.7181954830884933,1.6599155962467194,1.1975174303844718,-17.742031812667847,67.50690937042236,69.0180778503418,0.0,0.0,0.0,0.0,0.0,0.0,0.0,0.0,0.0,0.0,0.0,0.0,0.0,0.0,0.0,0.0,False,0,3.5903100967407227,0.0399150390625
STABILIZE,0.23520135879516602,30.026444837386443,0.03222659428914388,0.03236079216003418,0.0,0.0,0.0,-0.2552153010619626,-1.1875564532536544,-3.727702524920927,-0.04093346530986345,0.009213876324574408,0.017183120341232726,0.4,0.07973644316573139,0.07111878350000851,0.7256226311852942,0.08642260654488745,2.8346791863441467,-1.4234109781682491,0.21916371770203114,5.803396586800979,172.49892950057983,-122.85181283950806,2.1249350160360336,0.0,0.0,0.0,0.0,0.0,0.0,0.0,0.0,0.0,0.0,0.0,0.0,0.0,0.0,0.0,0.0,False,0,3.616888999938965,0.024947998046875
STABILIZE,0.26862168312072754,29.92212535848303,0.03240969975789388,0.03254580497741699,0.0,0.0,0.0,-0.2600690576017558,-1.1747729004483294,-3.663636631166677,-0.02010201705463164,0.03481843724865098,0.03617849908914614,0.4,0.12304053365875398,0.0455872335997176,0.6996284442899852,0.18079484269754045,2.8346791863441467,-1.4234109781682491,0.21916371770203114,5.803396586800979,172.49892950057983,-122.85181283950806,2.1249350160360336,0.0,0.0,0.0,0.0,0.0,0.0,0.0,0.0,0.0,0.0,0.0,0.0,0.0,0.0,0.0,0.0,False,0,3.6455330848693848,0.024947998046875
STABILIZE,0.30210304260253906,29.86672743067918,0.03242519696553548,0.03256368637084961,0.0,0.0,0.0,-0.2554342673217997,-1.174815589130642,-3.7233610859297377,0.02044203386128354,0.016285567427558684,0.028823278149020273,0.4,0.14686804653896393,0.01855146830273666,0.6870123510294113,0.14353846313090732,1.735827699303627,-1.5847256407141685,0.9600823745131493,-2.122843711494296,-20.517075061798096,28.168076276779175,41.71735644340515,0.0,0.0,0.0,0.0,0.0,0.0,0.0,0.0,0.0,0.0,0.0,0.0,0.0,0.0,0.0,0.0,False,0,3.6741983890533447,0.034926025390625
STABILIZE,0.3355369567871094,29.90974955787552,0.03242948849995931,0.03254389762878418,0.0,0.0,0.0,-0.2569227683131865,-1.1801862522523876,-3.717503771829629,-0.010567219370597326,0.004352559350254774,0.04240516286735254,0.4,0.06885461307920596,0.05063158859008374,0.6825330541531238,0.21074332447161992,-1.1343397200107574,-1.5142635442316532,1.0871805250644684,3.6364601622328423,42.836159467697144,-99.82324838638306,1.7568416893482208,0.0,0.0,0.0,0.0,0.0,0.0,0.0,0.0,0.0,0.0,0.0,0.0,0.0,0.0,0.0,0.0,False,0,3.7319447994232178,0.024947021484375
STABILIZE,0.36896443367004395,29.916362936070357,0.032431634267171223,0.0325467586517334,0.0,0.0,0.0,-0.260058705596295,-1.1759472660987484,-3.6770741745850306,0.014356450198168043,0.030692148214737557,0.03585077827558481,0.4,0.11553305606802677,0.03386870815546894,0.6814051257828913,0.177378326734156,3.0814560130238533,-0.928592961281538,1.6255209222435951,-1.76961001983992,77.19271779060364,28.312402963638306,30.646225810050964,0.0,0.0,0.0,0.0,0.0,0.0,0.0,0.0,0.0,0.0,0.0,0.0,0.0,0.0,0.0,0.0,False,0,3.7608563899993896,0.0349267578125
STABILIZE,0.40238070487976074,29.925327663582074,0.032434972127278645,0.03254079818725586,0.0,0.0,0.0,-0.25346965412049544,-1.170943192036362,-3.7199809960642276,-0.0054408795590256695,0.01639999861203957,0.03524728749772397,0.4,0.10420938280555231,0.06661588630114307,0.6886619702901344,0.17377997850989124,-0.5389096681028605,2.080203779041767,1.7789285629987717,-0.2561755296097312,-80.59523701667786,43.56274902820587,35.374125838279724,0.0,0.0,0.0,0.0,0.0,0.0,0.0,0.0,0.0,0.0,0.0,0.0,0.0,0.0,0.0,0.0,False,0,3.7893707752227783,0.034926025390625
STABILIZE,0.4358975887298584,29.836770407255912,0.032385857899983723,0.032525062561035156,0.0,0.0,0.0,-0.25862348541651964,-1.1766220674444046,-3.6698111221763683,-0.005020630673376216,-0.008542401875749879,0.043866349343412075,0.4,0.06118016882896374,0.046610820299365224,0.6858779357433136,0.2161519526647636,-2.447871118783951,-1.1699755676090717,1.1512624099850655,2.593954728835456,-55.63105344772339,-66.69983863830566,11.460703611373901,0.0,0.0,0.0,0.0,0.0,0.0,0.0,0.0,0.0,0.0,0.0,0.0,0.0,0.0,0.0,0.0,False,0,3.8179562091827393,0.029937255859375
STABILIZE,0.46944093704223633,29.81238183239747,0.032389195760091145,0.03259611129760742,0.0,0.0,0.0,-0.25736587683559103,-1.1759539895662128,-3.6893612580150608,-0.01349163900567192,-0.009100494549900735,0.038539669466014524,0.4,0.07640267375797774,0.04757069367256403,0.6809326020547178,0.18888521670188418,1.1307070963084698,0.14684636844322085,1.187767367810011,-1.4911217563156383,92.69703030586243,38.067811727523804,23.628802597522736,0.0,0.0,0.0,0.0,0.0,0.0,0.0,0.0,0.0,0.0,0.0,0.0,0.0,0.0,0.0,0.0,False,0,3.846703052520752,0.03492578125
STABILIZE,0.5082874298095703,25.742191671525454,0.03236416180928548,0.03786039352416992,0.0,0.0,0.0,-0.2550836598378812,-1.1720217215949893,-3.6898496165407164,-0.008420571910442152,0.019673256669217043,0.03725046718039283,0.4,0.10930385496479433,0.05993791354426855,0.6845569618401055,0.18173378353762096,2.187202125787735,0.8240141905844212,1.5190381556749344,-0.363562298381184,9.071435034275055,0.559462932869792,25.545477867126465,0.0,0.0,0.0,0.0,0.0,0.0,0.0,0.0,0.0,0.0,0.0,0.0,0.0,0.0,0.0,0.0,False,0,3.8775079250335693,0.03492724609375
STABILIZE,0.5497257709503174,24.131268266863046,0.03229525883992513,0.04055023193359375,0.0,0.0,0.0,-0.25540542578081227,-1.176650241974731,-3.699015730406874,-0.009297327768014146,-0.003322234725530076,0.037372782689927546,0.4,0.06884425465975642,0.04798521535017371,0.6797892014230147,0.18159080078839177,0.30057262629270554,1.1130906641483307,1.2606729753315449,-1.2199398742125658,81.693035364151,28.083297610282898,13.730788230895996,0.0,0.0,0.0,0.0,0.0,0.0,0.0,0.0,0.0,0.0,0.0,0.0,0.0,0.0,0.0,0.0,False,0,3.93734073638916,0.034927001953125
STABILIZE,0.5832118988037109,29.864600837344423,0.03248432477315267,0.032610416412353516,0.0,0.0,0.0,-0.2540749529552614,-1.175498821491055,-3.716842097253784,-0.00635636810945539,7.852037922113442e-05,0.03292558602866064,0.4,0.07081835755788773,0.06512595273022573,0.6795816381079902,0.158823331800408,0.30057262629270554,1.1130906641483307,1.2606729753315449,-1.2199398742125658,81.693035364151,28.083297610282898,13.730788230895996,0.0,0.0,0.0,0.0,0.0,0.0,0.0,0.0,0.0,0.0,0.0,0.0,0.0,0.0,0.0,0.0,False,0,3.965925931930542,0.034927001953125
STABILIZE,0.6172714233398438,29.359335297946956,0.03244903882344564,0.033229827880859375,0.0,0.0,0.0,-0.2569481147183096,-1.1728836060908805,-3.6876443192124486,-0.007697534834803693,0.019792149131279125,0.03214083068242485,0.4,0.09895373483194854,0.05318458265683591,0.6785950041018923,0.15437332886591607,1.8674900755286217,-0.6540352944284678,1.2140526436269283,-0.07019364065680948,11.865957826375961,-58.17635655403137,20.224609971046448,0.0,0.0,0.0,0.0,0.0,0.0,0.0,0.0,0.0,0.0,0.0,0.0,0.0,0.0,0.0,0.0,False,0,3.9950366020202637,0.03492626953125
STABILIZE,0.6540584564208984,27.1841961994141,0.03249672253926595,0.035845279693603516,0.0,0.0,0.0,-0.2538549728392194,-1.1731189274521285,-3.7010857046122108,-0.00487977459192224,0.007725539694890481,0.0341136685665598,0.4,0.07237821452680131,0.046455159191926665,0.68091565296713,0.16363712203528777,-1.4414879493415356,-0.3230620641261339,1.4132564887404442,0.7682232323805098,-71.52931690216064,37.38667964935303,23.839402198791504,0.0,0.0,0.0,0.0,0.0,0.0,0.0,0.0,0.0,0.0,0.0,0.0,0.0,0.0,0.0,0.0,False,0,4.023329496383667,0.039915771484375
STABILIZE,0.6873869895935059,30.003247612575557,0.032370837529500325,0.03247380256652832,0.0,0.0,0.0,-0.2536607660151236,-1.1758773633814616,-3.7149065923977314,-0.002540148647352625,0.0015838349685320786,0.03153264833958193,0.4,0.07421049722104436,0.048603319832920294,0.6838286329777592,0.1502301902922385,1.6134314239025116,-1.0438472032546997,1.3506045565009117,0.7789833950050716,54.560643434524536,-58.1618070602417,17.51839369535446,0.0,0.0,0.0,0.0,0.0,0.0,0.0,0.0,0.0,0.0,0.0,0.0,0.0,0.0,0.0,0.0,False,0,4.083911418914795,0.034927001953125
STABILIZE,0.7208926677703857,29.845262745935177,0.032454522450764973,0.03258156776428223,0.0,0.0,0.0,-0.25664072952523254,-1.1707343376581478,-3.6798813823339063,-0.0026168182385396766,0.013145568805561149,0.031570767215418835,0.4,0.08530200524582877,0.04149382868624197,0.6823775855203073,0.14991913527076334,0.8214903995394707,-0.3389090299606323,1.1648066341876984,0.21704477554513313,-21.049270033836365,35.595422983169556,24.98703896999359,0.0,0.0,0.0,0.0,0.0,0.0,0.0,0.0,0.0,0.0,0.0,0.0,0.0,0.0,0.0,0.0,False,0,4.112644672393799,0.02993701171875
STABILIZE,0.7543635368347168,29.87736494187372,0.032421382268269856,0.03256511688232422,0.0,0.0,0.0,-0.25363205787626836,-1.172466751108098,-3.7053336553891354,0.005383099233735767,0.016341983809819896,0.031423676517853216,0.4,0.09602116015485393,0.03424719612263744,0.6777869763534626,0.14868615808820054,0.8214903995394707,-0.3389090299606323,1.1648066341876984,0.21704477554513313,-21.049270033836365,35.595422983169556,24.98703896999359,0.0,0.0,0.0,0.0,0.0,0.0,0.0,0.0,0.0,0.0,0.0,0.0,0.0,0.0,0.0,0.0,False,0,4.141558408737183,0.02993701171875
STABILIZE,0.7878439426422119,29.868003532059134,0.03241113026936849,0.03255152702331543,0.0,0.0,0.0,-0.25546796470040023,-1.174816549625994,-3.7076448206495387,-0.004748194929426006,0.0003941105804048542,0.027862381407925668,0.4,0.06851084118761164,0.05095045078049215,0.6803110238238521,0.1304432641975211,-1.5008286572992802,1.1130979284644127,1.5813441947102547,-0.821314292799019,-42.89967119693756,13.878127932548523,17.316192388534546,0.0,0.0,0.0,0.0,0.0,0.0,0.0,0.0,0.0,0.0,0.0,0.0,0.0,0.0,0.0,0.0,False,0,4.170111179351807,0.03492578125
STABILIZE,0.8216707706451416,29.56170929568729,0.03239944775899251,0.03296542167663574,0.0,0.0,0.0,-0.2569088678110084,-1.172228441539088,-3.6877489064841145,0.0010117767036001192,0.007992172119058134,0.03071312420846255,0.4,0.07380891517220489,0.031665765667975534,0.6830725306893229,0.14420814664043075,0.47975792549550533,-1.0886517353355885,1.390079502016306,1.0862672024615985,44.510072469711304,-42.40812659263611,25.827232003211975,0.0,0.0,0.0,0.0,0.0,0.0,0.0,0.0,0.0,0.0,0.0,0.0,0.0,0.0,0.0,0.0,False,0,4.198672771453857,0.03492724609375
STABILIZE,0.8551628589630127,29.857797773285117,0.03246143658955892,0.0325932502746582,0.0,0.0,0.0,-0.25434877417187013,-1.1716982481047657,-3.703156959478017,-0.002413072803109681,0.0036432364588226997,0.028366494609912755,0.4,0.0622794135368888,0.04187771438283027,0.682850230975496,0.13203333916017557,-0.5426360294222832,0.7087205071002245,1.2145391665399075,-0.490356569431552,-47.581103444099426,2.020100876688957,16.481830179691315,0.0,0.0,0.0,0.0,0.0,0.0,0.0,0.0,0.0,0.0,0.0,0.0,0.0,0.0,0.0,0.0,False,0,4.227410316467285,0.034927001953125
STABILIZE,0.8885934352874756,29.913802571801472,0.03242662747701009,0.032534122467041016,0.0,0.0,0.0,-0.25493801138991595,-1.1727045270685792,-3.685006585532354,-0.001578710840286498,-0.010573600418422778,0.027554936161029497,0.4,0.02818352658517869,0.034533736747306046,0.6795356006997959,0.12754924886122834,-1.1767254211008549,-0.9836997836828232,1.0642834939062595,0.7337294964114761,-10.898610949516296,-21.392537653446198,17.27261394262314,0.0,0.0,0.0,0.0,0.0,0.0,0.0,0.0,0.0,0.0,0.0,0.0,0.0,0.0,0.0,0.0,False,0,4.285819053649902,0.03492626953125
STABILIZE,0.9220387935638428,29.899728398406033,0.03242352803548177,0.03255152702331543,0.0,0.0,0.0,-0.25424661481901084,-1.1721426372876398,-3.696286216059807,-0.005922735584345583,-0.007120693373734719,0.024057366787402848,0.4,0.04592474930092308,0.03995549286775098,0.6802168080240832,0.10969448823262119,1.2159552425146103,0.41083721444010735,1.2888449244201183,-0.807627287393401,29.45050299167633,10.134643316268921,18.488703668117523,0.0,0.0,0.0,0.0,0.0,0.0,0.0,0.0,0.0,0.0,0.0,0.0,0.0,0.0,0.0,0.0,False,0,4.314974546432495,0.0349267578125
STABILIZE,0.9555625915527344,29.82955571833951,0.03242472012837728,0.03255820274353027,0.0,0.0,0.0,-0.2547784891201991,-1.1709891890915538,-3.704310407674103,-0.0005534850048303037,0.0024695598328394047,0.02346228706159527,0.4,0.05476543853719905,0.03895104199730188,0.6806659368123462,0.10636263071198504,0.6623989436775446,0.023934974160511047,1.2784557417035103,0.06288593855449086,-15.898819267749786,-13.52304071187973,16.68371707201004,0.0,0.0,0.0,0.0,0.0,0.0,0.0,0.0,0.0,0.0,0.0,0.0,0.0,0.0,0.0,0.0,False,0,4.343757152557373,0.02993701171875
STABILIZE,0.9889278411865234,29.97087448015663,0.03235987027486165,0.03247475624084473,0.0,0.0,0.0,-0.2568735429263948,-1.172395567730342,-3.68494724826394,-0.005805124517859481,0.004212439917582347,0.022843180976760764,0.4,0.06358062598530931,0.037836110529989024,0.6779498473068389,0.10292353384508172,0.6623989436775446,0.023934974160511047,1.2784557417035103,0.06288593855449086,-15.898819267749786,-13.52304071187973,16.68371707201004,0.0,0.0,0.0,0.0,0.0,0.0,0.0,0.0,0.0,0.0,0.0,0.0,0.0,0.0,0.0,0.0,False,0,4.372378349304199,0.02993701171875
STABILIZE,1.0225322246551514,29.75928934802506,0.032430203755696614,0.032573699951171875,0.0,0.0,0.0,-0.25514886680011367,-1.1739360955532971,-3.697217683107868,-0.0014178913512465714,0.0013824545165604255,0.023680613238254627,0.4,0.047052290805103356,0.034489578670746174,0.6734130400326015,0.106753212345231,-0.85877925157547,-0.11288814712315798,1.1533236131072044,0.49216683636586983,-0.019234605133533478,17.78503805398941,12.650835514068604,0.0,0.0,0.0,0.0,0.0,0.0,0.0,0.0,0.0,0.0,0.0,0.0,0.0,0.0,0.0,0.0,False,0,4.401012897491455,0.034926025390625
STABILIZE,1.0559461116790771,29.92660877755025,0.03226188023885091,0.032393455505371094,0.0,0.0,0.0,-0.25480207461717685,-1.171764629005762,-3.6917330412043476,-0.004455692337427572,0.013829693131074761,0.02030615926082073,0.4,0.059672699818869954,0.036535275365165584,0.6767727999080255,0.08958148561096536,0.8847231045365334,0.20416087936609983,1.4269188977777958,-0.7899136186677961,47.069451212882996,-3.392607718706131,24.547545611858368,0.0,0.0,0.0,0.0,0.0,0.0,0.0,0.0,0.0,0.0,0.0,0.0,0.0,0.0,0.0,0.0,False,0,4.43074107170105,0.034926025390625
STABILIZE,1.0896778106689453,29.64465742193574,0.03232839902242025,0.032894134521484375,0.0,0.0,0.0,-0.2548406811942433,-1.172187994012597,-3.6848396727845123,-6.65585339473968e-05,0.011541543411908727,0.02141271793423663,0.4,0.06544083726590026,0.029528199035675884,0.6731652042548403,0.09479323930986708,0.46021444723010063,-0.339735415764153,1.013763900846243,0.5552981681425919,-9.376125037670135,-17.44629591703415,19.342340528964996,0.0,0.0,0.0,0.0,0.0,0.0,0.0,0.0,0.0,0.0,0.0,0.0,0.0,0.0,0.0,0.0,False,1,4.459470748901367,0.02993701171875
STABILIZE,1.1231470108032227,29.879067646891208,0.03249028523763021,0.03260493278503418,0.0,0.0,0.0,-0.2535672511204326,-1.1732765554115676,-3.6983472256418586,-0.0021821823596655213,-0.0014077095393878938,0.019904811713230393,0.4,0.033485194021487655,0.03412075474938163,0.6724030293748486,0.08696289294078843,-0.8332471363246441,0.21729974541813135,1.2979495339095592,-0.00023482110325224502,-28.24503183364868,23.422078788280487,12.265164405107498,0.0,0.0,0.0,0.0,0.0,0.0,0.0,0.0,0.0,0.0,0.0,0.0,0.0,0.0,0.0,0.0,False,0,4.516696453094482,0.034927001953125
STABILIZE,1.1566057205200195,29.88843599464128,0.03246000607808431,0.03256845474243164,0.0,0.0,0.0,-0.25462486322472677,-1.1724910836570162,-3.692039972830175,-0.004856447997010796,0.00019016189849935152,0.017158767032304737,0.4,0.04441363415479432,0.03996584239147154,0.6786150761467137,0.07298860872479188,0.7784196641296148,0.4219112917780876,1.5960998833179474,-0.6112232768189803,27.85363793373108,-7.435430586338043,19.263654947280884,0.0,0.0,0.0,0.0,0.0,0.0,0.0,0.0,0.0,0.0,0.0,0.0,0.0,0.0,0.0,0.0,False,0,4.545548677444458,0.034926025390625
STABILIZE,1.1900391578674316,29.908469886906545,0.03242925008138021,0.03255724906921387,0.0,0.0,0.0,-0.2544946894240998,-1.1708985823633453,-3.687933321591705,-0.0010815729146579725,0.009327865962692127,0.018526249289970608,0.4,0.059674454998134396,0.027958979564607335,0.6778137904457682,0.07955992898020271,1.0189859196543694,-0.6442166399210691,1.1797014623880386,0.6130329567839163,24.76760596036911,-17.335236072540283,18.521790206432343,0.0,0.0,0.0,0.0,0.0,0.0,0.0,0.0,0.0,0.0,0.0,0.0,0.0,0.0,0.0,0.0,False,0,4.574205636978149,0.02993701171875
STABILIZE,1.2311840057373047,24.30480208146212,0.032447131474812825,0.04026627540588379,0.0,0.0,0.0,-0.25328665307550674,-1.1719030470581604,-3.697139989706059,-0.002703192511132565,0.0038312575183890984,0.017268027874352672,0.4,0.051242182912081186,0.034476881301082445,0.6765254699879927,0.07296860412874018,-0.3861252451315522,0.4681333899497986,1.3461190275847912,-0.18139815166896883,-5.45034185051918,-7.4083492159843445,21.96853458881378,0.0,0.0,0.0,0.0,0.0,0.0,0.0,0.0,0.0,0.0,0.0,0.0,0.0,0.0,0.0,0.0,False,0,4.602956771850586,0.06985302734375
STABILIZE,1.2647936344146729,29.752534173210474,0.03241422971089681,0.03270673751831055,0.0,0.0,0.0,-0.2537532670536097,-1.1732249021059695,-3.692885208739964,-0.002849141993309716,0.004603514325759802,0.016838834825660516,0.4,0.057534351286897316,0.029627941992143057,0.724503870798465,0.07058543415406655,0.7950535044074059,-0.6636654026806355,1.439443975687027,0.439947025272934,29.294809699058533,-13.350187242031097,18.465769290924072,0.0,0.0,0.0,0.0,0.0,0.0,0.0,0.0,0.0,0.0,0.0,0.0,0.0,0.0,0.0,0.0,False,0,4.660825729370117,0.02993701171875
STABILIZE,1.2987604141235352,29.44197669521269,0.032448800404866536,0.03303790092468262,0.0,0.0,0.0,-0.2534094097175818,-1.173434076649301,-3.6956881476206083,-0.003817052023903939,0.015189565644194877,0.01529778904490664,0.4,0.06626709912281631,0.03551749558586902,0.7187210425577265,0.06266766163072127,0.5705818068236113,0.3821458900347352,1.3584204949438572,-0.21842574107773188,2.064414508640766,13.887786865234375,11.209206283092499,0.0,0.0,0.0,0.0,0.0,0.0,0.0,0.0,0.0,0.0,0.0,0.0,0.0,0.0,0.0,0.0,False,0,4.689242124557495,0.0399150390625
STABILIZE,1.3418231010437012,23.222345873820004,0.03238347371419271,0.03250741958618164,0.0,0.0,0.0,-0.2539878146824908,-1.1744499605666348,-3.6951336216373676,-0.0022143933940773275,0.007782323817364371,0.01515903826731982,0.4,0.052114869477379394,0.03589033134807664,0.7067909206506199,0.061767386357403815,-0.6277540698647499,0.09315616334788501,0.6826314609497786,0.1283119070674331,-21.70225828886032,-7.690227776765823,13.029257953166962,0.0,0.0,0.0,0.0,0.0,0.0,0.0,0.0,0.0,0.0,0.0,0.0,0.0,0.0,0.0,0.0,False,0,4.717811107635498,0.02988916015625
STABILIZE,1.3659141063690186,41.50680349526477,0.02273705800374349,0.023227214813232422,0.0,0.0,0.0,-0.2558829787337578,-1.1743556185787238,-3.693829055505895,-0.002640002263365916,0.0054773542408198895,0.015317491638130759,0.4,0.05608898236124062,0.02789470072806005,0.6959135748320706,0.062348966439317595,0.32679419964551926,-0.32647151965647936,1.0572977364063263,0.19796182731371254,14.763307571411133,-5.447211489081383,19.079847633838654,0.0,0.0,0.0,0.0,0.0,0.0,0.0,0.0,0.0,0.0,0.0,0.0,0.0,0.0,0.0,0.0,False,0,4.7464940547943115,0.029937255859375
STABILIZE,1.3994851112365723,29.78739844327027,0.03249195416768392,0.032666683197021484,0.0,0.0,0.0,-0.2557386376266884,-1.1737884994342014,-3.697248845845956,-0.0013299360866449498,0.01258199975142681,0.01291235622871298,0.4,0.07219135629505995,0.02856053948333636,0.6890453269285821,0.05015518603354488,0.9715314954519272,0.11209635995328426,1.2240320444107056,-0.47643002715730753,23.11805486679077,8.125188946723938,14.47630375623703,0.0,0.0,0.0,0.0,0.0,0.0,0.0,0.0,0.0,0.0,0.0,0.0,0.0,0.0,0.0,0.0,False,0,4.775116205215454,0.0349267578125
STABILIZE,1.4328668117523193,29.9563186538489,0.03241899808247884,0.03253674507141113,0.0,0.0,0.0,-0.25661949190578204,-1.1738693944871836,-3.6932907512219337,-0.003062041997963647,0.016637452572528952,0.010544454123615345,0.4,0.08852710768407705,0.029275168334424725,0.6858191653913174,0.038187998990416944,0.9715314954519272,0.11209635995328426,1.2240320444107056,-0.47643002715730753,23.11805486679077,8.125188946723938,14.47630375623703,0.0,0.0,0.0,0.0,0.0,0.0,0.0,0.0,0.0,0.0,0.0,0.0,0.0,0.0,0.0,0.0,False,1,4.803933620452881,0.0349267578125
STABILIZE,1.4663987159729004,29.822556562051165,0.03248408635457357,0.03267192840576172,0.0,0.0,0.0,-0.2555304235787088,-1.1749257259310084,-3.6954964754370248,0.0009567536501433245,0.01370700636591397,0.010497926444546071,0.4,0.08591510617747482,0.023544042978262122,0.6786912552763956,0.037828597979722475,-0.13658213429152966,-0.06913149845786393,1.1583379469811916,0.05986450032147258,-3.457070514559746,2.2178376093506813,18.606050312519073,0.0,0.0,0.0,0.0,0.0,0.0,0.0,0.0,0.0,0.0,0.0,0.0,0.0,0.0,0.0,0.0,False,0,4.861395835876465,0.02993701171875
STABILIZE,1.5046305656433105,26.156691798719077,0.03245738347371419,0.03728985786437988,0.0,0.0,0.0,-0.2549428138666761,-1.174813561418232,-3.6982853270525053,0.0005357448660489231,0.019340628017379322,0.009673233195300177,0.4,0.09312844537641869,0.02499802652573195,0.6790572034080048,0.033577000810181896,0.5520808510482311,0.14683320187032223,1.552135869860649,-0.10576167066677238,19.039176404476166,-9.513379633426666,16.2816122174263,0.0,0.0,0.0,0.0,0.0,0.0,0.0,0.0,0.0,0.0,0.0,0.0,0.0,0.0,0.0,0.0,False,0,4.8900368213653564,0.034926025390625
STABILIZE,1.5380146503448486,29.954393206830307,0.03237465222676595,0.03250384330749512,0.0,0.0,0.0,-0.25528141515869424,-1.1748801557626398,-3.688269281521505,0.0010508440474683225,0.019631782037212317,0.010433025722267883,0.4,0.09672104465185657,0.01776784680303951,0.6790125040792522,0.03725138993517286,0.319132674485445,-0.3302199300378561,1.3384201563894749,0.33038758933475604,-12.543480098247528,-3.6581721156835556,23.36520403623581,0.0,0.0,0.0,0.0,0.0,0.0,0.0,0.0,0.0,0.0,0.0,0.0,0.0,0.0,0.0,0.0,False,0,4.91875696182251,0.034927001953125
STABILIZE,1.5714850425720215,29.876513662136365,0.03244784673055013,0.03257584571838379,0.0,0.0,0.0,-0.2537167148693795,-1.1759229335498302,-3.6947498503833778,0.0006595038873795462,0.01544671815236749,0.009850914545633303,0.4,0.09567693905247879,0.01924903963907098,0.6754288515989402,0.034226355435816314,0.0708162086084485,0.14545629965141416,1.1383835226297379,-0.044415376146110734,-2.5052884593605995,8.012434840202332,19.750817120075226,0.0,0.0,0.0,0.0,0.0,0.0,0.0,0.0,0.0,0.0,0.0,0.0,0.0,0.0,0.0,0.0,False,0,4.947333574295044,0.02993701171875
STABILIZE,1.6066620349884033,28.428057285771413,0.03242090543111165,0.03424954414367676,0.0,0.0,0.0,-0.2539977931619814,-1.1761695674118913,-3.6915699704379135,0.001425979611187477,0.013325073169228716,0.009082799449475952,0.4,0.10108784299777189,0.01781066712078192,0.6669093177232446,0.030279348611796254,0.47736940905451775,-0.02141198347089812,1.0282592847943306,-0.10965956757862741,17.258386313915253,-9.63292047381401,17.857153713703156,0.0,0.0,0.0,0.0,0.0,0.0,0.0,0.0,0.0,0.0,0.0,0.0,0.0,0.0,0.0,0.0,False,1,4.976064920425415,0.034926025390625
STABILIZE,1.6400864124298096,29.917643282570705,0.03238991101582845,0.03250575065612793,0.0,0.0,0.0,-0.2536572975596857,-1.1752049099133326,-3.6876746281768904,0.0007260213210286288,0.01576468954197584,0.008433656229154086,0.4,0.10639947618688708,0.01527323444354704,0.6698239800298421,0.026943556720095203,0.06085867062211037,0.29678777791559696,1.2800668366253376,-0.1726619261739126,-6.977619230747223,8.026255667209625,21.651865541934967,0.0,0.0,0.0,0.0,0.0,0.0,0.0,0.0,0.0,0.0,0.0,0.0,0.0,0.0,0.0,0.0,False,0,5.034292936325073,0.02993701171875
STABILIZE,1.6735053062438965,29.923192717362614,0.03241399129231771,0.032535552978515625,0.0,0.0,0.0,-0.2538800257596516,-1.1751541103813807,-3.692047656792991,0.001265430039346528,0.015725868595653218,0.009080354490267645,0.4,0.11069871642663885,0.014869163401321873,0.6684628471099063,0.030076454096134568,0.4376211203634739,0.026845326647162437,1.4005577191710472,0.27411299375235987,1.9598303362727165,-7.670388370752335,20.69370597600937,0.0,0.0,0.0,0.0,0.0,0.0,0.0,0.0,0.0,0.0,0.0,0.0,0.0,0.0,0.0,0.0,False,0,5.063228368759155,0.03492578125
STABILIZE,1.7069849967956543,29.869917888604817,0.032440932591756184,0.03256058692932129,0.0,0.0,0.0,-0.25409485655338965,-1.1750922117920275,-3.6905104373429154,-0.0007369769513335471,0.01660755212322682,0.009722530764036875,0.4,0.11578978005022125,0.014460749990073884,0.6706185073369176,0.033176362485254074,0.4376211203634739,0.026845326647162437,1.4005577191710472,0.27411299375235987,1.9598303362727165,-7.670388370752335,20.69370597600937,0.0,0.0,0.0,0.0,0.0,0.0,0.0,0.0,0.0,0.0,0.0,0.0,0.0,0.0,0.0,0.0,False,0,5.091712713241577,0.03492578125
STABILIZE,1.740461826324463,29.87161974489178,0.03239491780598958,0.03252720832824707,0.0,0.0,0.0,-0.25462851844314977,-1.1756532477993205,-3.6892455716859933,0.001503971049568381,0.018774438600023754,0.009939182562780053,0.4,0.12139253354753046,0.00994473984714373,0.6726633377414607,0.034145348683071196,0.4732181318104267,-0.21071957889944315,1.3926515355706215,0.14703608360444292,14.770188927650452,-1.8125316128134727,19.7039932012558,0.0,0.0,0.0,0.0,0.0,0.0,0.0,0.0,0.0,0.0,0.0,0.0,0.0,0.0,0.0,0.0,False,0,5.120414972305298,0.03492626953125
STABILIZE,1.7738275527954102,29.968947161587653,0.0323670228322347,0.03249216079711914,0.0,0.0,0.0,-0.253530432131938,-1.174591900435324,-3.6934862653869254,0.00020005418883654145,0.018909049916434183,0.008890289908662958,0.4,0.12537045480141615,0.012185747143134243,0.6771569072518872,0.02880463449841615,0.38668017368763685,0.17490038881078362,1.5318864025175571,-0.21788374155470755,-3.9115630090236664,5.973168835043907,21.39815241098404,0.0,0.0,0.0,0.0,0.0,0.0,0.0,0.0,0.0,0.0,0.0,0.0,0.0,0.0,0.0,0.0,False,0,5.153771877288818,0.034927001953125
STABILIZE,1.8073058128356934,29.87140700225052,0.03243687947591146,0.03255867958068848,0.0,0.0,0.0,-0.2544113130914581,-1.176350780868308,-3.6907546166057434,-0.00014582152640914216,0.017542465360579296,0.008712657771337078,0.4,0.12504004018197257,0.011149145934610914,0.6733180875227017,0.027823425990422375,0.14703876804560423,-0.016617338405922055,1.0531911626458168,0.03043278830106451,-1.1076722294092178,-5.9332579374313354,13.028904795646667,0.0,0.0,0.0,0.0,0.0,0.0,0.0,0.0,0.0,0.0,0.0,0.0,0.0,0.0,0.0,0.0,False,0,5.18238639831543,0.029936767578125
STABILIZE,1.8407211303710938,29.92703583991552,0.03240993817647298,0.032515764236450195,0.0,0.0,0.0,-0.2548176293057945,-1.1760725573813358,-3.691256635509739,0.0005851799012457737,0.018119288002427934,0.009134511441106635,0.4,0.1297177773144248,0.009010043179702568,0.668878597192673,0.02983298584283295,0.49832137301564217,-0.08588497876189649,1.2048512697219849,0.19941631076138147,12.04446330666542,0.04514934844337404,19.316115975379944,0.0,0.0,0.0,0.0,0.0,0.0,0.0,0.0,0.0,0.0,0.0,0.0,0.0,0.0,0.0,0.0,False,1,5.211047410964966,0.03492626953125
STABILIZE,1.8742718696594238,29.80623796360122,0.03243425687154134,0.0325779914855957,0.0,0.0,0.0,-0.25524142119945264,-1.1752771605081467,-3.69133048693014,0.0019986038720181455,0.01933820857470745,0.009557211405227042,0.4,0.1368485884707582,0.005154287061357728,0.6686424080869442,0.031839912432063654,0.22866546642035246,-0.10758137796074152,1.3638191856443882,0.26336382346349363,-1.4039111323654652,-5.870776250958443,18.523725867271423,0.0,0.0,0.0,0.0,0.0,0.0,0.0,0.0,0.0,0.0,0.0,0.0,0.0,0.0,0.0,0.0,False,0,5.2684102058410645,0.02993798828125
STABILIZE,1.9076473712921143,29.959314285714285,0.03234556516011556,0.032464027404785156,0.0,0.0,0.0,-0.25507205385237747,-1.1755950844696696,-3.6905514184779356,0.0012189330285668056,0.020451926706202377,0.008720328108319431,0.4,0.14402403351945495,0.00372763086850147,0.6668934416193285,0.02756333108549491,0.6678439676761627,-0.053934426978230476,1.341971755027771,-0.17291397616254195,15.523067116737366,0.03359332913532853,20.10807991027832,0.0,0.0,0.0,0.0,0.0,0.0,0.0,0.0,0.0,0.0,0.0,0.0,0.0,0.0,0.0,0.0,False,0,5.297233581542969,0.03492578125
STABILIZE,1.9411234855651855,29.874598460081057,0.0323820432027181,0.032506465911865234,0.0,0.0,0.0,-0.2549444947335422,-1.1752964771368932,-3.6930538290350987,0.0024874926813887605,0.02229864907006678,0.007898346076113493,0.4,0.1522147374447087,0.002230245886987724,0.6686819845007858,0.02337524325783734,0.6678439676761627,-0.053934426978230476,1.341971755027771,-0.17291397616254195,15.523067116737366,0.03359332913532853,20.10807991027832,0.0,0.0,0.0,0.0,0.0,0.0,0.0,0.0,0.0,0.0,0.0,0.0,0.0,0.0,0.0,0.0,False,0,5.326305150985718,0.03492578125
STABILIZE,1.9745573997497559,29.908469886906545,0.032377036412556966,0.03252387046813965,0.0,0.0,0.0,-0.25476240082305257,-1.174735014242777,-3.6913633572155207,0.0027048833611054315,0.024055178674230394,0.008152681464970744,0.4,0.15709922842875784,0.000904768636333565,0.6626993018232303,0.024564728618374648,0.48009087331593037,-0.04634028300642967,0.8878695778548717,0.1419053041968675,9.1437928378582,-6.029375270009041,11.079325526952744,0.0,0.0,0.0,0.0,0.0,0.0,0.0,0.0,0.0,0.0,0.0,0.0,0.0,0.0,0.0,0.0,False,0,5.354585409164429,0.034926025390625
STABILIZE,2.008037567138672,29.868216226224302,0.032416375478108723,0.0325312614440918,0.0,0.0,0.0,-0.2553160463522203,-1.1750448273546605,-3.6900532415553475,0.003721355719304589,0.023033667938799192,0.0077641771734206135,0.4,0.15732566633058018,-0.003242528348971541,0.6625576151097708,0.02254680233531848,0.21619782783091068,-0.21409825421869755,1.2351916171610355,-0.04976194017266961,-3.0715011060237885,-0.015088538930285722,18.502277135849,0.0,0.0,0.0,0.0,0.0,0.0,0.0,0.0,0.0,0.0,0.0,0.0,0.0,0.0,0.0,0.0,False,0,5.383130311965942,0.029937255859375
STABILIZE,2.0414955615997314,29.890992018244013,0.03236869176228841,0.03249931335449219,0.0,0.0,0.0,-0.2548749655422256,-1.1751693715853075,-3.694604708863515,0.0013800771910668758,0.022690465101128703,0.007810280885708027,0.4,0.1612776504115662,-0.00026136474559674064,0.6625138514468798,0.022701392569751892,0.5140654742717743,0.19380528246983886,1.4269462786614895,0.07544807050074591,9.45148766040802,2.102382481098175,18.863804638385773,0.0,0.0,0.0,0.0,0.0,0.0,0.0,0.0,0.0,0.0,0.0,0.0,0.0,0.0,0.0,0.0,False,1,5.411927938461304,0.039915771484375
STABILIZE,2.0748519897460938,29.97644368210406,0.03234985669453939,0.03246617317199707,0.0,0.0,0.0,-0.25520836415108683,-1.175439697666052,-3.691597718081417,0.002202466476303039,0.023490270123764492,0.007667148195532544,0.4,0.16862763529295305,-0.003389889309745345,0.6633116623828492,0.02191246768489353,0.575580820441246,-0.1529787085019052,1.0858755558729172,0.017201956489176076,16.13631844520569,-5.641671642661095,21.299120783805847,0.0,0.0,0.0,0.0,0.0,0.0,0.0,0.0,0.0,0.0,0.0,0.0,0.0,0.0,0.0,0.0,False,0,5.440735816955566,0.02993701171875
STABILIZE,2.1092019081115723,29.113969388817548,0.032453091939290364,0.03344845771789551,0.0,0.0,0.0,-0.2560810542196882,-1.1756154683154738,-3.690536477439126,0.0039046154541133495,0.024658407152490562,0.008304475838878042,0.4,0.1779375242952124,-0.008882635421124704,0.6490883142849612,0.02501329813940853,0.5783963017165661,-0.1519528217613697,1.0004996322095394,0.1536375014578999,1.3253368437290192,1.9881563261151314,13.670013844966888,0.0,0.0,0.0,0.0,0.0,0.0,0.0,0.0,0.0,0.0,0.0,0.0,0.0,0.0,0.0,0.0,False,0,5.504260301589966,0.02993701171875
STABILIZE,2.1427597999572754,29.798402910000284,0.03241756757100423,0.03256964683532715,0.0,0.0,0.0,-0.25585653843115047,-1.175642789072154,-3.694948352756131,0.0027281565605385785,0.022535591110832188,0.0073904722810570755,0.4,0.17505206013067098,-0.006915439805299038,0.6485419043455422,0.020375029434645014,0.1326414756476879,0.12564914068207145,1.3618241995573044,-0.21930160611708022,-1.016651839017868,0.09627651306800544,16.49876981973648,0.0,0.0,0.0,0.0,0.0,0.0,0.0,0.0,0.0,0.0,0.0,0.0,0.0,0.0,0.0,0.0,False,0,5.533025741577148,0.034926025390625
STABILIZE,2.1761419773101807,29.956104703067528,0.03231027921040853,0.03242921829223633,0.0,0.0,0.0,-0.2556593433992928,-1.1758399040627323,-3.6922282299191735,0.001788815659494351,0.022828026874218258,0.00771954961962292,0.4,0.17600498313502425,-0.0076681410529622455,0.6506581251714553,0.021947053710934236,0.29151937924325466,-0.030036453972570598,1.3210395351052284,0.1512974946565094,12.453369796276093,-3.6696556955575943,20.958486199378967,0.0,0.0,0.0,0.0,0.0,0.0,0.0,0.0,0.0,0.0,0.0,0.0,0.0,0.0,0.0,0.0,False,0,5.56172513961792,0.034927001953125
STABILIZE,2.2096734046936035,29.82319271325877,0.03238681157430013,0.03264951705932617,0.0,0.0,0.0,-0.25558351762733506,-1.1740507146653063,-3.693379543681144,0.002504720819281312,0.02463087398034804,0.008076069147913109,0.4,0.18405524579229152,-0.0072283312446407965,0.6460347751082951,0.023650239896145148,0.7269563153386116,0.03839782148133963,0.9190899319946766,0.15560518290824538,5.200903490185738,1.9757449626922607,14.365971088409424,0.0,0.0,0.0,0.0,0.0,0.0,0.0,0.0,0.0,0.0,0.0,0.0,0.0,0.0,0.0,0.0,False,0,5.590420246124268,0.02993701171875
STABILIZE,2.24312424659729,29.892696276868694,0.03244188626607259,0.03255724906921387,0.0,0.0,0.0,-0.2552470240890062,-1.1730140200153454,-3.693672388041808,0.00117359688851088,0.02201421451274747,0.007607771465826577,0.4,0.18145667214076555,-0.006230505070440824,0.6452940665487653,0.021237743876048105,0.1701374421827495,0.06103134946897626,1.337416097521782,-0.08976634813627438,-1.036941260099411,1.9437428563833237,15.238003432750702,0.0,0.0,0.0,0.0,0.0,0.0,0.0,0.0,0.0,0.0,0.0,0.0,0.0,0.0,0.0,0.0,False,0,5.619150638580322,0.034926025390625
STABILIZE,2.2777252197265625,28.900323847584925,0.03243830998738607,0.033773183822631836,0.0,0.0,0.0,-0.25406025204029,-1.1732608673208178,-3.6932664186730153,-0.0007780494780681849,0.019399068663147438,0.007151469335009961,0.4,0.1800412944801001,-0.0053221243805865,0.6478673214789294,0.018890775169804797,0.1701374421827495,0.06103134946897626,1.337416097521782,-0.08976634813627438,-1.036941260099411,1.9437428563833237,15.238003432750702,0.0,0.0,0.0,0.0,0.0,0.0,0.0,0.0,0.0,0.0,0.0,0.0,0.0,0.0,0.0,0.0,False,0,5.656758546829224,0.034926025390625
STABILIZE,2.3115432262420654,29.57171361088589,0.03249862988789876,0.0329737663269043,0.0,0.0,0.0,-0.2546591208922826,-1.1725012222190654,-3.6950930673891706,0.0002582548481323225,0.020605507665260592,0.007456562770593953,0.4,0.18150394385565158,-0.00645664363678725,0.6535308520379903,0.02034746281759644,0.3542214399203658,-0.06428080378100276,1.5237323008477688,0.13844945526046584,3.8138028234243393,-3.7446171045303345,21.994538605213165,0.0,0.0,0.0,0.0,0.0,0.0,0.0,0.0,0.0,0.0,0.0,0.0,0.0,0.0,0.0,0.0,False,0,5.685452699661255,0.034927001953125
STABILIZE,2.345020055770874,29.8711942626395,0.032480510075887044,0.03258848190307617,0.0,0.0,0.0,-0.25410320752686705,-1.1726638660986763,-3.6947737560454725,0.0007118978323107432,0.02356971114244915,0.0077038866556597765,0.4,0.19083598813330457,-0.008158401055085302,0.6454851637078798,0.021512171966922802,0.7673956919461489,-0.05214967532083392,1.2068926356732845,0.148866374198808,8.417315036058426,-1.7964035272598267,20.993925631046295,0.0,0.0,0.0,0.0,0.0,0.0,0.0,0.0,0.0,0.0,0.0,0.0,0.0,0.0,0.0,0.0,False,0,5.742969512939453,0.03492578125
STABILIZE,2.378453493118286,29.91060273269247,0.03243211110432943,0.032547950744628906,0.0,0.0,0.0,-0.2538770375518897,-1.173542505902375,-3.694947072095662,0.0017333641754897937,0.02265406455633424,0.008048034290284433,0.4,0.19371337369100058,-0.010387438505842828,0.648326700341142,0.02315546860603445,0.44976724311709404,-0.13294457457959652,1.3473432511091232,0.1435538477262868,6.284382194280624,-0.01881213247543201,16.205652058124542,0.0,0.0,0.0,0.0,0.0,0.0,0.0,0.0,0.0,0.0,0.0,0.0,0.0,0.0,0.0,0.0,False,0,5.77142596244812,0.03492724609375
STABILIZE,2.411898374557495,29.899088977915913,0.032434972127278645,0.0325469970703125,0.0,0.0,0.0,-0.2539615077820157,-1.1742122913278594,-3.694717833871643,0.001975293928945219,0.023953961126118924,0.008364348254695269,0.4,0.19563421997998726,-0.010245323615819684,0.650245441925521,0.02465463009844321,0.4004111047834158,0.008373346645385027,1.2941702269017696,0.1330203353243784,10.154447704553604,0.0553552876226604,18.46182644367218,0.0,0.0,0.0,0.0,0.0,0.0,0.0,0.0,0.0,0.0,0.0,0.0,0.0,0.0,0.0,0.0,False,0,5.802013635635376,0.034926025390625
STABILIZE,2.445474624633789,29.783379607603656,0.03243091901143392,0.03270697593688965,0.0,0.0,0.0,-0.25420203182642065,-1.173295445153491,-3.694587206503767,0.0027683125672209826,0.02541182961875501,0.008311631253198993,0.4,0.1988993398833148,-0.01157756187947342,0.6469450981029478,0.0243093781078095,0.48851710744202137,-0.08177152485586703,0.9872271679341793,0.022232679295001407,2.9724061489105225,-3.8809940218925476,18.77664476633072,0.0,0.0,0.0,0.0,0.0,0.0,0.0,0.0,0.0,0.0,0.0,0.0,0.0,0.0,0.0,0.0,False,0,5.833972215652466,0.029936767578125
STABILIZE,2.4789576530456543,29.866514757717095,0.0324433167775472,0.032576799392700195,0.0,0.0,0.0,-0.25403018319968607,-1.1730802941946357,-3.6961436358608832,0.002899113435235926,0.025735190395264233,0.008233208634551603,0.4,0.20079488411254154,-0.01274279457258091,0.6405408002993601,0.023837477768192727,0.48851710744202137,-0.08177152485586703,0.9872271679341793,0.022232679295001407,2.9724061489105225,-3.8809940218925476,18.77664476633072,0.0,0.0,0.0,0.0,0.0,0.0,0.0,0.0,0.0,0.0,0.0,0.0,0.0,0.0,0.0,0.0,False,0,5.862489461898804,0.029936767578125
STABILIZE,2.5124685764312744,29.842714536774174,0.03241709073384603,0.032533884048461914,0.0,0.0,0.0,-0.2548214179263497,-1.172723096645385,-3.696482583998445,0.0027558258072630216,0.024699117933583398,0.00796956306879009,0.4,0.2042476022293114,-0.01365332206573937,0.6358047614964925,0.02244408589488043,0.5842178128659725,-0.06817033281549811,1.069148164242506,-0.03445400881405662,10.951170325279236,-2.0171944051980972,12.848073244094849,0.0,0.0,0.0,0.0,0.0,0.0,0.0,0.0,0.0,0.0,0.0,0.0,0.0,0.0,0.0,0.0,False,0,5.897120714187622,0.06985302734375
STABILIZE,2.547187328338623,28.801889772430748,0.03231552441914876,0.03372764587402344,0.0,0.0,0.0,-0.2547906820750847,-1.1714909945521383,-3.693903333813119,0.0025151673333885117,0.027295183903444896,0.00890218106962996,0.4,0.2140894465976563,-0.01475278861054459,0.6594354772742471,0.027013494685629507,0.35966946743428707,-0.009022915037348866,1.3461064547300339,0.26056419295572886,0.9704318828880787,-1.9507508724927902,15.975567698478699,0.0,0.0,0.0,0.0,0.0,0.0,0.0,0.0,0.0,0.0,0.0,0.0,0.0,0.0,0.0,0.0,False,0,5.925826787948608,0.029937255859375
STABILIZE,2.5805654525756836,29.958030370126995,0.032361539204915364,0.032462358474731445,0.0,0.0,0.0,-0.25396753755839235,-1.1712843813297453,-3.6949466452088386,0.002146280679409878,0.02648314779172684,0.00921760060266452,0.4,0.21296772650752677,-0.013718340655434303,0.6574011468708555,0.02849534909982067,0.3751870943233371,0.03499402373563498,1.3471479527652264,0.1376258838569504,-0.06534643471240997,0.1058463822118938,20.970013737678528,0.0,0.0,0.0,0.0,0.0,0.0,0.0,0.0,0.0,0.0,0.0,0.0,0.0,0.0,0.0,0.0,False,0,5.954529523849487,0.039916015625
STABILIZE,2.6139955520629883,29.913375887030632,0.03241017659505208,0.03260922431945801,0.0,0.0,0.0,-0.2548636797218392,-1.1700563346613182,-3.694588487164236,0.0027077810496308526,0.024264330287327534,0.009476344612483565,0.4,0.20863113938426497,-0.016115006524679294,0.6580922244023735,0.029689638719409606,0.4316064529120922,-0.1965696457773447,1.2660682201385498,0.021688932204044924,10.304984450340271,-3.838605433702469,15.272670984268188,0.0,0.0,0.0,0.0,0.0,0.0,0.0,0.0,0.0,0.0,0.0,0.0,0.0,0.0,0.0,0.0,False,0,6.012104749679565,0.029936279296875
STABILIZE,2.6475212574005127,29.828919295650444,0.03250745137532552,0.032637596130371094,0.0,0.0,0.0,-0.2555445375242984,-1.170777666670695,-3.693723614460583,0.001064690736595755,0.024606987134501813,0.009319035584942499,0.4,0.21089781788522372,-0.012862335562897512,0.6535684107239695,0.028806658023708836,0.5634223576635122,0.15874262899160385,1.1731499806046486,0.007020900858244201,5.944466590881348,0.14174156822264194,16.359934210777283,0.0,0.0,0.0,0.0,0.0,0.0,0.0,0.0,0.0,0.0,0.0,0.0,0.0,0.0,0.0,0.0,False,0,6.040611028671265,0.0349267578125
STABILIZE,2.6809589862823486,29.904631530914898,0.032427342732747395,0.032547712326049805,0.0,0.0,0.0,-0.2554323463310956,-1.1705191866992923,-3.6949944565330286,-0.00046112998128546744,0.024994824333063232,0.009199010310527984,0.4,0.21439001499320928,-0.00971656115822558,0.6525266112278041,0.028112527732820275,0.5634223576635122,0.15874262899160385,1.1731499806046486,0.007020900858244201,5.944466590881348,0.14174156822264194,16.359934210777283,0.0,0.0,0.0,0.0,0.0,0.0,0.0,0.0,0.0,0.0,0.0,0.0,0.0,0.0,0.0,0.0,False,0,6.069450378417969,0.0349267578125
STABILIZE,2.714397668838501,29.905910873440284,0.03243878682454427,0.032556772232055664,0.0,0.0,0.0,-0.25535494641397766,-1.1709472474611817,-3.6948318126534176,-0.0006381476467249664,0.0222297573992258,0.009929512645454167,0.4,0.21284836981872798,-0.010064077844961704,0.6469335835232155,0.03165919034214596,0.2811633050441742,-0.04051916184835136,0.915423221886158,0.24790275646224416,3.4114666283130646,0.09418066474609077,12.662984430789948,0.0,0.0,0.0,0.0,0.0,0.0,0.0,0.0,0.0,0.0,0.0,0.0,0.0,0.0,0.0,0.0,False,0,6.0980236530303955,0.034927001953125
STABILIZE,2.747896909713745,29.852697508896796,0.032431634267171223,0.032553672790527344,0.0,0.0,0.0,-0.25466592440102614,-1.1710704043096536,-3.694000664008792,-0.00013113064534848323,0.022098932460792836,0.01002818581871526,0.4,0.2115869226420724,-0.010555772833377363,0.6459313237897335,0.03204538385815638,0.30171251855790615,-0.04822629562113434,1.1759929358959198,0.06883655410587934,9.301658719778061,-1.7360344529151917,18.626004457473755,0.0,0.0,0.0,0.0,0.0,0.0,0.0,0.0,0.0,0.0,0.0,0.0,0.0,0.0,0.0,0.0,False,0,6.126671075820923,0.02993603515625
STABILIZE,2.7814266681671143,29.822980659840727,0.032373936971028645,0.03266501426696777,0.0,0.0,0.0,-0.2545765983332871,-1.1726753920429007,-3.6952411971167956,-0.0010768368127974637,0.02391825042771247,0.010051042953081495,0.4,0.21382067697135523,-0.00997632836254567,0.6392230549639341,0.032051969269325915,0.5683594383299351,0.010247659520246089,1.0189064778387547,0.060864122518887745,10.824571549892426,0.25629280135035515,16.795307397842407,0.0,0.0,0.0,0.0,0.0,0.0,0.0,0.0,0.0,0.0,0.0,0.0,0.0,0.0,0.0,0.0,False,0,6.155386686325073,0.034927001953125
STABILIZE,2.8149783611297607,29.807720734550003,0.03246930440266927,0.03261280059814453,0.0,0.0,0.0,-0.2549779786687311,-1.1728396367480984,-3.694891576808655,0.00015423440145777268,0.02322841297430741,0.010261245933051033,0.4,0.2132971734680286,-0.010623574807342155,0.6419701340623596,0.03299251210075761,0.28204640839248896,-0.03338486130814999,1.1102279648184776,0.01007653672785882,5.609601363539696,-1.7142752185463905,15.406888723373413,0.0,0.0,0.0,0.0,0.0,0.0,0.0,0.0,0.0,0.0,0.0,0.0,0.0,0.0,0.0,0.0,False,0,6.212753772735596,0.029937255859375
STABILIZE,2.8528473377227783,26.406174844810437,0.03235891660054525,0.03680276870727539,0.0,0.0,0.0,-0.25468025179002735,-1.1726785936940742,-3.6953048032534412,0.0011076614276298283,0.020657525255732626,0.010084765459488942,0.4,0.2076286652774278,-0.010648826938111328,0.634707886364743,0.03198926709883652,0.11483443668112159,-0.024095646222122014,0.9651568718254566,0.005062886059905216,7.335131615400314,-1.6734225675463676,17.118391394615173,0.0,0.0,0.0,0.0,0.0,0.0,0.0,0.0,0.0,0.0,0.0,0.0,0.0,0.0,0.0,0.0,False,0,6.241415500640869,0.0349267578125
STABILIZE,2.886152982711792,30.02300594833325,0.03226974805196126,0.03241229057312012,0.0,0.0,0.0,-0.2540234330517954,-1.1717723129685782,-3.696538933059098,0.0009715625190145852,0.022050149158684463,0.01079646088709139,0.4,0.2105634830584235,-0.01056996353973549,0.6345440924237734,0.03542926920473738,0.5462623201310635,-0.01477915357099846,1.1859828606247902,0.25047600355162003,1.400971133261919,0.2598174847662449,17.575912177562714,0.0,0.0,0.0,0.0,0.0,0.0,0.0,0.0,0.0,0.0,0.0,0.0,0.0,0.0,0.0,0.0,False,0,6.27029275894165,0.034926025390625
STABILIZE,2.9197146892547607,29.797556123898836,0.032395156224568684,0.03251791000366211,0.0,0.0,0.0,-0.25489665672892564,-1.1719846891630832,-3.6958187749884845,0.0007821571880377056,0.022059749768961946,0.010681542926487217,0.4,0.20961932797632835,-0.01045951127161749,0.6325817294795101,0.03473840776018026,0.32274613622576,-0.013081206998322159,1.0826361365616322,0.011348025800645619,15.313568711280823,0.19216489745303988,14.520400762557983,0.0,0.0,0.0,0.0,0.0,0.0,0.0,0.0,0.0,0.0,0.0,0.0,0.0,0.0,0.0,0.0,False,0,6.304150342941284,0.029937255859375
STABILIZE,2.953096628189087,29.955890755342246,0.032306941350301106,0.03243136405944824,0.0,0.0,0.0,-0.2552828559017223,-1.1719235376256705,-3.694901395205587,0.0009399134545544555,0.02146422784224422,0.010251649586842786,0.4,0.20934900493386652,-0.010416209720513018,0.6284801258543802,0.03248039826147631,0.42536291293799877,-0.019914412405341864,1.1277208104729652,-0.06604995698643315,12.250401079654694,-1.714937575161457,15.06832093000412,0.0,0.0,0.0,0.0,0.0,0.0,0.0,0.0,0.0,0.0,0.0,0.0,0.0,0.0,0.0,0.0,False,0,6.3323893547058105,0.0349267578125
STABILIZE,2.986490249633789,29.94434211465696,0.032375367482503255,0.03250741958618164,0.0,0.0,0.0,-0.25547218020777857,-1.1711420145742328,-3.6939904187250368,0.0007528534586204659,0.021908842492576495,0.009860401490558952,0.4,0.21020855363857607,-0.010427013335533614,0.6275909555550516,0.03042240605174744,0.42536291293799877,-0.019914412405341864,1.1277208104729652,-0.06604995698643315,12.250401079654694,-1.714937575161457,15.06832093000412,0.0,0.0,0.0,0.0,0.0,0.0,0.0,0.0,0.0,0.0,0.0,0.0,0.0,0.0,0.0,0.0,False,0,6.361160516738892,0.0349267578125
STABILIZE,3.0200071334838867,29.835284744846422,0.0324435551961263,0.03264427185058594,0.0,0.0,0.0,-0.25569418803623045,-1.1706041371770943,-3.693441442270497,0.0010175635779371259,0.023990243285030768,0.010281976770400804,0.4,0.21272481356879475,-0.011109402764795473,0.6258512554807814,0.03242162223321983,0.5239857826381922,-0.05911889020353556,1.0795028880238533,0.17243364844524608,6.5726593136787415,-1.8171008676290512,11.077713966369629,0.0,0.0,0.0,0.0,0.0,0.0,0.0,0.0,0.0,0.0,0.0,0.0,0.0,0.0,0.0,0.0,False,1,6.389719724655151,0.03492626953125
STABILIZE,3.0534489154815674,29.902925911138993,0.03244736989339193,0.032575130462646484,0.0,0.0,0.0,-0.2552544946084109,-1.1704238842160295,-3.693835031921419,0.0019519235472988702,0.02356313570071264,0.01087033059526498,0.4,0.21344963755266363,-0.013390293536167976,0.6254424367507351,0.0352454838435755,0.27756174094974995,-0.11168669443577528,1.261695008724928,0.10237943969704007,4.908185079693794,0.3214207710698247,15.788106620311737,0.0,0.0,0.0,0.0,0.0,0.0,0.0,0.0,0.0,0.0,0.0,0.0,0.0,0.0,0.0,0.0,False,0,6.447036504745483,0.064864013671875
STABILIZE,3.086890935897827,29.90228635388224,0.032456191380818684,0.032586097717285156,0.0,0.0,0.0,-0.25488553099109795,-1.170509581745772,-3.693604513036931,0.0020031289521898516,0.027328225111324853,0.011124255532359878,0.4,0.2237970215673846,-0.013438598280906646,0.6431548337660592,0.036393370508413625,0.6000902969390154,0.007798364822519943,1.2185784988105297,0.05054461381749762,7.64070451259613,-1.620764099061489,13.979828357696533,0.0,0.0,0.0,0.0,0.0,0.0,0.0,0.0,0.0,0.0,0.0,0.0,0.0,0.0,0.0,0.0,False,0,6.4760682582855225,0.034926025390625
STABILIZE,3.1204371452331543,29.81005110127149,0.03246811230977376,0.03259563446044922,0.0,0.0,0.0,-0.2561716342674702,-1.1717017699210566,-3.692480946918464,0.0004545609046690914,0.027481970051020415,0.010841547334205157,0.4,0.22397415046828575,-0.009516083104440614,0.6392343874632906,0.03486306665808586,0.43540773913264275,0.18826525192707777,1.074752863496542,-0.016940176482527446,5.746876820921898,2.387726865708828,16.937918961048126,0.0,0.0,0.0,0.0,0.0,0.0,0.0,0.0,0.0,0.0,0.0,0.0,0.0,0.0,0.0,0.0,False,0,6.504711866378784,0.029936767578125
STABILIZE,3.153871536254883,29.909536271776258,0.03236440022786458,0.03255462646484375,0.0,0.0,0.0,-0.2553621501291179,-1.170474897191393,-3.6927370790123395,0.0006692533800706892,0.02603381151546444,0.011228753604445432,0.4,0.22022241629296677,-0.010058917855660661,0.6338122618297829,0.03667638007611211,0.2811125013977289,-0.05481347907334566,1.1377167887985706,0.17535803662706936,7.089778780937195,-1.4868143014609814,16.875210404396057,0.0,0.0,0.0,0.0,0.0,0.0,0.0,0.0,0.0,0.0,0.0,0.0,0.0,0.0,0.0,0.0,False,0,6.533449411392212,0.03492724609375
STABILIZE,3.1876444816589355,29.61096246302428,0.03244903882344564,0.03259396553039551,0.0,0.0,0.0,-0.255593336024267,-1.1711138400439065,-3.692436977575682,-0.00023956608977340337,0.025939098399687135,0.011436053287462732,0.4,0.2216295714565722,-0.008287622410500987,0.634857266925492,0.03758698466106316,0.4953961819410324,0.07406518561765552,1.3090822845697403,0.11467959653602812,13.382497429847717,0.5311128683388233,20.4440638422966,0.0,0.0,0.0,0.0,0.0,0.0,0.0,0.0,0.0,0.0,0.0,0.0,0.0,0.0,0.0,0.0,False,0,6.563865900039673,0.03492578125
STABILIZE,3.221312999725342,29.69965444966861,0.03210309346516927,0.032774925231933594,0.0,0.0,0.0,-0.25685793487692427,-1.1720905570952185,-3.6913791520279764,-0.0016169451717545778,0.02627078409795153,0.011642683645870195,0.4,0.22304702061083878,-0.006523640287278537,0.6360318607627122,0.038489424133179115,0.4953961819410324,0.07406518561765552,1.3090822845697403,0.11467959653602812,13.382497429847717,0.5311128683388233,20.4440638422966,0.0,0.0,0.0,0.0,0.0,0.0,0.0,0.0,0.0,0.0,0.0,0.0,0.0,0.0,0.0,0.0,False,1,6.591197490692139,0.03492578125
STABILIZE,3.25482177734375,29.842714536774174,0.0324740727742513,0.032598018646240234,0.0,0.0,0.0,-0.2575889518811007,-1.1727662122145208,-3.69020521326438,-0.003077023833836504,0.02567439338936223,0.012019040326757284,0.4,0.22849926318893657,-0.002899152524971775,0.638605801876726,0.040236571567660195,0.6406419444829226,0.08215966518037021,1.3060388155281544,0.11359701155258109,10.860539227724075,0.4764067009091377,18.947824835777283,0.0,0.0,0.0,0.0,0.0,0.0,0.0,0.0,0.0,0.0,0.0,0.0,0.0,0.0,0.0,0.0,False,0,6.648743391036987,0.02993701171875
STABILIZE,3.288454532623291,29.73502722323049,0.03239944775899251,0.03264331817626953,0.0,0.0,0.0,-0.256329715794159,-1.1722984509780807,-3.689851324088009,-0.0012027917985729315,0.023215017986902405,0.0125602311421225,0.4,0.22125610110825794,-0.004664596264752927,0.6332302027490774,0.04279865544276752,0.07789147784933448,-0.11623513419181108,1.0991347953677177,0.2248882472909011,3.0802929773926735,-1.5332555398344994,15.21875262260437,0.0,0.0,0.0,0.0,0.0,0.0,0.0,0.0,0.0,0.0,0.0,0.0,0.0,0.0,0.0,0.0,False,0,6.677423477172852,0.034926025390625
STABILIZE,3.3218116760253906,29.976872167984105,0.032329829533894856,0.0324552059173584,0.0,0.0,0.0,-0.25595181423398683,-1.17279001115491,-3.689585800484025,-0.0006742640453448502,0.022119763403047485,0.013155251313776064,0.4,0.2153031822051062,-0.006392406633032416,0.6312493654248549,0.045621407723707104,0.07789147784933448,-0.11623513419181108,1.0991347953677177,0.2248882472909011,3.0802929773926735,-1.5332555398344994,15.21875262260437,0.0,0.0,0.0,0.0,0.0,0.0,0.0,0.0,0.0,0.0,0.0,0.0,0.0,0.0,0.0,0.0,False,0,6.705944299697876,0.034926025390625
STABILIZE,3.355348587036133,29.82086029150373,0.03243592580159505,0.03256535530090332,0.0,0.0,0.0,-0.2554527034964735,-1.1729266149383104,-3.6892699042349117,-0.000864065857572295,0.02198100867865706,0.013107540620140242,0.4,0.21580028122488643,-0.004589145773959087,0.6263533097839185,0.0452315820791533,0.4430151078850031,0.0842577195726335,0.9336485527455807,0.045112945900684646,9.697405993938446,-1.6366628929972649,11.16732507944107,0.0,0.0,0.0,0.0,0.0,0.0,0.0,0.0,0.0,0.0,0.0,0.0,0.0,0.0,0.0,0.0,False,0,6.735495328903198,0.06985302734375
STABILIZE,3.3888282775878906,29.86672743067918,0.032329829533894856,0.03248143196105957,0.0,0.0,0.0,-0.25621731115754465,-1.1718009143857275,-3.6901851495836935,-0.001211684894134196,0.02253106249196103,0.013210043098642061,0.4,0.21832322430048645,-0.0024146207666024995,0.6501329235220336,0.0455914156046265,0.1819103374145925,0.08836869965307415,1.4014925807714462,-0.019005668376221613,0.5439572967588902,-1.4118319377303123,20.430341362953186,0.0,0.0,0.0,0.0,0.0,0.0,0.0,0.0,0.0,0.0,0.0,0.0,0.0,0.0,0.0,0.0,False,0,6.764294385910034,0.02991552734375
STABILIZE,3.4225549697875977,29.648638905186367,0.032334121068318684,0.03280758857727051,0.0,0.0,0.0,-0.256382196192977,-1.1711866242472495,-3.6901885646782784,0.0009623816026917413,0.020047472250303896,0.012562142566203692,0.4,0.21472971700858057,-0.005158572925421792,0.6409864759082774,0.04220938558006575,0.31654853373765945,-0.15755989588797092,1.0044294409453869,-0.08030883065248103,6.241459771990776,0.31709945760667324,11.6041861474514,0.0,0.0,0.0,0.0,0.0,0.0,0.0,0.0,0.0,0.0,0.0,0.0,0.0,0.0,0.0,0.0,False,1,6.792942523956299,0.034927001953125
STABILIZE,3.4561421871185303,29.775345188655805,0.03241399129231771,0.032558441162109375,0.0,0.0,0.0,-0.25630407590434495,-1.1702554773643064,-3.6909142722775923,0.0017274064144037545,0.01964278785798362,0.012046506444527823,0.4,0.20836713987175695,-0.00838845215422381,0.6332554723432844,0.03949898337395164,0.23030131123960018,-0.041549940942786634,1.1701623909175396,0.10280097042455696,3.0941052362322807,-1.4752141200006008,17.68006831407547,0.0,0.0,0.0,0.0,0.0,0.0,0.0,0.0,0.0,0.0,0.0,0.0,0.0,0.0,0.0,0.0,False,0,6.850275278091431,0.064863037109375
STABILIZE,3.4894673824310303,30.006681976548695,0.03227976163228353,0.03239917755126953,0.0,0.0,0.0,-0.2560117651522096,-1.1707290015728586,-3.69133731711931,0.0005883441762008672,0.023051496861809788,0.012076884123229593,0.4,0.21412942212410388,-0.006834175729755729,0.6447700529597536,0.03951871977948939,0.4660812672227621,0.0803595467004925,0.9934268891811371,0.03330600342496558,1.7547966912388802,0.4328773356974125,13.911503553390503,0.0,0.0,0.0,0.0,0.0,0.0,0.0,0.0,0.0,0.0,0.0,0.0,0.0,0.0,0.0,0.0,False,0,6.878987789154053,0.0349267578125
STABILIZE,3.523014783859253,29.807720734550003,0.0323980172475179,0.03252291679382324,0.0,0.0,0.0,-0.25526714113054594,-1.1707309225635627,-3.691965267636128,0.0010710968407544165,0.021262687275817087,0.011637283716177201,0.4,0.20912081802582289,-0.0066851664803249024,0.6427915695028804,0.037196239096410566,0.2088482491672039,-0.00801098212832585,1.2662045657634735,-0.029951340005857946,6.078761070966721,-1.372180413454771,17.510251700878143,0.0,0.0,0.0,0.0,0.0,0.0,0.0,0.0,0.0,0.0,0.0,0.0,0.0,0.0,0.0,0.0,False,0,6.910389423370361,0.03492626953125
STABILIZE,3.556462287902832,29.8978102189781,0.03229978879292806,0.03243446350097656,0.0,0.0,0.0,-0.2547928165092003,-1.171244467411783,-3.6931605507408802,0.002273231142310703,0.020827323340107774,0.010741117386268567,0.4,0.2095296856994005,-0.008062729420366007,0.6373759355510394,0.032606388418056076,0.47317296266555786,-0.08490420877933502,1.074363011866808,-0.147813444509355,7.733543217182159,-1.4413845725357533,14.67086374759674,0.0,0.0,0.0,0.0,0.0,0.0,0.0,0.0,0.0,0.0,0.0,0.0,0.0,0.0,0.0,0.0,False,0,6.937060117721558,0.029936767578125
STABILIZE,3.589841365814209,29.960384299439266,0.03230908711751302,0.032438039779663086,0.0,0.0,0.0,-0.25465725326243144,-1.170994418455137,-3.6925031450332666,0.001980173034977596,0.021576006932539922,0.009861750614855565,0.4,0.2091453431243607,-0.009358775590994638,0.6295071565510131,0.028115503822672056,0.47317296266555786,-0.08490420877933502,1.074363011866808,-0.147813444509355,7.733543217182159,-1.4413845725357533,14.67086374759674,0.0,0.0,0.0,0.0,0.0,0.0,0.0,0.0,0.0,0.0,0.0,0.0,0.0,0.0,0.0,0.0,False,0,6.965673923492432,0.029936767578125
STABILIZE,3.6245522499084473,28.808615858014175,0.03238085110982259,0.03381681442260742,0.0,0.0,0.0,-0.2538309337749921,-1.1701945392703053,-3.6937137960636512,0.0002518602218545937,0.020938199564569222,0.009240956571110629,0.4,0.2025267651460209,-0.007383618266675658,0.623362395337414,0.02492492546854192,0.13473392464220524,0.08607395575381815,1.1287655681371689,-0.08999125079099556,-3.5995125770568848,0.5564823281019926,17.212845385074615,0.0,0.0,0.0,0.0,0.0,0.0,0.0,0.0,0.0,0.0,0.0,0.0,0.0,0.0,0.0,0.0,False,1,6.994547367095947,0.034927001953125
STABILIZE,3.6608054637908936,27.58339854924733,0.032404454549153645,0.035185813903808594,0.0,0.0,0.0,-0.2544358057229349,-1.17109857883998,-3.6943647984689183,0.0019497298945679595,0.018383340800617366,0.00873763477282741,0.4,0.19877541445304164,-0.010647218234812494,0.6176653118024191,0.02232764149342583,0.2907215850427747,-0.06783420103602111,1.0685402899980545,-0.08822502657063241,1.7113655805587769,-1.4409291557967663,15.913823246955872,0.0,0.0,0.0,0.0,0.0,0.0,0.0,0.0,0.0,0.0,0.0,0.0,0.0,0.0,0.0,0.0,False,0,7.051887512207031,0.029936767578125
