E-kp,E-ki,E-kd,E-I-Tot,E-P,E-I,E-D,E-PID,N-kp,N-ki,N-kd,N-I-Tot,N-P,N-I,N-D,N-PID,D-kp,D-ki,D-kd,D-I-Tot,D-P,D-I,D-D,D-PID,Y-kp,Y-ki,Y-kd,Y-I-Tot,Y-P,Y-I,Y-D,Y-PID,errorN,desiredN,actualN,errorE,desiredE,actualE,errorD,desiredD,actualD,errorY,desiredY,actualY,roll,pitch,yaw-rate,thrust,dt,Time,Mode
0.12,0.004,0.04,-0.00041625421354093544,-0.001512253540815591,-1.6650168541637417e-06,-0.015261178661414264,-0.016775097219084018,0.1,0.004,0.04,0.0005359497442820474,0.001622589978519683,2.1437989771281897e-06,0.019649590406424194,0.021274324183921004,0.002,8e-05,0,-0.02446006196437207,-0.0014810586940582308,-1.9568049571497657e-06,-0.0,-0.0014830154990153805,0.2,0.02,0,0.00024772200373048654,0.0014999586994872164,4.9544400746097306e-06,0.0,0.0015049131395618262,0.01622589978519683,0.0,-0.01622589978519683,-0.012602112840129924,0.0,0.012602112840129924,-0.7405293470291153,0.0,0.7405293470291153,0.007499793497436081,0,-0.007499793497436081,-0.016777881801213347,-0.021272128207041257,-0.0015049131395618262,0.4,0.03303050994873047,0.03331899642944336,STABILIZE
0.12,0.004,0.04,-0.0008867952862401957,-0.0016551081228478087,-3.547181144960783e-06,-0.008328485011120365,-0.009987140315113135,0.1,0.004,0.04,0.0009117691281120993,0.001101607190442391,3.647076512448397e-06,0.006770570699974663,0.007875824966929502,0.002,8e-05,0,-0.04962035883825819,-0.0014750044911186313,-3.969628707060655e-06,-0.0,-0.001478974119825692,0.2,0.02,0,0.0004910028981629425,0.0014262169229953357,9.82005796325885e-06,0.0,0.0014360369809585944,0.011016071904423908,0.0,-0.011016071904423908,-0.013792567690398407,0.0,0.013792567690398407,-0.7375022455593157,0.0,0.7375022455593157,0.007131084614976678,0,-0.007131084614976678,-0.009988120470066688,-0.007874581897402743,-0.0014360369809585944,0.4,0.03411555290222168,0.06742715835571289,STABILIZE
0.12,0.004,0.04,-0.0013415008916949597,-0.0016315270454521904,-5.366003566779839e-06,-0.005473979680604971,-0.007110872729623942,0.1,0.004,0.04,0.0012532968846947603,0.0010211951149505121,5.013187538779041e-06,0.0041931291443482906,0.005219337446837582,0.002,8e-05,0,-0.07432558098564286,-0.001477411524212101,-5.94604647885143e-06,-0.0,-0.0014833575706909524,0.2,0.02,0,0.0006514456992802718,0.0009594734341326528,1.3028913985605436e-05,0.0,0.0009725023481182582,0.01021195114950512,0.0,-0.01021195114950512,-0.013596058712101587,0.0,0.013596058712101587,-0.7387057621060504,0.0,0.7387057621060504,0.004797367170663263,0,-0.004797367170663263,-0.007111309719052234,-0.0052187420362175135,-0.0009725023481182582,0.4,0.03344392776489258,0.10082030296325684,STABILIZE
0.12,0.004,0.04,-0.0017868510156146095,-0.0015978333873101329,-7.147404062458438e-06,-0.004021535748846486,-0.005626516540219078,0.1,0.004,0.04,0.0015700310284937713,0.0009469859830151242,6.280124113975086e-06,0.0029229730592712153,0.0038762391664003146,0.002,8e-05,0,-0.09895224513907226,-0.0014725981532649325,-7.916179611125782e-06,-0.0,-0.0014805143328760584,0.2,0.02,0,0.0007317350469665171,0.00048010540279831747,1.4634700939330342e-05,0.0,0.0004947401037376478,0.009469859830151242,0.0,-0.009469859830151242,-0.01331527822758444,0.0,0.01331527822758444,-0.7362990766324663,0.0,0.7362990766324663,0.0024005270139915874,0,-0.0024005270139915874,-0.005626678938461395,-0.003876003428271138,-0.0004947401037376478,0.4,0.033446550369262695,0.13430500030517578,STABILIZE
0.12,0.004,0.04,-0.0022278642105838416,-0.0015808421568346551,-8.911456842335366e-06,-0.003183391801677053,-0.004773145415354044,0.1,0.004,0.04,0.0018981838977386247,0.0009802387916169313,7.5927355909544984e-06,0.0024178431017939737,0.0034056746290018593,0.002,8e-05,0,-0.1235200273899512,-0.0014677484455173425,-9.881602191196096e-06,-0.0,-0.0014776300477085385,0.2,0.02,0,0.0009084345687691701,0.001055652666574017,1.8168691375383403e-05,0.0,0.0010738213579494003,0.009802387916169313,0.0,-0.009802387916169313,-0.013173684640288794,0.0,0.013173684640288794,-0.7338742227586712,0.0,0.7338742227586712,0.005278263332870084,0,-0.005278263332870084,-0.004773459136315251,-0.0034052348977230257,-0.0010738213579494003,0.4,0.033476829528808594,0.16776299476623535,STABILIZE
0.12,0.004,0.04,-0.0026536343864376876,-0.0015276059551031747,-1.061453754575075e-05,-2.5042563663092213e-05,-0.0015632630563120176,0.1,0.004,0.04,0.0021067875465604776,0.000623701459669449,8.42715018624191e-06,-0.0023648802132179188,-0.0017327516033622278,0.002,8e-05,0,-0.1480165830926234,-0.0014648389551113216,-1.1841326647409873e-05,0.0,-0.0014766802817587315,0.2,0.02,0,0.0010742837989553252,0.0009917411084261263,2.1485675979106504e-05,-0.0,0.001013226784405233,0.00623701459669449,0.0,-0.00623701459669449,-0.01273004962585979,0.0,0.01273004962585979,-0.7324194775556608,0.0,0.7324194775556608,0.004958705542130631,0,-0.004958705542130631,-0.001563113088190771,0.0017328868906282009,-0.001013226784405233,0.4,0.03344607353210449,0.20126581192016602,STABILIZE
0.12,0.004,0.04,-0.003082016975999919,-0.0015161629508100532,-1.2328067903999675e-05,0.00027661566217538947,-0.0012518753565386636,0.1,0.004,0.04,0.00217588361688463,0.00020379154915995063,8.703534467538521e-06,-0.002133974296087593,-0.001921479212460104,0.002,8e-05,0,-0.17352837150450495,-0.0015048864162339718,-1.3882269720360398e-05,-0.0,-0.0015187686859543322,0.2,0.02,0,0.0012410020885961271,0.000983435913498546,2.4820041771922543e-05,-0.0,0.0010082559552704686,0.0020379154915995063,0.0,-0.0020379154915995063,-0.012634691256750444,0.0,0.012634691256750444,-0.7524432081169858,0.0,0.7524432081169858,0.004917179567492731,0,-0.004917179567492731,-0.001251710448712372,0.001921586642545524,-0.0010082559552704686,0.4,0.0339052677154541,0.23516559600830078,STABILIZE
0.12,0.004,0.04,-0.0035723046811338374,-0.0017587852490273598,-1.428921872453535e-05,-0.0002539167423441553,-0.0020269912100960505,0.1,0.004,0.04,0.0022016369229424697,7.698631900876043e-05,8.80654769176988e-06,-0.0022448783276514633,-0.002159085460950933,0.002,8e-05,0,-0.19912846717931984,-0.0015305663108648724,-1.5930277374345587e-05,-0.0,-0.001546496588239218,0.2,0.02,0,0.0014673877855207428,0.0013535040078594845,2.9347755710414855e-05,0.0,0.0013828517635698994,0.0007698631900876043,0.0,-0.0007698631900876043,-0.014656543741894667,0.0,0.014656543741894667,-0.7652831554324362,0.0,0.7652831554324362,0.006767520039297422,0,-0.006767520039297422,-0.002026736174483471,0.0021593248649836036,-0.0013828517635698994,0.4,0.03345179557800293,0.2685718536376953,STABILIZE
0.12,0.004,0.04,-0.00408277225094347,-0.0018311624454110857,-1.633108900377388e-05,-0.00046531670022164164,-0.0023128102346365014,0.1,0.004,0.04,0.00219360419832067,-2.4012664290071294e-05,8.77441679328268e-06,-0.0023089167287458157,-0.0023241549762426043,0.002,8e-05,0,-0.22449076370146406,-0.001516338081250045,-1.7959261096117127e-05,-0.0,-0.001534297342346162,0.2,0.02,0,0.0016865035357306987,0.0013100294602854004,3.373007071461398e-05,0.0,0.0013437595310000143,-0.00024012664290071293,0.0,0.00024012664290071293,-0.015259687045092382,0.0,0.015259687045092382,-0.7581690406250224,0.0,0.7581690406250224,0.0065501473014270015,0,-0.0065501473014270015,-0.002312544518322222,0.002324419365306194,-0.0013437595310000143,0.4,0.03345203399658203,0.30206775665283203,STABILIZE
0.12,0.004,0.04,-0.0046022675939281004,-0.001865648001479964,-1.84090703757124e-05,-0.0005679573533772397,-0.0024520144252329163,0.1,0.004,0.04,0.0022150131596342265,6.407113241048591e-05,8.860052638536906e-06,-0.0021774929231377534,-0.0021045617380887303,0.002,8e-05,0,-0.24944613053455114,-0.0014936909729501892,-1.9955690442764093e-05,-0.0,-0.0015136466633929532,0.2,0.02,0,0.0017663004230095898,0.00047762026899950355,3.5326008460191796e-05,-0.0,0.0005129462774596953,0.0006407113241048591,0.0,-0.0006407113241048591,-0.015547066678999702,0.0,0.015547066678999702,-0.7468454864750945,0.0,0.7468454864750945,0.0023881013449975176,0,-0.0023881013449975176,-0.0024519267044829547,0.0021046639367891307,-0.0005129462774596953,0.4,0.033414363861083984,0.3355121612548828,STABILIZE
0.12,0.004,0.04,-0.005080710049507892,-0.0017157797535071644,-2.032284019803157e-05,-0.00037548519435106123,-0.0021115877880562572,0.1,0.004,0.04,0.0021161158022643773,-0.00029555292991456113,8.46446320905751e-06,-0.002184471595590976,-0.00247156006229648,0.002,8e-05,0,-0.274302848185583,-0.0014856768522838566,-2.194422785484664e-05,-0.0,-0.0015076210801387032,0.2,0.02,0,0.0018765242329881375,0.0006588036495995885,3.753048465976275e-05,-0.0,0.0006963341342593513,-0.002955529299145611,0.0,0.002955529299145611,-0.014298164612559703,0.0,0.014298164612559703,-0.7428384261419283,0.0,0.7428384261419283,0.0032940182479979426,0,-0.0032940182479979426,-0.0021114456909601884,0.00247168145648523,-0.0006963341342593513,0.4,0.033461809158325195,0.3689146041870117,STABILIZE
0.12,0.004,0.04,-0.005735752345502034,-0.0020197728564131626,-2.2943009382008137e-05,-0.000918729314335,-0.002961445180130171,0.1,0.004,0.04,0.002047846771033345,-0.00017541861680447145,8.19138708413338e-06,-0.0009467377294913504,-0.0011139649592116884,0.002,8e-05,0,-0.3029887984576646,-0.001474182254446012,-2.423910387661317e-05,0.0,-0.0014984213583226253,0.2,0.02,0,0.0018543004640555972,-0.00011420882165840184,3.708600928111195e-05,-0.0,-7.71228123772899e-05,-0.0017541861680447145,0.0,0.0017541861680447145,-0.01683144047010969,0.0,0.01683144047010969,-0.7370911272230061,0.0,0.7370911272230061,-0.0005710441082920092,0,0.0005710441082920092,-0.0029614562824260963,0.0011139354436172332,7.71228123772899e-05,0.4,0.03891777992248535,0.40788793563842773,STABILIZE
0.12,0.004,0.04,-0.006264711192553211,-0.0019002577011552615,-2.5058844770212844e-05,-0.00019667415894748019,-0.0021219907048729545,0.1,0.004,0.04,0.0018136827714127501,-0.0007010185292815769,7.254731085651001e-06,-0.0019022768377975302,-0.002596040635993456,0.002,8e-05,0,-0.3272720201728388,-0.0014539372747793364,-2.6181761613827105e-05,0.0,-0.0014801190363931634,0.2,0.02,0,0.0017383799507963537,-0.0006940642272102121,3.476759901592708e-05,-0.0,-0.0006592966281942851,-0.0070101852928157685,0.0,0.0070101852928157685,-0.015835480842960513,0.0,0.015835480842960513,-0.7269686373896682,0.0,0.7269686373896682,-0.0034703211360510603,0,0.0034703211360510603,-0.002122147939345497,0.002595912105374176,0.0006592966281942851,0.4,0.03340339660644531,0.44126129150390625,STABILIZE
0.12,0.004,0.04,-0.00680480093551194,-0.0018094298077658848,-2.721920374204776e-05,0.00011661945932203957,-0.001720029552185893,0.1,0.004,0.04,0.0016745726976351643,-0.0003883766808128864,6.6982907905406575e-06,-0.0009624560879322561,-0.0013441344779546018,0.002,8e-05,0,-0.3533582895751207,-0.0014565873556285059,-2.826866316600966e-05,0.0,-0.0014848560187945155,0.2,0.02,0,0.0015611476576673543,-0.0009896176153044074,3.122295315334709e-05,-0.0,-0.0009583946621510603,-0.0038837668081288636,0.0,0.0038837668081288636,-0.015078581731382374,0.0,0.015078581731382374,-0.7282936778142529,0.0,0.7282936778142529,-0.004948088076522037,0,0.004948088076522037,-0.0017201456258012832,0.0013439859304530703,0.0009583946621510603,0.4,0.03581833839416504,0.47707509994506836,STABILIZE
0.12,0.004,0.04,-0.007294622435692276,-0.0017579147144533864,-2.9178489742769106e-05,0.00028813549414810803,-0.0014989577100480475,0.1,0.004,0.04,0.0015654456180365015,-0.00032637076108539445,6.261782472146006e-06,-0.001024989662675733,-0.0013450986412889814,0.002,8e-05,0,-0.3776762947905527,-0.001454576792383323,-3.021410358324422e-05,0.0,-0.0014847908959665672,0.2,0.02,0,0.001345905868667887,-0.0012874646100947944,2.6918117373357743e-05,-0.0,-0.0012605464927214368,-0.003263707610853944,0.0,0.003263707610853944,-0.014649289287111554,0.0,0.014649289287111554,-0.7272883961916615,0.0,0.7272883961916615,-0.006437323050473972,0,0.006437323050473972,-0.0014991088257582112,0.001344930221180187,0.0012605464927214368,0.4,0.03343653678894043,0.5106296539306641,STABILIZE
0.12,0.004,0.04,-0.007734126106835217,-0.001558142147684318,-3.093650442734087e-05,0.0003830164659524283,-0.0012060621861592308,0.1,0.004,0.04,0.001416256852457392,-0.00044075722774073465,5.665027409829569e-06,-0.00043555674030238003,-0.0008706489406332851,0.002,8e-05,0,-0.40216291702067714,-0.0014468456373360537,-3.2173033361654177e-05,0.0,-0.0014790186706977078,0.2,0.02,0,0.0011480661007317076,-0.0011689795449937167,2.296132201463415e-05,-0.0,-0.0011460182229790826,-0.0044075722774073465,0.0,0.0044075722774073465,-0.012984517897369319,0.0,0.012984517897369319,-0.7234228186680268,0.0,0.7234228186680268,-0.005844897724968583,0,0.005844897724968583,-0.0012061509971412465,0.0008705259024315253,0.0011460182229790826,0.4,0.03384828567504883,0.5443570613861084,STABILIZE
0.12,0.004,0.04,-0.008103992514719537,-0.0013270118579076869,-3.241597005887815e-05,0.0013644564533565643,5.028625389999356e-06,0.1,0.004,0.04,0.001192618795891204,-0.0006686431159480975,4.770475183564816e-06,-0.001227581501409297,-0.0018914541421738299,0.002,8e-05,0,-0.4260715368894637,-0.0014296613315768762,-3.40857229511571e-05,0.0,-0.0014637470545280334,0.2,0.02,0,0.0010170165358803173,-0.0007836357615631685,2.0340330717606345e-05,-0.0,-0.0007632954308455621,-0.006686431159480975,0.0,0.006686431159480975,-0.011058432149230725,0.0,0.011058432149230725,-0.7148306657884381,0.0,0.7148306657884381,-0.0039181788078158425,0,0.0039181788078158425,4.8992780581936974e-06,0.0018914544816342686,0.0007632954308455621,0.4,0.033446550369262695,0.5777995586395264,STABILIZE
0.12,0.004,0.04,-0.00851682100358213,-0.001471324452691786,-3.406728401432852e-05,0.0008401878465990872,-0.0006652038901070273,0.1,0.004,0.04,0.0009284672676797928,-0.0007845320214861953,3.713869070719171e-06,-0.00024414030359848037,-0.0010249584560139565,0.002,8e-05,0,-0.4501053699711653,-0.001427613292970122,-3.6008429597693226e-05,0.0,-0.0014636217225678153,0.2,0.02,0,0.0009018823976389842,-0.0006838985095270938,1.8037647952779685e-05,0.0,-0.0006658608615743141,-0.007845320214861952,0.0,0.007845320214861952,-0.012261037105764884,0.0,0.012261037105764884,-0.713806646485061,0.0,0.713806646485061,-0.0034194925476354688,0,0.0034194925476354688,-0.000665265059881699,0.0010249187538866852,0.0006658608615743141,0.4,0.03366994857788086,0.6115155220031738,STABILIZE
0.12,0.004,0.04,-0.008932034247297148,-0.0014820800972719457,-3.5728136989188596e-05,0.0006498062754690184,-0.0008680019587921158,0.1,0.004,0.04,0.0005465654407993642,-0.0011359807386100618,2.186261763197457e-06,-0.001778741106650774,-0.002912535583497638,0.002,8e-05,0,-0.4740297749982877,-0.001423280088263412,-3.7922381999863017e-05,0.0,-0.0014612024702632751,0.2,0.02,0,0.0008603541448134013,-0.00024705456741772215,1.7207082896268026e-05,0.0,-0.00022984748452145414,-0.011359807386100616,0.0,0.011359807386100616,-0.012350667477266215,0.0,0.012350667477266215,-0.711640044131706,0.0,0.711640044131706,-0.0012352728370886106,0,0.0012352728370886106,-0.000868064751628959,0.0029125168690646635,0.00022984748452145414,0.4,0.03361868858337402,0.6450836658477783,STABILIZE
0.12,0.004,0.04,-0.009307712981441984,-0.0013468285319113847,-3.7230851925767935e-05,0.0008164741849584131,-0.0005675851988787394,0.1,0.004,0.04,0.0001951119354284452,-0.001049983149723467,7.804477417137807e-07,-0.001721558661081053,-0.002770761363062806,0.002,8e-05,0,-0.4977190150286326,-0.0014154533946312965,-3.981752120229061e-05,0.0,-0.0014552709158335872,0.2,0.02,0,0.0007766322851057851,-0.0005002456405363426,1.55326457021157e-05,0.0,-0.00048471299483422687,-0.01049983149723467,0.0,0.01049983149723467,-0.01122357109926154,0.0,0.01122357109926154,-0.7077266973156482,0.0,0.7077266973156482,-0.002501228202681713,0,0.002501228202681713,-0.0005677061550038414,0.0027707365826795285,0.00048471299483422687,0.4,0.033472299575805664,0.6785714626312256,STABILIZE
0.12,0.004,0.04,-0.009685009668091845,-0.0013536027730752394,-3.874003867236738e-05,0.0004095056015951256,-0.0009828372101524812,0.1,0.004,0.04,-0.000249323204781761,-0.0013287258620051242,-9.97292819127044e-07,-0.0021178924051809553,-0.0034476155600052065,0.002,8e-05,0,-0.5213433091167751,-0.0014125890455774026,-4.170746472934201e-05,0.0,-0.0014542965103067447,0.2,0.02,0,0.0006449604948120945,-0.0007873171908818575,1.289920989624189e-05,0.0,-0.0007744179809856156,-0.013287258620051241,0.0,0.013287258620051241,-0.011280023108960329,0.0,0.011280023108960329,-0.7062945227887013,0.0,0.7062945227887013,-0.003936585954409287,0,0.003936585954409287,-0.000983074081038628,0.0034475480246749838,0.0007744179809856156,0.4,0.033448219299316406,0.7120418548583984,STABILIZE
0.12,0.004,0.04,-0.010063011269038682,-0.0013569732550403066,-4.025204507615473e-05,-5.791219849948859e-05,-0.00145513749861595,0.1,0.004,0.04,-0.0007791894885054499,-0.0015851219808761482,-3.1167579540217994e-06,-0.002186435267014806,-0.003774674005844976,0.002,8e-05,0,-0.5447960524321848,-0.001403201527745748,-4.358368419457478e-05,0.0,-0.0014467852119403226,0.2,0.02,0,0.0004676391032605675,-0.0010609319523128787,9.352782065211351e-06,-0.0,-0.0010515791702476673,-0.01585121980876148,0.0,0.01585121980876148,-0.011308110458669222,0.0,0.011308110458669222,-0.701600763872874,0.0,0.701600763872874,-0.005304659761564393,0,0.005304659761564393,-0.0014554869659611168,0.003774539267539463,0.0010515791702476673,0.4,0.03342747688293457,0.7454507350921631,STABILIZE
0.12,0.004,0.04,-0.010424011895206106,-0.0012945571190223592,-4.169604758082442e-05,0.00035217512685037,-0.0009840780397528137,0.1,0.004,0.04,-0.0012498410374340158,-0.0014064733527678246,-4.999364149736063e-06,-0.0014839902837919857,-0.002895463000709546,0.002,8e-05,0,-0.5681692803235245,-0.001396949495743762,-4.545354242588197e-05,0.0,-0.001442403038169644,0.2,0.02,0,0.0003830036561189867,-0.0005058413230561378,7.660073122379734e-06,0.0,-0.000498181249933758,-0.014064733527678246,0.0,0.014064733527678246,-0.010787975991852994,0.0,0.010787975991852994,-0.698474747871881,0.0,0.698474747871881,-0.002529206615280689,0,0.002529206615280689,-0.000984205853167711,0.0028954195577484258,0.000498181249933758,0.4,0.033463239669799805,0.778911828994751,STABILIZE
0.12,0.004,0.04,-0.010775595605225835,-0.0012608237586655658,-4.310238242090334e-05,0.0004407105544287473,-0.0008632155866577218,0.1,0.004,0.04,-0.001697334304596042,-0.0013373063251638788,-6.789337218384168e-06,-0.00048231163689763643,-0.0018264072992798994,0.002,8e-05,0,-0.592331972768493,-0.0014441746417581808,-4.738655782147945e-05,-0.0,-0.0014915611995796603,0.2,0.02,0,0.00039352016635599854,6.28558983593131e-05,7.87040332711997e-06,0.0,7.072630168643306e-05,-0.013373063251638787,0.0,0.013373063251638787,-0.010506864655546382,0.0,0.010506864655546382,-0.7220873208790903,0.0,0.7220873208790903,0.0003142794917965655,0,-0.0003142794917965655,-0.0008632055684136775,0.0018264120341728344,-7.072630168643306e-05,0.4,0.0334622859954834,0.8124043941497803,STABILIZE
0.12,0.004,0.04,-0.011136854506801611,-0.0012958803146543804,-4.454741802720644e-05,0.00010146813382296821,-0.0012389595988586185,0.1,0.004,0.04,-0.0020520506142147938,-0.0010603426907885066,-8.208202456859174e-06,-2.5513783539287625e-05,-0.0010940646767846536,0.002,8e-05,0,-0.617279143936088,-0.0014914764213599403,-4.9382331514887044e-05,-0.0,-0.0015408587528748274,0.2,0.02,0,0.000528406580343878,0.000806423721043131,1.0568131606877561e-05,0.0,0.0008169918526500086,-0.010603426907885065,0.0,0.010603426907885065,-0.010799002622119837,0.0,0.010799002622119837,-0.7457382106799701,0.0,0.7457382106799701,0.004032118605215655,0,-0.004032118605215655,-0.0012388826023616148,0.0010941518643029086,-0.0008169918526500086,0.4,0.03345298767089844,0.845844030380249,STABILIZE
0.12,0.004,0.04,-0.01162830410479636,-0.0017643490667360858,-4.651321641918544e-05,-0.0008193886555881323,-0.0026302509387434035,0.1,0.004,0.04,-0.0022645050390016474,-0.0006356090357080088,-9.05802015600659e-06,0.0016577260919830197,0.0010130590361190042,0.002,8e-05,0,-0.6426088309349447,-0.0015155982695376862,-5.140870647479558e-05,-0.0,-0.0015670069760124817,0.2,0.02,0,0.00047446360273694624,-0.0003227670500565844,9.489272054738926e-06,0.0,-0.00031327777800184545,-0.006356090357080088,0.0,0.006356090357080088,-0.014702908889467382,0.0,0.014702908889467382,-0.7577991347688431,0.0,0.7577991347688431,-0.0016138352502829219,0,0.0016138352502829219,-0.0026302224031308726,-0.0010131331213080444,0.00031327777800184545,0.4,0.033425331115722656,0.87925124168396,STABILIZE
0.12,0.004,0.04,-0.01212182556598447,-0.0017707010496689263,-4.848730226393788e-05,-0.0008253279101132502,-0.0026445162620461144,0.1,0.004,0.04,-0.0026001099226180915,-0.0010034280276671175,-1.0400439690472366e-05,0.0013915475115205923,0.00037771904416300235,0.002,8e-05,0,-0.6683342420345552,-0.0015383327109214381,-5.346673936276442e-05,-0.0,-0.0015917994502842026,0.2,0.02,0,0.0003556219747527671,-0.0007106512818758709,7.112439495055341e-06,0.0,-0.0007035388423808156,-0.010034280276671175,0.0,0.010034280276671175,-0.014755842080574386,0.0,0.014755842080574386,-0.7691663554607191,0.0,0.7691663554607191,-0.0035532564093793545,0,0.0035532564093793545,-0.002644492832327618,-0.0003778830458192289,0.0007035388423808156,0.4,0.03344583511352539,0.9127178192138672,STABILIZE
0.12,0.004,0.04,-0.012583622980597993,-0.0016563945268870989,-5.033449192239197e-05,-0.0007218980881336027,-0.0024286271069430933,0.1,0.004,0.04,-0.002778430871761712,-0.0005330076112090567,-1.1113723487046848e-05,0.0020893378471671044,0.0015452165124710008,0.002,8e-05,0,-0.6938006995701469,-0.001522402809337918,-5.550405596561176e-05,-0.0,-0.0015779068653035298,0.2,0.02,0,0.0001772899241611514,-0.0010660815876579264,3.545798483223028e-06,-0.0,-0.0010625357891747033,-0.005330076112090567,0.0,0.005330076112090567,-0.013803287724059157,0.0,0.013803287724059157,-0.761201404668959,0.0,0.761201404668959,-0.005330407938289632,0,0.005330407938289632,-0.002428483340044267,-0.001545442448659691,0.0010625357891747033,0.4,0.033455610275268555,0.9461679458618164,STABILIZE
0.12,0.004,0.04,-0.01309988737008301,-0.0018360835159795972,-5.239954948033204e-05,-0.0011441382230620242,-0.0030326212885219534,0.1,0.004,0.04,-0.00275621319374294,6.584725643886542e-05,-1.102485277497176e-05,0.0033438532445309037,0.003398675648194797,0.002,8e-05,0,-0.7190772612377664,-0.0014982593920159274,-5.752618089902131e-05,-0.0,-0.0015557855729149486,0.2,0.02,0,-6.070547424195981e-06,-0.0010868628110489735,-1.2141094848391963e-07,-0.0,-0.0010869842219974573,0.0006584725643886541,0.0,-0.0006584725643886541,-0.015300695966496644,0.0,0.015300695966496644,-0.7491296960079636,0.0,0.7491296960079636,-0.005434314055244868,0,0.005434314055244868,-0.0030322989218045386,-0.003398963266946542,0.0010869842219974573,0.4,0.03374123573303223,0.9799575805664062,STABILIZE
0.12,0.004,0.04,-0.013644672773848508,-0.001955480789458276,-5.457869109539403e-05,-0.001312370737361523,-0.003322430217915193,0.1,0.004,0.04,-0.002832268036562738,-0.00022749597525224377,-1.1329072146250951e-05,0.0019795571899895075,0.0017407321425910128,0.002,8e-05,0,-0.743950593751943,-0.0014880270153192585,-5.951604750015544e-05,0.0,-0.001547543062819414,0.2,0.02,0,-0.0001633952554949588,-0.0009411823512313175,-3.267905109899176e-06,-0.0,-0.0009444502563412167,-0.0022749597525224376,0.0,0.0022749597525224376,-0.016295673245485635,0.0,0.016295673245485635,-0.7440135076596293,0.0,0.7440135076596293,-0.004705911756156587,0,0.004705911756156587,-0.0033222872340166057,-0.0017410050200547345,0.0009444502563412167,0.4,0.033431291580200195,1.013333797454834,STABILIZE
0.12,0.004,0.04,-0.01422985172815911,-0.0020988549156175313,-5.691940691263644e-05,-0.0006637000014177616,-0.002819474323947929,0.1,0.004,0.04,-0.0028514604164907014,-5.7364248231924126e-05,-1.1405841665962806e-05,0.001369808437726795,0.001301038347828908,0.002,8e-05,0,-0.7687068326063972,-0.0014798821576750719,-6.149654660851177e-05,0.0,-0.0015413787042835836,0.2,0.02,0,-0.0002102478477105749,-0.00028007612815644307,-4.204956954211498e-06,0.0,-0.0002842810851106546,-0.0005736424823192413,0.0,0.0005736424823192413,-0.017490457630146096,0.0,0.017490457630146096,-0.7399410788375359,0.0,0.7399410788375359,-0.0014003806407822152,0,0.0014003806407822152,-0.002819442524098417,-0.0013011072589254713,0.0002842810851106546,0.4,0.033457040786743164,1.046800136566162,STABILIZE
0.12,0.004,0.04,-0.014769394237015432,-0.001936316446586231,-5.9077576948061724e-05,-0.0003269721274587184,-0.0023223661509930113,0.1,0.004,0.04,-0.002729744597351313,0.0003640126257288002,-1.0918978389405252e-05,0.0032577661514078178,0.0036108597987472126,0.002,8e-05,0,-0.7932699686563066,-0.00146920781750181,-6.346159749250454e-05,0.0,-0.0015326694149943147,0.2,0.02,0,4.89600462943437e-06,0.0012868512762504603,9.79200925886874e-08,0.0,0.001286949196343049,0.0036401262572880017,0.0,-0.0036401262572880017,-0.016135970388218592,0.0,0.016135970388218592,-0.7346039087509051,0.0,0.7346039087509051,0.006434256381252302,0,-0.006434256381252302,-0.002322771632144079,-0.003610598976678743,-0.001286949196343049,0.4,0.033437252044677734,1.0802326202392578,STABILIZE
0.12,0.004,0.04,-0.015283967103741676,-0.001845349834941198,-6.11358684149667e-05,-0.000373514920002466,-0.0022800006233586307,0.1,0.004,0.04,-0.0027519200695319255,-6.627098993867491e-05,-1.1007680278127702e-05,0.0011041678434185176,0.001026889173201715,0.002,8e-05,0,-0.8175925290084851,-0.0014537504674117217,-6.540740232067881e-05,0.0,-0.0015191578697324006,0.2,0.02,0,0.00032681512390255856,0.0019240987105625862,6.536302478051171e-06,0.0,0.0019306350130406374,-0.0006627098993867491,0.0,0.0006627098993867491,-0.015377915291176651,0.0,0.015377915291176651,-0.7268752337058608,0.0,0.7268752337058608,0.00962049355281293,0,-0.00962049355281293,-0.002280173015447284,-0.0010265063254460186,-0.0019306350130406374,0.4,0.033461809158325195,1.113734483718872,STABILIZE
0.12,0.004,0.04,-0.015776969113650445,-0.0017693796751275066,-6.310787645460178e-05,0.00013299415780639867,-0.0016994933937757098,0.1,0.004,0.04,-0.0029113616288650437,-0.000476861907227758,-1.1645446515460175e-05,-0.0012981133889451441,-0.0017866207426883622,0.002,8e-05,0,-0.8417806773880983,-0.0014468506977546158,-6.734245419104787e-05,0.0,-0.0015141931519456636,0.2,0.02,0,0.0007564212669621666,0.0025697541543500545,1.5128425339243333e-05,0.0,0.002584882579689298,-0.00476861907227758,0.0,0.00476861907227758,-0.014744830626062555,0.0,0.014744830626062555,-0.7234253488773079,0.0,0.7234253488773079,0.012848770771750272,0,-0.012848770771750272,-0.0016990926953503694,0.0017870018148559927,-0.002584882579689298,0.4,0.03343558311462402,1.1471459865570068,STABILIZE
0.12,0.004,0.04,-0.016288698371344137,-0.0018351521471147011,-6.515479348537655e-05,0.0002400491238790325,-0.0016602578167210452,0.1,0.004,0.04,-0.002954407248167416,-0.00012864103999488263,-1.1817628992669665e-05,0.00023636879690063108,9.591012791307878e-05,0.002,8e-05,0,-0.8659286590637882,-0.0014433159642644182,-6.927429272510307e-05,0.0,-0.0015125902569895213,0.2,0.02,0,0.0011293054653865261,0.002228715110172619,2.2586109307730524e-05,0.0,0.0022513012194803495,-0.0012864103999488262,0.0,0.0012864103999488262,-0.015292934559289177,0.0,0.015292934559289177,-0.7216579821322091,0.0,0.7216579821322091,0.011143575550863094,0,-0.011143575550863094,-0.001660276439080136,-9.558721909867874e-05,-0.0022513012194803495,0.4,0.033461809158325195,1.1806046962738037,STABILIZE
0.12,0.004,0.04,-0.016811438594286653,-0.0018749600496407843,-6.724575437714662e-05,0.000446413437564877,-0.0014957923664530538,0.1,0.004,0.04,-0.0029897347800293904,-0.0001055937346864824,-1.1958939120117563e-05,-0.00011532701667740443,-0.0002328796904840044,0.002,8e-05,0,-0.8905171620099979,-0.0014698971140039015,-7.124137296079984e-05,0.0,-0.0015411384869647015,0.2,0.02,0,0.0014270215137767131,0.001779742187959601,2.8540430275534262e-05,0.0,0.0018082826182351352,-0.001055937346864824,0.0,0.001055937346864824,-0.01562466708033987,0.0,0.01562466708033987,-0.7349485570019507,0.0,0.7349485570019507,0.008898710939798004,0,-0.008898710939798004,-0.0014957561794475332,0.00023311200188679958,-0.0018082826182351352,0.4,0.03345608711242676,1.2140772342681885,STABILIZE
0.12,0.004,0.04,-0.017329810126224764,-0.0018456902976626789,-6.931924050489906e-05,0.00018024488535709033,-0.0017347646528104875,0.1,0.004,0.04,-0.0032505545560725484,-0.0007738859428383915,-1.3002218224290194e-05,-0.00270981590612442,-0.0034967040671871016,0.002,8e-05,0,-0.9148543216641777,-0.0014442298839998137,-7.318834573313422e-05,0.0,-0.001517418229732948,0.2,0.02,0,0.00174229072928298,0.0018708889164111198,3.48458145856596e-05,0.0,0.0019057347309967795,-0.007738859428383915,0.0,0.007738859428383915,-0.015380752480522324,0.0,0.015380752480522324,-0.7221149419999068,0.0,0.7221149419999068,0.009354444582055598,0,-0.009354444582055598,-0.0017341937373038204,0.0034969872484210914,-0.0019057347309967795,0.4,0.03370261192321777,1.2477531433105469,STABILIZE
0.12,0.004,0.04,-0.017771863470823032,-0.001585812984671825,-7.108745388329214e-05,0.0005169426757224183,-0.001139957762832699,0.1,0.004,0.04,-0.0033867579559594438,-0.0004071777059195206,-1.3547031823837776e-05,-0.0008040858411034553,-0.0012248105788468136,0.002,8e-05,0,-0.9386254355678463,-0.001421266669478876,-7.50900348454277e-05,0.0,-0.0014963567043243036,0.2,0.02,0,0.002140902999730449,0.0023832889629326766,4.281805999460898e-05,0.0,0.0024261070229272858,-0.0040717770591952055,0.0,0.0040717770591952055,-0.013215108205598543,0.0,0.013215108205598543,-0.710633334739438,0.0,0.710633334739438,0.011916444814663382,0,-0.011916444814663382,-0.0011397030006089592,0.0012250476421350042,-0.0024261070229272858,0.4,0.03345060348510742,1.2812085151672363,STABILIZE
0.12,0.004,0.04,-0.018283751821899577,-0.0017502842596253392,-7.313500728759831e-05,5.303832627080946e-05,-0.001770380940642128,0.1,0.004,0.04,-0.0035795915574869997,-0.0005494583873786915,-1.4318366229947999e-05,-0.00014601182874572326,-0.0007097885823543627,0.002,8e-05,0,-0.963362831542392,-0.0014097304196415892,-7.706902652339137e-05,0.0,-0.0014867994461649804,0.2,0.02,0,0.00240950188969062,0.0015306866828199794,4.8190037793812396e-05,-0.0,0.0015788767206137918,-0.005494583873786914,0.0,0.005494583873786914,-0.014585702163544495,0.0,0.014585702163544495,-0.7048652098207946,0.0,0.7048652098207946,0.007653433414099897,0,-0.007653433414099897,-0.0017702861129840074,0.0007100250592799496,-0.0015788767206137918,0.4,0.03509521484375,1.3163049221038818,STABILIZE
0.12,0.004,0.04,-0.018814399778059612,-0.0019025506219719278,-7.525759911223845e-05,-0.00011921395943022171,-0.002097022180514388,0.1,0.004,0.04,-0.0038083815035098467,-0.0006835738098640927,-1.5233526014039387e-05,-0.0012990989449590037,-0.001997906280837136,0.002,8e-05,0,-0.9866678129088813,-0.001392602706406681,-7.893342503271051e-05,0.0,-0.0014715361314393913,0.2,0.02,0,0.002524875031301174,0.0006894189131793461,5.049750062602348e-05,-0.0,0.0007399164138053695,-0.006835738098640926,0.0,0.006835738098640926,-0.015854588516432733,0.0,0.015854588516432733,-0.6963013532033404,0.0,0.6963013532033404,0.00344709456589673,0,-0.00344709456589673,-0.0020969019763844,0.0019980324406808298,-0.0007399164138053695,0.4,0.03346967697143555,1.3497915267944336,STABILIZE
0.12,0.004,0.04,-0.01936628611242158,-0.001978246379785266,-7.746514444968632e-05,-0.00019063071172992872,-0.002246342235964881,0.1,0.004,0.04,-0.004163523410039957,-0.00106084373290902,-1.665409364015983e-05,-0.0022557633588627455,-0.0033332611854119255,0.002,8e-05,0,-1.0097840284728392,-0.0013810080961267478,-8.078272227782715e-05,0.0,-0.001461790818404575,0.2,0.02,0,0.0027261048525624066,0.001202186454677273,5.452209705124813e-05,-0.0,0.0012567085517285212,-0.0106084373290902,0.0,0.0106084373290902,-0.01648538649821055,0.0,0.01648538649821055,-0.6905040480633738,0.0,0.6905040480633738,0.006010932273386365,0,-0.006010932273386365,-0.0022459925293084435,0.003333496832088502,-0.0012567085517285212,0.4,0.0334773063659668,1.383284568786621,STABILIZE
0.12,0.004,0.04,-0.019983642111401523,-0.0022155902050944335,-7.99345684456061e-05,-0.0007217445561289353,-0.003017269329668975,0.1,0.004,0.04,-0.004340337995656887,-0.0005287989758718186,-1.736135198262755e-05,0.000603512066533702,5.7351738679255865e-05,0.002,8e-05,0,-1.0329487244459166,-0.0013855720628708685,-8.263589795567333e-05,0.0,-0.0014682079608265418,0.2,0.02,0,0.002856701996079954,0.0007811531554696749,5.713403992159908e-05,-0.0,0.000838287195391274,-0.005287989758718186,0.0,0.005287989758718186,-0.01846325170912028,0.0,0.01846325170912028,-0.6927860314354343,0.0,0.6927860314354343,0.0039057657773483743,0,-0.0039057657773483743,-0.003017273232238864,-5.714605590445395e-05,-0.000838287195391274,0.4,0.03343701362609863,1.4166958332061768,STABILIZE
0.12,0.004,0.04,-0.020560411492422208,-0.0020692232301476893,-8.224164596968883e-05,-0.0009479506362679965,-0.003099415512385375,0.1,0.004,0.04,-0.004425729504354223,-0.0002552928132517459,-1.7702918017416893e-05,0.00038065323883655676,0.00010765750756739397,0.002,8e-05,0,-1.0560071428288258,-0.0013787432937795885,-8.448057142630607e-05,0.0,-0.0014632238652058946,0.2,0.02,0,0.002915506091919971,0.00035161020777682247,5.8310121838399425e-05,-0.0,0.00040992032961522187,-0.002552928132517459,0.0,0.002552928132517459,-0.017243526917897413,0.0,0.017243526917897413,-0.6893716468897942,0.0,0.6893716468897942,0.0017580510388841121,0,-0.0017580510388841121,-0.0030994188142655084,-0.00010756240573597369,-0.00040992032961522187,0.4,0.03344845771789551,1.4501559734344482,STABILIZE
0.12,0.004,0.04,-0.02115518052717591,-0.0021232502800569643,-8.462072210870364e-05,-0.0007426718111520317,-0.0029505428133176997,0.1,0.004,0.04,-0.004763271560866702,-0.0010041520659610746,-1.905308624346681e-05,-0.0010772380135399887,-0.00210044316574453,0.002,8e-05,0,-1.0789482182126762,-0.0013649456592210172,-8.63158574570141e-05,0.0,-0.0014512615166780312,0.2,0.02,0,0.0030623595978151313,0.0008737474249097016,6.124719195630262e-05,-0.0,0.0009349946168660042,-0.010041520659610746,0.0,0.010041520659610746,-0.017693752333808037,0.0,0.017693752333808037,-0.6824728296105086,0.0,0.6824728296105086,0.004368737124548508,0,-0.004368737124548508,-0.0029503826483712643,0.002100668135125916,-0.0009349946168660042,0.4,0.0336146354675293,1.4837629795074463,STABILIZE
0.12,0.004,0.04,-0.02177834389218019,-0.00223525247000698,-8.711337556872075e-05,-0.0006625716734929405,-0.0029849375190686414,0.1,0.004,0.04,-0.00525368617572708,-0.0014659083807377054,-2.101474470290832e-05,-0.001860868427478945,-0.0033477915529195584,0.002,8e-05,0,-1.1015835059473258,-0.0013531920536291179,-8.812668047578607e-05,0.0,-0.001441318734104904,0.2,0.02,0,0.003210010267067778,0.0008826912857831849,6.420020534135556e-05,0.0,0.0009468914911245404,-0.014659083807377054,0.0,0.014659083807377054,-0.018627103916724834,0.0,0.018627103916724834,-0.6765960268145589,0.0,0.6765960268145589,0.004413456428915924,0,-0.004413456428915924,-0.0029846796320191766,0.003348021470772414,-0.0009468914911245404,0.4,0.03345465660095215,1.5172786712646484,STABILIZE
0.12,0.004,0.04,-0.022383221473583115,-0.0021708381530816767,-8.953288589433247e-05,-0.0003834002364439857,-0.002643771275419995,0.1,0.004,0.04,-0.005659825135266023,-0.0012146561771710714,-2.263930054106409e-05,-0.0003581705111940946,-0.00159546598890623,0.002,8e-05,0,-1.1241939720981706,-0.0013524406725234515,-8.993551776785366e-05,0.0,-0.0014423761902913053,0.2,0.02,0,0.0034022457634174746,0.001149852914272395,6.804491526834949e-05,-0.0,0.0012178978295407446,-0.012146561771710713,0.0,0.012146561771710713,-0.018090317942347306,0.0,0.018090317942347306,-0.6762203362617257,0.0,0.6762203362617257,0.005749264571361975,0,-0.005749264571361975,-0.0026436111673152495,0.0015957312663912133,-0.0012178978295407446,0.4,0.03343653678894043,1.5506889820098877,STABILIZE
0.12,0.004,0.04,-0.02296626204742767,-0.002092512331179559,-9.186504818971069e-05,0.0002459869915438304,-0.0019383903878254394,0.1,0.004,0.04,-0.0059779594946958,-0.0009514776214302281,-2.3911837978783198e-05,-0.0010014260869558515,-0.001976815546364863,0.002,8e-05,0,-1.146688805804244,-0.0013455529234557657,-9.173510446433952e-05,0.0,-0.0014372880279201051,0.2,0.02,0,0.0036375832947445038,0.0014076970179621845,7.275166589489007e-05,0.0,0.0014804486838570746,-0.00951477621430228,0.0,0.00951477621430228,-0.017437602759829657,0.0,0.017437602759829657,-0.6727764617278829,0.0,0.6727764617278829,0.007038485089810922,0,-0.007038485089810922,-0.0019381475318099107,0.0019770536525099717,-0.0014804486838570746,0.4,0.033435821533203125,1.5841155052185059,STABILIZE
0.12,0.004,0.04,-0.023650854645813037,-0.0023699805819832175,-9.460341858325215e-05,-0.0005793855624605415,-0.0030439695630270114,0.1,0.004,0.04,-0.0064203717864162,-0.0012763169207995434,-2.56814871456648e-05,-0.0024052857143380714,-0.0037072841222832798,0.002,8e-05,0,-1.1699085715031563,-0.0013397358262031349,-9.35926857202525e-05,0.0,-0.0014333285119233874,0.2,0.02,0,0.003960944915506749,0.0018657343651602165,7.921889831013498e-05,0.0,0.0019449532634703516,-0.012763169207995433,0.0,0.012763169207995433,-0.01974983818319348,0.0,0.01974983818319348,-0.6698679131015675,0.0,0.6698679131015675,0.009328671825801082,0,-0.009328671825801082,-0.0030433659173700234,0.0037077796802074256,-0.0019449532634703516,0.4,0.03466320037841797,1.618779182434082,STABILIZE
0.12,0.004,0.04,-0.024301941504397483,-0.0022956409515725506,-9.720776601758993e-05,-0.00032661842321321375,-0.0027194671408033544,0.1,0.004,0.04,-0.00680199653984653,-0.0011212961329680176,-2.7207986159386118e-05,-0.00025867608809032806,-0.0014071802072177318,0.002,8e-05,0,-1.1928962721862653,-0.0013508568115722062,-9.543170177490123e-05,0.0,-0.0014462885133471074,0.2,0.02,0,0.004295196112429176,0.001964204738713169,8.590392224858351e-05,0.0,0.0020501086609617525,-0.011212961329680176,0.0,0.011212961329680176,-0.01913034126310459,0.0,0.01913034126310459,-0.6754284057861031,0.0,0.6754284057861031,0.009821023693565844,0,-0.009821023693565844,-0.002719225897221362,0.001407646328228504,-0.0020501086609617525,0.4,0.03403425216674805,1.652815341949463,STABILIZE
0.12,0.004,0.04,-0.02487284429727741,-0.002048366011794225,-9.949137718910964e-05,0.0003894669940434801,-0.0017583903949398546,0.1,0.004,0.04,-0.007040123026554302,-0.0007119866521987147,-2.8160492106217207e-05,0.0018245725317367811,0.0010844253874318492,0.002,8e-05,0,-1.215977382182046,-0.001380228000851773,-9.72781905745637e-05,-0.0,-0.0014775061914263365,0.2,0.02,0,0.004655399397420319,0.002153980722913449,9.310798794840638e-05,0.0,0.0022470887108618554,-0.007119866521987147,0.0,0.007119866521987147,-0.01706971676495188,0.0,0.01706971676495188,-0.6901140004258864,0.0,0.6901140004258864,0.010769903614567245,0,-0.010769903614567245,-0.001758594203615963,-0.0010840948431441741,-0.0022470887108618554,0.4,0.03344535827636719,1.6862711906433105,STABILIZE
0.12,0.004,0.04,-0.02537052790733098,-0.0017837397922528242,-0.00010148211162932392,0.0007879485299700116,-0.0010972733739121367,0.1,0.004,0.04,-0.007228492503630493,-0.00056261000148014,-2.8913970014521973e-05,0.0015803474091296114,0.0009888234376349495,0.002,8e-05,0,-1.2390334102606053,-0.0013772456337135491,-9.912267282084844e-05,-0.0,-0.0014763683065343975,0.2,0.02,0,0.005020282842029772,0.0021796214386555794,0.00010040565684059545,0.0,0.0022800270954961748,-0.0056261000148014,0.0,0.0056261000148014,-0.014864498268773535,0.0,0.014864498268773535,-0.6886228168567745,0.0,0.6886228168567745,0.010898107193277896,0,-0.010898107193277896,-0.0010974614360446903,-0.0009886147097365326,-0.0022800270954961748,0.4,0.03348135948181152,1.7197544574737549,STABILIZE
0.12,0.004,0.04,-0.02592804178667336,-0.0019912144541076025,-0.00010371216714669344,0.00022010166130974115,-0.0018748249599445546,0.1,0.004,0.04,-0.007253905176640317,-7.563650534039845e-05,-2.9015620706561266e-05,0.0021101700829708266,0.002005517956923867,0.002,8e-05,0,-1.2621807472910525,-0.0013778823504655476,-0.0001009744597832842,-0.0,-0.0014788568102488318,0.2,0.02,0,0.005447825615469153,0.0025450169097910756,0.00010895651230938306,0.0,0.0026539734221004588,-0.0007563650534039845,0.0,0.0007563650534039845,-0.016593453784230022,0.0,0.016593453784230022,-0.6889411752327738,0.0,0.6889411752327738,0.012725084548955377,0,-0.012725084548955377,-0.0018752703284565754,-0.0020051015189225586,-0.0026539734221004588,0.4,0.03359842300415039,1.7533597946166992,STABILIZE
0.12,0.004,0.04,-0.02650511118205747,-0.002068824918624569,-0.00010602044472822989,0.0005991713085404091,-0.00157567405481239,0.1,0.004,0.04,-0.0073621658371872956,-0.0003234335911155377,-2.9448663348749184e-05,0.00226763024921297,0.0019147479947486828,0.002,8e-05,0,-1.2852830675378275,-0.0013803844097687189,-0.00010282264540302621,-0.0,-0.001483207055171745,0.2,0.02,0,0.005917058040557096,0.0028037059361592977,0.00011834116081114192,0.0,0.0029220470969704396,-0.0032343359111553765,0.0,0.0032343359111553765,-0.01724020765520474,0.0,0.01724020765520474,-0.6901922048843594,0.0,0.6901922048843594,0.014018529680796487,0,-0.014018529680796487,-0.001576142488078304,-0.0019143624180591706,-0.0029220470969704396,0.4,0.033472299575805664,1.7868621349334717,STABILIZE
0.12,0.004,0.04,-0.02708599247395748,-0.0020856550658936014,-0.00010834396989582993,0.0004199825431882308,-0.0017740164926012005,0.1,0.004,0.04,-0.007311705512847919,0.00015098155244538795,-2.9246822051391674e-05,0.003038834688548183,0.0031605694189421794,0.002,8e-05,0,-1.3082800604492657,-0.001376178903644128,-0.00010466240483594127,-0.0,-0.0014808413084800693,0.2,0.02,0,0.006315389537671049,0.002383682967143733,0.000126307790753421,0.0,0.002509990757897154,0.0015098155244538795,0.0,-0.0015098155244538795,-0.01738045888244668,0.0,0.01738045888244668,-0.688089451822064,0.0,0.688089451822064,0.011918414835718665,0,-0.011918414835718665,-0.0017746739018975827,-0.003160200327494632,-0.002509990757897154,0.4,0.03342151641845703,1.8202605247497559,STABILIZE
0.12,0.004,0.04,-0.027672849629093055,-0.0021043792307437297,-0.00011069139851637222,-0.00011021193841787315,-0.002325282567677975,0.1,0.004,0.04,-0.007152382865480023,0.0004760886971870975,-2.8609531461920093e-05,0.002836971663783556,0.0032844508295087334,0.002,8e-05,0,-1.331193960857654,-0.001369428536762145,-0.00010649551686861233,0.0,-0.0014759240536307574,0.2,0.02,0,0.006687720709086261,0.00222520357588451,0.00013375441418172522,0.0,0.0023589579900662352,0.004760886971870975,0.0,-0.004760886971870975,-0.01753649358953108,0.0,0.01753649358953108,-0.6847142683810724,0.0,0.6847142683810724,0.011126017879422549,0,-0.011126017879422549,-0.0023259203170346034,-0.003283999231092074,-0.0023589579900662352,0.4,0.033464908599853516,1.8537452220916748,STABILIZE
0.12,0.004,0.04,-0.028303699570061073,-0.0022630979722044657,-0.00011321479828024429,-0.000953449092346608,-0.003329761862831318,0.1,0.004,0.04,-0.007014602200739305,0.00041189291189338027,-2.8058408802957223e-05,0.0023265229512459715,0.0027103574543363945,0.002,8e-05,0,-1.3542065080585723,-0.0013759122289775086,-0.0001083365206446858,0.0,-0.0014842487496221945,0.2,0.02,0,0.007038819797067189,0.0020992092901238137,0.0001407763959413438,-0.0,0.0022399856860651577,0.004118929118933802,0.0,-0.004118929118933802,-0.01885914976837055,0.0,0.01885914976837055,-0.6879561144887543,0.0,0.6879561144887543,0.010496046450619068,0,-0.010496046450619068,-0.003330258318881429,-0.00270974742789135,-0.0022399856860651577,0.4,0.03345060348510742,1.8871736526489258,STABILIZE
0.12,0.004,0.04,-0.028967526788759867,-0.0021773411645650193,-0.00011587010715503947,-0.00038550660424210446,-0.002678717875962163,0.1,0.004,0.04,-0.006686280983196392,0.0008974063355892837,-2.674512393278557e-05,0.002228657938753381,0.0030993191504098787,0.002,8e-05,0,-1.3791552743455857,-0.0013638583030763612,-0.00011033242194764687,0.0,-0.001474190725024008,0.2,0.02,0,0.0073922165363101335,0.0019318914272225538,0.00014784433072620267,-0.0,0.0020797357579487564,0.008974063355892837,0.0,-0.008974063355892837,-0.018144509704708496,0.0,0.018144509704708496,-0.6819291515381806,0.0,0.6819291515381806,0.009659457136112768,0,-0.009659457136112768,-0.0026792403500340055,-0.0030988675031124384,-0.0020797357579487564,0.4,0.03658556938171387,1.9237585067749023,STABILIZE
0.12,0.004,0.04,-0.029657275385133172,-0.0024723985016668584,-0.00011862910154053269,-0.0008185027358162262,-0.0034095303390236174,0.1,0.004,0.04,-0.006470277740890568,0.0006452182909349345,-2.588111096356227e-05,0.0022182578252013516,0.002837595005172724,0.002,8e-05,0,-1.4019802636580938,-0.001363599956890786,-0.00011215842109264752,0.0,-0.0014757583779834336,0.2,0.02,0,0.007610801745892471,0.0013058616513791802,0.00015221603491784942,-0.0,0.0014580776862970295,0.006452182909349345,0.0,-0.006452182909349345,-0.02060332084722382,0.0,0.02060332084722382,-0.681799978445393,0.0,0.681799978445393,0.0065293082568959005,0,-0.0065293082568959005,-0.003409853683328483,-0.002837206443739136,-0.0014580776862970295,0.4,0.0334775447845459,1.9572999477386475,STABILIZE
0.12,0.004,0.04,-0.030423276734400068,-0.0027482703267510075,-0.00012169310693760027,-0.0013348072446581767,-0.004204770678346784,0.1,0.004,0.04,-0.00634345443870323,0.000379182010662265,-2.537381775481292e-05,0.000446339896139842,0.0008001480890472942,0.002,8e-05,0,-1.424668260354448,-0.001356671850810932,-0.00011397346082835585,0.0,-0.0014706453116392878,0.2,0.02,0,0.007725560756914317,0.0006862233010870295,0.00015451121513828633,-0.0,0.0008407345162253158,0.00379182010662265,0.0,-0.00379182010662265,-0.02290225272292506,0.0,0.02290225272292506,-0.678335925405466,0.0,0.678335925405466,0.003431116505435147,0,-0.003431116505435147,-0.004204818587099573,-0.000799896287947925,-0.0008407345162253158,0.4,0.033446550369262695,1.990694284439087,STABILIZE
0.12,0.004,0.04,-0.03118973479047177,-0.0027498304988249397,-0.00012475893916188708,-0.0013006158450660486,-0.004175205283052876,0.1,0.004,0.04,-0.006182114646332327,0.00048236721090067587,-2.4728458585329308e-05,-8.405032074579444e-05,0.0003735884315695521,0.002,8e-05,0,-1.4472796802959105,-0.001352054246678724,-0.00011578237442367285,0.0,-0.0014678366211023969,0.2,0.02,0,0.007779380976889859,0.00032181905056603675,0.00015558761953779718,-0.0,0.00047740667010383396,0.004823672109006759,0.0,-0.004823672109006759,-0.0229152541568745,0.0,0.0229152541568745,-0.676027123339362,0.0,0.676027123339362,0.0016090952528301837,0,-0.0016090952528301837,-0.004175215773267659,-0.00037347117491473455,-0.00047740667010383396,0.4,0.0334475040435791,2.0241291522979736,STABILIZE
0.12,0.004,0.04,-0.031976195705564335,-0.002821273222208526,-0.00012790478282225735,-0.0011266727038936237,-0.004075850708924407,0.1,0.004,0.04,-0.006033971230674919,0.0004428627068639941,-2.4135884922699678e-05,-2.499697433209794e-05,0.00039372984760919653,0.002,8e-05,0,-1.4700790524932394,-0.001363137422112473,-0.00011760632419945916,0.0,-0.001480743746311932,0.2,0.02,0,0.00797968294531179,0.0011975729266383729,0.0001595936589062358,-0.0,0.0013571665855446086,0.004428627068639941,0.0,-0.004428627068639941,-0.02351061018507105,0.0,0.02351061018507105,-0.6815687110562365,0.0,0.6815687110562365,0.005987864633191864,0,-0.005987864633191864,-0.004075891834566704,-0.0003933038866454545,-0.0013571665855446086,0.4,0.03345131874084473,2.057605504989624,STABILIZE
0.12,0.004,0.04,-0.032762921417557225,-0.0028215594926944516,-0.0001310516856702289,-0.0012835101825706176,-0.004236121360935298,0.1,0.004,0.04,-0.005881073447731131,0.00045696802191299657,-2.3524293790924525e-05,-0.0010529216655548494,-0.0006194779374327772,0.002,8e-05,0,-1.4928500915624676,-0.001361123291656143,-0.00011942800732499742,0.0,-0.0014805512989811403,0.2,0.02,0,0.00814918103122249,0.001013163219837235,0.00016298362062444982,-0.0,0.001176146840461685,0.0045696802191299655,0.0,-0.0045696802191299655,-0.023512995772453766,0.0,0.023512995772453766,-0.6805616458280714,0.0,0.6805616458280714,0.005065816099186176,0,-0.005065816099186176,-0.004236066573130683,0.0006198524724022324,-0.001176146840461685,0.4,0.03345918655395508,2.0910396575927734,STABILIZE
0.12,0.004,0.04,-0.03353301331192793,-0.0027597987934863716,-0.0001341320532477117,-0.0005729745163421996,-0.0034669053630762827,0.1,0.004,0.04,-0.005613216801718415,0.0007999374857045275,-2.2452867206873658e-05,0.000369128252820493,0.001146612871318147,0.002,8e-05,0,-1.5156454670434703,-0.0013615398848157091,-0.00012125163736347762,0.0,-0.0014827915221791868,0.2,0.02,0,0.008261525649002297,0.0006710206553915272,0.00016523051298004594,-0.0,0.0008362511683715732,0.007999374857045275,0.0,-0.007999374857045275,-0.022998323279053098,0.0,0.022998323279053098,-0.6807699424078546,0.0,0.6807699424078546,0.003355103276957636,0,-0.003355103276957636,-0.003466972500028892,-0.0011464098556986293,-0.0008362511683715732,0.4,0.033484697341918945,2.1245455741882324,STABILIZE
0.12,0.004,0.04,-0.03430454886509505,-0.0027691327268346303,-0.0001372181954603802,-4.170996788421777e-05,-0.0029480608901792283,0.1,0.004,0.04,-0.005208148843286708,0.0012115308401114855,-2.0832595373146833e-05,0.001990292324054182,0.0031809905687925208,0.002,8e-05,0,-1.5389791056740982,-0.0013957866686110023,-0.00012311832845392787,-0.0,-0.0015189049970649301,0.2,0.02,0,0.008341154518103517,0.00047632911303495927,0.00016682309036207034,-0.0,0.0006431522033970296,0.012115308401114855,0.0,-0.012115308401114855,-0.023076106056955255,0.0,0.023076106056955255,-0.6978933343055012,0.0,0.6978933343055012,0.0023816455651747962,0,-0.0023816455651747962,-0.0029481931136381883,-0.0031808680223561103,-0.0006431522033970296,0.4,0.033434391021728516,2.1579747200012207,STABILIZE
0.12,0.004,0.04,-0.035057916251981514,-0.002700381869236807,-0.00014023166500792605,9.830619825424454e-05,-0.0027423073359904887,0.1,0.004,0.04,-0.004674409375642567,0.0015942867610261426,-1.869763750257027e-05,0.0026581307085143625,0.004233719832037935,0.002,8e-05,0,-1.562896846377417,-0.0014288520774102084,-0.00012503174771019338,-0.0,-0.0015538838251204017,0.2,0.02,0,0.008262126871439292,-0.00047211322553283364,0.00016524253742878584,-0.0,-0.0003068706881040478,0.015942867610261424,0.0,-0.015942867610261424,-0.02250318224364006,0.0,0.02250318224364006,-0.7144260387051042,0.0,0.7144260387051042,-0.002360566127664168,0,0.002360566127664168,-0.002742132905883027,-0.004233832810550279,0.0003068706881040478,0.4,0.0334782600402832,2.1915390491485596,STABILIZE
0.12,0.004,0.04,-0.035840556743156435,-0.0028092300575061737,-0.00014336222697262574,2.363072843580215e-05,-0.002928961556042997,0.1,0.004,0.04,-0.004314729050756068,0.0010758715646565756,-1.7258916203024276e-05,0.0015120651543135456,0.002570677802767097,0.002,8e-05,0,-1.5865037878629458,-0.0014122561238681343,-0.00012692030302903566,-0.0,-0.00153917642689717,0.2,0.02,0,0.008200501090681628,-0.00036866862366104365,0.00016401002181363255,-0.0,-0.0002046586018474111,0.010758715646565754,0.0,-0.010758715646565754,-0.023410250479218114,0.0,0.023410250479218114,-0.7061280619340671,0.0,0.7061280619340671,-0.0018433431183052182,0,0.0018433431183052182,-0.0029288788496355223,-0.002570772033178941,0.0002046586018474111,0.4,0.0334315299987793,2.224884510040283,STABILIZE
0.12,0.004,0.04,-0.03665811899480664,-0.0029318609972174142,-0.00014663247597922657,-0.00022011386407875947,-0.0032986073372754,0.1,0.004,0.04,-0.004120611526237424,0.0005801042447265779,-1.6482446104949695e-05,0.0002930918675306556,0.0008567136661522838,0.002,8e-05,0,-1.6099900835423504,-0.0014037372308668133,-0.00012879920668338804,-0.0,-0.0015325364375502013,0.2,0.02,0,0.008153132539732526,-0.00028311403146378015,0.00016306265079465054,-0.0,-0.00012005138066912961,0.005801042447265778,0.0,-0.005801042447265778,-0.024432174976811785,0.0,0.024432174976811785,-0.7018686154334066,0.0,0.7018686154334066,-0.0014155701573189006,0,0.0014155701573189006,-0.003298586169992375,-0.000856795162471304,0.00012005138066912961,0.4,0.0334625244140625,2.258357524871826,STABILIZE
0.12,0.004,0.04,-0.03744037549629069,-0.0028103971503912564,-0.00014976150198516274,-0.00010064316834095925,-0.0030608018207173783,0.1,0.004,0.04,-0.0039469530691830295,0.0005199160291638356,-1.578781227673212e-05,-0.0006704719807291055,-0.00016634376384200213,0.002,8e-05,0,-1.6333177503563172,-0.0013968139652162904,-0.00013066542002850538,-0.0,-0.0015274793852447957,0.2,0.02,0,0.008157751836838907,2.7659425861711886e-05,0.00016315503673677815,-0.0,0.00019081446259849004,0.005199160291638355,0.0,-0.005199160291638355,-0.02341997625326047,0.0,0.02341997625326047,-0.6984069826081452,0.0,0.6984069826081452,0.00013829712930855942,0,-0.00013829712930855942,-0.0030608014191978233,0.0001663511518220771,-0.00019081446259849004,0.4,0.0334012508392334,2.2917752265930176,STABILIZE
0.12,0.004,0.04,-0.038251359131171385,-0.002909368052842548,-0.00015300543652468554,-0.0002792838105412855,-0.003341657299908519,0.1,0.004,0.04,-0.0035145167578651765,0.0012927885090454794,-1.4058067031460706e-05,0.0001931203755884584,0.0014718508176024773,0.002,8e-05,0,-1.6568854439685798,-0.0014091343714308427,-0.0001325508355174864,-0.0,-0.0015416852069483292,0.2,0.02,0,0.008267519333860378,0.000656310097473454,0.00016535038667720757,0.0,0.0008216604841506616,0.012927885090454793,0.0,-0.012927885090454793,-0.0242447337736879,0.0,0.0242447337736879,-0.7045671857154213,0.0,0.7045671857154213,0.00328155048736727,0,-0.00328155048736727,-0.0033417415930061764,-0.001471659425574245,-0.0008216604841506616,0.4,0.03344988822937012,2.325235605239868,STABILIZE
0.12,0.004,0.04,-0.03902099595370164,-0.002757814487760581,-0.00015608398381480656,-0.00011449198382428378,-0.0030283904553996713,0.1,0.004,0.04,-0.003064731863265213,0.0013430829346946923,-1.2258927453060852e-05,-0.0006013715905854434,0.0007294524166561882,0.002,8e-05,0,-1.6803614345909077,-0.0014020125067981198,-0.00013442891476727264,0.0,-0.0015364414215653923,0.2,0.02,0,0.008268322106050401,4.794245613013587e-06,0.00016536644212100803,0.0,0.00017016068773402162,0.013430829346946923,0.0,-0.013430829346946923,-0.02298178739800484,0.0,0.02298178739800484,-0.7010062533990599,0.0,0.7010062533990599,2.3971228065067934e-05,0,-2.3971228065067934e-05,-0.0030283907605854147,-0.0007294511496476484,-0.00017016068773402162,0.4,0.03348898887634277,2.3587722778320312,STABILIZE
0.12,0.004,0.04,-0.039744966410206854,-0.002599676539190662,-0.00015897986564082742,0.0004180378707066947,-0.0023406185341247948,0.1,0.004,0.04,-0.0026043427481625132,0.0013776607073268225,-1.0417370992650053e-05,0.0007219463281592173,0.00208918966449339,0.002,8e-05,0,-1.7035765774561447,-0.0013893721241989493,-0.00013628612619649157,0.0,-0.001525658250395441,0.2,0.02,0,0.008164872837237443,-0.0006191197322878122,0.00016329745674474887,-0.0,-0.00045582227554306334,0.013776607073268225,0.0,-0.013776607073268225,-0.021663971159922184,0.0,0.021663971159922184,-0.6946860620994747,0.0,0.6946860620994747,-0.003095598661439061,0,0.003095598661439061,-0.002340505655156829,-0.002089316121292661,0.00045582227554306334,0.4,0.03341817855834961,2.392117977142334,STABILIZE
0.12,0.004,0.04,-0.04045254814307379,-0.0025394862171911298,-0.00016181019257229516,0.0007823645012981825,-0.0019189319084652423,0.1,0.004,0.04,-0.002133931712901687,0.001406907363689836,-8.535726851606747e-06,0.001977171013733503,0.0033755426505717324,0.002,8e-05,0,-1.7265462096798478,-0.0013739535127553783,-0.00013812369677438784,0.0,-0.001512077209529766,0.2,0.02,0,0.007997693652239167,-0.0010000004625713172,0.00015995387304478336,-0.0,-0.0008400465895265338,0.01406907363689836,0.0,-0.01406907363689836,-0.021162385143259414,0.0,0.021162385143259414,-0.6869767563776892,0.0,0.6869767563776892,-0.005000002312856586,0,0.005000002312856586,-0.001918637329356128,-0.003375710096195477,0.0008400465895265338,0.4,0.033435821533203125,2.42555832862854,STABILIZE
0.12,0.004,0.04,-0.041068896898824106,-0.002210730068959197,-0.00016427558759529642,0.0011950352580691447,-0.0011799703984853487,0.1,0.004,0.04,-0.001653095800688026,0.0014372252714727396,-6.612383202752104e-06,0.002193825526104701,0.0036244384143746884,0.002,8e-05,0,-1.749586220344685,-0.0013773382869868161,-0.0001399668976275748,0.0,-0.0015173051846143909,0.2,0.02,0,0.007689760098621407,-0.0018408354033140257,0.00015379520197242815,-0.0,-0.0016870402013415976,0.014372252714727396,0.0,-0.014372252714727396,-0.018422750574659977,0.0,0.018422750574659977,-0.688669143493408,0.0,0.688669143493408,-0.009204177016570128,0,0.009204177016570128,-0.0011793881418996654,-0.0036246279218208085,0.0016870402013415976,0.4,0.033455848693847656,2.4590182304382324,STABILIZE
0.12,0.004,0.04,-0.041721572462904526,-0.002343298766620341,-0.00016688628985161812,0.0011278646055359965,-0.0013823204509359629,0.1,0.004,0.04,-0.0011774491116177113,0.0014230938529363262,-4.7097964464708455e-06,0.00031157089567469744,0.0017299549521645526,0.002,8e-05,0,-1.7723661233344121,-0.0013631100840218052,-0.000141789289866753,0.0,-0.0015048993738885582,0.2,0.02,0,0.007478152554999845,-0.0012662230242846675,0.0001495630510999969,-0.0,-0.0011166599731846705,0.014230938529363262,0.0,-0.014230938529363262,-0.019527489721836176,0.0,0.019527489721836176,-0.6815550420109026,0.0,0.6815550420109026,-0.006331115121423337,0,0.006331115121423337,-0.0013821292845437759,-0.0017301076863597174,0.0011166599731846705,0.4,0.033423423767089844,2.492431640625,STABILIZE
0.12,0.004,0.04,-0.04238450492783913,-0.0023796827330267146,-0.00016953801971135652,0.0007536079707149466,-0.0017956127820231245,0.1,0.004,0.04,-0.000718118239485138,0.0013740235028664332,-2.8724729579405522e-06,7.399569026899264e-05,0.0014451467201774854,0.002,8e-05,0,-1.794661210310416,-0.001333852147200726,-0.0001435728968248333,0.0,-0.0014774250440255593,0.2,0.02,0,0.0072036665099368185,-0.0016421725601609438,0.00014407333019873637,-0.0,-0.0014980992299622074,0.013740235028664331,0.0,-0.013740235028664331,-0.019830689441889288,0.0,0.019830689441889288,-0.6669260736003629,0.0,0.6669260736003629,-0.008210862800804719,0,0.008210862800804719,-0.001795405664536825,-0.0014454040284825726,0.0014980992299622074,0.4,0.033429622650146484,2.5258631706237793,STABILIZE
0.12,0.004,0.04,-0.04303949222461469,-0.0023482818846451156,-0.00017215796889845876,0.0005006791473953217,-0.002019760706148253,0.1,0.004,0.04,-0.00020882584371788814,0.001521609799222258,-8.353033748715526e-07,0.0003439738756712257,0.0018647483715186122,0.002,8e-05,0,-1.8168457604960122,-0.0013256129184056377,-0.00014534766083968098,0.0,-0.0014709605792453187,0.2,0.02,0,0.006913599878105145,-0.0017332606302026073,0.00013827199756210291,-0.0,-0.0015949886326405043,0.01521609799222258,0.0,-0.01521609799222258,-0.019569015705375965,0.0,0.019569015705375965,-0.6628064592028188,0.0,0.6628064592028188,-0.008666303151013036,0,0.008666303151013036,-0.00201947862955306,-0.0018650538501502575,0.0015949886326405043,0.4,0.03347063064575195,2.5593883991241455,STABILIZE
0.12,0.004,0.04,-0.043738087744869675,-0.002504930847968634,-0.0001749523509794787,6.861693787059966e-05,-0.0026112662610775126,0.1,0.004,0.04,0.00027566961407014134,0.0014476994468737138,1.1026784562805653e-06,9.731845067493939e-05,0.0015461205760049336,0.002,8e-05,0,-1.8388762712338789,-0.0013165678933365211,-0.00014711010169871032,0.0,-0.0014636779950352313,0.2,0.02,0,0.006612006419500067,-0.0018023561467291425,0.00013224012839000134,-0.0,-0.001670116018339141,0.014476994468737138,0.0,-0.014476994468737138,-0.02087442373307195,0.0,0.02087442373307195,-0.6582839466682605,0.0,0.6582839466682605,-0.009011780733645712,0,0.009011780733645712,-0.0026110230468249025,-0.0015465312705331123,0.001670116018339141,0.4,0.03346657752990723,2.5928289890289307,STABILIZE
