E-kp,E-ki,E-kd,E-I-Tot,E-P,E-I,E-D,E-PID,N-kp,N-ki,N-kd,N-I-Tot,N-P,N-I,N-D,N-PID,D-kp,D-ki,D-kd,D-I-Tot,D-P,D-I,D-D,D-PID,Y-kp,Y-ki,Y-kd,Y-I-Tot,Y-P,Y-I,Y-D,Y-PID,errorN,desiredN,actualN,errorE,desiredE,actualE,errorD,desiredD,actualD,errorY,desiredY,actualY,roll,pitch,yaw-rate,thrust,dt,Time,Mode
0.1,0.004,0.04,-0.0004284722509812565,-0.0012973044461301881,-1.713889003925026e-06,-0.01571162493808988,-0.017010643273223994,0.1,0.004,0.04,8.762188294660124e-05,0.0002652966628868045,3.50487531786405e-07,0.0032130019110302556,0.0034786490614488463,0.002,8e-05,0,-0.024510172831738297,-0.0014842107565758978,-1.960813826539064e-06,-0.0,-0.0014861715704024368,0.2,0.02,0,0.0004966257201015587,0.003007311457275874,9.932514402031173e-06,0.0,0.0030172439716779054,0.002652966628868045,0.0,-0.002652966628868045,-0.01297304446130188,0.0,0.01297304446130188,-0.7421053782879489,0.0,0.7421053782879489,0.01503655728637937,0,-0.01503655728637937,-0.01701155561515239,-0.00347418471215578,-0.0030172439716779054,0.4,0.03302788734436035,0.03333687782287598,STABILIZE
0.1,0.004,0.04,-0.0009472765102805007,-0.0015511995865382501,-3.789106041122003e-06,-0.009374080793815536,-0.010929069486394908,0.1,0.004,0.04,9.645990683838995e-05,2.6425263017839298e-05,3.858396273535598e-07,0.00017807314263232148,0.00020488424527751435,0.002,8e-05,0,-0.049158271306113666,-0.0014739323926927072,-3.932661704489093e-06,-0.0,-0.0014778650543971962,0.2,0.02,0,0.000965335524444877,0.0028028391890453346,1.930671048889754e-05,0.0,0.002822145899534232,0.00026425263017839295,0.0,-0.00026425263017839295,-0.0155119958653825,0.0,0.0155119958653825,-0.7369661963463536,0.0,0.7369661963463536,0.014014195945226671,0,-0.014014195945226671,-0.01092911927290096,-0.00020221105586975204,-0.002822145899534232,0.4,0.03344535827636719,0.06672358512878418,STABILIZE
0.1,0.004,0.04,-0.0015532141280025654,-0.0018126027542308268,-6.212856512010262e-06,-0.0072920029984860696,-0.009110818609228907,0.1,0.004,0.04,2.628134583750077e-05,-0.00020993225909356797,1.0512538335000308e-07,-0.0008240049287727619,-0.0010338320624829799,0.002,8e-05,0,-0.07375697943545426,-0.0014716922931236381,-5.900558354836341e-06,-0.0,-0.0014775928514784745,0.2,0.02,0,0.0014037368741286614,0.0026228689906485827,2.807473748257323e-05,0.0,0.002650943728131156,-0.0020993225909356795,0.0,0.0020993225909356795,-0.018126027542308267,0.0,0.018126027542308267,-0.735846146561819,0.0,0.735846146561819,0.013114344953242913,0,-0.013114344953242913,-0.009110581738304667,0.0010359173969767483,-0.002650943728131156,0.4,0.03342914581298828,0.10013675689697266,STABILIZE
0.1,0.004,0.04,-0.0021291888092351695,-0.0017234878428997909,-8.516755236940679e-06,-0.005202343884695751,-0.006934348482832482,0.1,0.004,0.04,-5.170061197416947e-05,-0.00023334525046537756,-2.0680244789667787e-07,-0.0006880623420548846,-0.0009216143949681587,0.002,8e-05,0,-0.09805384519344554,-0.0014540692193223356,-7.844307615475644e-06,-0.0,-0.0014619135269378113,0.2,0.02,0,0.0019194096925542951,0.0030860934080244127,3.8388193851085905e-05,0.0,0.003124481601875499,-0.0023334525046537755,0.0,0.0023334525046537755,-0.01723487842899791,0.0,0.01723487842899791,-0.7270346096611677,0.0,0.7270346096611677,0.015430467040122062,0,-0.015430467040122062,-0.006934100029128871,0.0009234818679371408,-0.003124481601875499,0.4,0.033419132232666016,0.13355779647827148,STABILIZE
0.1,0.004,0.04,-0.00266718535011689,-0.001607288855859171,-1.066874140046756e-05,-0.0038841553489991575,-0.005502112946258796,0.1,0.004,0.04,-0.00015474590106532622,-0.00030785243439216715,-6.189836042613048e-07,-0.0007285247232861941,-0.0010369961412826226,0.002,8e-05,0,-0.12209041733803082,-0.0014362068007995076,-9.767233387042466e-06,-0.0,-0.0014459740341865501,0.2,0.02,0,0.0023982045985951883,0.002860842619770134,4.796409197190377e-05,0.0,0.0029088067117420376,-0.003078524343921671,0.0,0.003078524343921671,-0.016072888558591708,0.0,0.016072888558591708,-0.7181034003997538,0.0,0.7181034003997538,0.014304213098850669,0,-0.014304213098850669,-0.005501853882883937,0.001038369742345493,-0.0029088067117420376,0.4,0.033472299575805664,0.16704297065734863,STABILIZE
0.1,0.004,0.04,-0.0031899352440544976,-0.0015631974242076132,-1.2759740976217991e-05,-0.0006363518322617589,-0.00221230899744559,0.1,0.004,0.04,-0.00024366899377299694,-0.0002659098568651197,-9.746759750919877e-07,-0.0012707872117265753,-0.001537671744566787,0.002,8e-05,0,-0.14582371317017123,-0.0014194102129148293,-1.1665897053613699e-05,0.0,-0.001431076109968443,0.2,0.02,0,0.0029579980607138644,0.003347940222352755,5.915996121427729e-05,0.0,0.0034071001835670324,-0.002659098568651197,0.0,0.002659098568651197,-0.01563197424207613,0.0,0.01563197424207613,-0.7097051064574146,0.0,0.7097051064574146,0.016739701111763775,0,-0.016739701111763775,-0.0022118596523951145,0.00153831803354324,-0.0034071001835670324,0.4,0.03344106674194336,0.2005016803741455,STABILIZE
0.1,0.004,0.04,-0.003697267834881971,-0.0015173000542187736,-1.4789071339527884e-05,8.076919104075652e-05,-0.001451319934517545,0.1,0.004,0.04,-0.00034313875958803363,-0.00029748824300469297,-1.3725550383521346e-06,-0.0007749702896630938,-0.001073831087706139,0.002,8e-05,0,-0.1703873868189637,-0.0014692714023491341,-1.3630990945517097e-05,0.0,-0.0014829023932946513,0.2,0.02,0,0.0034699279810825076,0.003062098946431382,6.939855962165016e-05,0.0,0.0031314975060530324,-0.0029748824300469294,0.0,0.0029748824300469294,-0.015173000542187735,0.0,0.015173000542187735,-0.734635701174567,0.0,0.734635701174567,0.015310494732156909,0,-0.015310494732156909,-0.0014510329351257823,0.0010742188689612643,-0.0031314975060530324,0.4,0.03343653678894043,0.233931303024292,STABILIZE
0.1,0.004,0.04,-0.004279794274807153,-0.0017409191471616005,-1.711917709922861e-05,0.00017169820461289767,-0.0015863401196479314,0.1,0.004,0.04,-0.0004932131285783107,-0.0004485072686261676,-1.9728525143132426e-06,-0.0005704024257631262,-0.001020882546903607,0.002,8e-05,0,-0.19475999988585496,-0.0014567836186100578,-1.5580799990868397e-05,0.0,-0.0014723644186009262,0.2,0.02,0,0.0038262115710413643,0.002129554578358748,7.652423142082729e-05,-0.0,0.002206078809779575,-0.004485072686261676,0.0,0.004485072686261676,-0.017409191471616004,0.0,0.017409191471616004,-0.7283918093050289,0.0,0.7283918093050289,0.01064777289179374,0,-0.01064777289179374,-0.0015861503727758555,0.0010211773326509078,-0.002206078809779575,0.4,0.03346085548400879,0.26743030548095703,STABILIZE
0.1,0.004,0.04,-0.0049412876699858055,-0.001972055350641765,-1.976515067994322e-05,-0.0005928822287819301,-0.0025847027301036385,0.1,0.004,0.04,-0.000695302263969719,-0.0006024715645838933,-2.781209055878876e-06,-0.0008815562897555638,-0.0014868090633953358,0.002,8e-05,0,-0.21911828054574867,-0.0014523464046017835,-1.7529462443659894e-05,0.0,-0.0014698758670454433,0.2,0.02,0,0.004030751204800545,0.0012195540639197526,8.061502409601091e-05,-0.0,0.0013001690880157634,-0.0060247156458389335,0.0,0.0060247156458389335,-0.01972055350641765,0.0,0.01972055350641765,-0.7261732023008918,0.0,0.7261732023008918,0.006097770319598762,0,-0.006097770319598762,-0.00258454448007327,0.0014870841349844694,-0.0013001690880157634,0.4,0.03354334831237793,0.3009469509124756,STABILIZE
0.1,0.004,0.04,-0.005501113728764608,-0.0016694850779896957,-2.200445491505843e-05,-0.00014875412452591952,-0.0018402436574306738,0.1,0.004,0.04,-0.0008395329639865651,-0.00043011752970447857,-3.3581318559462604e-06,-0.0002922930220676059,-0.0007257686836280307,0.002,8e-05,0,-0.24335064656294164,-0.0014452908304532126,-1.9468051725035334e-05,-0.0,-0.001464758882178248,0.2,0.02,0,0.004240918558269752,0.0012535009937294185,8.481837116539505e-05,-0.0,0.0013383193648948135,-0.0043011752970447854,0.0,0.0043011752970447854,-0.016694850779896957,0.0,0.016694850779896957,-0.7226454152266063,0.0,0.7226454152266063,0.006267504968647092,0,-0.006267504968647092,-0.001840164255602303,0.0007259699809583107,-0.0013383193648948135,0.4,0.03353285789489746,0.3345146179199219,STABILIZE
0.1,0.004,0.04,-0.005990474896979481,-0.001463948864368829,-2.3961899587917924e-05,0.00023766498934020387,-0.001250245774616543,0.1,0.004,0.04,-0.0007341867192971151,0.0003151486576697971,-2.9367468771884605e-06,0.001390970496823148,0.0017031824076157566,0.002,8e-05,0,-0.2674200577984968,-0.0014400973977095554,-2.1393604623879748e-05,-0.0,-0.0014614910023334352,0.2,0.02,0,0.004578054925996134,0.002017121237759326,9.156109851992267e-05,-0.0,0.0021086823362792485,0.003151486576697971,0.0,-0.003151486576697971,-0.01463948864368829,0.0,0.01463948864368829,-0.7200486988547776,0.0,0.7200486988547776,0.01008560618879663,0,-0.01008560618879663,-0.0012505455613946077,-0.0017029623041731048,-0.0021086823362792485,0.4,0.03342747688293457,0.36790943145751953,STABILIZE
0.1,0.004,0.04,-0.006501440099574788,-0.0015278483183431516,-2.6005760398299152e-05,-2.5002437031326996e-05,-0.0015788565157727778,0.1,0.004,0.04,-0.00048601165760213307,0.000742073723884674,-1.9440466304085324e-06,0.0024877711427811152,0.0032279008200353804,0.002,8e-05,0,-0.2922574183842389,-0.0014853347903248035,-2.3380593470739115e-05,-0.0,-0.0015087153837955425,0.2,0.02,0,0.004971979793336254,0.002355766862644202,9.943959586672508e-05,-0.0,0.0024552064585109273,0.007420737238846739,0.0,-0.007420737238846739,-0.015278483183431515,0.0,0.015278483183431515,-0.7426673951624018,0.0,0.7426673951624018,0.01177883431322101,0,-0.01177883431322101,-0.0015795200724501525,-0.003227576171387796,-0.0024552064585109273,0.4,0.033443450927734375,0.4013512134552002,STABILIZE
0.1,0.004,0.04,-0.007036256028606892,-0.0015961267622532317,-2.814502411442757e-05,0.00034661962302917176,-0.0012776521633384875,0.1,0.004,0.04,-0.00019023377005523284,0.0008827317519332811,-7.609350802209314e-07,0.003184663998979835,0.0040666348158328956,0.002,8e-05,0,-0.3176684536467417,-0.0015167548772320328,-2.5413476291739337e-05,-0.0,-0.0015421683535237721,0.2,0.02,0,0.005515176057650206,0.003242274762446105,0.00011030352115300412,0.0,0.0033525782835991088,0.00882731751933281,0.0,-0.00882731751933281,-0.015961267622532315,0.0,0.015961267622532315,-0.7583774386160164,0.0,0.7583774386160164,0.016211373812230524,0,-0.016211373812230524,-0.0012788027333564163,-0.004066273151792428,-0.0033525782835991088,0.4,0.03350710868835449,0.4348618984222412,STABILIZE
0.1,0.004,0.04,-0.007491245815292927,-0.0013638488349161189,-2.996498326117171e-05,0.0014548827571156937,6.106893893840322e-05,0.1,0.004,0.04,0.0001617153690308272,0.0010549806552547566,6.468614761233089e-07,0.003964922782824028,0.005020550299554907,0.002,8e-05,0,-0.3425980588838464,-0.0014945484075670461,-2.7407844710707717e-05,-0.0,-0.001521956252277754,0.2,0.02,0,0.00600916541670822,0.002961503011834146,0.0001201833083341644,0.0,0.0030816863201683104,0.010549806552547565,0.0,-0.010549806552547565,-0.013638488349161187,0.0,0.013638488349161187,-0.747274203783523,0.0,0.747274203783523,0.01480751505917073,0,-0.01480751505917073,5.977142643711404e-05,-0.005020565914540472,-0.0030816863201683104,0.4,0.03336071968078613,0.4682347774505615,STABILIZE
0.1,0.004,0.04,-0.007989572756877483,-0.0014896548245997236,-3.195829102750993e-05,0.0004321761865239341,-0.0010894369291032993,0.1,0.004,0.04,0.00039441166878855373,0.0006956018964143906,1.577646675154215e-06,0.0026942981075084925,0.003391477650598037,0.002,8e-05,0,-0.36745462295134323,-0.0014860806228288517,-2.9396369836107463e-05,-0.0,-0.001515476992664959,0.2,0.02,0,0.006514393108071295,0.0030205666407168577,0.00013028786216142592,0.0,0.0031508545028782835,0.006956018964143906,0.0,-0.006956018964143906,-0.014896548245997234,0.0,0.014896548245997234,-0.7430403114144258,0.0,0.7430403114144258,0.015102833203584288,0,-0.015102833203584288,-0.0010903308649669599,-0.0033911903635597354,-0.0031508545028782835,0.4,0.033452510833740234,0.5016827583312988,STABILIZE
0.1,0.004,0.04,-0.00853215962279605,-0.0016138983923734411,-3.41286384911842e-05,-0.00035536664345415874,-0.002003393674318784,0.1,0.004,0.04,0.0005096923032992071,0.0003428966722103749,2.0387692131968283e-06,7.141298921219686e-05,0.00041634843063576856,0.002,8e-05,0,-0.39231105056125526,-0.0014786848366434469,-3.1384884044900425e-05,-0.0,-0.0015100697206883473,0.2,0.02,0,0.007031830618127233,0.0030781856992400025,0.00014063661236254465,0.0,0.0032188223116025472,0.0034289667221037486,0.0,-0.0034289667221037486,-0.01613898392373441,0.0,0.01613898392373441,-0.7393424183217234,0.0,0.7393424183217234,0.015390928496200012,0,-0.015390928496200012,-0.0020035054425421974,-0.00041581025924955115,-0.0032188223116025472,0.4,0.03361964225769043,0.5352926254272461,STABILIZE
0.1,0.004,0.04,-0.009077868641914955,-0.0016302141134637413,-3.631147456765982e-05,-0.00024150529339289932,-0.0019080308814243003,0.1,0.004,0.04,0.0007066218991856478,0.0005882941188898253,2.826487596742591e-06,-0.00036336650226767987,0.000227754104218888,0.002,8e-05,0,-0.4167386139854519,-0.0014594649256833784,-3.333908911883616e-05,0.0,-0.0014928040148022145,0.2,0.02,0,0.007557355835774757,0.003139836787646818,0.00015114711671549515,0.0,0.0032909839043623133,0.005882941188898253,0.0,-0.005882941188898253,-0.01630214113463741,0.0,0.01630214113463741,-0.7297324628416892,0.0,0.7297324628416892,0.01569918393823409,0,-0.01569918393823409,-0.0019080932149810382,-0.0002272312905404238,-0.0032909839043623133,0.4,0.03347468376159668,0.5688073635101318,STABILIZE
0.1,0.004,0.04,-0.009704991692370192,-0.0018742525128199212,-3.881996676948077e-05,-0.0006619635513372108,-0.0025750360309266126,0.1,0.004,0.04,0.000899949302334717,0.0005777883158433769,3.599797209338868e-06,-0.0007243135588601255,-0.00014292544580740967,0.002,8e-05,0,-0.4416259881870369,-0.001487593977001799,-3.5330079054962957e-05,0.0,-0.001522924056056762,0.2,0.02,0,0.008231946471328709,0.004032233204931539,0.0001646389294265742,0.0,0.004196872134358113,0.005777883158433769,0.0,-0.005777883158433769,-0.01874252512819921,0.0,0.01874252512819921,-0.7437969885008995,0.0,0.7437969885008995,0.020161166024657697,0,-0.020161166024657697,-0.0025749855790848293,0.0001438315373438522,-0.004196872134358113,0.4,0.03345990180969238,0.6023125648498535,STABILIZE
0.1,0.004,0.04,-0.010392757112019996,-0.002053092239207755,-4.1571028448079984e-05,-0.0016460656046912417,-0.003740728872347077,0.1,0.004,0.04,0.001079228257696642,0.0005351769969683238,4.3169130307865685e-06,-0.001239132965955934,-0.0006996390559568235,0.002,8e-05,0,-0.4662727457234412,-0.001471492028354443,-3.73018196578753e-05,0.0,-0.0015087938480123182,0.2,0.02,0,0.009028652583140725,0.004756596038002329,0.0001805730516628145,0.0,0.004937169089665143,0.005351769969683238,0.0,-0.005351769969683238,-0.020530922392077548,0.0,0.020530922392077548,-0.7357460141772214,0.0,0.7357460141772214,0.023782980190011644,0,-0.023782980190011644,-0.0037404381359976992,0.0007011917396869726,-0.004937169089665143,0.4,0.03349900245666504,0.6357758045196533,STABILIZE
0.1,0.004,0.04,-0.011066744746662164,-0.0020174914586998187,-4.426697898664866e-05,-0.001259953973283327,-0.0033217124109697943,0.1,0.004,0.04,0.0013328702297455048,0.0007592431758010518,5.33148091898202e-06,0.0001568729003021265,0.0009214475570221604,0.002,8e-05,0,-0.4904098637127472,-0.0014450244152300607,-3.923278909701978e-05,0.0,-0.0014842572043270805,0.2,0.02,0,0.009984712997501978,0.005723676877243877,0.00019969425995003956,0.0,0.005923371137193916,0.007592431758010518,0.0,-0.007592431758010518,-0.020174914586998185,0.0,0.020174914586998185,-0.7225122076150303,0.0,0.7225122076150303,0.028618384386219383,0,-0.028618384386219383,-0.0033221722458559363,-0.0009197882965103424,-0.005923371137193916,0.4,0.03340721130371094,0.6691591739654541,STABILIZE
0.1,0.004,0.04,-0.011692466591169117,-0.0018708779835349952,-4.676986636467647e-05,-0.0006136150393060526,-0.002531262889205724,0.1,0.004,0.04,0.0015575310602226641,0.0006717249928098593,6.2301242408906565e-06,0.0007868165061457676,0.0014647716231965175,0.002,8e-05,0,-0.5141540419104169,-0.001419878836487009,-4.113232335283336e-05,0.0,-0.0014610111598398424,0.2,0.02,0,0.01089395647914434,0.005437187870012097,0.0002178791295828868,0.0,0.0056550669995949834,0.0067172499280985926,0.0,-0.0067172499280985926,-0.01870877983534995,0.0,0.01870877983534995,-0.7099394182435045,0.0,0.7099394182435045,0.02718593935006048,0,-0.02718593935006048,-0.0025319576151628174,-0.001463570414230517,-0.0056550669995949834,0.4,0.03344535827636719,0.7026026248931885,STABILIZE
0.1,0.004,0.04,-0.012275187278999395,-0.0017423935553166183,-4.910074911599758e-05,-0.0002672775500821862,-0.002058771854514802,0.1,0.004,0.04,0.0017558721222885028,0.0005930597548972328,7.023488489154012e-06,1.2175966375872704e-05,0.0006122592097622595,0.002,8e-05,0,-0.537616145096254,-0.0014030810382720726,-4.300929160770032e-05,0.0,-0.001446090329879773,0.2,0.02,0,0.011765959432632497,0.005214753339312893,0.00023531918865264995,0.0,0.005450072527965543,0.005930597548972327,0.0,-0.005930597548972327,-0.01742393555316618,0.0,0.01742393555316618,-0.7015405191360363,0.0,0.7015405191360363,0.02607376669656446,0,-0.02607376669656446,-0.0020590502640107696,-0.0006113222547545631,-0.005450072527965543,0.4,0.03344368934631348,0.7360372543334961,STABILIZE
0.1,0.004,0.04,-0.012925759326430376,-0.001946080619639804,-5.17030373057215e-05,-0.00017123830167910793,-0.002169021958624634,0.1,0.004,0.04,0.0018657894988189968,0.0003287999800672947,7.463157995275987e-06,-0.0005950976409185844,-0.00025883450285601377,0.002,8e-05,0,-0.5608600139299853,-0.0013906051709844799,-4.486880111439883e-05,0.0,-0.0014354739720988787,0.2,0.02,0,0.012479263416358901,0.00426746603738486,0.00024958526832717805,0.0,0.004517051305712038,0.0032879998006729466,0.0,-0.0032879998006729466,-0.01946080619639804,0.0,0.01946080619639804,-0.6953025854922399,0.0,0.6953025854922399,0.0213373301869243,0,-0.0213373301869243,-0.0021689254165255033,0.00025964224312356423,-0.004517051305712038,0.4,0.033429861068725586,0.7694733142852783,STABILIZE
0.1,0.004,0.04,-0.013611876057807924,-0.0020511925693051736,-5.4447504231231695e-05,4.462909489663936e-06,-0.0021011771640467415,0.1,0.004,0.04,0.0019479888981923162,0.0002457406873862143,7.791955592769265e-06,-0.0006919853547610589,-0.0004384527117820753,0.002,8e-05,0,-0.5841617257436885,-0.0013932410022532429,-4.6732938059495084e-05,0.0,-0.001439973940312738,0.2,0.02,0,0.013199084137879563,0.004303905874006759,0.0002639816827575913,-0.0,0.0045678875567643495,0.002457406873862143,0.0,-0.002457406873862143,-0.020511925693051734,0.0,0.020511925693051734,-0.6966205011266214,0.0,0.6966205011266214,0.02151952937003379,0,-0.02151952937003379,-0.0021010123388677453,0.0004392418549114467,-0.0045678875567643495,0.4,0.033449649810791016,0.8029196262359619,STABILIZE
0.1,0.004,0.04,-0.014335304950973323,-0.0021633566002076205,-5.734121980389329e-05,-0.000349124109205268,-0.0025698219292167816,0.1,0.004,0.04,0.001997847642470663,0.00014909861153135535,7.991390569882653e-06,-0.001459755320421296,-0.001302665318320058,0.002,8e-05,0,-0.6072762386784172,-0.0013824422715308109,-4.858209909427338e-05,0.0,-0.0014310243706250841,0.2,0.02,0,0.0137859431402483,0.003509910395230502,0.000275718862804966,-0.0,0.003785629258035468,0.0014909861153135535,0.0,-0.0014909861153135535,-0.021633566002076204,0.0,0.021633566002076204,-0.6912211357654054,0.0,0.6912211357654054,0.01754955197615251,0,-0.01754955197615251,-0.0025694228055913224,0.0013034523871413854,-0.003785629258035468,0.4,0.03344011306762695,0.8363702297210693,STABILIZE
0.1,0.004,0.04,-0.015090386519514333,-0.0022582529204722038,-6.036154607805733e-05,-0.0009268660600481685,-0.0032454805265984296,0.1,0.004,0.04,0.0020176392258403515,5.919148712863956e-05,8.070556903361406e-06,-0.0014655263129495638,-0.0013982642689175629,0.002,8e-05,0,-0.6301289389632435,-0.0013669298605341886,-5.041031511705949e-05,0.0,-0.0014173401756512481,0.2,0.02,0,0.014242980453826324,0.0027337598774834584,0.0002848596090765265,-0.0,0.0030186194865599847,0.0005919148712863956,0.0,-0.0005919148712863956,-0.022582529204722035,0.0,0.022582529204722035,-0.6834649302670943,0.0,0.6834649302670943,0.013668799387417292,0,-0.013668799387417292,-0.0032451468565556285,0.0013990384889803107,-0.0030186194865599847,0.4,0.03343653678894043,0.8697972297668457,STABILIZE
0.1,0.004,0.04,-0.0158241426926111,-0.0021929261745197116,-6.32965707704444e-05,-0.0010780211551801864,-0.003334243900470342,0.1,0.004,0.04,0.002103933413528558,0.0002579014525925198,8.415733654114231e-06,-0.0008022561730097741,-0.0005359389867631401,0.002,8e-05,0,-0.6528665578153093,-0.0013590868834945358,-5.222932462522475e-05,0.0,-0.0014113162081197605,0.2,0.02,0,0.014652401697531644,0.002447217739747474,0.0002930480339506329,-0.0,0.002740265773698107,0.0025790145259251976,0.0,-0.0025790145259251976,-0.021929261745197114,0.0,0.021929261745197114,-0.6795434417472679,0.0,0.6795434417472679,0.01223608869873737,0,-0.01223608869873737,-0.0033341293692883364,0.0005366510357814847,-0.002740265773698107,0.4,0.033460140228271484,0.9032688140869141,STABILIZE
0.1,0.004,0.04,-0.016623687384249335,-0.0023899354316357807,-6.649474953699735e-05,-0.001061691265644055,-0.003518121446816833,0.1,0.004,0.04,0.0022069552707710566,0.0003079447458431448,8.827821083084226e-06,-5.019566775069218e-05,0.0002665768991755368,0.002,8e-05,0,-0.6755854259483509,-0.0013581886912804263,-5.4046834075868076e-05,0.0,-0.0014122355253562945,0.2,0.02,0,0.015015390736212494,0.002170035956492337,0.0003003078147242499,-0.0,0.002470343771216587,0.0030794474584314477,0.0,-0.0030794474584314477,-0.023899354316357806,0.0,0.023899354316357806,-0.6790943456402131,0.0,0.6790943456402131,0.010850179782461685,0,-0.010850179782461685,-0.0035181718657643314,-0.0002659106629508044,-0.002470343771216587,0.4,0.03345465660095215,0.9367809295654297,STABILIZE
0.1,0.004,0.04,-0.017487845756022472,-0.0025842521944754574,-6.995138302408988e-05,-0.0012751808254433978,-0.003929384402942945,0.1,0.004,0.04,0.0023266342344350193,0.000357898082786078,9.306536937740077e-06,0.00026796119258619725,0.0006351658123100153,0.002,8e-05,0,-0.6982904364393878,-0.0013579796274300127,-5.586323491515103e-05,0.0,-0.0014138428623451638,0.2,0.02,0,0.015333347780256378,0.0019016912076737923,0.00030666695560512756,-0.0,0.00220835816327892,0.0035789808278607798,0.0,-0.0035789808278607798,-0.025842521944754573,0.0,0.025842521944754573,-0.6789898137150063,0.0,0.6789898137150063,0.009508456038368961,0,-0.009508456038368961,-0.003929489757054739,-0.0006345137070391912,-0.00220835816327892,0.4,0.03343939781188965,0.9701697826385498,STABILIZE
0.1,0.004,0.04,-0.018482567905315717,-0.002971015309992416,-7.393027162126287e-05,-0.0019309875177176195,-0.0049759330993312985,0.1,0.004,0.04,0.0023605348595560505,0.00010125367804915083,9.442139438224202e-06,-0.00011407056283582396,-3.374745348448934e-06,0.002,8e-05,0,-0.7207520079751849,-0.0013417550411792389,-5.76601606380148e-05,0.0,-0.0013994152018172537,0.2,0.02,0,0.015493364450644156,0.0009558688884406218,0.00030986728901288314,-0.0,0.001265736177453505,0.0010125367804915083,0.0,-0.0010125367804915083,-0.029710153099924155,0.0,0.029710153099924155,-0.6708775205896195,0.0,0.6708775205896195,0.004779344442203109,0,-0.004779344442203109,-0.0049759328005143655,3.789814271585735e-06,-0.001265736177453505,0.4,0.03348088264465332,1.0036640167236328,STABILIZE
0.1,0.004,0.04,-0.01936121178870741,-0.002629595749238527,-7.744484715482964e-05,-0.0008865019491790584,-0.003593542545572415,0.1,0.004,0.04,0.0023933688098726797,9.826508533813742e-05,9.57347523949072e-06,9.388514757558385e-05,0.00020172370815321197,0.002,8e-05,0,-0.7431800979878457,-0.0013424508216724304,-5.9454407839027656e-05,0.0,-0.0014019052295114582,0.2,0.02,0,0.015682247924256716,0.0011305767642647482,0.00031364495848513433,-0.0,0.0014442217227498824,0.000982650853381374,0.0,-0.000982650853381374,-0.026295957492385266,0.0,0.026295957492385266,-0.6712254108362152,0.0,0.6712254108362152,0.005652883821323741,0,-0.005652883821323741,-0.0035935624304329725,-0.0002013691631080163,-0.0014442217227498824,0.4,0.03341364860534668,1.0370838642120361,STABILIZE
0.1,0.004,0.04,-0.020197175138491244,-0.0025016120189294603,-8.078870055396498e-05,-0.000736299927210035,-0.0033187006466934604,0.1,0.004,0.04,0.0023115912314531097,-0.00024471859096005053,9.246364925812439e-06,-0.001202311599005453,-0.001437783825039691,0.002,8e-05,0,-0.7655143390109571,-0.0013366998874180468,-6.124114712087658e-05,0.0,-0.0013979410345389234,0.2,0.02,0,0.015950897255694742,0.0016078609105925916,0.00031901794511389486,-0.0,0.0019268788557064865,-0.0024471859096005053,0.0,0.0024471859096005053,-0.0250161201892946,0.0,0.0250161201892946,-0.6683499437090233,0.0,0.6683499437090233,0.008039304552962957,0,-0.008039304552962957,-0.0033184988752212705,0.0014382494655185924,-0.0019268788557064865,0.4,0.0334169864654541,1.0704879760742188,STABILIZE
0.1,0.004,0.04,-0.021124545034617876,-0.002457400157188041,-8.449818013847151e-05,-0.00017146821310071742,-0.00271336655042723,0.1,0.004,0.04,0.0021964876027057564,-0.00030500847241006,8.785950410823026e-06,-0.0014497877301051993,-0.0017460102521044364,0.002,8e-05,0,-0.7904830694738181,-0.001323272675132036,-6.323864555790545e-05,0.0,-0.0013865113206899414,0.2,0.02,0,0.016218506240329472,0.0014182525519817453,0.0003243701248065895,-0.0,0.0017426226767883347,-0.0030500847241006,0.0,0.0030500847241006,-0.02457400157188041,0.0,0.02457400157188041,-0.6616363375660179,0.0,0.6616363375660179,0.007091262759908726,0,-0.007091262759908726,-0.0027131504331450403,0.00174634606093868,-0.0017426226767883347,0.4,0.03773784637451172,1.1082310676574707,STABILIZE
0.1,0.004,0.04,-0.021936239905117953,-0.0024296995733071296,-8.774495962047181e-05,0.00035974717868646243,-0.002157697354241139,0.1,0.004,0.04,0.0020726975946159486,-0.0003705487625543203,8.290790378463794e-06,-0.0017262443174590279,-0.0020885022896348845,0.002,8e-05,0,-0.8124866315153282,-0.00131729415194054,-6.499893052122626e-05,0.0,-0.001382293082461766,0.2,0.02,0,0.016423950683458286,0.0012299406931101293,0.00032847901366916574,-0.0,0.001558419706779295,-0.0037054876255432027,0.0,0.0037054876255432027,-0.024296995733071296,0.0,0.024296995733071296,-0.65864707597027,0.0,0.65864707597027,0.006149703465550646,0,-0.006149703465550646,-0.0021574731774874323,0.0020887338688142273,-0.001558419706779295,0.4,0.03340721130371094,1.141639232635498,STABILIZE
0.1,0.004,0.04,-0.02283475791426957,-0.0026875598532773337,-9.133903165707829e-05,0.000666858653875216,-0.002112040231059196,0.1,0.004,0.04,0.001978578145207387,-0.0002815209612569197,7.914312580829548e-06,-0.0008999791512421117,-0.001173585799918202,0.002,8e-05,0,-0.8345938115250716,-0.0013224970197194118,-6.676750492200573e-05,0.0,-0.0013892645246414176,0.2,0.02,0,0.016533038133072442,0.0006525835811710378,0.00033066076266144884,-0.0,0.0009832443438324867,-0.002815209612569197,0.0,0.002815209612569197,-0.026875598532773336,0.0,0.026875598532773336,-0.6612485098597058,0.0,0.6612485098597058,0.0032629179058551888,0,-0.0032629179058551888,-0.002111973393494903,0.0011737060758775395,-0.0009832443438324867,0.4,0.0334324836730957,1.175062656402588,STABILIZE
0.1,0.004,0.04,-0.023850809785960506,-0.002625320603741057,-9.540323914384203e-05,-2.1925449119201137e-05,-0.0027426492920041,0.1,0.004,0.04,0.001967951101832134,-2.7458633468653225e-05,7.871804407328536e-06,-0.00036765761798525387,-0.00038724444704657854,0.002,8e-05,0,-0.8601023117679476,-0.0013182002439837358,-6.880818494143582e-05,0.0,-0.0013870084289251718,0.2,0.02,0,0.016591793654354984,0.0003036303261759552,0.0003318358730870997,-0.0,0.000635466199263055,-0.00027458633468653224,0.0,0.00027458633468653224,-0.02625320603741057,0.0,0.02625320603741057,-0.6591001219918678,0.0,0.6591001219918678,0.0015181516308797759,0,-0.0015181516308797759,-0.002742639030324151,0.0003873171181881848,-0.000635466199263055,0.4,0.03870201110839844,1.2137811183929443,STABILIZE
0.1,0.004,0.04,-0.02470898187922243,-0.0025649056133630146,-9.883592751688972e-05,-0.0001838627751780781,-0.002847604316057983,0.1,0.004,0.04,0.0019712004958891867,9.711792217902779e-06,7.884801983556748e-06,0.0005423185815061059,0.0005599151757075655,0.002,8e-05,0,-0.8820969538914598,-0.0013147521689286373,-7.056775631131679e-05,0.0,-0.0013853199252399542,0.2,0.02,0,0.016619789183127343,0.00016734612896662776,0.00033239578366254683,-0.0,0.0004997419126291746,9.711792217902777e-05,0.0,-9.711792217902777e-05,-0.025649056133630145,0.0,0.025649056133630145,-0.6573760844643186,0.0,0.6573760844643186,0.0008367306448331388,0,-0.0008367306448331388,-0.0028476124925902162,-0.0005598735900753135,-0.0004997419126291746,0.4,0.03345823287963867,1.2472422122955322,STABILIZE
0.1,0.004,0.04,-0.02559625126116923,-0.0026508326989842456,-0.00010238500504467692,-0.0004829616382426945,-0.003236179342271617,0.1,0.004,0.04,0.002003175741841183,9.553020678076025e-05,8.012702967364732e-06,0.0008752413072060685,0.0009787842169541934,0.002,8e-05,0,-0.9041569314567194,-0.0013181410529582614,-7.233255451653756e-05,0.0,-0.001390473607474799,0.2,0.02,0,0.016761457573110605,0.0008465054880088205,0.0003352291514622121,-0.0,0.0011817346394710326,0.0009553020678076025,0.0,-0.0009553020678076025,-0.026508326989842453,0.0,0.026508326989842453,-0.6590705264791307,0.0,0.6590705264791307,0.0042325274400441025,0,-0.0042325274400441025,-0.0032362516377385827,-0.0009785451527336527,-0.0011817346394710326,0.4,0.03347134590148926,1.280754804611206,STABILIZE
0.1,0.004,0.04,-0.02654514506946039,-0.00283619623856482,-0.00010618058027784157,-0.0009925299154831327,-0.003934906734325794,0.1,0.004,0.04,0.0020691669897591343,0.00019724454674243378,8.276667959036537e-06,0.0012754054205738113,0.0014809266352752816,0.002,8e-05,0,-0.9269133913304531,-0.001360358458090617,-7.415307130643625e-05,-0.0,-0.0014345115293970532,0.2,0.02,0,0.017023659212141412,0.0015674152278513397,0.00034047318424282823,0.0,0.001907888412094168,0.0019724454674243377,0.0,-0.0019724454674243377,-0.0283619623856482,0.0,0.0283619623856482,-0.6801792290453085,0.0,0.6801792290453085,0.007837076139256698,0,-0.007837076139256698,-0.003935109262780678,-0.0014803883939317935,-0.001907888412094168,0.4,0.03345656394958496,1.314204454421997,STABILIZE
0.1,0.004,0.04,-0.027707619907043415,-0.003469535448530091,-0.00011083047962817367,-0.0018877176555502876,-0.005468083583708552,0.1,0.004,0.04,0.0019471708265943778,-0.00036411111793596473,7.788683306377511e-06,-0.0002779703677689749,-0.0006342928023985621,0.002,8e-05,0,-0.9503344884994106,-0.0013980573900441435,-7.602675907995286e-05,-0.0,-0.0014740841491240964,0.2,0.02,0,0.01743121000523603,0.0024327613433049265,0.00034862420010472057,0.0,0.002781385543409647,-0.003641111179359647,0.0,0.003641111179359647,-0.03469535448530091,0.0,0.03469535448530091,-0.6990286950220718,0.0,0.6990286950220718,0.01216380671652463,0,-0.01216380671652463,-0.005467948801088761,0.0006354536539115744,-0.002781385543409647,0.4,0.03350520133972168,1.3476786613464355,STABILIZE
0.1,0.004,0.04,-0.028902504479003745,-0.003577798897551004,-0.00011561001791601498,-0.0022757063259555214,-0.0059691152414225405,0.1,0.004,0.04,0.0016926344797139098,-0.0007621488155642814,6.770537918855639e-06,-0.0017566002220857932,-0.002511978499731219,0.002,8e-05,0,-0.9734715416757341,-0.0013855685358966628,-7.787772333405873e-05,-0.0,-0.0014634462592307215,0.2,0.02,0,0.01784082429277217,0.002452985971630073,0.00035681648585544337,0.0,0.002809802457485516,-0.007621488155642814,0.0,0.007621488155642814,-0.03577798897551004,0.0,0.03577798897551004,-0.6927842679483314,0.0,0.6927842679483314,0.012264929858150362,0,-0.012264929858150362,-0.0059685773819849785,0.002513256211322698,-0.002809802457485516,0.4,0.03339719772338867,1.3810741901397705,STABILIZE
0.1,0.004,0.04,-0.029991009635309023,-0.0032533484861806254,-0.0001199640385412361,-0.0016443813329211372,-0.0050176938576429984,0.1,0.004,0.04,0.0015539673696921181,-0.0004144513508817175,6.215869478768473e-06,-0.0010141114773320045,-0.0014223469587349535,0.002,8e-05,0,-0.9965159419765799,-0.0013775123507576753,-7.97212753581264e-05,-0.0,-0.0014572336261158016,0.2,0.02,0,0.018295370382209117,0.0027171149781017286,0.00036590740764418236,0.0,0.003083022385745911,-0.004144513508817175,0.0,0.004144513508817175,-0.03253348486180625,0.0,0.03253348486180625,-0.6887561753788376,0.0,0.6887561753788376,0.013585574890508642,0,-0.013585574890508642,-0.00501735645961994,0.0014235366792467654,-0.003083022385745911,0.4,0.03345799446105957,1.4145524501800537,STABILIZE
0.1,0.004,0.04,-0.03101973069412531,-0.0030750150387176094,-0.00012407892277650125,-0.0010125524461871368,-0.004211646407681248,0.1,0.004,0.04,0.001542039690999562,-3.56537771267219e-05,6.168158763998249e-06,-0.0003133962324143962,-0.00034288185077711983,0.002,8e-05,0,-1.0195379737977806,-0.0013763321643961743,-8.156303790382245e-05,-0.0,-0.0014578952022999967,0.2,0.02,0,0.018829792347655347,0.0031949488477646896,0.00037659584695310695,0.0,0.0035715446947177966,-0.000356537771267219,0.0,0.000356537771267219,-0.030750150387176094,0.0,0.030750150387176094,-0.6881660821980872,0.0,0.6881660821980872,0.015974744238823446,0,-0.015974744238823446,-0.004211550644449224,0.0003440560945049841,-0.0035715446947177966,0.4,0.033454179763793945,1.4480013847351074,STABILIZE
0.1,0.004,0.04,-0.03207055581611287,-0.0031337177561219925,-0.00012828222326445148,-0.0007093667806963504,-0.003971366760082794,0.1,0.004,0.04,0.0012671650458224591,-0.0008197173233449014,5.068660183289836e-06,-0.0024271673571116814,-0.003241816020273293,0.002,8e-05,0,-1.0424922785485002,-0.0013690634316147826,-8.339938228388003e-05,-0.0,-0.0014524628138986625,0.2,0.02,0,0.019223312849328125,0.002347074042458267,0.0003844662569865625,0.0,0.00273154029944483,-0.008197173233449014,0.0,0.008197173233449014,-0.031337177561219925,0.0,0.031337177561219925,-0.6845317158073913,0.0,0.6845317158073913,0.011735370212291336,0,-0.011735370212291336,-0.003970702685274837,0.0032426293709800196,-0.00273154029944483,0.4,0.03353285789489746,1.4815342426300049,STABILIZE
0.1,0.004,0.04,-0.033195932151238325,-0.003172967870774805,-0.0001327837286049533,0.0007143185694683,-0.0025914330299114585,0.1,0.004,0.04,0.0007091691004582333,-0.001573254342926926,2.836676401832933e-06,-0.002786486275938073,-0.004356903942463166,0.002,8e-05,0,-1.0665328222674988,-0.0013556331412964402,-8.53226257813999e-05,0.0,-0.00144095576707784,0.2,0.02,0,0.01948902559244988,0.0014983396584161961,0.00038978051184899765,-0.0,0.0018881201702651937,-0.01573254342926926,0.0,0.01573254342926926,-0.03172967870774805,0.0,0.03172967870774805,-0.6778165706482201,0.0,0.6778165706482201,0.007491698292080981,0,-0.007491698292080981,-0.0025908633216491558,0.004357242747529712,-0.0018881201702651937,0.4,0.03546762466430664,1.5170071125030518,STABILIZE
0.1,0.004,0.04,-0.0342795635723534,-0.003138737071743332,-0.0001371182542894136,0.0010529735518521374,-0.0022228817741806084,0.1,0.004,0.04,0.0003151040690517032,-0.0011414088763507968,1.2604162762068128e-06,-0.0008323506848708129,-0.001972499144945403,0.002,8e-05,0,-1.089880088112123,-0.0013525065331708623,-8.719040704896984e-05,0.0,-0.0014396969402198322,0.2,0.02,0,0.019746883614160188,0.001493770882272311,0.00039493767228320376,-0.0,0.0018887085545555146,-0.011414088763507968,0.0,0.011414088763507968,-0.03138737071743332,0.0,0.03138737071743332,-0.6762532665854312,0.0,0.6762532665854312,0.007468854411361554,0,-0.007468854411361554,-0.0022226246279975145,0.0019727888943862153,-0.0018887085545555146,0.4,0.03452444076538086,1.551516056060791,STABILIZE
0.1,0.004,0.04,-0.035283198725283516,-0.0030011841586700706,-0.00014113279490113407,0.0006062549632236399,-0.002536061990347565,0.1,0.004,0.04,-0.00016143068040341216,-0.0014249884900355678,-6.457227216136486e-07,-0.002342109084875864,-0.0037677432976330454,0.002,8e-05,0,-1.1122756532236169,-0.0013393953976372891,-8.898205225788936e-05,0.0,-0.0014283774498951786,0.2,0.02,0,0.020019365762942304,0.001629614319621603,0.0004003873152588461,-0.0,0.002030001634880449,-0.014249884900355676,0.0,0.014249884900355676,-0.030011841586700706,0.0,0.030011841586700706,-0.6696976988186446,0.0,0.6696976988186446,0.008148071598108014,0,-0.008148071598108014,-0.002535526151379467,0.003768103914625394,-0.002030001634880449,0.4,0.03344130516052246,1.584960699081421,STABILIZE
0.1,0.004,0.04,-0.03617600596353447,-0.002664303328062375,-0.00014470402385413788,0.0009840529410392255,-0.001824954410877287,0.1,0.004,0.04,-0.0007853258511846685,-0.001861819560436074,-3.1413034047386737e-06,-0.004290807586055941,-0.006155768449896754,0.002,8e-05,0,-1.1345556110467196,-0.0013297509973927114,-9.076444888373758e-05,0.0,-0.001420515446276449,0.2,0.02,0,0.0203405331328502,0.0019168466738396289,0.000406810662657004,-0.0,0.002323657336496633,-0.01861819560436074,0.0,0.01861819560436074,-0.026643033280623746,0.0,0.026643033280623746,-0.6648754986963556,0.0,0.6648754986963556,0.009584233369198144,0,-0.009584233369198144,-0.0018239246703882813,0.006156073635627969,-0.002323657336496633,0.4,0.03350996971130371,1.6184568405151367,STABILIZE
0.1,0.004,0.04,-0.037083349861283386,-0.0027087434088542556,-0.00014833339944513355,0.0010179656461755378,-0.0018391111621238515,0.1,0.004,0.04,-0.001300454499232175,-0.0015378417528045273,-5.2018179969287e-06,-0.0016465007824803385,-0.0031895443532817943,0.002,8e-05,0,-1.1568519425196553,-0.0013312491783717666,-9.254815540157242e-05,0.0,-0.0014237973337733391,0.2,0.02,0,0.0206720501889664,0.0019793920318534205,0.000413441003779328,-0.0,0.0023928330356327485,-0.015378417528045273,0.0,0.015378417528045273,-0.027087434088542552,0.0,0.027087434088542552,-0.6656245891858833,0.0,0.6656245891858833,0.009896960159267101,0,-0.009896960159267101,-0.001838560190210644,0.0031898619837185623,-0.0023928330356327485,0.4,0.033496856689453125,1.6519708633422852,STABILIZE
0.1,0.004,0.04,-0.03798073133812403,-0.0026810057039543993,-0.00015192292535249613,0.0011727924048984544,-0.001660136224408441,0.1,0.004,0.04,-0.0019694510718276633,-0.001998685813494845,-7.877804287310654e-06,-0.001048288702201296,-0.0030548523199834515,0.002,8e-05,0,-1.1788753112740933,-0.001315934834287303,-9.431002490192747e-05,0.0,-0.0014102448591892306,0.2,0.02,0,0.02115019872524015,0.0028570212026228724,0.00042300397450480305,0.0,0.0032800251771276756,-0.019986858134948448,0.0,0.019986858134948448,-0.02681005703954399,0.0,0.02681005703954399,-0.6579674171436515,0.0,0.6579674171436515,0.01428510601311436,0,-0.01428510601311436,-0.0016593745305187862,0.0030552661337380983,-0.0032800251771276756,0.4,0.03347182273864746,1.685441493988037,STABILIZE
0.1,0.004,0.04,-0.03892077132989614,-0.002789219998478853,-0.00015568308531958456,0.0008366042068768349,-0.0021082988769216024,0.1,0.004,0.04,-0.0028004478470169914,-0.002465674699286003,-1.1201791388067966e-05,-0.003157453633754724,-0.005634330124428795,0.002,8e-05,0,-1.200831562622061,-0.0013029406384282057,-9.606652500976488e-05,0.0,-0.0013990071634379707,0.2,0.02,0,0.021528790847130372,0.0022466633906757043,0.00043057581694260746,0.0,0.002677239207618312,-0.024656746992860027,0.0,0.024656746992860027,-0.027892199984788528,0.0,0.027892199984788528,-0.6514703192141028,0.0,0.6514703192141028,0.011233316953378522,0,-0.011233316953378522,-0.00210719417884639,0.005634743365771913,-0.002677239207618312,0.4,0.03370261192321777,1.7191529273986816,STABILIZE
0.1,0.004,0.04,-0.03990328578368271,-0.0029113546666677407,-0.00015961314313473087,0.0002180187348438879,-0.0028529490749585836,0.1,0.004,0.04,-0.0037976035447894706,-0.002954739121562933,-1.5190414179157883e-05,-0.0036384037321533624,-0.006608333267895453,0.002,8e-05,0,-1.2227180401203275,-0.0012970658732993617,-9.78174432096262e-05,0.0,-0.0013948833165089878,0.2,0.02,0,0.021808445715661044,0.0016573283037523289,0.00043616891431322085,0.0,0.0020934972180655497,-0.029547391215629326,0.0,0.029547391215629326,-0.029113546666677405,0.0,0.029113546666677405,-0.6485329366496808,0.0,0.6485329366496808,0.008286641518761644,0,-0.008286641518761644,-0.002851993287312134,0.006608745818459609,-0.0020934972180655497,0.4,0.03374767303466797,1.7529218196868896,STABILIZE
0.1,0.004,0.04,-0.040704892714959126,-0.0023985440862061835,-0.0001628195708598365,0.0006412996306666754,-0.001920064026399345,0.1,0.004,0.04,-0.004747997928128993,-0.002843741413379247,-1.8991991712515973e-05,-0.0023298362215344063,-0.005192569626626169,0.002,8e-05,0,-1.2443506537509035,-0.0012945690828840741,-9.954805230007229e-05,0.0,-0.0013941171351841465,0.2,0.02,0,0.02210546865866633,0.0017774861858504132,0.0004421093731733266,-0.0,0.0022195955590237396,-0.028437414133792468,0.0,0.028437414133792468,-0.023985440862061835,0.0,0.023985440862061835,-0.6472845414420371,0.0,0.6472845414420371,0.008887430929252066,0,-0.008887430929252066,-0.0019192585582203001,0.005192867394757123,-0.0022195955590237396,0.4,0.033420562744140625,1.7863171100616455,STABILIZE
0.1,0.004,0.04,-0.04140037582536778,-0.002079431140074608,-0.0001656015033014711,0.0015107300650821316,-0.0007343025782939475,0.1,0.004,0.04,-0.005674300774990092,-0.002769561123879682,-2.269720309996037e-05,-0.0029261533232043447,-0.005718411650183987,0.002,8e-05,0,-1.265893831083845,-0.0012882427518892765,-0.00010127150648670761,0.0,-0.0013895142583759841,0.2,0.02,0,0.022480461940408574,0.002242391499386419,0.0004496092388081715,0.0,0.0026920007381945905,-0.027695611238796818,0.0,0.027695611238796818,-0.020794311400746078,0.0,0.020794311400746078,-0.6441213759446383,0.0,0.6441213759446383,0.011211957496932096,0,-0.011211957496932096,-0.000733183553576173,0.005718555233117409,-0.0026920007381945905,0.4,0.03344583511352539,1.8197910785675049,STABILIZE
0.1,0.004,0.04,-0.042255922533979196,-0.002485935463436327,-0.00016902369013591678,0.0004995014322302177,-0.002155457721342026,0.1,0.004,0.04,-0.006730257593573406,-0.003068260887163242,-2.6921030374293625e-05,-0.0025190418404490702,-0.0056142237579866056,0.002,8e-05,0,-1.288045519308291,-0.0012873094309838848,-0.00010304364154466328,0.0,-0.001390353072528548,0.2,0.02,0,0.022940837901106365,0.0026754002223203397,0.0004588167580221273,-0.0,0.003134216980342467,-0.030682608871632416,0.0,0.030682608871632416,-0.024859354634363267,0.0,0.024859354634363267,-0.6436547154919424,0.0,0.6436547154919424,0.013377001111601698,0,-0.013377001111601698,-0.002154146894552826,0.0056147268455306555,-0.003134216980342467,0.4,0.034415483474731445,1.8542425632476807,STABILIZE
0.1,0.004,0.04,-0.04326210472238948,-0.003009229678185719,-0.00017304841888955792,-0.0004956596450592989,-0.0036779377421345756,0.1,0.004,0.04,-0.007941602863112258,-0.0036228191848490725,-3.176641145244903e-05,-0.0027373807023066917,-0.0063919662986082135,0.002,8e-05,0,-1.3103949936993906,-0.0013368295007449554,-0.00010483159949595125,-0.0,-0.0014416611002409066,0.2,0.02,0,0.023495223095590805,0.003316044349831176,0.00046990446191181613,0.0,0.003785948811742992,-0.03622819184849072,0.0,0.03622819184849072,-0.030092296781857188,0.0,0.030092296781857188,-0.6684147503724777,0.0,0.6684147503724777,0.01658022174915588,0,-0.01658022174915588,-0.003676087884406949,0.006393030350598816,-0.003785948811742992,0.4,0.03343653678894043,1.887617588043213,STABILIZE
0.1,0.004,0.04,-0.044108783175850694,-0.002531329040399015,-0.00017643513270340278,0.0009368948780275113,-0.0017708692950749066,0.1,0.004,0.04,-0.009233019039350454,-0.0038609690098870015,-3.6932076157401814e-05,-0.002147637434271581,-0.006045538520315984,0.002,8e-05,0,-1.3335717080353364,-0.001385836377901857,-0.00010668573664282692,-0.0,-0.0014925221145446839,0.2,0.02,0,0.024024593206816623,0.0031653337348723533,0.00048049186413633247,0.0,0.0036458255990086856,-0.03860969009887001,0.0,0.03860969009887001,-0.02531329040399015,0.0,0.02531329040399015,-0.6929181889509285,0.0,0.6929181889509285,0.015826668674361766,0,-0.015826668674361766,-0.0017691992836774886,0.006046027452426803,-0.0036458255990086856,0.4,0.033447980880737305,1.9210948944091797,STABILIZE
0.1,0.004,0.04,-0.04501464619102632,-0.0027097807393060497,-0.00018005858476410528,-0.0007176917166282826,-0.003607531040698438,0.1,0.004,0.04,-0.010274587301829409,-0.0031157267368849754,-4.1098349207317636e-05,-0.0006298942125631107,-0.003786719298655404,0.002,8e-05,0,-1.356204708883515,-0.0013540782379596597,-0.0001084963767106812,-0.0,-0.0014625746146703408,0.2,0.02,0,0.024885266042027405,0.005149199454281594,0.0004977053208405481,0.0,0.005646904775122142,-0.03115726736884975,0.0,0.03115726736884975,-0.027097807393060495,0.0,0.027097807393060495,-0.6770391189798298,0.0,0.6770391189798298,0.02574599727140797,0,-0.02574599727140797,-0.003605829105056951,0.003788339969107342,-0.005646904775122142,0.4,0.03342938423156738,1.9544918537139893,STABILIZE
0.1,0.004,0.04,-0.045782083703202435,-0.0022941593983695197,-0.00018312833481280973,-0.0004870278058014597,-0.002964315538983789,0.1,0.004,0.04,-0.011225366559716522,-0.0028422368409793887,-4.490146623886609e-05,-0.0001532767201726823,-0.003040415027390937,0.002,8e-05,0,-1.3786012782131134,-0.0013390354055807865,-0.00011028810225704909,-0.0,-0.0014493235078378356,0.2,0.02,0,0.025553481452326183,0.00399509442619086,0.0005110696290465237,0.0,0.004506164055237383,-0.028422368409793886,0.0,0.028422368409793886,-0.022941593983695198,0.0,0.022941593983695198,-0.6695177027903932,0.0,0.6695177027903932,0.019975472130954297,0,-0.019975472130954297,-0.0029632553553719985,0.003041448314915865,-0.004506164055237383,0.4,0.03345179557800293,1.9879541397094727,STABILIZE
0.1,0.004,0.04,-0.046711262278774125,-0.002744644118620115,-0.0001868450491150965,-0.0006066217774572957,-0.0035381109451925073,0.1,0.004,0.04,-0.01229298653757814,-0.003153577762333107,-4.9171946150312564e-05,-0.00019465944951211012,-0.0033974091579955295,0.002,8e-05,0,-1.4018946626749391,-0.0013760982516535538,-0.00011215157301399514,-0.0,-0.001488249824667549,0.2,0.02,0,0.02647873830213592,0.005466119942511169,0.0005295747660427184,0.0,0.005995694708553888,-0.03153577762333107,0.0,0.03153577762333107,-0.02744644118620115,0.0,0.02744644118620115,-0.6880491258267769,0.0,0.6880491258267769,0.027330599712555845,0,-0.027330599712555845,-0.003536489948147073,0.0033990964820048318,-0.005995694708553888,0.4,0.03385424613952637,2.0218284130096436,STABILIZE
0.1,0.004,0.04,-0.047553463828886755,-0.00251882412575662,-0.00019021385531554702,0.0011857069497863497,-0.0015233310312858174,0.1,0.004,0.04,-0.013248842757889817,-0.0028587381585246535,-5.299537103155927e-05,0.0018376084476543681,-0.0010741250819018447,0.002,8e-05,0,-1.4245888824374628,-0.0013574600579973552,-0.00011396711059499704,-0.0,-0.0014714271685923523,0.2,0.02,0,0.02693266201507143,0.0027151552956464773,0.0005386532403014287,-0.0,0.003253808535947906,-0.028587381585246534,0.0,0.028587381585246534,-0.0251882412575662,0.0,0.0251882412575662,-0.6787300289986776,0.0,0.6787300289986776,0.013575776478232385,0,-0.013575776478232385,-0.0015230764831840743,0.001074485992845225,-0.003253808535947906,0.4,0.03343629837036133,2.0552544593811035,STABILIZE
0.1,0.004,0.04,-0.04840804916702038,-0.0022993076541633264,-0.0001936321966680815,0.0005151734527712368,-0.0019777663980601714,0.1,0.004,0.04,-0.014204595291769326,-0.00257150341642245,-5.68183811670773e-05,0.003025465303289293,0.0003971435056997659,0.002,8e-05,0,-1.4494901586286009,-0.0013399643637641298,-0.00011595921269028808,0.0,-0.0014559235764544179,0.2,0.02,0,0.026936654319685626,2.148301906798912e-05,0.0005387330863937125,-0.0,0.0005602161054617016,-0.0257150341642245,0.0,0.0257150341642245,-0.022993076541633264,0.0,0.022993076541633264,-0.6699821818820649,0.0,0.6699821818820649,0.0001074150953399456,0,-0.0001074150953399456,-0.0019777671426003235,-0.0003971397978872882,-0.0005602161054617016,0.4,0.03716707229614258,2.092416763305664,STABILIZE
0.1,0.004,0.04,-0.04918402268653518,-0.0022917782183536854,-0.0001967360907461407,0.0009600170524506761,-0.0015284972566491496,0.1,0.004,0.04,-0.014943416291142798,-0.0021820511023174657,-5.9773665164571194e-05,0.002162196894615235,-7.962787286680192e-05,0.002,8e-05,0,-1.4719572370957281,-0.0013270958290741899,-0.00011775657896765826,0.0,-0.001444852408041848,0.2,0.02,0,0.027074865671384552,0.000816393233498173,0.0005414973134276911,-0.0,0.001357890546925864,-0.021820511023174654,0.0,0.021820511023174654,-0.022917782183536854,0.0,0.022917782183536854,-0.6635479145370949,0.0,0.6635479145370949,0.004081966167490864,0,-0.004081966167490864,-0.0015284915797818452,7.973676854041029e-05,-0.001357890546925864,0.4,0.0338590145111084,2.1262810230255127,STABILIZE
0.1,0.004,0.04,-0.05001236662510802,-0.0024751378829597926,-0.0002000494665004321,-0.00047225289066061475,-0.0031474402401208395,0.1,0.004,0.04,-0.015665477444453176,-0.0021575589934916812,-6.266190977781271e-05,0.001566692585756563,-0.0006535283175129311,0.002,8e-05,0,-1.4939983963067933,-0.0013172042579716037,-0.00011951987170454347,0.0,-0.001436724129676147,0.2,0.02,0,0.02741161800668482,0.0020124695152907855,0.0005482323601336965,-0.0,0.002560701875424482,-0.02157558993491681,0.0,0.02157558993491681,-0.024751378829597926,0.0,0.024751378829597926,-0.6586021289858018,0.0,0.6586021289858018,0.010062347576453927,0,-0.010062347576453927,-0.0031473254182243574,0.0006540810643353644,-0.002560701875424482,0.4,0.03346657752990723,2.1597561836242676,STABILIZE
0.1,0.004,0.04,-0.05085846548054457,-0.0025245396051510457,-0.00020343386192217829,0.00047435311300365895,-0.0022536203540695653,0.1,0.004,0.04,-0.016436416951708922,-0.0023002835977583053,-6.57456678068357e-05,0.0019617308347105243,-0.0004042984308546167,0.002,8e-05,0,-1.515741628668268,-0.0012975233541055475,-0.00012125933029346144,0.0,-0.001418782684399009,0.2,0.02,0,0.02776410695219235,0.002103471237654735,0.000555282139043847,-0.0,0.002658753376698582,-0.023002835977583052,0.0,0.023002835977583052,-0.025245396051510455,0.0,0.025245396051510455,-0.6487616770527738,0.0,0.6487616770527738,0.010517356188273673,0,-0.010517356188273673,-0.0022535461020735757,0.0004047121042137634,-0.002658753376698582,0.4,0.033514976501464844,2.193265914916992,STABILIZE
0.1,0.004,0.04,-0.05178672301265355,-0.002772737118692771,-0.00020714689205061422,-0.0006590455081341998,-0.0036389295188775845,0.1,0.004,0.04,-0.01709573587217917,-0.0019694082521375922,-6.838294348871668e-05,0.0020469636568297583,9.172461203449563e-06,0.002,8e-05,0,-1.538103762077617,-0.0013359292052581497,-0.00012304830096620937,0.0,-0.001458977506224359,0.2,0.02,0,0.02813683902635737,0.0022267270054176515,0.0005627367805271475,-0.0,0.002789463785944799,-0.019694082521375923,0.0,0.019694082521375923,-0.027727371186927707,0.0,0.027727371186927707,-0.6679646026290749,0.0,0.6679646026290749,0.011133635027088256,0,-0.011133635027088256,-0.003638931232554823,-8.465349385371525e-06,-0.002789463785944799,0.4,0.0334780216217041,2.226750373840332,STABILIZE
0.1,0.004,0.04,-0.052426665618588865,-0.0019121024625787346,-0.00020970666247435547,0.0009256693700873844,-0.0011961397549657055,0.1,0.004,0.04,-0.017656247144209186,-0.0016747673519647982,-7.062498857683674e-05,0.0021329999305523062,0.0003876075900106713,0.002,8e-05,0,-1.5600426506260956,-0.0013110364095378574,-0.00012480341205008764,0.0,-0.001435839821587945,0.2,0.02,0,0.028398533619666814,0.0015638492316953458,0.0005679706723933363,0.0,0.002131819904088682,-0.016747673519647982,0.0,0.016747673519647982,-0.019121024625787346,0.0,0.019121024625787346,-0.6555182047689287,0.0,0.6555182047689287,0.007819246158476728,0,-0.007819246158476728,-0.0011961926412510865,-0.00038744434730687247,-0.002131819904088682,0.4,0.033468008041381836,2.260221004486084,STABILIZE
0.1,0.004,0.04,-0.05326519723791075,-0.00250936915391186,-0.000213060788951643,-0.0005220132375334607,-0.0032444431803969635,0.1,0.004,0.04,-0.01827500574388774,-0.001851681806592717,-7.310002297555096e-05,0.0007892820357908087,-0.0011354997937774594,0.002,8e-05,0,-1.5816863517693667,-0.001295408181967747,-0.00012653490814154935,0.0,-0.0014219430901092963,0.2,0.02,0,0.028726029048961522,0.001960109575793588,0.0005745205809792305,0.0,0.002534630156772818,-0.01851681806592717,0.0,0.01851681806592717,-0.0250936915391186,0.0,0.0250936915391186,-0.6477040909838735,0.0,0.6477040909838735,0.00980054787896794,0,-0.00980054787896794,-0.00324424890361723,0.0011360547451031659,-0.002534630156772818,0.4,0.033416032791137695,2.2936384677886963,STABILIZE
0.1,0.004,0.04,-0.05431618182533078,-0.003100552748379934,-0.00021726472730132312,-0.001478962095333431,-0.004796779571014688,0.1,0.004,0.04,-0.018962999733454743,-0.0020296792938299334,-7.585199893381897e-05,0.00031064085455754945,-0.001794890438206203,0.002,8e-05,0,-1.6033938274117638,-0.0012808022889973336,-0.0001282715061929411,0.0,-0.0014090737951902748,0.2,0.02,0,0.0291249736869343,0.0023538858866701384,0.000582499473738686,0.0,0.0029363853604088244,-0.02029679293829933,0.0,0.02029679293829933,-0.031005527483799335,0.0,0.031005527483799335,-0.6404011444986668,0.0,0.6404011444986668,0.01176942943335069,0,-0.01176942943335069,-0.004796410771867855,0.0017958757322203327,-0.0029363853604088244,0.4,0.033896684646606445,2.3275644779205322,STABILIZE
0.1,0.004,0.04,-0.05509628232433498,-0.00233359387454377,-0.00022038512929733992,0.0004743850455174495,-0.0020795939583236603,0.1,0.004,0.04,-0.019478386862280473,-0.0015417298776012546,-7.79135474491219e-05,0.0018190455533238414,0.00019940212827346498,0.002,8e-05,0,-1.6245889077159734,-0.001268059939238689,-0.00012996711261727787,0.0,-0.0013980270518559668,0.2,0.02,0,0.029273625657246397,0.000889355481253986,0.000585472513144928,-0.0,0.001474827994398914,-0.015417298776012545,0.0,0.015417298776012545,-0.023335938745437698,0.0,0.023335938745437698,-0.6340299696193444,0.0,0.6340299696193444,0.00444677740626993,0,-0.00444677740626993,-0.0020796094278404784,-0.00019924072850011225,-0.001474827994398914,0.4,0.03342914581298828,2.3609848022460938,STABILIZE
0.1,0.004,0.04,-0.05559086193239615,-0.0014786214865991523,-0.0002223634477295846,0.0031123413600316154,0.0014113564257028784,0.1,0.004,0.04,-0.019799736211877396,-0.0009607230975036494,-7.919894484750958e-05,0.0024179837428137093,0.0013780617004625502,0.002,8e-05,0,-1.6458233089549663,-0.0012696698939985063,-0.0001316658647163973,0.0,-0.0014013357587149035,0.2,0.02,0,0.02886629080294552,-0.0024355798661861447,0.0005773258160589104,-0.0,-0.0018582540501272343,-0.009607230975036494,0.0,0.009607230975036494,-0.014786214865991522,0.0,0.014786214865991522,-0.6348349469992531,0.0,0.6348349469992531,-0.012177899330930723,0,0.012177899330930723,0.0014116492931730092,-0.0013777616933775896,0.0018582540501272343,0.4,0.03344869613647461,2.3944215774536133,STABILIZE
0.1,0.004,0.04,-0.056049214295313426,-0.0013692312589960324,-0.0002241968571812537,0.0013165540500013702,-0.00027687406617591596,0.1,0.004,0.04,-0.020145470015955916,-0.0010328070064326452,-8.058188006382366e-05,0.0015414226839010198,0.000428033797404551,0.002,8e-05,0,-1.666801527206455,-0.0012533602752764076,-0.0001333441221765164,0.0,-0.001386704397452924,0.2,0.02,0,0.027893268908749373,-0.005813396421658024,0.0005578653781749875,-0.0,-0.0052555310434830365,-0.01032807006432645,0.0,0.01032807006432645,-0.013692312589960322,0.0,0.013692312589960322,-0.6266801376382037,0.0,0.6266801376382037,-0.029066982108290118,0,0.029066982108290118,-0.0002766568827863254,-0.0004281742045573263,0.0052555310434830365,0.4,0.03347516059875488,2.4279558658599854,STABILIZE
0.1,0.004,0.04,-0.05632791909288092,-0.0008340808465558927,-0.0002253116763715237,0.004027683814946713,0.002968291292019297,0.1,0.004,0.04,-0.020489042360162982,-0.0010282101858688677,-8.195616944065192e-05,0.0019759721066180667,0.0008658057513085471,0.002,8e-05,0,-1.6881443257923738,-0.0012774533964097854,-0.00013505154606338992,0.0,-0.0014125049424731754,0.2,0.02,0,0.027160663986765945,-0.00438493875133931,0.0005432132797353189,-0.0,-0.003841725471603991,-0.010282101858688678,0.0,0.010282101858688678,-0.008340808465558926,0.0,0.008340808465558926,-0.6387266982048927,0.0,0.6387266982048927,-0.021924693756696548,0,0.021924693756696548,0.002968622382270075,-0.0008646698472606118,0.003841725471603991,0.4,0.033414602279663086,2.4613187313079834,STABILIZE
0.1,0.004,0.04,-0.0567976719459996,-0.0014034977425113207,-0.0002271906877839984,0.004061929683037381,0.0024312412527420614,0.1,0.004,0.04,-0.020984130344552675,-0.0014791924387947534,-8.39365213782107e-05,0.0013181333499891587,-0.0002449956101838054,0.002,8e-05,0,-1.7097439357430455,-0.0012906788581966877,-0.00013677951485944364,-0.0,-0.0014274583730561313,0.2,0.02,0,0.026237559226876477,-0.0055159875581596695,0.0005247511845375295,-0.0,-0.00499123637362214,-0.014791924387947533,0.0,0.014791924387947533,-0.014034977425113207,0.0,0.014034977425113207,-0.6453394290983439,0.0,0.6453394290983439,-0.027579937790798346,0,0.027579937790798346,0.0024311230398136297,0.0002461658857995135,0.00499123637362214,0.4,0.03347015380859375,2.494797706604004,STABILIZE
0.1,0.004,0.04,-0.0571126690092218,-0.0009339366219638288,-0.00022845067603688722,0.003340267680636349,0.002177880382635633,0.1,0.004,0.04,-0.02145727140729551,-0.0014028186844990108,-8.582908562918204e-05,0.00033156401171691456,-0.0011570837584112784,0.002,8e-05,0,-1.731752843809516,-0.0013050867866798012,-0.0001385402275047613,-0.0,-0.0014436270141845624,0.2,0.02,0,0.024660547019671752,-0.009351385301986512,0.000493210940393435,-0.0,-0.008858174361593078,-0.014028186844990107,0.0,0.014028186844990107,-0.009339366219638287,0.0,0.009339366219638287,-0.6525433933399005,0.0,0.6525433933399005,-0.04675692650993256,0,0.04675692650993256,0.002176935405101009,0.0011588606590380085,0.008858174361593078,0.4,0.03372788429260254,2.5285239219665527,STABILIZE
0.1,0.004,0.04,-0.05771477582475629,-0.0017993979428446037,-0.00023085910329902516,-0.0007737359474575238,-0.0028039929936011527,0.1,0.004,0.04,-0.022063578042646227,-0.001811949116394998,-8.825431217058491e-05,-0.002036192965819442,-0.003936396394385025,0.002,8e-05,0,-1.753405674701266,-0.001294190942807747,-0.0001402724539761013,-0.0,-0.0014344633967838484,0.2,0.02,0,0.02374601739065618,-0.005466148831616451,0.0004749203478131236,-0.0,-0.004991228483803327,-0.01811949116394998,0.0,0.01811949116394998,-0.017993979428446036,0.0,0.017993979428446036,-0.6470954714038735,0.0,0.6470954714038735,-0.027330744158082253,0,0.027330744158082253,-0.0028058703807604833,0.003935058409765069,0.004991228483803327,0.4,0.033461570739746094,2.56198787689209,STABILIZE
0.1,0.004,0.04,-0.05819118515091457,-0.0014224837102809777,-0.00023276474060365828,-0.00013483463916157712,-0.0017900830900462131,0.1,0.004,0.04,-0.022683964441118903,-0.0018523767219747118,-9.073585776447561e-05,-0.0019604929591777653,-0.003903605538916953,0.002,8e-05,0,-1.7749093179597863,-0.0012841302874400699,-0.00014199274543678293,-0.0,-0.0014261230328768528,0.2,0.02,0,0.022559858486037487,-0.007083369812387864,0.00045119716972074974,-0.0,-0.006632172642667114,-0.018523767219747116,0.0,0.018523767219747116,-0.014224837102809775,0.0,0.014224837102809775,-0.6420651437200349,0.0,0.6420651437200349,-0.03541684906193932,0,0.03541684906193932,-0.0017924957250737782,0.003902498270124504,0.006632172642667114,0.4,0.03349137306213379,2.595536947250366,STABILIZE
0.1,0.004,0.04,-0.058542219457381944,-0.0010496204540779573,-0.00023416887782952778,-0.0005241592871045651,-0.0018079486190120501,0.1,0.004,0.04,-0.02331686162793538,-0.00189241285074432,-9.326744651174152e-05,-0.00206726745990298,-0.0040529477571590415,0.002,8e-05,0,-1.7962214606352938,-0.001274499982497843,-0.00014369771685082352,0.0,-0.0014181976993486666,0.2,0.02,0,0.021108857718292164,-0.008677215056471302,0.0004221771543658433,-0.0,-0.008255037902105458,-0.0189241285074432,0.0,0.0189241285074432,-0.010496204540779572,0.0,0.010496204540779572,-0.6372499912489215,0.0,0.6372499912489215,-0.04338607528235651,0,0.04338607528235651,-0.0018110171134582556,0.004051577562630316,0.008255037902105458,0.4,0.03344392776489258,2.628932237625122,STABILIZE
