Mode,Time,Freq,time2delay,actualDelay,North-Desired,East-Desired,Down-Desired,Roll-UAV,Pitch-UAV,Yaw-UAV,Roll-Control,Pitch-Control,Yaw-Control,Thrust-Control,North-Pos,East-Pos,Down-Pos,Yaw-Ang,North-Vel,East-Vel,Down-Vel,Yaw-Vel,North-Acc,East-Acc,Down-Acc,North-Avg,East-Avg,Down-Avg,Yaw-Avg,North-Dif,East-Dif,Down-Dif,Yaw-Dif,North-One,East-One,Down-One,Yaw-One,North-Two,East-Two,Down-Two,Yaw-Two,Landing-State,Q-Size,Kalman-Time,Kalman-Dt
STABILIZE,0.034381866455078125,29.094178117824963,0.0327332337697347,0.032863616943359375,0.0,0.0,0.0,-1.8435130935462813,-1.5191303343894507,34.66857173631317,-0.04575197307412812,0.04535002072426688,0.0029375656506619085,0.4,0.029279729733213685,0.029509169049774207,0.03321562106162333,0.029182964103384224,-0.14042870607227087,0.06248975987546146,1.712626963853836,-0.007471960147729496,-3.861907124519348,0.1506132772192359,19.531939923763275,0.0,0.0,0.0,0.0,0.0,0.0,0.0,0.0,0.0,0.0,0.0,0.0,0.0,0.0,0.0,0.0,False,0,0.05855274200439453,0.0349208984375
STABILIZE,0.06843042373657227,29.373316619162004,0.03228453000386556,0.03240323066711426,0.0,0.0,0.0,-1.8437621820075751,-1.5195234971535496,34.67156335916964,-0.059794545453086434,0.058694847525371505,0.00755768623374819,0.4,0.07469012568359025,0.07589372583086063,0.09721424646517289,0.07488364990242424,0.013196893269196153,-0.024782269611023366,1.6817009076476097,-8.639122083008315e-05,-0.8160696364939213,-1.9257180392742157,19.847430288791656,0.0,0.0,0.0,0.0,0.0,0.0,0.0,0.0,0.0,0.0,0.0,0.0,0.0,0.0,0.0,0.0,False,0,0.11735272407531738,0.02993310546875
STABILIZE,0.10127568244934082,30.442258979960663,0.031709941228230794,0.03191208839416504,0.0,0.0,0.0,-1.843391644245102,-1.5192395106944652,34.676566472736674,-0.048511555102798976,0.04765815031233704,0.008985386609311119,0.4,0.08908363300830417,0.09040095568809552,0.12255468676284254,0.08856678398476699,0.07347105420194566,0.04180065880063921,1.5108530409634113,-0.10722498533559471,3.6040812730789185,0.3834124421700835,24.45574253797531,0.0,0.0,0.0,0.0,0.0,0.0,0.0,0.0,0.0,0.0,0.0,0.0,0.0,0.0,0.0,0.0,False,0,0.14598369598388672,0.034922119140625
STABILIZE,0.1347029209136963,29.91465597786162,0.0323973019917806,0.032536983489990234,0.0,0.0,0.0,-1.8432458623950045,-1.5187768720999024,34.679086812540405,-0.04389993548228192,0.04276388380477255,0.010756858331803152,0.4,0.1043514492589287,0.10673499246584578,0.153271222322625,0.10557521044606305,-0.04728775820694864,0.11154657695442438,1.6145184636116028,0.31094316134564043,0.7330319844186306,0.4514565225690603,27.06829309463501,0.0,0.0,0.0,0.0,0.0,0.0,0.0,0.0,0.0,0.0,0.0,0.0,0.0,0.0,0.0,0.0,False,0,0.1747303009033203,0.034828369140625
STABILIZE,0.1681365966796875,29.910176139199887,0.032436641057332356,0.032564640045166016,0.0,0.0,0.0,-1.8428302880726914,-1.5186216987396963,34.68361864305471,-0.04033593033824566,0.03938295445740795,0.012240071556839635,0.4,0.11761933308147066,0.11996760585296457,0.1817996276940071,0.11960724703064206,0.05183484172448516,-0.011477847874630243,1.3375820592045784,0.13606098346443735,-2.8738295659422874,0.21143208723515272,20.779800415039062,0.0,0.0,0.0,0.0,0.0,0.0,0.0,0.0,0.0,0.0,0.0,0.0,0.0,0.0,0.0,0.0,False,0,0.20353484153747559,0.02993310546875
STABILIZE,0.204575777053833,27.44604109409763,0.03244832356770833,0.03538703918457031,0.0,0.0,0.0,-1.8423299767159882,-1.5189947978231082,34.68584186962955,-0.03408456439721133,0.0330406286458277,0.012936938478169306,0.4,0.12564322072432269,0.12856772249920487,0.20640633142835638,0.1256647956618363,0.03844609891530126,0.09724671836011112,1.6632378101348877,-0.2793873672150642,0.3456802573055029,0.3034824738278985,23.017382621765137,0.0,0.0,0.0,0.0,0.0,0.0,0.0,0.0,0.0,0.0,0.0,0.0,0.0,0.0,0.0,0.0,False,0,0.23316740989685059,0.0349208984375
STABILIZE,0.23844408988952637,29.52383767993524,0.03224137624104818,0.032875776290893555,0.0,0.0,0.0,-1.8420806748112826,-1.5186920283438063,34.691678266275325,-0.023475687857252115,0.022204988085908955,0.013865808424407601,0.4,0.13387046342829473,0.13848866958959818,0.23555168220131173,0.13404272897186653,-0.149024766869843,0.03641150542534888,1.540640089660883,-0.12423677875280813,-0.007875636219978333,0.14071834739297628,21.866725385189056,0.0,0.0,0.0,0.0,0.0,0.0,0.0,0.0,0.0,0.0,0.0,0.0,0.0,0.0,0.0,0.0,False,0,0.2616758346557617,0.02993310546875
STABILIZE,0.2718391418457031,29.9432732464751,0.03234604199727376,0.032477378845214844,0.0,0.0,0.0,-1.8416209177027763,-1.5184675925965478,34.693952719268935,-0.022437165295039137,0.02035245961104064,0.014798956139241714,0.4,0.14110739084287768,0.14826143376875658,0.28184830969652314,0.14242188229568556,0.013728742487728596,0.060029426822438836,1.6019655391573906,0.11996174734304127,0.2408992499113083,0.19387429347261786,22.297967970371246,0.0,0.0,0.0,0.0,0.0,0.0,0.0,0.0,0.0,0.0,0.0,0.0,0.0,0.0,0.0,0.0,False,0,0.3204197883605957,0.034922119140625
STABILIZE,0.30530643463134766,29.882686539516527,0.032399686177571614,0.03251242637634277,0.0,0.0,0.0,-1.8410510237939033,-1.5180671727564559,34.69627839868133,-0.01936382709956765,0.016303517047207776,0.015549377503961955,0.4,0.14256265992960088,0.15362613775950032,0.3129530340048246,0.14893025298795443,-0.38045987021178007,-0.020864808175247163,1.8445316702127457,0.13372999464718538,-5.388366058468819,0.11840377701446414,26.60004496574402,0.0,0.0,0.0,0.0,0.0,0.0,0.0,0.0,0.0,0.0,0.0,0.0,0.0,0.0,0.0,0.0,False,0,0.3491063117980957,0.034921875
STABILIZE,0.33873653411865234,29.91038943442512,0.032353909810384114,0.03248739242553711,0.0,0.0,0.0,-1.8410787714374064,-1.5187412270501714,34.70209430475959,-0.016759426766962248,0.012247625068529784,0.016196452431579668,0.4,0.14220941536907267,0.15762313263169497,0.3438562714781827,0.15436839158805565,-0.38045987021178007,-0.020864808175247163,1.8445316702127457,0.13372999464718538,-5.388366058468819,0.11840377701446414,26.60004496574402,0.0,0.0,0.0,0.0,0.0,0.0,0.0,0.0,0.0,0.0,0.0,0.0,0.0,0.0,0.0,0.0,False,0,0.3775808811187744,0.034921875
STABILIZE,0.37514734268188477,27.464372241648004,0.032399686177571614,0.03556251525878906,0.0,0.0,0.0,-1.8418725674850087,-1.5177912971470109,34.70544792764207,-0.01440997634290587,0.010066521248351595,0.01630907062253295,0.4,0.14220941536907267,0.15762313263169497,0.3438562714781827,0.15436839158805565,-0.38045987021178007,-0.020864808175247163,1.8445316702127457,0.13372999464718538,-5.388366058468819,0.11840377701446414,26.60004496574402,0.0,0.0,0.0,0.0,0.0,0.0,0.0,0.0,0.0,0.0,0.0,0.0,0.0,0.0,0.0,0.0,False,0,0.3775808811187744,0.034921875
STABILIZE,0.40882134437561035,29.696500258427204,0.032468589146931966,0.03277182579040527,0.0,0.0,0.0,-1.8403082407216644,-1.5175682487819275,34.70914647507763,-0.012290884188028593,0.008737419748196381,0.0170039735666662,0.4,0.1454084185493719,0.15995975462951925,0.37105068703396293,0.16024022934028148,0.08628105279058218,-0.060341774951666594,1.5361418947577477,0.2609372920391408,2.0889850333333015,-0.007232313510030508,22.191211581230164,0.0,0.0,0.0,0.0,0.0,0.0,0.0,0.0,0.0,0.0,0.0,0.0,0.0,0.0,0.0,0.0,False,0,0.43713903427124023,0.02993310546875
STABILIZE,0.44269633293151855,29.52072072072072,0.03242352803548177,0.03296518325805664,0.0,0.0,0.0,-1.8397667347865292,-1.517693540064515,34.71097355068061,-0.009414754484000363,0.005476831538599188,0.016845519075092456,0.4,0.14199061571393573,0.16004824207446292,0.39019070911428105,0.15758796619919635,-0.2658873563632369,0.02058307727565989,1.4237544499337673,-0.23494951614472653,-7.694994658231735,1.7325380817055702,14.891579747200012,0.0,0.0,0.0,0.0,0.0,0.0,0.0,0.0,0.0,0.0,0.0,0.0,0.0,0.0,0.0,0.0,False,1,0.46274495124816895,0.034922119140625
STABILIZE,0.4761385917663574,29.902712722346987,0.03240493138631185,0.03253054618835449,0.0,0.0,0.0,-1.8402454883586647,-1.517633028857337,34.71265377721643,-0.009075603729054233,0.005964012320109146,0.017189484834651103,0.4,0.14467832280756787,0.1637502494282857,0.44270377590362053,0.1599576858816163,-0.14596935361623764,0.07544769323430955,1.6335509717464447,0.06214010057342398,1.018289476633072,-0.008494411304127425,19.584327936172485,0.0,0.0,0.0,0.0,0.0,0.0,0.0,0.0,0.0,0.0,0.0,0.0,0.0,0.0,0.0,0.0,False,0,0.5219449996948242,0.02993310546875
STABILIZE,0.5096664428710938,29.827010190512084,0.032173903783162434,0.03230714797973633,0.0,0.0,0.0,-1.840808978965191,-1.5172032605481551,34.71699094733939,-0.006970292079910552,0.0056132971142975755,0.017046724584513756,0.4,0.14322112347240704,0.16094662505855034,0.46438963206805367,0.1574761658622345,0.04082295345142484,-0.06724203703925014,1.8078263849020004,-0.0446846183345308,1.9160646945238113,-0.0892789161298424,24.43603426218033,0.0,0.0,0.0,0.0,0.0,0.0,0.0,0.0,0.0,0.0,0.0,0.0,0.0,0.0,0.0,0.0,False,0,0.5520985126495361,0.034921875
STABILIZE,0.5430552959442139,29.947549177108993,0.03233006795247396,0.03246641159057617,0.0,0.0,0.0,-1.8405297949828667,-1.516371685016706,34.71991085320957,-0.006443036029877937,0.005511509972542284,0.01701697470097717,0.4,0.14284002827708978,0.15928934596180455,0.49177775785062233,0.15613419233088607,0.04082295345142484,-0.06724203703925014,1.8078263849020004,-0.0446846183345308,1.9160646945238113,-0.0892789161298424,24.43603426218033,0.0,0.0,0.0,0.0,0.0,0.0,0.0,0.0,0.0,0.0,0.0,0.0,0.0,0.0,0.0,0.0,False,0,0.5792829990386963,0.034921875
STABILIZE,0.5765960216522217,29.81577263744544,0.032410415013631184,0.03254246711730957,0.0,0.0,0.0,-1.8406284058390088,-1.5158713736600025,34.72447683466972,-0.005042503632201795,0.00371327099950592,0.016653082621485855,0.4,0.14022263732947524,0.15711430787312566,0.5117617111514565,0.15148194737295995,-0.08780895150266588,-0.05620623123832047,1.3222921639680862,-0.23929490383902982,-4.1973743587732315,-0.28306348249316216,18.07234287261963,0.0,0.0,0.0,0.0,0.0,0.0,0.0,0.0,0.0,0.0,0.0,0.0,0.0,0.0,0.0,0.0,False,0,0.6079556941986084,0.06485400390625
STABILIZE,0.6172821521759033,24.5781121815156,0.03231647809346517,0.03968477249145508,0.0,0.0,0.0,-1.8400352465982754,-1.5159532292083369,34.72724989147275,-0.005836830271774395,0.0036118517973647837,0.015986461205038646,0.4,0.13617349529375983,0.15992366088851942,0.593745659132988,0.14364658815656658,-0.16530761495232582,0.027769204461947083,1.7475718632340431,-0.2934068374146178,-0.007589720189571381,-0.05826019332744181,24.452024698257446,0.0,0.0,0.0,0.0,0.0,0.0,0.0,0.0,0.0,0.0,0.0,0.0,0.0,0.0,0.0,0.0,False,0,0.6654648780822754,0.034922119140625
STABILIZE,0.6506974697113037,29.927249375668925,0.03231814702351888,0.03244638442993164,0.0,0.0,0.0,-1.838541142717335,-1.5134054619262165,34.732341797499,-0.004243098252600313,0.0010614317879270492,0.01569389875569907,0.4,0.13086403790028134,0.15840581586186728,0.6123332330008944,0.13978570046929414,-0.10018363827839494,0.1456524943932891,1.6171365976333618,0.00998330948151544,-4.030381143093109,1.8997084349393845,20.19013911485672,0.0,0.0,0.0,0.0,0.0,0.0,0.0,0.0,0.0,0.0,0.0,0.0,0.0,0.0,0.0,0.0,False,0,0.6939938068389893,0.034898193359375
STABILIZE,0.6841261386871338,29.915296064362437,0.03233483632405599,0.03246760368347168,0.0,0.0,0.0,-1.8385522417747364,-1.513727441312559,34.734121061777785,-0.004260357914404056,0.00024504181008445995,0.015092757462069133,0.4,0.127052498203559,0.15587806497386916,0.6265814086759236,0.13288581665523702,0.004474874003790319,0.09454635437577963,1.4085764065384865,-0.16561968097451213,-1.0357988066971302,-0.1824564184062183,17.623524367809296,0.0,0.0,0.0,0.0,0.0,0.0,0.0,0.0,0.0,0.0,0.0,0.0,0.0,0.0,0.0,0.0,False,0,0.7226047515869141,0.029932861328125
STABILIZE,0.718536376953125,29.059910069076373,0.032360108693440755,0.03349947929382324,0.0,0.0,0.0,-1.8378630329987997,-1.513597560996623,34.738492382846594,-0.0032763773284054426,-0.0023987648100831896,0.014806170005437227,0.4,0.11850528982096133,0.15126876002084502,0.6401578302092619,0.12913039237929974,-0.2434784546494484,0.031647764262743294,1.7764518037438393,0.06875156360743764,-2.113208547234535,-0.06847431068308651,23.770122230052948,0.0,0.0,0.0,0.0,0.0,0.0,0.0,0.0,0.0,0.0,0.0,0.0,0.0,0.0,0.0,0.0,False,0,0.7512280941009521,0.034922119140625
STABILIZE,0.7520394325256348,29.848448619413606,0.03243234952290853,0.03255105018615723,0.0,0.0,0.0,-1.8366135352675106,-1.5127510444263645,34.74112542077163,-0.0028092061166871984,-0.0034011713401385494,0.01448735801997664,0.4,0.11309599826462513,0.14785204533629517,0.654816605479604,0.1251046392574488,-0.08436967036686838,0.05062015843577683,1.5094274654984474,0.013413212536962319,2.0512282848358154,-0.011363848170731217,24.268387258052826,0.0,0.0,0.0,0.0,0.0,0.0,0.0,0.0,0.0,0.0,0.0,0.0,0.0,0.0,0.0,0.0,False,0,0.7800345420837402,0.034921875
STABILIZE,0.7865931987762451,28.939207230827613,0.03236344655354818,0.03362560272216797,0.0,0.0,0.0,-1.8364178076591073,-1.5123910721127638,34.74394628889885,-0.0009084467030290888,-0.003571375444733653,0.014059479449886163,0.4,0.10943295757213323,0.14404439734184388,0.6686045966479071,0.1199966094850783,0.023619741841685027,0.034615007461979985,1.5129076316952705,-0.0487468800135025,-2.787335589528084,-0.09380652336403728,20.493657886981964,0.0,0.0,0.0,0.0,0.0,0.0,0.0,0.0,0.0,0.0,0.0,0.0,0.0,0.0,0.0,0.0,False,1,0.8098254203796387,0.034921142578125
STABILIZE,0.8199925422668457,29.94134947602867,0.03239634831746419,0.03250885009765625,0.0,0.0,0.0,-1.836076084757195,-1.5110180973678853,34.74860789300738,0.0013598304102679269,-0.004430689131908584,0.013860205898279191,0.4,0.1020467042623574,0.13583536160780646,0.6888188231242892,0.11722020442378571,0.02873981138691306,0.042190292151644826,1.5377509407699108,0.1842193266210882,-1.660062000155449,-0.058660784270614386,20.78416496515274,0.0,0.0,0.0,0.0,0.0,0.0,0.0,0.0,0.0,0.0,0.0,0.0,0.0,0.0,0.0,0.0,False,0,0.8661653995513916,0.029932861328125
STABILIZE,0.8534691333770752,29.870768792507924,0.03243234952290853,0.03255319595336914,0.0,0.0,0.0,-1.8351437639354884,-1.510057281850735,34.75090283656851,0.0016307988282699708,-0.004878639088812966,0.013627223108570624,0.4,0.09724157686985878,0.13269557025120104,0.6935827021300356,0.1141269459971433,-0.03892388194799423,0.11203141184523702,1.423939224332571,0.08579280554534012,2.1121954545378685,1.9439175724983215,22.722168266773224,0.0,0.0,0.0,0.0,0.0,0.0,0.0,0.0,0.0,0.0,0.0,0.0,0.0,0.0,0.0,0.0,False,0,0.8950436115264893,0.029932861328125
STABILIZE,0.8868358135223389,29.971088641966485,0.03240207036336263,0.03251171112060547,0.0,0.0,0.0,-1.8354967993382134,-1.509640213424541,34.75572153502795,0.0008694968650522743,-0.003326166209138247,0.013184765624768648,0.4,0.09441944635873206,0.13089383021284812,0.7004846169195017,0.10897397683307786,0.07214447250589728,0.18614009022712708,1.5670308843255043,-0.046236271895313735,-0.6238428875803947,2.074512653052807,26.404249668121338,0.0,0.0,0.0,0.0,0.0,0.0,0.0,0.0,0.0,0.0,0.0,0.0,0.0,0.0,0.0,0.0,False,0,0.9236001968383789,0.034921875
STABILIZE,0.9287660121917725,23.84929520603638,0.03246787389119466,0.040949106216430664,0.0,0.0,0.0,-1.8348327768848414,-1.509701364961954,34.75777400687354,0.00014200896034746035,-0.002376724049501645,0.012798855707639795,0.4,0.09192409249908232,0.12971857191825606,0.7125004702294041,0.1042432248950303,0.07214447250589728,0.18614009022712708,1.5670308843255043,-0.046236271895313735,-0.6238428875803947,2.074512653052807,26.404249668121338,0.0,0.0,0.0,0.0,0.0,0.0,0.0,0.0,0.0,0.0,0.0,0.0,0.0,0.0,0.0,0.0,False,0,0.9522910118103027,0.034921875
STABILIZE,0.962120771408081,29.97965762481684,0.032334121068318684,0.03245115280151367,0.0,0.0,0.0,-1.834957427837194,-1.508495623130035,34.76183113924053,0.0013165616463673192,-0.005422419638911064,0.01252562795093224,0.4,0.07958961269490865,0.1228591918856401,0.7328235625330902,0.10083672214766312,-0.04647008026950061,0.05108114564791322,1.5595873817801476,0.37536587912317093,1.187344454228878,-0.056878512259572744,23.553211987018585,0.0,0.0,0.0,0.0,0.0,0.0,0.0,0.0,0.0,0.0,0.0,0.0,0.0,0.0,0.0,0.0,False,0,1.0119447708129883,0.029932861328125
STABILIZE,0.9956510066986084,29.8244650970967,0.032418044408162434,0.032562255859375,0.0,0.0,0.0,-1.8343021565636959,-1.5079730069368233,34.7639314224103,0.0003691521642029162,-0.005043560459882683,0.012415984103291675,0.4,0.07407162644371783,0.11827762110487301,0.7345784657450245,0.09907696024012255,-0.11419606162235141,0.007508448470616713,1.397624146193266,0.13851703678065194,-1.842404343187809,-0.21448528859764338,22.79929369688034,0.0,0.0,0.0,0.0,0.0,0.0,0.0,0.0,0.0,0.0,0.0,0.0,0.0,0.0,0.0,0.0,False,0,1.0402600765228271,0.034922119140625
STABILIZE,1.029479742050171,29.561292596116573,0.032351287206014,0.0329737663269043,0.0,0.0,0.0,-1.8335431517921783,-1.5061282155306852,34.76824468687117,0.0009041653207834833,-0.004746621219646386,0.012248088667029932,0.4,0.07057751728351525,0.11374920133734939,0.7383148003530555,0.09674182370971697,-0.001509982394054532,-0.018001625721808523,1.2216831557452679,0.08183893976890932,1.10034653916955,-0.43687629513442516,13.114033639431,0.0,0.0,0.0,0.0,0.0,0.0,0.0,0.0,0.0,0.0,0.0,0.0,0.0,0.0,0.0,0.0,False,0,1.0691242218017578,0.034922119140625
STABILIZE,1.0630273818969727,29.80814441048966,0.03247073491414388,0.03260350227355957,0.0,0.0,0.0,-1.833399290932785,-1.5055858558219037,34.76967561150229,0.0018585917258139594,-0.005023603466423759,0.012082144794113143,0.4,0.06717960733027309,0.10922077412469859,0.7413037959285181,0.09445016867586335,-0.001509982394054532,-0.018001625721808523,1.2216831557452679,0.08183893976890932,1.10034653916955,-0.43687629513442516,13.114033639431,0.0,0.0,0.0,0.0,0.0,0.0,0.0,0.0,0.0,0.0,0.0,0.0,0.0,0.0,0.0,0.0,False,0,1.0989367961883545,0.034922119140625
STABILIZE,1.0964324474334717,29.935579647565145,0.03237417538960775,0.032485246658325195,0.0,0.0,0.0,-1.832818084523099,-1.5059965209457509,34.77186127203669,0.003192232381408271,-0.005785683542319542,0.01168144287496795,0.4,0.0630764560154543,0.10433980201051468,0.7478948951810557,0.0898426652703149,-0.04900087369605899,-0.039911805652081966,1.4745108783245087,-0.05765833587934524,1.5061462298035622,-0.2423987491056323,22.189615666866302,0.0,0.0,0.0,0.0,0.0,0.0,0.0,0.0,0.0,0.0,0.0,0.0,0.0,0.0,0.0,0.0,False,0,1.1276190280914307,0.029932861328125
STABILIZE,1.1298391819000244,29.932161539175176,0.03240516980489095,0.03257155418395996,0.0,0.0,0.0,-1.8325009076135166,-1.5065983246446524,34.77590132893075,0.0022614541083672596,-0.0025690120202471493,0.011422254758610495,0.4,0.06163320320534226,0.10091383769146196,0.750300721692418,0.08667037028155827,0.09950458770617843,0.05589459906332195,1.5407622791826725,0.035479204200219674,16.36725664138794,-0.19807391799986362,19.596877694129944,0.0,0.0,0.0,0.0,0.0,0.0,0.0,0.0,0.0,0.0,0.0,0.0,0.0,0.0,0.0,0.0,False,0,1.1562986373901367,0.0399111328125
STABILIZE,1.1636042594909668,29.61828093664379,0.032494338353474934,0.03284645080566406,0.0,0.0,0.0,-1.832274230710437,-1.507177183176811,34.77827140457275,0.0029994529683819438,-0.004548099142182686,0.01064347245147098,0.4,0.05068096878908324,0.09452856530949233,0.7592833610170601,0.07835499143757275,-0.04120185622014105,0.11533929500728846,1.211660448461771,-0.174048441235212,-2.6936614885926247,1.6375983133912086,15.911194682121277,0.0,0.0,0.0,0.0,0.0,0.0,0.0,0.0,0.0,0.0,0.0,0.0,0.0,0.0,0.0,0.0,False,0,1.2136685848236084,0.029931884765625
STABILIZE,1.197103500366211,29.848873453934726,0.032396825154622395,0.032675981521606445,0.0,0.0,0.0,-1.8316014570771906,-1.5057520215178055,34.78353065023366,0.0027422778249989125,-0.004333724799250347,0.010573030798833637,0.4,0.04820502565124065,0.09124031863475411,0.7605225501501759,0.07713228134190063,0.014950224431231618,0.045019364915788174,1.5254605561494827,0.13436212065074213,2.700742892920971,-0.32888040877878666,18.70259940624237,0.0,0.0,0.0,0.0,0.0,0.0,0.0,0.0,0.0,0.0,0.0,0.0,0.0,0.0,0.0,0.0,False,0,1.2424299716949463,0.034922119140625
STABILIZE,1.230661392211914,29.80242580131735,0.03250697453816732,0.03265070915222168,0.0,0.0,0.0,-1.8306379735173957,-1.5055884171428426,34.78483521636513,0.0023176793906599115,-0.003588600679507485,0.01052275710269331,0.4,0.04737350990721947,0.08841028227187167,0.7639631182813629,0.07611983254442724,0.11331761488690972,0.05651458050124347,1.3842333108186722,0.13435578404946136,2.39214263856411,-0.34800246357917786,16.08681231737137,0.0,0.0,0.0,0.0,0.0,0.0,0.0,0.0,0.0,0.0,0.0,0.0,0.0,0.0,0.0,0.0,False,0,1.273158311843872,0.034921875
STABILIZE,1.264141321182251,29.867365467738605,0.032399924596150716,0.03253459930419922,0.0,0.0,0.0,-1.8302392612245961,-1.5057054908540848,34.787553631654795,0.0026032613146518614,-0.003699243466675354,0.009899584218961633,0.4,0.04334208191293345,0.08313699469762778,0.7628622814098772,0.06942345379989055,-0.08468446903862059,-0.09273049072362483,1.1436047032475471,-0.20787784792596944,-4.062634706497192,-0.31778160482645035,19.590578973293304,0.0,0.0,0.0,0.0,0.0,0.0,0.0,0.0,0.0,0.0,0.0,0.0,0.0,0.0,0.0,0.0,False,0,1.3003785610198975,0.02993310546875
STABILIZE,1.2975382804870605,29.941990705377602,0.0323827584584554,0.032503366470336914,0.0,0.0,0.0,-1.8300424663991353,-1.5047683675556178,34.79245770747886,0.0025920193934867177,-0.004565945145723621,0.009741232522270195,0.4,0.039439809985593696,0.08007189352866337,0.7614338906027475,0.06738950103681852,-0.09156360756605864,0.038715897244401276,1.4082182198762894,0.06854076155809284,-3.4126609563827515,-0.37967872340232134,16.39256626367569,0.0,0.0,0.0,0.0,0.0,0.0,0.0,0.0,0.0,0.0,0.0,0.0,0.0,0.0,0.0,0.0,False,0,1.3291518688201904,0.034921875
STABILIZE,1.3309986591339111,29.88609335698966,0.0324280579884847,0.03255271911621094,0.0,0.0,0.0,-1.8290119616081095,-1.5052308994284747,34.794315518933104,0.0016409848850026797,-0.002625903810610347,0.009596078514652521,0.4,0.035493624086713194,0.07719480544115666,0.7643906770087232,0.06549985273847518,-0.09156360756605864,0.038715897244401276,1.4082182198762894,0.06854076155809284,-3.4126609563827515,-0.37967872340232134,16.39256626367569,0.0,0.0,0.0,0.0,0.0,0.0,0.0,0.0,0.0,0.0,0.0,0.0,0.0,0.0,0.0,0.0,False,0,1.357848882675171,0.034921875
STABILIZE,1.3647255897521973,29.649267658202795,0.032406123479207356,0.03288602828979492,0.0,0.0,0.0,-1.8283483660415605,-1.505479774446357,34.79591378319889,0.0025611538885951025,-0.004539606502339608,0.009076208619245721,0.4,0.027470347533286258,0.07142764689486365,0.7738828884096404,0.059896511769997274,0.0930284964852035,0.11387491831555963,1.654130034148693,0.07318738460717747,-1.9928578287363052,-0.2902670530602336,18.878398835659027,0.0,0.0,0.0,0.0,0.0,0.0,0.0,0.0,0.0,0.0,0.0,0.0,0.0,0.0,0.0,0.0,False,0,1.4150092601776123,0.034921142578125
STABILIZE,1.398289680480957,29.795439369183775,0.03250006039937337,0.03263068199157715,0.0,0.0,0.0,-1.8280700358328825,-1.5038531222068363,34.79992993443086,0.002147853220391752,-0.004455118667988374,0.008959479391505393,0.4,0.026967228923294468,0.07009737906864576,0.779992557308347,0.058338604498238154,0.0930284964852035,0.11387491831555963,1.654130034148693,0.07318738460717747,-1.9928578287363052,-0.2902670530602336,18.878398835659027,0.0,0.0,0.0,0.0,0.0,0.0,0.0,0.0,0.0,0.0,0.0,0.0,0.0,0.0,0.0,0.0,False,0,1.4438300132751465,0.034921142578125
STABILIZE,1.4316983222961426,29.931734330509745,0.032381566365559895,0.03252100944519043,0.0,0.0,0.0,-1.8278183860506498,-1.5026648827346656,34.80216340628945,0.0018003662351482727,-0.003773923855155807,0.009055210497960839,0.4,0.025387813212696484,0.06638372985554565,0.7834351308525261,0.058901810403405724,0.02143072779290378,-0.0322753592627123,1.5136555768549442,0.19234199568939364,1.8072182312607765,-0.39002178236842155,17.96310245990753,0.0,0.0,0.0,0.0,0.0,0.0,0.0,0.0,0.0,0.0,0.0,0.0,0.0,0.0,0.0,0.0,False,0,1.4725370407104492,0.064854736328125
STABILIZE,1.4651644229888916,29.881196301098555,0.03243711789449056,0.03255581855773926,0.0,0.0,0.0,-1.8274540381471118,-1.502612375655421,34.80668840661458,0.0021021071507251058,-0.003442762979653973,0.009209837233315024,0.4,0.02287114972974067,0.06270256205205771,0.8115955644700855,0.060046474127166585,0.02143072779290378,-0.0322753592627123,1.5136555768549442,0.19234199568939364,1.8072182312607765,-0.39002178236842155,17.96310245990753,0.0,0.0,0.0,0.0,0.0,0.0,0.0,0.0,0.0,0.0,0.0,0.0,0.0,0.0,0.0,0.0,False,0,1.5011677742004395,0.064854736328125
STABILIZE,1.4986813068389893,29.835921439190777,0.03240540822347005,0.03254818916320801,0.0,0.0,0.0,-1.8274337610230134,-1.5016197570699479,34.80960831248476,0.0022139917988999347,-0.0038258760505470043,0.008812104617232872,0.4,0.018180718899592472,0.0597612575830013,0.8305208277098153,0.055696452303623814,-0.1014699344523251,0.02084728330373764,1.2174051254987717,-0.10397850437561641,1.003514789044857,-0.3343577031046152,17.32463240623474,0.0,0.0,0.0,0.0,0.0,0.0,0.0,0.0,0.0,0.0,0.0,0.0,0.0,0.0,0.0,0.0,False,0,1.5297586917877197,0.02993310546875
STABILIZE,1.5323927402496338,29.66373634145479,0.03234866460164388,0.03285932540893555,0.0,0.0,0.0,-1.827956483937931,-1.500119570051778,34.81408550148571,0.0014844521838989965,-0.0010791250927850748,0.008489308177452257,0.4,0.019296307433189525,0.05676796941063453,0.8195847089774375,0.05211609975932318,0.12545603094622493,0.010704789019655436,1.304315309971571,-0.03556921728893971,2.277664467692375,-0.26981530245393515,19.45982128381729,0.0,0.0,0.0,0.0,0.0,0.0,0.0,0.0,0.0,0.0,0.0,0.0,0.0,0.0,0.0,0.0,False,0,1.5584502220153809,0.034921875
STABILIZE,1.566014289855957,29.743039895616164,0.03247240384419759,0.032709598541259766,0.0,0.0,0.0,-1.8276587303788008,-1.5005538206726028,34.81621993560134,0.003043615939062749,-0.0007643488051388877,0.00783486472612102,0.4,0.019777320533013218,0.050863651097173036,0.8189121786835487,0.04526773290672727,0.04232223145663738,-0.005838995275553316,1.8968775868415833,-0.0428963627520304,-1.3577231205999851,-0.14110984047874808,25.29585063457489,0.0,0.0,0.0,0.0,0.0,0.0,0.0,0.0,0.0,0.0,0.0,0.0,0.0,0.0,0.0,0.0,True,0,1.6158404350280762,0.034922119140625
STABILIZE,1.5995099544525146,29.85439740341087,0.0324130376180013,0.032546281814575195,0.0,0.0,0.0,-1.8275490204652574,-1.5004893607623107,34.81819044517689,0.001924665583662213,-0.0002898129685509456,0.007865169244313821,0.4,0.019777320533013218,0.050863651097173036,0.8189121786835487,0.04526773290672727,0.04232223145663738,-0.005838995275553316,1.8968775868415833,-0.0428963627520304,-1.3577231205999851,-0.14110984047874808,25.29585063457489,0.0,0.0,0.0,0.0,0.0,0.0,0.0,0.0,0.0,0.0,0.0,0.0,0.0,0.0,0.0,0.0,True,1,1.6158404350280762,0.034922119140625
STABILIZE,1.6329517364501953,29.902925911138993,0.032373698552449544,0.032510995864868164,0.0,0.0,0.0,-1.8258726359108424,-1.501247618481888,34.822916936082535,0.0016788877604575648,-0.00034831535455518347,0.007494340657751716,0.4,0.0173412766540375,0.04827968190552368,0.812020744381539,0.04128331182141603,0.1904072007164359,0.10758376447483897,1.4034410938620567,0.09231183424193384,1.423353049904108,1.7614427953958511,22.718916833400726,0.0,0.0,0.0,0.0,0.0,0.0,0.0,0.0,0.0,0.0,0.0,0.0,0.0,0.0,0.0,0.0,True,0,1.6734306812286377,0.03495654296875
STABILIZE,1.666384220123291,29.91060273269247,0.03239134152730306,0.032514333724975586,0.0,0.0,0.0,-1.826162918950568,-1.5012689628230442,34.82453569091583,0.0016833368125833343,0.0025736261853458835,0.007204638711550325,0.4,0.021881281485205042,0.04560578462305994,0.801725037964317,0.038131255116978194,0.3035071538761258,-0.006946921348571777,1.016471441835165,-0.047824420944420624,4.95821088552475,-0.4390086978673935,14.091858267784119,0.0,0.0,0.0,0.0,0.0,0.0,0.0,0.0,0.0,0.0,0.0,0.0,0.0,0.0,0.0,0.0,True,0,1.701977014541626,0.034922119140625
STABILIZE,1.7135863304138184,21.18517246430249,0.03240063985188802,0.04625678062438965,0.0,0.0,0.0,-1.826765042814587,-1.50035884011614,34.82908801199764,0.0015856315241404555,0.0015029997081365957,0.007047884478170908,0.4,0.018865188522445148,0.04237946557398414,0.7986356033046129,0.03622199845629741,-0.10529567953199148,-0.042374059557914734,1.4002909883856773,0.013558952698893458,1.3781568966805935,1.5947028994560242,19.17775571346283,0.0,0.0,0.0,0.0,0.0,0.0,0.0,0.0,0.0,0.0,0.0,0.0,0.0,0.0,0.0,0.0,True,1,1.7305638790130615,0.02993310546875
STABILIZE,1.7470543384552002,29.88183495650563,0.032346518834431966,0.03247833251953125,0.0,0.0,0.0,-1.8268702704164874,-1.5007712127872794,34.831748370679364,0.00023300909354220122,0.0016821800151976681,0.006926383332086911,0.4,0.019823523536272356,0.041142320948900926,0.7878566209186252,0.03477432268153376,0.08072219206951559,0.08964888984337449,1.3571463525295258,0.06873067283353093,2.9128272086381912,-0.19423114135861397,21.500758826732635,0.0,0.0,0.0,0.0,0.0,0.0,0.0,0.0,0.0,0.0,0.0,0.0,0.0,0.0,0.0,0.0,True,0,1.7904644012451172,0.034921875
STABILIZE,1.781104564666748,29.37002569866045,0.03235581715901693,0.03310656547546387,0.0,0.0,0.0,-1.8273396324785143,-1.5004847717289622,34.836334842707025,0.0006923318222366101,0.0010033887747008454,0.007007678559299265,0.4,0.0177466383975351,0.03972437205899122,0.7887818857362862,0.03534635232902314,-0.06316309445537627,0.03932218824047595,1.5831265598535538,0.13523679841111366,-0.4088146612048149,-0.23035057820379734,19.171541929244995,0.0,0.0,0.0,0.0,0.0,0.0,0.0,0.0,0.0,0.0,0.0,0.0,0.0,0.0,0.0,0.0,True,0,1.8191771507263184,0.039910888671875
STABILIZE,1.814518928527832,29.9229792394949,0.032347949345906575,0.03247404098510742,0.0,0.0,0.0,-1.826456403641467,-1.5005778330564035,34.83954161652235,0.0005743840465524996,0.0013157955803835095,0.007106657966168444,0.4,0.016493933460142777,0.03774605128331213,0.7947879337006734,0.03609488754917567,-0.01840633776737377,0.004993211769033223,1.651734858751297,0.139855246929872,1.2132558971643448,-0.26068082079291344,20.420198142528534,0.0,0.0,0.0,0.0,0.0,0.0,0.0,0.0,0.0,0.0,0.0,0.0,0.0,0.0,0.0,0.0,True,0,1.8488986492156982,0.024944091796875
STABILIZE,1.8479876518249512,29.880131936083664,0.03242305119832357,0.0325617790222168,0.0,0.0,0.0,-1.8250357242941042,-1.500620521738716,34.844923805588316,9.476271788368438e-05,-0.0011112782943471706,0.007083881150014288,0.4,0.013285414810712957,0.036774072766153555,0.7861773696513593,0.035628743503117115,-0.13380598975345492,0.05371142760850489,1.4917722903192043,0.07397539100224125,-1.1163145303726196,1.7312945798039436,19.900357723236084,0.0,0.0,0.0,0.0,0.0,0.0,0.0,0.0,0.0,0.0,0.0,0.0,0.0,0.0,0.0,0.0,True,0,1.8766553401947021,0.034922119140625
STABILIZE,1.881624460220337,29.728072351494447,0.03240803082784017,0.03273582458496094,0.0,0.0,0.0,-1.8249868457528564,-1.500406224553507,34.8468635793126,-0.0002878963568654997,-0.0015334413849531954,0.007074360661014901,0.4,0.01008519755730344,0.03584955509493096,0.7860733032174014,0.03529599710732236,-0.13380598975345492,0.05371142760850489,1.4917722903192043,0.07397539100224125,-1.1163145303726196,1.7312945798039436,19.900357723236084,0.0,0.0,0.0,0.0,0.0,0.0,0.0,0.0,0.0,0.0,0.0,0.0,0.0,0.0,0.0,0.0,True,0,1.905421495437622,0.034922119140625
STABILIZE,1.9150876998901367,29.883964005044422,0.032422812779744466,0.03258347511291504,0.0,0.0,0.0,-1.8255509766896172,-1.5008958637396324,34.84927122099503,-0.0004816375838837907,-0.0023595974133120783,0.006421434121293975,0.4,0.008464182998759019,0.035305026934262705,0.7836248220088062,0.028575442729700883,-0.04632379568647593,0.07125702104531229,1.35761434212327,-0.29165553422274426,-3.3520162105560303,-0.33455921802669764,13.593000173568726,0.0,0.0,0.0,0.0,0.0,0.0,0.0,0.0,0.0,0.0,0.0,0.0,0.0,0.0,0.0,0.0,True,1,1.9338927268981934,0.0349208984375
STABILIZE,1.9486501216888428,29.797132748895297,0.03237894376118978,0.032523155212402344,0.0,0.0,0.0,-1.825490999090968,-1.5012601049214644,34.854769523276886,3.362757286760996e-05,-0.0015426348845835542,0.006477539737142173,0.4,0.009080730770351007,0.03249708583088169,0.7768077494442782,0.028942742856296565,0.1755448174662888,0.025084411026909947,1.4948810450732708,0.11462132648467144,5.852026119828224,-0.13225175207480788,22.828800976276398,0.0,0.0,0.0,0.0,0.0,0.0,0.0,0.0,0.0,0.0,0.0,0.0,0.0,0.0,0.0,0.0,True,0,1.9942278861999512,0.034921875
STABILIZE,1.9819927215576172,29.99016130877474,0.032337458928426106,0.032468318939208984,0.0,0.0,0.0,-1.82563059108213,-1.5005021673670045,34.85715325929722,-0.0001761110424285316,-0.00036735988282917407,0.0065545234308716435,0.4,0.01147211128537667,0.031335130814810826,0.7772293774603127,0.02951512846611089,0.1755448174662888,0.025084411026909947,1.4948810450732708,0.11462132648467144,5.852026119828224,-0.13225175207480788,22.828800976276398,0.0,0.0,0.0,0.0,0.0,0.0,0.0,0.0,0.0,0.0,0.0,0.0,0.0,0.0,0.0,0.0,True,0,2.0228829383850098,0.034921875
STABILIZE,2.0154197216033936,29.914442621781614,0.032459529240926106,0.03256988525390625,0.0,0.0,0.0,-1.8244199400517453,-1.4997810488010392,34.86192756152706,-0.0001799600538774946,-0.0007005271711182286,0.006359635757403492,0.4,0.00760183459600735,0.03046253284359532,0.7812642428011662,0.027383226994651105,-0.18900837749242783,0.03855330869555473,1.7030538991093636,-0.044791213308286636,-1.58474650233984,-0.23845224641263485,20.919254422187805,0.0,0.0,0.0,0.0,0.0,0.0,0.0,0.0,0.0,0.0,0.0,0.0,0.0,0.0,0.0,0.0,True,0,2.0517828464508057,0.069843994140625
STABILIZE,2.0490195751190186,29.7624568922697,0.03246954282124837,0.03260660171508789,0.0,0.0,0.0,-1.8240543114877381,-1.5001529739456876,34.864717693803016,-0.00024414077989366604,-0.0006199244586946195,0.006762055702785657,0.4,0.004991427792334158,0.029816678509422122,0.8090536056449363,0.031198564446385416,-0.08345196256414056,0.04698115517385304,1.5588968992233276,0.2732501754415433,-2.6961730793118477,1.6369905322790146,20.15756368637085,0.0,0.0,0.0,0.0,0.0,0.0,0.0,0.0,0.0,0.0,0.0,0.0,0.0,0.0,0.0,0.0,True,0,2.080359935760498,0.02993310546875
STABILIZE,2.0822908878326416,30.05592260838409,0.03232315381368001,0.03243422508239746,0.0,0.0,0.0,-1.824201373998305,-1.500309534688069,34.86654476940599,-0.00019415887367324981,-0.0003211596369920144,0.006771894001973547,0.4,0.004434186991803547,0.029165538840972588,0.8020426439878026,0.031089230983864912,-0.005958752444712445,0.04739300347864628,1.4589729718863964,0.07144891470042411,-1.4282156713306904,1.5950944274663925,18.109777569770813,0.0,0.0,0.0,0.0,0.0,0.0,0.0,0.0,0.0,0.0,0.0,0.0,0.0,0.0,0.0,0.0,True,0,2.109099864959717,0.034921875
STABILIZE,2.11578631401062,29.85503491376549,0.03249171574910482,0.0326082706451416,0.0,0.0,0.0,-1.8229909364113317,-1.4998385718004554,34.86985741115345,-0.0008457050534836834,-0.0007077860307851804,0.006795268998182339,0.4,0.003827181824920033,0.028590889345670147,0.7995446980065459,0.031114827893899254,-0.005958752444712445,0.04739300347864628,1.4589729718863964,0.07144891470042411,-1.4282156713306904,1.5950944274663925,18.109777569770813,0.0,0.0,0.0,0.0,0.0,0.0,0.0,0.0,0.0,0.0,0.0,0.0,0.0,0.0,0.0,0.0,True,1,2.1376729011535645,0.034921875
STABILIZE,2.1493027210235596,29.83570920472329,0.03243139584859212,0.0326230525970459,0.0,0.0,0.0,-1.8224379045319723,-1.5000242675685151,34.872777317023626,-0.0013865457698608245,-0.0005984544076539041,0.006820760001804662,0.4,0.006297193914483985,0.029156328020322975,0.8026596203733867,0.03116088449817935,0.15881828730925918,0.10638651438057423,1.7515504732728004,0.07111504918410007,4.619205370545387,-0.19242989365011454,28.073015809059143,0.0,0.0,0.0,0.0,0.0,0.0,0.0,0.0,0.0,0.0,0.0,0.0,0.0,0.0,0.0,0.0,True,0,2.1665241718292236,0.039910888671875
STABILIZE,2.1829633712768555,29.70912104491461,0.03242066701253255,0.032785892486572266,0.0,0.0,0.0,-1.8231815413778574,-1.499196747461886,34.87759943057765,-0.0010648243958041145,0.00048802827707748747,0.0064557317348136155,0.4,0.006077633847203413,0.027385131888442372,0.7944442308519216,0.0273265706491985,0.015370614710263908,0.02521206042729318,1.4636239036917686,-0.03552776924645684,3.8601018488407135,-0.3721453947946429,23.224452137947083,0.0,0.0,0.0,0.0,0.0,0.0,0.0,0.0,0.0,0.0,0.0,0.0,0.0,0.0,0.0,0.0,True,0,2.2303693294525146,0.024840576171875
STABILIZE,2.216485023498535,29.8321016806902,0.03245380719502767,0.03257894515991211,0.0,0.0,0.0,-1.822705562570072,-1.4979247314506767,34.87970654393661,-0.0004073336261948398,0.001046225327693843,0.006469082837382057,0.4,0.005410023515023906,0.024824465988269123,0.7853072504679824,0.027277526694290326,-0.019463166245259345,-0.07163911941461265,1.458186749368906,0.07054713629689069,-6.243404746055603,1.5245646238327026,21.30586951971054,0.0,0.0,0.0,0.0,0.0,0.0,0.0,0.0,0.0,0.0,0.0,0.0,0.0,0.0,0.0,0.0,True,0,2.259044885635376,0.034921875
STABILIZE,2.249922037124634,29.906337345274085,0.032380135854085286,0.032503604888916016,0.0,0.0,0.0,-1.8225126097260191,-1.4972886700842192,34.881543864823335,-0.0009183772559385522,0.0001086077328159224,0.006314015885762592,0.4,0.0021035862137228052,0.02575923620605299,0.7859094324466738,0.02555595058867533,-0.16930692363530397,0.12111755786463618,1.5164646320044994,-0.0355245075643239,1.5627365559339523,-0.3048968967050314,19.54295039176941,0.0,0.0,0.0,0.0,0.0,0.0,0.0,0.0,0.0,0.0,0.0,0.0,0.0,0.0,0.0,0.0,True,0,2.287942886352539,0.06485400390625
STABILIZE,2.2835640907287598,29.727229557809387,0.032386096318562825,0.0326077938079834,0.0,0.0,0.0,-1.82226416159496,-1.496996786218907,34.8855156198257,-0.0005959585275874855,0.0001711760233045222,0.006261732604328549,0.4,0.001745201016830754,0.024262852236844133,0.8053905441849681,0.024866236749078948,0.02159560826839879,-0.029708081274293363,1.3022370636463165,0.007327032071278288,-0.7963899523019791,-2.44960505515337,15.628838539123535,0.0,0.0,0.0,0.0,0.0,0.0,0.0,0.0,0.0,0.0,0.0,0.0,0.0,0.0,0.0,0.0,True,0,2.316427230834961,0.034922119140625
STABILIZE,2.31704044342041,29.8711942626395,0.032277615865071614,0.032393455505371094,0.0,0.0,0.0,-1.8216746308922234,-1.4972441671329084,34.88739050675287,0.00015621125074941235,-0.0005214667169428204,0.006175288310213415,0.4,0.0018761682515327045,0.02250673549064729,0.7994223584562885,0.02384242494546886,0.02159560826839879,-0.029708081274293363,1.3022370636463165,0.007327032071278288,-0.7963899523019791,-2.44960505515337,15.628838539123535,0.0,0.0,0.0,0.0,0.0,0.0,0.0,0.0,0.0,0.0,0.0,0.0,0.0,0.0,0.0,0.0,True,0,2.3451130390167236,0.034922119140625
STABILIZE,2.3503851890563965,29.987373899863442,0.03223708470662435,0.032509803771972656,0.0,0.0,0.0,-1.8213262912445527,-1.4968560202889813,34.89301175243979,0.0004857494203769328,0.001564835159980169,0.006072421760108563,0.4,0.007942091755048583,0.019924580933512678,0.7955964863995139,0.022661641369975782,0.3374662483111024,-0.07630005129612982,1.4016448520123959,-0.003037593231230944,6.48842453956604,-0.29681737069040537,22.57286012172699,0.0,0.0,0.0,0.0,0.0,0.0,0.0,0.0,0.0,0.0,0.0,0.0,0.0,0.0,0.0,0.0,True,0,2.3738667964935303,0.034921875
STABILIZE,2.3842148780822754,29.56004256788662,0.0325048287709554,0.03292202949523926,0.0,0.0,0.0,-1.8213262912445527,-1.4968560202889813,34.89301175243979,-0.0005807563877193586,-0.0002477278442715658,0.005953381604104925,0.4,0.0018683779441460734,0.020825589197218906,0.8142076528275425,0.02132726325055328,-0.14791591092944145,0.06753093912266195,1.539819035679102,0.015692252896398515,-5.067368596792221,1.7622394487261772,21.744103729724884,0.0,0.0,0.0,0.0,0.0,0.0,0.0,0.0,0.0,0.0,0.0,0.0,0.0,0.0,0.0,0.0,True,0,2.431136131286621,0.034921875
STABILIZE,2.41772723197937,29.841015972395148,0.03237489064534505,0.0325007438659668,0.0,0.0,0.0,-1.8202031520129087,-1.4965628557631996,34.896259507390134,-0.0003921863814042404,-0.0003157947533672437,0.005889059940976176,0.4,-0.0012964676780108364,0.021087576710579693,0.8110120584504,0.020546568004670793,-0.14791591092944145,0.06753093912266195,1.539819035679102,0.015692252896398515,-5.067368596792221,1.7622394487261772,21.744103729724884,0.0,0.0,0.0,0.0,0.0,0.0,0.0,0.0,0.0,0.0,0.0,0.0,0.0,0.0,0.0,0.0,True,0,2.4602138996124268,0.034921875
STABILIZE,2.4510889053344727,29.97451564722109,0.03233483632405599,0.03245902061462402,0.0,0.0,0.0,-1.8185188700522659,-1.4957801587729984,34.89999220577155,-0.0008184345395255035,-0.0009098154630995472,0.005950943598222848,0.4,-0.0033920345949936576,0.021018777332493126,0.8024018783841262,0.021024810221750883,-0.09667904232628644,0.04931017756462097,1.2436190620064735,0.07757853590294114,3.7894628942012787,-0.23298587184399366,16.146570444107056,0.0,0.0,0.0,0.0,0.0,0.0,0.0,0.0,0.0,0.0,0.0,0.0,0.0,0.0,0.0,0.0,True,0,2.4885895252227783,0.02993310546875
STABILIZE,2.484637498855591,29.807720734550003,0.03243234952290853,0.03256845474243164,0.0,0.0,0.0,-1.818012368836627,-1.4959578504131246,34.901709998347805,-0.001590955907755511,0.00027021344871190546,0.005905684389038639,0.4,0.0002604084700586762,0.0217466193907091,0.7947672737356246,0.02043546633935669,0.19279636908322573,0.09194111335091293,1.4589941129088402,0.023621852393785392,-0.22418387234210968,-0.11244288180023432,21.45502120256424,0.0,0.0,0.0,0.0,0.0,0.0,0.0,0.0,0.0,0.0,0.0,0.0,0.0,0.0,0.0,0.0,True,0,2.523287534713745,0.034921875
STABILIZE,2.518094062805176,29.890139961802685,0.03232315381368001,0.032531023025512695,0.0,0.0,0.0,-1.8165334194379077,-1.496096375187229,34.90600277224115,-0.002073246025886065,0.0002885103993770141,0.0057493981700122605,0.4,0.005733513582221913,0.020875153990482304,0.7894339702785507,0.01874695768264499,0.29543014243245125,0.00446374760940671,1.3465593568980694,-0.0382321773122381,5.118066072463989,-0.06300602108240128,21.706582605838776,0.0,0.0,0.0,0.0,0.0,0.0,0.0,0.0,0.0,0.0,0.0,0.0,0.0,0.0,0.0,0.0,True,0,2.5520994663238525,0.034922119140625
STABILIZE,2.5515568256378174,29.881196301098555,0.03239944775899251,0.032536983489990234,0.0,0.0,0.0,-1.8167035338369233,-1.4961035255415163,34.90803816861382,-0.0015768678297443973,0.001529446072215626,0.005357652593065591,0.4,0.004057832255603541,0.020176863916528932,0.7871097183289969,0.014730915889087082,-0.08058367529883981,0.012196820898680016,1.4895835891366005,-0.16352361331211157,1.3880657032132149,1.9070480018854141,22.381168603897095,0.0,0.0,0.0,0.0,0.0,0.0,0.0,0.0,0.0,0.0,0.0,0.0,0.0,0.0,0.0,0.0,True,0,2.580911159515381,0.029932861328125
STABILIZE,2.585096597671509,29.817256357212425,0.03240636189778646,0.03253936767578125,0.0,0.0,0.0,-1.8168098286558818,-1.4952192294874112,34.908693866774136,-0.001643414659931972,0.0004483085699027276,0.005201551910435292,0.4,-0.0020129834741215505,0.020601291347767753,0.7791863671077339,0.013082361532505181,-0.3189344657585025,0.0739682640414685,1.3703878037631512,-0.04349603201681636,-4.077212885022163,-0.02148672501789406,23.52219521999359,0.0,0.0,0.0,0.0,0.0,0.0,0.0,0.0,0.0,0.0,0.0,0.0,0.0,0.0,0.0,0.0,True,0,2.6094796657562256,0.034921142578125
STABILIZE,2.6184229850769043,30.004964696287924,0.032312901814778645,0.03242826461791992,0.0,0.0,0.0,-1.8168356553086809,-1.494434184619683,34.91199967833243,-0.0013518218057085687,0.0024842227445995573,0.004721982702770448,0.4,0.002202301942015731,0.0196565285101439,0.778004465714677,0.00823163922496736,0.12199890334159136,0.02065820444840938,1.529761217534542,-0.08796477902097773,6.525491923093796,-0.05438051884993911,21.169665455818176,0.0,0.0,0.0,0.0,0.0,0.0,0.0,0.0,0.0,0.0,0.0,0.0,0.0,0.0,0.0,0.0,True,0,2.6667673587799072,0.034921875
STABILIZE,2.651926040649414,29.849298300549403,0.0324285348256429,0.03255748748779297,0.0,0.0,0.0,-1.8170330904643766,-1.4951198715793286,34.91585873521348,-0.0009712677484619472,0.0008586826024911202,0.00448554573070599,0.4,0.0006030687379394613,0.019159635613243523,0.77517491461594,0.005828283420978403,-0.08196900598704815,0.017839015345089138,1.3926254585385323,-0.09138882488905653,-0.43654628098011017,1.7192583531141281,16.064555943012238,0.0,0.0,0.0,0.0,0.0,0.0,0.0,0.0,0.0,0.0,0.0,0.0,0.0,0.0,0.0,0.0,True,0,2.6954574584960938,0.034922119140625
STABILIZE,2.685290813446045,29.970446165718695,0.0323667844136556,0.03248929977416992,0.0,0.0,0.0,-1.8152894712353191,-1.4950897760582984,34.92070816952419,-0.0013775616331787317,-0.0009714069783841745,0.004349113355308515,0.4,1.3917017654093854e-05,0.019587975731644124,0.7743855478794089,0.004434313660638017,-0.02680462202988565,0.06793029024265707,1.4964218251407146,-0.03896018609833287,3.6320094019174576,0.12833380606025457,29.687318205833435,0.0,0.0,0.0,0.0,0.0,0.0,0.0,0.0,0.0,0.0,0.0,0.0,0.0,0.0,0.0,0.0,True,0,2.7276065349578857,0.029932861328125
STABILIZE,2.718794822692871,29.847811390306212,0.03245523770650228,0.0325925350189209,0.0,0.0,0.0,-1.8157833792896758,-1.4945237241308336,34.92089941482095,-0.002016716351243745,0.001019719680398569,0.004212699070298034,0.4,0.004477110672883713,0.020866919442692027,0.7698486686286395,0.003049754352270844,0.25458713062107563,0.11918693780899048,1.4839022420346737,-0.04906675831626256,4.542669653892517,2.0369114354252815,26.938411593437195,0.0,0.0,0.0,0.0,0.0,0.0,0.0,0.0,0.0,0.0,0.0,0.0,0.0,0.0,0.0,0.0,True,0,2.754019260406494,0.034922119140625
STABILIZE,2.752243757247925,29.896957773786102,0.03240803082784017,0.0325314998626709,0.0,0.0,0.0,-1.815302277840013,-1.4944647070275363,34.92376467917777,-0.0022138096694020856,0.0019423744013796823,0.004201344456827426,0.4,0.0018066467804267756,0.021825682957538648,0.7685872731010281,0.002916699733917564,-0.14611291699111462,0.09627111139707267,1.432054117321968,0.025897345924031007,-4.525128751993179,1.784278079867363,17.051054537296295,0.0,0.0,0.0,0.0,0.0,0.0,0.0,0.0,0.0,0.0,0.0,0.0,0.0,0.0,0.0,0.0,True,0,2.782691717147827,0.034921875
STABILIZE,2.785734176635742,29.857797773285117,0.0323674996693929,0.03255105018615723,0.0,0.0,0.0,-1.815442937048233,-1.4954314989602104,34.927750094558476,-0.002821675499519426,-0.00021199111998017813,0.004195354644130244,0.4,-0.0008707489721100988,0.022789530077319833,0.7674198597853583,0.002837792750543439,-0.14611291699111462,0.09627111139707267,1.432054117321968,0.025897345924031007,-4.525128751993179,1.784278079867363,17.051054537296295,0.0,0.0,0.0,0.0,0.0,0.0,0.0,0.0,0.0,0.0,0.0,0.0,0.0,0.0,0.0,0.0,True,0,2.8112690448760986,0.034921875
STABILIZE,2.819234609603882,29.851210259987045,0.032413514455159505,0.0325624942779541,0.0,0.0,0.0,-1.8137635642860561,-1.4945734564457276,34.92871998142061,-0.003053876547742412,0.0006846863472654205,0.004300750910254438,0.4,0.00038321083908109664,0.0230283937091256,0.7639086703881481,0.0038658758296852046,0.07642062264494598,0.05512899369932711,1.2942029163241386,0.0858409036841145,1.087657269090414,-0.25928819086402655,16.04352742433548,0.0,0.0,0.0,0.0,0.0,0.0,0.0,0.0,0.0,0.0,0.0,0.0,0.0,0.0,0.0,0.0,True,0,2.842855453491211,0.02993310546875
STABILIZE,2.8528664112091064,29.733973245617143,0.03238800366719564,0.032750606536865234,0.0,0.0,0.0,-1.813104877917973,-1.495352098011109,34.93370260442014,-0.00332873511066479,0.0015613714701954644,0.004495323115054759,0.4,0.0024919572109705487,0.02422954077367555,0.7583330139515161,0.005772727145113201,0.1069230493158102,0.07386936922557652,1.4835547655820847,0.18497208817281766,3.3275891095399857,-0.23256598506122828,17.296451330184937,0.0,0.0,0.0,0.0,0.0,0.0,0.0,0.0,0.0,0.0,0.0,0.0,0.0,0.0,0.0,0.0,True,0,2.900438070297241,0.034921875
STABILIZE,2.8863813877105713,29.83698265682132,0.03244903882344564,0.032591819763183594,0.0,0.0,0.0,-1.8120895276091682,-1.4952777129821795,34.93795781227306,-0.002835387975083711,-0.0008322842282669871,0.004257707920747129,0.4,-0.0006858300962635051,0.023884734134587297,0.7547637953155497,0.003373981301449333,-0.1798398676328361,0.021358464437071234,1.2526432052254677,-0.11721898616424481,-6.991742551326752,-0.24035591632127762,18.001538515090942,0.0,0.0,0.0,0.0,0.0,0.0,0.0,0.0,0.0,0.0,0.0,0.0,0.0,0.0,0.0,0.0,True,0,2.9289300441741943,0.029932861328125
STABILIZE,2.9198455810546875,29.882899442853276,0.03238943417867025,0.03253793716430664,0.0,0.0,0.0,-1.8106417409485371,-1.495669488364103,34.94225741635558,-0.002425681195630113,-0.00010436739944972677,0.004379323579317983,0.4,-0.000896776578846232,0.02350435359992363,0.7492791317669145,0.004559623886552191,-0.009771584154805169,0.027346942806616426,1.3435864821076393,0.0868918323415841,7.349435985088348,1.724851131439209,16.276225447654724,0.0,0.0,0.0,0.0,0.0,0.0,0.0,0.0,0.0,0.0,0.0,0.0,0.0,0.0,0.0,0.0,True,0,2.957817554473877,0.034922119140625
STABILIZE,2.953321933746338,29.873321795118336,0.03239897092183431,0.03252291679382324,0.0,0.0,0.0,-1.8092052667887188,-1.4972779979136412,34.94440551084955,-0.0024252609934770496,0.0021170803329091663,0.0040394209990851715,0.4,0.003358891008878755,0.024352405173875193,0.7492735240496405,0.0011528861264185107,0.2525541465729475,0.09095585555769503,1.4305893331766129,-0.18005663314686957,2.557399496436119,-0.14431626768782735,15.731976926326752,0.0,0.0,0.0,0.0,0.0,0.0,0.0,0.0,0.0,0.0,0.0,0.0,0.0,0.0,0.0,0.0,True,0,2.9865808486938477,0.034922119140625
STABILIZE,2.9871201515197754,29.58485455520131,0.03236082394917806,0.03255796432495117,0.0,0.0,0.0,-1.8091881913157937,-1.4973833322372474,34.942732114502896,-0.002562448145455105,0.0007790258587358459,0.004216962445122893,0.4,0.00046942470618291637,0.02496534641981906,0.7477892197194985,0.00290880620136304,-0.166764622554183,0.07723892340436578,1.3418307527899742,0.12134815568263486,-3.152872622013092,1.8283670768141747,16.325955092906952,0.0,0.0,0.0,0.0,0.0,0.0,0.0,0.0,0.0,0.0,0.0,0.0,0.0,0.0,0.0,0.0,True,0,3.0149950981140137,0.0299326171875
STABILIZE,3.0202698707580566,30.1672528500018,0.03208521207173665,0.03228926658630371,0.0,0.0,0.0,-1.8091706889560455,-1.497466575167757,34.957632172177284,-0.002027347974263746,0.0007091781039865187,0.004648950177944943,0.4,0.0021375703968579043,0.024418136177249056,0.7417019188464483,0.007180566265889176,0.1014622743241489,0.01796440192265436,1.2753907591104507,0.26675317143698024,-0.9125123731791973,-3.9104104042053223,19.60286647081375,0.0,0.0,0.0,0.0,0.0,0.0,0.0,0.0,0.0,0.0,0.0,0.0,0.0,0.0,0.0,0.0,True,0,3.050283432006836,0.03492138671875
STABILIZE,3.0537798404693604,29.841015972395148,0.032412083943684895,0.0325465202331543,0.0,0.0,0.0,-1.8080612101027416,-1.4972333882406246,34.95576411543928,-0.001904670589865825,0.0004644379117955748,0.004657602511853384,0.4,-0.001438964845387402,0.023730157603258587,0.744476786677857,0.007218760118333876,-0.20853085443377495,0.0009927332030201796,1.5674587339162827,0.015913206848005783,2.6739774271845818,1.9313275814056396,18.849702179431915,0.0,0.0,0.0,0.0,0.0,0.0,0.0,0.0,0.0,0.0,0.0,0.0,0.0,0.0,0.0,0.0,True,0,3.0790555477142334,0.034921875
STABILIZE,3.088160514831543,29.090747676515466,0.03241017659505208,0.03337860107421875,0.0,0.0,0.0,-1.807414476565706,-1.4969492950598342,34.949996020685205,-0.0020348589611504193,0.0005411587358137162,0.004555795984335584,0.4,-0.0013964358626347055,0.023768219590360747,0.7424769004696723,0.006158478114363727,-0.1322871306911111,-0.09815081721171737,1.474567037075758,0.32580514605148575,-3.4479327499866486,-5.92450425028801,17.861008644104004,0.0,0.0,0.0,0.0,0.0,0.0,0.0,0.0,0.0,0.0,0.0,0.0,0.0,0.0,0.0,0.0,True,0,3.1364686489105225,0.034923095703125
STABILIZE,3.121644973754883,29.859923397832926,0.03229883511861165,0.03255915641784668,0.0,0.0,0.0,-1.8081615285061763,-1.4980409513882726,34.96703734266439,-0.0017731634131894797,-0.0018389473395794315,0.004787991756419786,0.4,-0.004723210194702423,0.023732764222825605,0.738644267875568,0.008423846711074415,-0.1943298033438623,0.040436783456243575,1.1503358371555805,0.14717727642119177,-1.6705634072422981,5.79509362578392,16.84778481721878,0.0,0.0,0.0,0.0,0.0,0.0,0.0,0.0,0.0,0.0,0.0,0.0,0.0,0.0,0.0,0.0,True,0,3.1657369136810303,0.0349208984375
STABILIZE,3.155104875564575,29.88588040814,0.032424243291219075,0.03255033493041992,0.0,0.0,0.0,-1.8074219470851107,-1.4989209785741466,34.9661699086398,-0.0024196050086775344,0.001402862769659106,0.0040874203175980525,0.4,0.0023997218857214073,0.026201987795283307,0.7435293856812571,0.001408708897890347,0.42616529390215874,0.18911132356151938,1.6711976379156113,-0.4042268701414863,8.785020560026169,0.2056868514046073,26.007291674613953,0.0,0.0,0.0,0.0,0.0,0.0,0.0,0.0,0.0,0.0,0.0,0.0,0.0,0.0,0.0,0.0,True,0,3.19370174407959,0.039883056640625
STABILIZE,3.188584089279175,29.870343334496535,0.03240779240926107,0.0325467586517334,0.0,0.0,0.0,-1.8069133114353564,-1.4980421253270364,34.96453749342816,-0.0034820778781361754,0.003363392844910434,0.0033593522484430646,0.4,0.009755188877655517,0.02888112322596277,0.7520523862521451,-0.005832948939372248,0.42616529390215874,0.18911132356151938,1.6711976379156113,-0.4042268701414863,8.785020560026169,0.2056868514046073,26.007291674613953,0.0,0.0,0.0,0.0,0.0,0.0,0.0,0.0,0.0,0.0,0.0,0.0,0.0,0.0,0.0,0.0,True,0,3.2223966121673584,0.039883056640625
STABILIZE,3.222074270248413,29.858860547728714,0.03239301045735677,0.03253960609436035,0.0,0.0,0.0,-1.8063498208288302,-1.4987079620494068,34.97584145650453,-0.0032237605084763283,0.0039488728105249605,0.003467637122364673,0.4,0.008304125748385993,0.027477372364292214,0.7525014037040789,-0.0047185082856503685,-0.09411498322151601,-0.04857810272369534,1.2211816385388374,0.0886300954750325,-4.4394925236701965,-7.813381403684616,18.015260994434357,0.0,0.0,0.0,0.0,0.0,0.0,0.0,0.0,0.0,0.0,0.0,0.0,0.0,0.0,0.0,0.0,True,0,3.2510907649993896,0.02494384765625
STABILIZE,3.25549578666687,29.921484979704232,0.032366069157918294,0.03250741958618164,0.0,0.0,0.0,-1.805279615563254,-1.4996985529224702,34.975240399857576,-0.00400651067719383,0.004074761036289031,0.0030887238809626056,0.4,0.008712919908699828,0.029840477397406195,0.7446276661817287,-0.008451100607643603,0.038223518640734255,0.20430090371519327,1.384254265576601,-0.22301533471528953,1.4545166864991188,9.918225556612015,19.63537037372589,0.0,0.0,0.0,0.0,0.0,0.0,0.0,0.0,0.0,0.0,0.0,0.0,0.0,0.0,0.0,0.0,True,0,3.279747486114502,0.034921875
STABILIZE,3.289232015609741,29.6413054232449,0.032408746083577473,0.03279614448547363,0.0,0.0,0.0,-1.8049114256783079,-1.5001312027177083,34.981052890841255,-0.0036026950310701854,0.0057522435592744755,0.0030669615569369254,0.4,0.010779058043367528,0.028577389123974093,0.7363193405956441,-0.008610674371594901,0.138545548543334,-0.19097835756838322,1.1724370531737804,-0.024810982325188663,6.5186746418476105,-3.9968032389879227,14.144064486026764,0.0,0.0,0.0,0.0,0.0,0.0,0.0,0.0,0.0,0.0,0.0,0.0,0.0,0.0,0.0,0.0,True,0,3.3372881412506104,0.034921875
STABILIZE,3.322619915008545,29.951612442514783,0.032376797993977864,0.032509803771972656,0.0,0.0,0.0,-1.8043709869602307,-1.4993228925181195,34.98380545707677,-0.0015336949016268578,0.0043888392430834035,0.003006509569318557,0.4,0.013067511827051063,0.02458019962333422,0.7330749645338719,-0.009153961867924562,0.138545548543334,-0.19097835756838322,1.1724370531737804,-0.024810982325188663,6.5186746418476105,-3.9968032389879227,14.144064486026764,0.0,0.0,0.0,0.0,0.0,0.0,0.0,0.0,0.0,0.0,0.0,0.0,0.0,0.0,0.0,0.0,True,0,3.365973472595215,0.034921875
STABILIZE,3.3569250106811523,29.149783164683644,0.03244784673055013,0.03344559669494629,0.0,0.0,0.0,-1.8053259327835631,-1.498666874192681,34.98628823084007,-0.0020795877957486704,0.0008206345214922132,0.002858574564897168,0.4,0.008868912101718272,0.028688168656550196,0.7332033973462214,-0.010560859194518967,-0.2443092642351985,0.2917553298175335,1.3759806752204895,-0.07839337613690235,-2.9171817004680634,7.88334533572197,19.658994674682617,0.0,0.0,0.0,0.0,0.0,0.0,0.0,0.0,0.0,0.0,0.0,0.0,0.0,0.0,0.0,0.0,True,0,3.3945822715759277,0.034922119140625
STABILIZE,3.390580177307129,29.714172363713647,0.03246358235677083,0.0326085090637207,0.0,0.0,0.0,-1.8041035423655423,-1.4990473370737918,34.99032828773413,-0.0028339841763365447,0.0011072119749840261,0.002886606332368976,0.4,0.008423844984571504,0.029678237671584024,0.730681973806382,-0.010212109277361327,-0.017839866632129997,0.10499537456780672,1.2206249870359898,0.023279525847224865,-0.8339043706655502,-4.136665910482407,12.357518821954727,0.0,0.0,0.0,0.0,0.0,0.0,0.0,0.0,0.0,0.0,0.0,0.0,0.0,0.0,0.0,0.0,True,0,3.4233388900756836,0.02993310546875
STABILIZE,3.4238686561584473,30.03827202933425,0.032265694936116536,0.03239727020263672,0.0,0.0,0.0,-1.803667690919131,-1.4993806289609473,34.99160211801434,-0.0023986067024161645,0.0008099091808019903,0.0029327909670121013,0.4,0.007896282483995574,0.030473846181956924,0.7247635803072368,-0.00968552242343255,-0.017839866632129997,0.10499537456780672,1.2206249870359898,0.023279525847224865,-0.8339043706655502,-4.136665910482407,12.357518821954727,0.0,0.0,0.0,0.0,0.0,0.0,0.0,0.0,0.0,0.0,0.0,0.0,0.0,0.0,0.0,0.0,True,0,3.451972723007202,0.02993310546875
STABILIZE,3.4584240913391113,28.94080468097732,0.0324437936147054,0.03364896774291992,0.0,0.0,0.0,-1.8025317450827931,-1.4979818275632697,34.99693649575612,-0.0030994950595688753,0.00011297142547045676,0.0028915710108820864,0.4,0.00763314754542359,0.03146132017432827,0.7180750799326583,-0.010028486449559308,-0.002306120586581528,0.11713904095813632,1.151139847934246,-0.029355526062693336,4.220376536250114,1.8103260546922684,14.318439364433289,0.0,0.0,0.0,0.0,0.0,0.0,0.0,0.0,0.0,0.0,0.0,0.0,0.0,0.0,0.0,0.0,True,1,3.4806432723999023,0.069843994140625
STABILIZE,3.491877317428589,29.892270193993472,0.03240469296773275,0.0325314998626709,0.0,0.0,0.0,-1.8023658995520089,-1.4988012368202597,35.00199083574193,-0.0040564197521332996,-0.0034914335856712736,0.0038432966569236495,0.4,-0.0011095173694613504,0.0307324681844791,0.7448852288725233,-0.0005078323839094552,-0.23750364780426025,-0.006427064363379031,1.515625137835741,0.276433390440313,-4.932580888271332,-2.1208709105849266,15.415343642234802,0.0,0.0,0.0,0.0,0.0,0.0,0.0,0.0,0.0,0.0,0.0,0.0,0.0,0.0,0.0,0.0,True,0,3.537917375564575,0.034921875
STABILIZE,3.525702476501465,29.562126007005872,0.032401355107625325,0.033002614974975586,0.0,0.0,0.0,-1.8007121399992194,-1.4985765876295898,35.003213439603364,-0.003151251364619959,-0.0028245852630520317,0.003922346999492293,0.4,-0.0027964363254581034,0.031602542343649426,0.7415102701553271,0.00028076729101178505,-0.07731865043751895,0.10558987269178033,1.2776839546859264,0.02945245605196934,2.4263806641101837,5.829750373959541,18.72289925813675,0.0,0.0,0.0,0.0,0.0,0.0,0.0,0.0,0.0,0.0,0.0,0.0,0.0,0.0,0.0,0.0,True,0,3.5666844844818115,0.02993310546875
STABILIZE,3.5592498779296875,29.810686719072056,0.032506736119588216,0.032642364501953125,0.0,0.0,0.0,-1.8000289076388067,-1.4983943069561152,35.008441949413005,-0.0019193169015704736,-0.0021192654611518215,0.0035672854807996712,0.4,-0.001080791325242148,0.02878162754451573,0.7360255193067902,-0.003248100981110081,0.10301228612661362,-0.09032858652062714,1.339183747768402,-0.20535210533587955,2.929665893316269,-1.9859673455357552,19.551117718219757,0.0,0.0,0.0,0.0,0.0,0.0,0.0,0.0,0.0,0.0,0.0,0.0,0.0,0.0,0.0,0.0,True,0,3.5964412689208984,0.0698427734375
STABILIZE,3.5927908420562744,29.813653293906913,0.0324130376180013,0.032561302185058594,0.0,0.0,0.0,-1.8000058557503578,-1.5001746384519612,35.01222245911861,-0.0020643863311070212,-0.0021628039579606926,0.0029399533655699826,0.4,-0.0016840402374802164,0.02991381742359316,0.7567294913586161,-0.009458106571086502,0.007527034904342145,0.0711188476998359,1.2812893837690353,-0.3287638986225706,3.1960517168045044,3.8053378462791443,17.760510742664337,0.0,0.0,0.0,0.0,0.0,0.0,0.0,0.0,0.0,0.0,0.0,0.0,0.0,0.0,0.0,0.0,True,0,3.6246097087860107,0.034922119140625
STABILIZE,3.6261301040649414,29.99380716395283,0.032337458928426106,0.03245091438293457,0.0,0.0,0.0,-1.8001279453817718,-1.5006309804658826,35.013332364858734,-0.00184301877036875,-0.002076695517722845,0.0023059340015845697,0.4,-0.0016541400660421237,0.03009171720110898,0.7512795721468164,-0.01569340001735273,0.007527034904342145,0.0711188476998359,1.2812893837690353,-0.3287638986225706,3.1960517168045044,3.8053378462791443,17.760510742664337,0.0,0.0,0.0,0.0,0.0,0.0,0.0,0.0,0.0,0.0,0.0,0.0,0.0,0.0,0.0,0.0,True,0,3.6530234813690186,0.034922119140625
STABILIZE,3.6600661277770996,29.471145806252153,0.03240159352620443,0.032937049865722656,0.0,0.0,0.0,-1.7996792873306666,-1.5002444344475423,35.018632591654665,-0.002331648330564542,0.0003141947838401497,0.0028711197360011638,0.4,-0.002326401188702977,0.030897255201254244,0.7503521356394864,-0.009974012043832515,-0.029680720763280988,0.10279014240950346,1.4947881922125816,0.283737637427407,1.1682339012622833,-1.9742341712117195,20.62269151210785,0.0,0.0,0.0,0.0,0.0,0.0,0.0,0.0,0.0,0.0,0.0,0.0,0.0,0.0,0.0,0.0,True,1,3.6817679405212402,0.034921875
