Mode,Time,Freq,North-Vision,East-Vision,Down-Vision,Yaw-Vision,North-Desired,East-Desired,Down-Desired,Roll-UAV,Pitch-UAV,Yaw-UAV,Roll-Control,Pitch-Control,Yaw-Control,Thrust-Control
GUIDED_NOGPS,0.002081632614135742,492.8676850763807,0.0,0.0,0.0,0.0,300,0,30,0.6779876822647674,-2.313467887927005,76.56522531273819,-0.0,10.0,0.0,1.236270175545699
GUIDED_NOGPS,0.0031998157501220703,889.7547730165464,0.0,0.0,0.0,0.0,300,0,30,0.6779876822647674,-2.313467887927005,76.56522531273819,-0.0,10.0,0.0,0.5030014393806458
GUIDED_NOGPS,0.004299163818359375,915.3871671759057,0.0,0.0,0.0,0.0,300,0,30,0.6779876822647674,-2.313467887927005,76.56522531273819,-0.0,10.0,0.0,0.5030020318984986
GUIDED_NOGPS,0.009885549545288086,179.3203933304831,0.0,0.0,0.0,0.0,300,0,30,0.6557618198187227,-2.417226572269138,76.58628278594934,-0.0,10.0,0.0,0.5030032675743104
GUIDED_NOGPS,0.023811817169189453,71.8522629937986,0.0,0.0,0.0,0.0,300,0,30,0.5738475211853185,-2.5111480766591603,76.63701060091502,-0.0,10.0,0.0,0.5030111319541931
GUIDED_NOGPS,0.029622554779052734,172.24360395876965,0.0,0.0,0.0,0.0,300,0,30,0.5738475211853185,-2.5111480766591603,76.63701060091502,-0.0,10.0,0.0,0.503014557170868
GUIDED_NOGPS,0.033440589904785156,262.8174697662761,0.0,0.0,0.0,0.0,300,0,30,0.5738475211853185,-2.5111480766591603,76.63701060091502,-0.0,10.0,0.0,0.5030194101810456
GUIDED_NOGPS,0.03526568412780762,550.1448058761805,0.0,0.0,0.0,0.0,300,0,30,0.5738475211853185,-2.5111480766591603,76.63701060091502,-0.0,10.0,0.0,0.503020312833786
GUIDED_NOGPS,0.048975467681884766,73.02951264952205,0.0,0.0,0.0,0.0,300,0,30,0.503395560639665,-2.584231954551943,76.68871513293202,-0.0,10.0,0.0,0.5030218540668487
GUIDED_NOGPS,0.050676584243774414,590.2482409231635,0.0,0.0,0.0,0.0,300,0,30,0.503395560639665,-2.584231954551943,76.68871513293202,-0.0,10.0,0.0,0.5030296746730805
GUIDED_NOGPS,0.05185747146606445,852.6741207562512,0.0,0.0,0.0,0.0,300,0,30,0.503395560639665,-2.584231954551943,76.68871513293202,-0.0,10.0,0.0,0.5030305033683777
GUIDED_NOGPS,0.05488944053649902,333.5430616302187,0.0,0.0,0.0,0.0,300,0,30,0.44880239221228196,-2.5948780850338773,76.72447117323703,-0.0,10.0,0.0,0.5030312133312226
GUIDED_NOGPS,0.05743265151977539,392.21095941649526,0.0,0.0,0.0,0.0,300,0,30,0.44880239221228196,-2.5948780850338773,76.72447117323703,-0.0,10.0,0.0,0.5030335391998291
GUIDED_NOGPS,0.061133623123168945,270.68757663762506,0.0,0.0,0.0,0.0,300,0,30,0.44880239221228196,-2.5948780850338773,76.72447117323703,-0.0,10.0,0.0,0.5030361713409424
GUIDED_NOGPS,0.06314921379089355,497.7220837783316,0.0,0.0,0.0,0.0,300,0,30,0.44880239221228196,-2.5948780850338773,76.72447117323703,-0.0,10.0,0.0,0.5030368521213532
GUIDED_NOGPS,0.06454324722290039,721.4145166838665,0.0,0.0,0.0,0.0,300,0,30,0.44880239221228196,-2.5948780850338773,76.72447117323703,-0.0,10.0,0.0,0.5030379606246949
GUIDED_NOGPS,0.06843185424804688,258.01574803149606,0.0,0.0,0.0,0.0,300,0,30,0.4300005356136765,-2.5964976936408166,76.76453706290833,-0.0,10.0,0.0,0.5030387977600098
GUIDED_NOGPS,0.06944632530212402,991.7956963821234,0.0,0.0,0.0,0.0,300,0,30,0.4300005356136765,-2.5964976936408166,76.76453706290833,-0.0,10.0,0.0,0.5030411476612091
GUIDED_NOGPS,0.07032012939453125,1156.411359250069,0.0,0.0,0.0,0.0,300,0,30,0.4300005356136765,-2.5964976936408166,76.76453706290833,-0.0,10.0,0.0,0.5030417132854461
GUIDED_NOGPS,0.07135200500488281,981.1237426900585,0.0,0.0,0.0,0.0,300,0,30,0.4300005356136765,-2.5964976936408166,76.76453706290833,-0.0,10.0,0.0,0.5030422441482544
GUIDED_NOGPS,0.07240104675292969,957.6036529680365,0.0,0.0,0.0,0.0,300,0,30,0.4300005356136765,-2.5964976936408166,76.76453706290833,-0.0,10.0,0.0,0.5030428864479065
GUIDED_NOGPS,0.07336091995239258,1050.6773547094188,0.0,0.0,0.0,0.0,300,0,30,0.4300005356136765,-2.5964976936408166,76.76453706290833,-0.0,10.0,0.0,0.5030434876918792
GUIDED_NOGPS,0.0746314525604248,807.0625360785068,0.0,0.0,0.0,0.0,300,0,30,0.4300005356136765,-2.5964976936408166,76.76453706290833,-0.0,10.0,0.0,0.5030440624713898
GUIDED_NOGPS,0.07578587532043457,863.3808151502676,0.0,0.0,0.0,0.0,300,0,30,0.4300005356136765,-2.5964976936408166,76.76453706290833,-0.0,10.0,0.0,0.5030449456691742
GUIDED_NOGPS,0.07681083679199219,984.3473363060315,0.0,0.0,0.0,0.0,300,0,30,0.4300005356136765,-2.5964976936408166,76.76453706290833,-0.0,10.0,0.0,0.5030455214500428
GUIDED_NOGPS,0.07789087295532227,937.693717862732,0.0,0.0,0.0,0.0,300,0,30,0.4300005356136765,-2.5964976936408166,76.76453706290833,-0.0,10.0,0.0,0.5030461776256562
GUIDED_NOGPS,0.07889747619628906,1000.3109945146673,0.0,0.0,0.0,0.0,300,0,30,0.4300005356136765,-2.5964976936408166,76.76453706290833,-0.0,10.0,0.0,0.5030467927455902
GUIDED_NOGPS,0.07981562614440918,1098.5605028810896,0.0,0.0,0.0,0.0,300,0,30,0.4300005356136765,-2.5964976936408166,76.76453706290833,-0.0,10.0,0.0,0.5030473864078522
GUIDED_NOGPS,0.08075261116027832,1077.3963524274338,0.0,0.0,0.0,0.0,300,0,30,0.4300005356136765,-2.5964976936408166,76.76453706290833,-0.0,10.0,0.0,0.5030479325771332
GUIDED_NOGPS,0.08710289001464844,157.66874671077363,0.0,0.0,0.0,0.0,300,0,30,0.4003961745537405,-2.5731529608313592,76.79946665032378,-0.0,10.0,0.0,0.5030505771636963
GUIDED_NOGPS,0.08938932418823242,438.9643118785976,0.0,0.0,0.0,0.0,300,0,30,0.4003961745537405,-2.5731529608313592,76.79946665032378,-0.0,10.0,0.0,0.5030523238182067
GUIDED_NOGPS,0.0919339656829834,395.12991050400376,0.0,0.0,0.0,0.0,300,0,30,0.3525054227341234,-2.479698470625837,76.84535869135709,-0.0,10.0,0.0,0.5030538746356964
GUIDED_NOGPS,0.09557962417602539,274.71207754781244,0.0,0.0,0.0,0.0,300,0,30,0.3525054227341234,-2.479698470625837,76.84535869135709,-0.0,10.0,0.0,0.5030562914848328
GUIDED_NOGPS,0.09789013862609863,434.4178146038322,0.0,0.0,0.0,0.0,300,0,30,0.3079606631950192,-2.331269922224997,76.89724080829251,-0.0,10.0,0.0,0.5030579910755157
GUIDED_NOGPS,0.10032248497009277,412.13559988208704,0.0,0.0,0.0,0.0,300,0,30,0.3079606631950192,-2.331269922224997,76.89724080829251,-0.0,10.0,0.0,0.5030592543601989
GUIDED_NOGPS,0.10358023643493652,309.47421235150887,0.0,0.0,0.0,0.0,300,0,30,0.2954866833777396,-2.1355348433024144,76.94756564209716,-0.0,10.0,0.0,0.5030611778259277
GUIDED_NOGPS,0.10761332511901855,249.02357062281067,0.0,0.0,0.0,0.0,300,0,30,0.2954866833777396,-2.1355348433024144,76.94756564209716,-0.0,10.0,0.0,0.5030623132228851
GUIDED_NOGPS,0.1206667423248291,76.6895341183354,0.0,0.0,0.0,0.0,300,0,30,0.2954866833777396,-2.1355348433024144,76.94756564209716,-0.0,10.0,0.0,0.5030647207736969
GUIDED_NOGPS,0.13453459739685059,72.11540379291965,0.0,0.0,0.0,0.0,300,0,30,0.30461293668678735,-1.0616227059974288,77.15299041157446,-0.0,10.0,0.0,0.503079885482788
GUIDED_NOGPS,0.1354820728302002,1060.5067003792667,0.0,0.0,0.0,0.0,300,0,30,0.30461293668678735,-1.0616227059974288,77.15299041157446,-0.0,10.0,0.0,0.5030808153152466
GUIDED_NOGPS,0.13689684867858887,784.7154349859682,0.0,0.0,0.0,0.0,300,0,30,0.30461293668678735,-1.0616227059974288,77.15299041157446,-0.0,10.0,0.0,0.5030812983989715
GUIDED_NOGPS,0.13792705535888672,972.254056560037,0.0,0.0,0.0,0.0,300,0,30,0.30461293668678735,-1.0616227059974288,77.15299041157446,-0.0,10.0,0.0,0.5030822519779206
GUIDED_NOGPS,0.13875865936279297,1211.876336318983,0.0,0.0,0.0,0.0,300,0,30,0.30461293668678735,-1.0616227059974288,77.15299041157446,-0.0,10.0,0.0,0.5030827713966369
GUIDED_NOGPS,0.1396951675415039,1074.6359210863438,0.0,0.0,0.0,0.0,300,0,30,0.30461293668678735,-1.0616227059974288,77.15299041157446,-0.0,10.0,0.0,0.5030832706451416
GUIDED_NOGPS,0.14174866676330566,489.47415100945267,0.0,0.0,0.0,0.0,300,0,30,0.30461293668678735,-1.0616227059974288,77.15299041157446,-0.0,10.0,0.0,0.5030839209556579
GUIDED_NOGPS,0.14380717277526855,487.4830311483031,0.0,0.0,0.0,0.0,300,0,30,0.30461293668678735,-1.0616227059974288,77.15299041157446,-0.0,10.0,0.0,0.5030854094028473
GUIDED_NOGPS,0.14570879936218262,529.9183828174353,0.0,0.0,0.0,0.0,300,0,30,0.2859974962277556,-0.5871577456086751,77.20765924569125,-0.0,10.0,0.0,0.5030867193222046
GUIDED_NOGPS,0.15877485275268555,76.584512571439,0.0,0.0,0.0,0.0,300,0,30,0.2859974962277556,-0.5871577456086751,77.20765924569125,-0.0,10.0,0.0,0.5030945186138153
GUIDED_NOGPS,0.16129684448242188,397.489006823351,0.0,0.0,0.0,0.0,300,0,30,0.2859974962277556,-0.5871577456086751,77.20765924569125,-0.0,10.0,0.0,0.5030957979202271
GUIDED_NOGPS,0.16386914253234863,389.91391651947566,0.0,0.0,0.0,0.0,300,0,30,0.26419780023332273,-0.05121846800801491,77.24588098428664,-0.0,10.0,0.0,0.5030971292972565
GUIDED_NOGPS,0.16648364067077637,383.8125915080527,0.0,0.0,0.0,0.0,300,0,30,0.26419780023332273,-0.05121846800801491,77.24588098428664,-0.0,10.0,0.0,0.5030983326435089
GUIDED_NOGPS,0.16745352745056152,1038.7082714214957,0.0,0.0,0.0,0.0,300,0,30,0.26419780023332273,-0.05121846800801491,77.24588098428664,-0.0,10.0,0.0,0.5030999189376831
GUIDED_NOGPS,0.16855859756469727,911.8052173913044,0.0,0.0,0.0,0.0,300,0,30,0.26419780023332273,-0.05121846800801491,77.24588098428664,-0.0,10.0,0.0,0.5031004772663117
GUIDED_NOGPS,0.16967129707336426,903.5553640672124,0.0,0.0,0.0,0.0,300,0,30,0.26419780023332273,-0.05121846800801491,77.24588098428664,-0.0,10.0,0.0,0.5031011387348175
GUIDED_NOGPS,0.17211627960205078,413.06913531613156,0.0,0.0,0.0,0.0,300,0,30,0.3166484503758638,0.5147783376957557,77.2882554778974,-0.0,10.0,0.0,0.5031021832942962
GUIDED_NOGPS,0.1732931137084961,848.7057871307163,0.0,0.0,0.0,0.0,300,0,30,0.3166484503758638,0.5147783376957557,77.2882554778974,-0.0,10.0,0.0,0.5031034166812897
GUIDED_NOGPS,0.17525529861450195,511.0642134763007,0.0,0.0,0.0,0.0,300,0,30,0.3166484503758638,0.5147783376957557,77.2882554778974,-0.0,10.0,0.0,0.5031039721488952
GUIDED_NOGPS,0.1794729232788086,237.71843119474042,0.0,0.0,0.0,0.0,300,0,30,0.3166484503758638,0.5147783376957557,77.2882554778974,-0.0,10.0,0.0,0.5031070925235749
GUIDED_NOGPS,0.18276309967041016,305.0402909090909,0.0,0.0,0.0,0.0,300,0,30,0.36004101569892505,1.10994095828998,77.34933785964482,-0.0,10.0,0.0,0.5031085071563721
GUIDED_NOGPS,0.19150185585021973,114.53900980365384,0.0,0.0,0.0,0.0,300,0,30,0.36004101569892505,1.10994095828998,77.34933785964482,-0.0,10.0,0.0,0.5031142066001892
GUIDED_NOGPS,0.19412565231323242,383.8125915080527,0.0,0.0,0.0,0.0,300,0,30,0.36004101569892505,1.10994095828998,77.34933785964482,-0.0,10.0,0.0,0.5031155492782593
GUIDED_NOGPS,0.200178861618042,165.20162275000985,0.0,0.0,0.0,0.0,300,0,30,0.3842489937060221,2.409946871274374,77.48125613327444,-0.0,10.0,0.0,0.5031183629512787
GUIDED_NOGPS,0.20201778411865234,546.7740842132707,0.0,0.0,0.0,0.0,300,0,30,0.3842489937060221,2.409946871274374,77.48125613327444,-0.0,10.0,0.0,0.503120614862442
GUIDED_NOGPS,0.2042539119720459,448.9728109612503,0.0,0.0,0.0,0.0,300,0,30,0.3842489937060221,2.409946871274374,77.48125613327444,-0.0,10.0,0.0,0.5031212038040161
GUIDED_NOGPS,0.2063591480255127,476.30070406540995,0.0,0.0,0.0,0.0,300,0,30,0.3842489937060221,2.409946871274374,77.48125613327444,-0.0,10.0,0.0,0.5031232431411743
GUIDED_NOGPS,0.20776057243347168,717.2202462380301,0.0,0.0,0.0,0.0,300,0,30,0.3842489937060221,2.409946871274374,77.48125613327444,-0.0,10.0,0.0,0.5031240555286407
GUIDED_NOGPS,0.20956182479858398,577.8074114891858,0.0,0.0,0.0,0.0,300,0,30,0.39851218960115414,3.0425743601265873,77.51268183364567,-0.0,10.0,0.0,0.5031249710559845
GUIDED_NOGPS,0.21248173713684082,340.0603210637263,0.0,0.0,0.0,0.0,300,0,30,0.39851218960115414,3.0425743601265873,77.51268183364567,-0.0,10.0,0.0,0.5031264397621155
GUIDED_NOGPS,0.21803712844848633,180.35362917096663,0.0,0.0,0.0,0.0,300,0,30,0.384995191872846,3.628968298486985,77.53535806169012,-0.0,10.0,0.0,0.5031301217556
GUIDED_NOGPS,0.21985554695129395,552.3181459046616,0.0,0.0,0.0,0.0,300,0,30,0.384995191872846,3.628968298486985,77.53535806169012,-0.0,10.0,0.0,0.5031309485912323
GUIDED_NOGPS,0.22104310989379883,849.5653230706907,0.0,0.0,0.0,0.0,300,0,30,0.384995191872846,3.628968298486985,77.53535806169012,-0.0,10.0,0.0,0.5031319134712219
GUIDED_NOGPS,0.2220287322998047,1023.7500610202587,0.0,0.0,0.0,0.0,300,0,30,0.384995191872846,3.628968298486985,77.53535806169012,-0.0,10.0,0.0,0.5031325979709625
GUIDED_NOGPS,0.2230067253112793,1036.6544735541274,0.0,0.0,0.0,0.0,300,0,30,0.384995191872846,3.628968298486985,77.53535806169012,-0.0,10.0,0.0,0.503133180475235
GUIDED_NOGPS,0.22398829460144043,1027.2603477834925,0.0,0.0,0.0,0.0,300,0,30,0.384995191872846,3.628968298486985,77.53535806169012,-0.0,10.0,0.0,0.5031337672710419
GUIDED_NOGPS,0.22501707077026367,981.5829627896092,0.0,0.0,0.0,0.0,300,0,30,0.384995191872846,3.628968298486985,77.53535806169012,-0.0,10.0,0.0,0.5031343554973602
GUIDED_NOGPS,0.22600078582763672,1023.0009756097561,0.0,0.0,0.0,0.0,300,0,30,0.384995191872846,3.628968298486985,77.53535806169012,-0.0,10.0,0.0,0.5031349749088287
GUIDED_NOGPS,0.22701454162597656,995.0899169632265,0.0,0.0,0.0,0.0,300,0,30,0.384995191872846,3.628968298486985,77.53535806169012,-0.0,10.0,0.0,0.5031355549812316
GUIDED_NOGPS,0.22804784774780273,976.3277467411546,0.0,0.0,0.0,0.0,300,0,30,0.384995191872846,3.628968298486985,77.53535806169012,-0.0,10.0,0.0,0.5031361678123474
GUIDED_NOGPS,0.22944116592407227,722.0354622138061,0.0,0.0,0.0,0.0,300,0,30,0.384995191872846,3.628968298486985,77.53535806169012,-0.0,10.0,0.0,0.5031367892265319
GUIDED_NOGPS,0.23619341850280762,148.2295730845349,0.0,0.0,0.0,0.0,300,0,30,0.39513874316182895,4.78523821647375,77.64867090002063,-0.0,10.0,0.0,0.503141091632843
GUIDED_NOGPS,0.2373361587524414,880.2316894018887,0.0,0.0,0.0,0.0,300,0,30,0.39513874316182895,4.78523821647375,77.64867090002063,-0.0,10.0,0.0,0.5031417595386505
GUIDED_NOGPS,0.23828697204589844,1058.0988900100908,0.0,0.0,0.0,0.0,300,0,30,0.39513874316182895,4.78523821647375,77.64867090002063,-0.0,10.0,0.0,0.5031424134254455
GUIDED_NOGPS,0.23941779136657715,912.0034790171776,0.0,0.0,0.0,0.0,300,0,30,0.39513874316182895,4.78523821647375,77.64867090002063,-0.0,10.0,0.0,0.5031429472923279
GUIDED_NOGPS,0.24111604690551758,586.1240916713248,0.0,0.0,0.0,0.0,300,0,30,0.39513874316182895,4.78523821647375,77.64867090002063,-0.0,10.0,0.0,0.5031439934253693
GUIDED_NOGPS,0.24294734001159668,548.2033721082212,0.0,0.0,0.0,0.0,300,0,30,0.3687872596941115,5.356264229201618,77.70835992317737,-0.0,10.0,0.0,0.5031447460174561
GUIDED_NOGPS,0.24405145645141602,911.01303214596,0.0,0.0,0.0,0.0,300,0,30,0.3687872596941115,5.356264229201618,77.70835992317737,-0.0,10.0,0.0,0.5031458415031433
GUIDED_NOGPS,0.24523162841796875,852.1544087769199,0.0,0.0,0.0,0.0,300,0,30,0.3687872596941115,5.356264229201618,77.70835992317737,-0.0,10.0,0.0,0.5031465275764465
GUIDED_NOGPS,0.24771356582641602,404.1923484629469,0.0,0.0,0.0,0.0,300,0,30,0.3687872596941115,5.356264229201618,77.70835992317737,-0.0,10.0,0.0,0.5031478712558747
GUIDED_NOGPS,0.25013136863708496,415.9777843895666,0.0,0.0,0.0,0.0,300,0,30,0.3687872596941115,5.356264229201618,77.70835992317737,-0.0,10.0,0.0,0.5031485719203949
GUIDED_NOGPS,0.25155138969421387,707.5411605937921,0.0,0.0,0.0,0.0,300,0,30,0.3687872596941115,5.356264229201618,77.70835992317737,-0.0,10.0,0.0,0.5031500952720642
GUIDED_NOGPS,0.255051851272583,286.2615342615343,0.0,0.0,0.0,0.0,300,0,30,0.34826969159251053,5.881046019267092,77.75380117172547,-0.0,10.0,0.0,0.5031517925739288
GUIDED_NOGPS,0.25616955757141113,899.8721304441107,0.0,0.0,0.0,0.0,300,0,30,0.34826969159251053,5.881046019267092,77.75380117172547,-0.0,10.0,0.0,0.5031530497074127
GUIDED_NOGPS,0.2573282718658447,871.8154229889835,0.0,0.0,0.0,0.0,300,0,30,0.34826969159251053,5.881046019267092,77.75380117172547,-0.0,10.0,0.0,0.5031536947250366
GUIDED_NOGPS,0.2588622570037842,653.7256857855361,0.0,0.0,0.0,0.0,300,0,30,0.34826969159251053,5.881046019267092,77.75380117172547,-0.0,10.0,0.0,0.5031543745040894
GUIDED_NOGPS,0.26098012924194336,474.6835672249887,0.0,0.0,0.0,0.0,300,0,30,0.34826969159251053,5.881046019267092,77.75380117172547,-0.0,10.0,0.0,0.5031553363800049
GUIDED_NOGPS,0.2630956172943115,475.27524079320114,0.0,0.0,0.0,0.0,300,0,30,0.34826969159251053,5.881046019267092,77.75380117172547,-0.0,10.0,0.0,0.5031567339897156
GUIDED_NOGPS,0.28183984756469727,53.35993079232609,0.0,0.0,0.0,0.0,300,0,30,0.2474500696667457,6.780095708866231,77.78933864597704,-0.0,10.0,0.0,0.5031578359127045
GUIDED_NOGPS,0.28273916244506836,1117.8848614072494,0.0,0.0,0.0,0.0,300,0,30,0.2474500696667457,6.780095708866231,77.78933864597704,-0.0,10.0,0.0,0.5031690402507782
GUIDED_NOGPS,0.28400111198425293,796.034162080091,0.0,0.0,0.0,0.0,300,0,30,0.2474500696667457,6.780095708866231,77.78933864597704,-0.0,10.0,0.0,0.5031697310447693
GUIDED_NOGPS,0.2882089614868164,238.0422247446084,0.0,0.0,0.0,0.0,300,0,30,0.2474500696667457,6.780095708866231,77.78933864597704,-0.0,10.0,0.0,0.503172141456604
GUIDED_NOGPS,0.2906646728515625,408.4432758788587,0.0,0.0,0.0,0.0,300,0,30,0.2474500696667457,6.780095708866231,77.78933864597704,-0.0,10.0,0.0,0.503172838973999
GUIDED_NOGPS,0.2918086051940918,880.6013017006088,0.0,0.0,0.0,0.0,300,0,30,0.2474500696667457,6.780095708866231,77.78933864597704,-0.0,10.0,0.0,0.503174453163147
GUIDED_NOGPS,0.2935445308685303,578.365140650855,0.0,0.0,0.0,0.0,300,0,30,0.2474500696667457,6.780095708866231,77.78933864597704,-0.0,10.0,0.0,0.5031750100612641
GUIDED_NOGPS,0.3025939464569092,110.6180341271725,0.0,0.0,0.0,0.0,300,0,30,0.2474500696667457,6.780095708866231,77.78933864597704,-0.0,10.0,0.0,0.5031806494235992
GUIDED_NOGPS,0.3042755126953125,597.7346444349437,0.0,0.0,0.0,0.0,300,0,30,0.2474500696667457,6.780095708866231,77.78933864597704,-0.0,10.0,0.0,0.5031816876888275
GUIDED_NOGPS,0.30599164962768555,585.7148442954895,0.0,0.0,0.0,0.0,300,0,30,0.2474500696667457,6.780095708866231,77.78933864597704,-0.0,10.0,0.0,0.5031826697349548
GUIDED_NOGPS,0.30767297744750977,601.4201319185546,0.0,0.0,0.0,0.0,300,0,30,0.2474500696667457,6.780095708866231,77.78933864597704,-0.0,10.0,0.0,0.5031836966991424
GUIDED_NOGPS,0.3098921775817871,453.0464463166991,0.0,0.0,0.0,0.0,300,0,30,0.2474500696667457,6.780095708866231,77.78933864597704,-0.0,10.0,0.0,0.5031847345352173
GUIDED_NOGPS,0.31311845779418945,310.62015848330003,0.0,0.0,0.0,0.0,300,0,30,0.2474500696667457,6.780095708866231,77.78933864597704,-0.0,10.0,0.0,0.5031863686084748
GUIDED_NOGPS,0.3287808895111084,63.871352865931655,0.0,0.0,0.0,0.0,300,0,30,-0.0009083884791852505,8.380847871054392,77.91153756041774,-0.0,10.0,0.0,0.5031961268424988
GUIDED_NOGPS,0.33015871047973633,730.8423070221293,0.0,0.0,0.0,0.0,300,0,30,-0.0009083884791852505,8.380847871054392,77.91153756041774,-0.0,10.0,0.0,0.5031973689556122
GUIDED_NOGPS,0.332751989364624,387.14269891083626,0.0,0.0,0.0,0.0,300,0,30,-0.0009083884791852505,8.380847871054392,77.91153756041774,-0.0,10.0,0.0,0.5031982397079467
GUIDED_NOGPS,0.3441028594970703,88.41281618887015,0.0,0.0,0.0,0.0,300,0,30,-0.0009083884791852505,8.380847871054392,77.91153756041774,-0.0,10.0,0.0,0.5032045471191406
GUIDED_NOGPS,0.34690022468566895,356.4160435078178,0.0,0.0,0.0,0.0,300,0,30,-0.0009083884791852505,8.380847871054392,77.91153756041774,-0.0,10.0,0.0,0.5032070555210113
GUIDED_NOGPS,0.34836626052856445,684.4490861618799,0.0,0.0,0.0,0.0,300,0,30,-0.0009083884791852505,8.380847871054392,77.91153756041774,-0.0,10.0,0.0,0.5032082176685333
GUIDED_NOGPS,0.35036492347717285,501.83106006221584,0.0,0.0,0.0,0.0,300,0,30,-0.018164327808693558,8.585114069693732,77.91127801322928,-0.0,10.0,0.0,0.5032090320587158
GUIDED_NOGPS,0.3523862361907959,496.3673372781065,0.0,0.0,0.0,0.0,300,0,30,-0.018164327808693558,8.585114069693732,77.91127801322928,-0.0,10.0,0.0,0.5032102803230286
GUIDED_NOGPS,0.35378432273864746,719.5580717104134,0.0,0.0,0.0,0.0,300,0,30,-0.018164327808693558,8.585114069693732,77.91127801322928,-0.0,10.0,0.0,0.5032114240169525
GUIDED_NOGPS,0.355682373046875,528.8493254318497,0.0,0.0,0.0,0.0,300,0,30,-0.02870026812940846,8.786133367156378,77.9323218260621,-0.0,10.0,0.0,0.5032123914718628
GUIDED_NOGPS,0.35854196548461914,350.57706452691406,0.0,0.0,0.0,0.0,300,0,30,-0.02870026812940846,8.786133367156378,77.9323218260621,-0.0,10.0,0.0,0.5032133972644806
GUIDED_NOGPS,0.36083340644836426,437.63606010016696,0.0,0.0,0.0,0.0,300,0,30,-0.022017474975293116,8.948248760880276,77.97779039536687,-0.0,10.0,0.0,0.5032152798175812
GUIDED_NOGPS,0.36231303215026855,679.2395141700405,0.0,0.0,0.0,0.0,300,0,30,-0.022017474975293116,8.948248760880276,77.97779039536687,-0.0,10.0,0.0,0.503216570854187
GUIDED_NOGPS,0.36572957038879395,293.73933748861964,0.0,0.0,0.0,0.0,300,0,30,-0.022017474975293116,8.948248760880276,77.97779039536687,-0.0,10.0,0.0,0.5032172653675079
GUIDED_NOGPS,0.36769556999206543,509.57404932571984,0.0,0.0,0.0,0.0,300,0,30,-0.03928640767248032,9.058678405607397,78.01081436000388,-0.0,10.0,0.0,0.5032195261478424
GUIDED_NOGPS,0.37136077880859375,273.5475119024327,0.0,0.0,0.0,0.0,300,0,30,-0.03928640767248032,9.058678405607397,78.01081436000388,-0.0,10.0,0.0,0.5032205214977264
GUIDED_NOGPS,0.3736460208892822,439.5162946662475,0.0,0.0,0.0,0.0,300,0,30,-0.03928640767248032,9.058678405607397,78.01081436000388,-0.0,10.0,0.0,0.5032231949806213
GUIDED_NOGPS,0.3784193992614746,210.23026414716054,0.0,0.0,0.0,0.0,300,0,30,-0.03928640767248032,9.058678405607397,78.01081436000388,-0.0,10.0,0.0,0.5032261504173279
GUIDED_NOGPS,0.3800508975982666,615.6324673418464,0.0,0.0,0.0,0.0,300,0,30,-0.03928640767248032,9.058678405607397,78.01081436000388,-0.0,10.0,0.0,0.5032269223213196
GUIDED_NOGPS,0.38236045837402344,435.2292207118398,0.0,0.0,0.0,0.0,300,0,30,-0.06634073361404794,9.14480623726761,78.03143470110814,-0.0,10.0,0.0,0.5032280578613281
GUIDED_NOGPS,0.38549208641052246,319.90725345130045,0.0,0.0,0.0,0.0,300,0,30,-0.06634073361404794,9.14480623726761,78.03143470110814,-0.0,10.0,0.0,0.5032298564434051
GUIDED_NOGPS,0.388655424118042,316.6946541830263,0.0,0.0,0.0,0.0,300,0,30,-0.06634073361404794,9.14480623726761,78.03143470110814,-0.0,10.0,0.0,0.503232196187973
GUIDED_NOGPS,0.3989982604980469,96.75664951902004,0.0,0.0,0.0,0.0,300,0,30,-0.10094572696135887,9.221197634265971,78.03725402228099,-0.0,10.0,0.0,0.5032382692813874
GUIDED_NOGPS,0.4014875888824463,402.8336534767576,0.0,0.0,0.0,0.0,300,0,30,-0.07063911039695447,9.19345340585738,78.05102368364774,-0.0,10.0,0.0,0.5032396518707275
GUIDED_NOGPS,0.40375566482543945,442.06408094435074,0.0,0.0,0.0,0.0,300,0,30,-0.07063911039695447,9.19345340585738,78.05102368364774,-0.0,10.0,0.0,0.5032415430068969
GUIDED_NOGPS,0.4054989814758301,575.8242723778144,0.0,0.0,0.0,0.0,300,0,30,-0.07063911039695447,9.19345340585738,78.05102368364774,-0.0,10.0,0.0,0.503242464542389
GUIDED_NOGPS,0.4064793586730957,1025.2515277438279,0.0,0.0,0.0,0.0,300,0,30,-0.07063911039695447,9.19345340585738,78.05102368364774,-0.0,10.0,0.0,0.5032432373046875
GUIDED_NOGPS,0.40997934341430664,286.3201583725852,0.0,0.0,0.0,0.0,300,0,30,-0.07063911039695447,9.19345340585738,78.05102368364774,-0.0,10.0,0.0,0.5032437334060669
GUIDED_NOGPS,0.41217827796936035,456.49804092294295,0.0,0.0,0.0,0.0,300,0,30,-0.0577629498314375,9.168893753149307,78.07548259106555,-0.0,10.0,0.0,0.5032459605693818
GUIDED_NOGPS,0.41770005226135254,181.38315170385746,0.0,0.0,0.0,0.0,300,0,30,-0.0577629498314375,9.168893753149307,78.07548259106555,-0.0,10.0,0.0,0.5032473062515259
GUIDED_NOGPS,0.41956114768981934,544.2200596859998,0.0,0.0,0.0,0.0,300,0,30,-0.0577629498314375,9.168893753149307,78.07548259106555,-0.0,10.0,0.0,0.5032506050109863
GUIDED_NOGPS,0.42412805557250977,218.6925282861463,0.0,0.0,0.0,0.0,300,0,30,-0.08063453195831279,9.150185865012642,78.10323364966332,-0.0,10.0,0.0,0.5032534578800202
GUIDED_NOGPS,0.4258105754852295,597.1389521640091,0.0,0.0,0.0,0.0,300,0,30,-0.08063453195831279,9.150185865012642,78.10323364966332,-0.0,10.0,0.0,0.5032544447898865
GUIDED_NOGPS,0.4272043704986572,721.2904557179708,0.0,0.0,0.0,0.0,300,0,30,-0.08063453195831279,9.150185865012642,78.10323364966332,-0.0,10.0,0.0,0.5032554245471954
GUIDED_NOGPS,0.42838191986083984,853.8892508143323,0.0,0.0,0.0,0.0,300,0,30,-0.08063453195831279,9.150185865012642,78.10323364966332,-0.0,10.0,0.0,0.5032562658309937
GUIDED_NOGPS,0.42945265769958496,940.6378111684235,0.0,0.0,0.0,0.0,300,0,30,-0.08063453195831279,9.150185865012642,78.10323364966332,-0.0,10.0,0.0,0.5032569370269775
GUIDED_NOGPS,0.43616533279418945,149.11490329920363,0.0,0.0,0.0,0.0,300,0,30,-0.09926744809666624,9.107826739327516,78.1168120657333,-0.0,10.0,0.0,0.5032609766483307
GUIDED_NOGPS,0.43729352951049805,894.1172457898102,0.0,0.0,0.0,0.0,300,0,30,-0.09926744809666624,9.107826739327516,78.1168120657333,-0.0,10.0,0.0,0.5032616079330444
GUIDED_NOGPS,0.4385645389556885,791.3781132075471,0.0,0.0,0.0,0.0,300,0,30,-0.09926744809666624,9.107826739327516,78.1168120657333,-0.0,10.0,0.0,0.5032623425006867
GUIDED_NOGPS,0.4402625560760498,608.4874510372842,0.0,0.0,0.0,0.0,300,0,30,-0.09926744809666624,9.107826739327516,78.1168120657333,-0.0,10.0,0.0,0.5032630807876587
GUIDED_NOGPS,0.4429640769958496,368.89217238346527,0.0,0.0,0.0,0.0,300,0,30,-0.09926744809666624,9.107826739327516,78.1168120657333,-0.0,10.0,0.0,0.5032645849704742
GUIDED_NOGPS,0.44531822204589844,426.5538492830265,0.0,0.0,0.0,0.0,300,0,30,-0.11599986409846365,9.044043017763352,78.10388251763447,-0.0,10.0,0.0,0.5032663276195526
GUIDED_NOGPS,0.4506971836090088,186.0909534584498,0.0,0.0,0.0,0.0,300,0,30,-0.11599986409846365,9.044043017763352,78.10388251763447,-0.0,10.0,0.0,0.5032693751811981
GUIDED_NOGPS,0.4517958164215088,915.7868995633188,0.0,0.0,0.0,0.0,300,0,30,-0.11599986409846365,9.044043017763352,78.10388251763447,-0.0,10.0,0.0,0.5032703493595123
GUIDED_NOGPS,0.4530794620513916,783.6890881913304,0.0,0.0,0.0,0.0,300,0,30,-0.11599986409846365,9.044043017763352,78.10388251763447,-0.0,10.0,0.0,0.503270898103714
GUIDED_NOGPS,0.45416951179504395,927.1229000884173,0.0,0.0,0.0,0.0,300,0,30,-0.11599986409846365,9.044043017763352,78.10388251763447,-0.0,10.0,0.0,0.5032716948986053
GUIDED_NOGPS,0.4552123546600342,966.4294930875576,0.0,0.0,0.0,0.0,300,0,30,-0.11599986409846365,9.044043017763352,78.10388251763447,-0.0,10.0,0.0,0.5032723400592803
GUIDED_NOGPS,0.4561944007873535,1030.2883812331122,0.0,0.0,0.0,0.0,300,0,30,-0.11599986409846365,9.044043017763352,78.10388251763447,-0.0,10.0,0.0,0.5032729480266571
GUIDED_NOGPS,0.45719194412231445,1008.488578985333,0.0,0.0,0.0,0.0,300,0,30,-0.11599986409846365,9.044043017763352,78.10388251763447,-0.0,10.0,0.0,0.5032735462665557
GUIDED_NOGPS,0.4580078125,1232.531295915369,0.0,0.0,0.0,0.0,300,0,30,-0.11599986409846365,9.044043017763352,78.10388251763447,-0.0,10.0,0.0,0.5032741273403167
GUIDED_NOGPS,0.4589390754699707,1088.0166018158236,0.0,0.0,0.0,0.0,300,0,30,-0.11599986409846365,9.044043017763352,78.10388251763447,-0.0,10.0,0.0,0.5032746041297913
GUIDED_NOGPS,0.4599189758300781,1030.0353634577602,0.0,0.0,0.0,0.0,300,0,30,-0.11599986409846365,9.044043017763352,78.10388251763447,-0.0,10.0,0.0,0.5032751739025116
GUIDED_NOGPS,0.46092867851257324,1077.3963524274338,0.0,0.0,0.0,0.0,300,0,30,-0.11599986409846365,9.044043017763352,78.10388251763447,-0.0,10.0,0.0,0.5032757787227631
GUIDED_NOGPS,0.46625304222106934,185.5968848179123,0.0,0.0,0.0,0.0,300,0,30,-0.10187655367918466,8.994975792539625,78.09188870545192,-0.0,10.0,0.0,0.5032779619693756
GUIDED_NOGPS,0.47087931632995605,216.54726625019362,0.0,0.0,0.0,0.0,300,0,30,-0.05332660856338199,8.941812161361186,78.09629417746659,-0.0,10.0,0.0,0.5032813921928406
GUIDED_NOGPS,0.47591614723205566,199.13136780135784,0.0,0.0,0.0,0.0,300,0,30,-0.016742114336810297,8.865085231319847,78.10207934769359,-0.0,10.0,0.0,0.5032841460704803
GUIDED_NOGPS,0.4781491756439209,451.6317432970819,0.0,0.0,0.0,0.0,300,0,30,-0.016742114336810297,8.865085231319847,78.10207934769359,-0.0,10.0,0.0,0.5032855784416199
GUIDED_NOGPS,0.4801945686340332,490.56187134502926,0.0,0.0,0.0,0.0,300,0,30,-0.016742114336810297,8.865085231319847,78.10207934769359,-0.0,10.0,0.0,0.5032869417190552
GUIDED_NOGPS,0.4836564064025879,289.4819518255228,0.0,0.0,0.0,0.0,300,0,30,0.004775636251161181,8.805860661026667,78.11607440530294,-0.0,10.0,0.0,0.5032892374038697
GUIDED_NOGPS,0.48500704765319824,743.6709219858157,0.0,0.0,0.0,0.0,300,0,30,0.004775636251161181,8.805860661026667,78.11607440530294,-0.0,10.0,0.0,0.5032900709629059
GUIDED_NOGPS,0.486100435256958,921.4200351493848,0.0,0.0,0.0,0.0,300,0,30,0.004775636251161181,8.805860661026667,78.11607440530294,-0.0,10.0,0.0,0.5032908783435821
GUIDED_NOGPS,0.4874918460845947,723.2805656147611,0.0,0.0,0.0,0.0,300,0,30,0.004775636251161181,8.805860661026667,78.11607440530294,-0.0,10.0,0.0,0.5032915163516998
GUIDED_NOGPS,0.4887518882751465,797.093120486507,0.0,0.0,0.0,0.0,300,0,30,0.004775636251161181,8.805860661026667,78.11607440530294,-0.0,10.0,0.0,0.5032923835277557
GUIDED_NOGPS,0.4898803234100342,890.6995115735825,0.0,0.0,0.0,0.0,300,0,30,0.004775636251161181,8.805860661026667,78.11607440530294,-0.0,10.0,0.0,0.5032931438446044
GUIDED_NOGPS,0.49114561080932617,796.1852695520122,0.0,0.0,0.0,0.0,300,0,30,0.004775636251161181,8.805860661026667,78.11607440530294,-0.0,10.0,0.0,0.5032938821315766
GUIDED_NOGPS,0.4959738254547119,207.55661124307204,0.0,0.0,0.0,0.0,300,0,30,0.011464339119734176,8.753632765764518,78.12310950014806,-0.0,10.0,0.0,0.503294480228424
GUIDED_NOGPS,0.49727463722229004,774.4283604135894,0.0,0.0,0.0,0.0,300,0,30,0.011464339119734176,8.753632765764518,78.12310950014806,-0.0,10.0,0.0,0.5032974904537201
GUIDED_NOGPS,0.4982914924621582,990.1567516525024,0.0,0.0,0.0,0.0,300,0,30,0.011464339119734176,8.753632765764518,78.12310950014806,-0.0,10.0,0.0,0.5032981639385223
GUIDED_NOGPS,0.49930357933044434,1042.3220675944333,0.0,0.0,0.0,0.0,300,0,30,0.011464339119734176,8.753632765764518,78.12310950014806,-0.0,10.0,0.0,0.5032987477302552
GUIDED_NOGPS,0.5091984272003174,101.00671884406984,0.0,0.0,0.0,0.0,300,0,30,0.01406533385261321,8.695886077652998,78.11738580162358,-0.0,10.0,0.0,0.5033045929431915
GUIDED_NOGPS,0.5115232467651367,432.8487100103199,0.0,0.0,0.0,0.0,300,0,30,0.04313596632172297,8.648001328929332,78.11459225425305,-0.0,10.0,0.0,0.5033054954528808
GUIDED_NOGPS,0.5151605606079102,275.1806849494817,0.0,0.0,0.0,0.0,300,0,30,0.04313596632172297,8.648001328929332,78.11459225425305,-0.0,10.0,0.0,0.5033082574844361
GUIDED_NOGPS,0.5164990425109863,751.6673835125448,0.0,0.0,0.0,0.0,300,0,30,0.04313596632172297,8.648001328929332,78.11459225425305,-0.0,10.0,0.0,0.5033089884757995
GUIDED_NOGPS,0.5179033279418945,715.7515358361775,0.0,0.0,0.0,0.0,300,0,30,0.04313596632172297,8.648001328929332,78.11459225425305,-0.0,10.0,0.0,0.5033097555160523
GUIDED_NOGPS,0.5191683769226074,794.526236029551,0.0,0.0,0.0,0.0,300,0,30,0.04313596632172297,8.648001328929332,78.11459225425305,-0.0,10.0,0.0,0.5033105733394623
GUIDED_NOGPS,0.5204973220825195,756.2755138838803,0.0,0.0,0.0,0.0,300,0,30,0.04313596632172297,8.648001328929332,78.11459225425305,-0.0,10.0,0.0,0.5033113220691681
GUIDED_NOGPS,0.5232632160186768,364.18372840149345,0.0,0.0,0.0,0.0,300,0,30,0.07162756683590225,8.600790207612558,78.12114240566709,-0.0,10.0,0.0,0.5033125886440277
GUIDED_NOGPS,0.5253889560699463,470.3716496579567,0.0,0.0,0.0,0.0,300,0,30,0.07162756683590225,8.600790207612558,78.12114240566709,-0.0,10.0,0.0,0.5033138682365418
GUIDED_NOGPS,0.5264513492584229,948.2939181550984,0.0,0.0,0.0,0.0,300,0,30,0.07162756683590225,8.600790207612558,78.12114240566709,-0.0,10.0,0.0,0.5033150887489319
GUIDED_NOGPS,0.5281360149383545,595.9511224779767,0.0,0.0,0.0,0.0,300,0,30,0.07162756683590225,8.600790207612558,78.12114240566709,-0.0,10.0,0.0,0.5033156372070312
GUIDED_NOGPS,0.5297863483428955,608.3109499637418,0.0,0.0,0.0,0.0,300,0,30,0.07162756683590225,8.600790207612558,78.12114240566709,-0.0,10.0,0.0,0.5033166561603546
GUIDED_NOGPS,0.530827522277832,965.9843390142792,0.0,0.0,0.0,0.0,300,0,30,0.07162756683590225,8.600790207612558,78.12114240566709,-0.0,10.0,0.0,0.5033177369117737
GUIDED_NOGPS,0.533602237701416,361.42214562688497,0.0,0.0,0.0,0.0,300,0,30,0.07162756683590225,8.600790207612558,78.12114240566709,-0.0,10.0,0.0,0.5033190160751343
GUIDED_NOGPS,0.5352559089660645,607.4299782766111,0.0,0.0,0.0,0.0,300,0,30,0.07162756683590225,8.600790207612558,78.12114240566709,-0.0,10.0,0.0,0.5033204003810883
GUIDED_NOGPS,0.5394244194030762,240.3888124713434,0.0,0.0,0.0,0.0,300,0,30,0.07162756683590225,8.600790207612558,78.12114240566709,-0.0,10.0,0.0,0.5033209070682526
GUIDED_NOGPS,0.5413477420806885,521.8094053247077,0.0,0.0,0.0,0.0,300,0,30,0.07162756683590225,8.600790207612558,78.12114240566709,-0.0,10.0,0.0,0.5033238542079925
GUIDED_NOGPS,0.5427670478820801,716.73000683527,0.0,0.0,0.0,0.0,300,0,30,0.07162756683590225,8.600790207612558,78.12114240566709,-0.0,10.0,0.0,0.5033248565673828
GUIDED_NOGPS,0.5443747043609619,619.359716479622,0.0,0.0,0.0,0.0,300,0,30,0.07162756683590225,8.600790207612558,78.12114240566709,-0.0,10.0,0.0,0.5033254482269287
GUIDED_NOGPS,0.5468471050262451,405.56023979887834,0.0,0.0,0.0,0.0,300,0,30,0.07162756683590225,8.600790207612558,78.12114240566709,-0.0,10.0,0.0,0.5033269681453705
GUIDED_NOGPS,0.5564253330230713,104.53354600737713,0.0,0.0,0.0,0.0,300,0,30,0.07162756683590225,8.600790207612558,78.12114240566709,-0.0,10.0,0.0,0.5033324853420258
GUIDED_NOGPS,0.5604677200317383,247.87565746705278,0.0,0.0,0.0,0.0,300,0,30,0.07162756683590225,8.600790207612558,78.12114240566709,-0.0,10.0,0.0,0.5033350665569305
GUIDED_NOGPS,0.5696094036102295,109.46612381250652,0.0,0.0,0.0,0.0,300,0,30,0.15286591686531326,8.538823316367617,78.11306229187896,-0.0,10.0,0.0,0.5033360692024231
GUIDED_NOGPS,0.5726356506347656,331.4869200980005,0.0,0.0,0.0,0.0,300,0,30,0.12962946656658442,8.486117307863568,78.11148451818069,-0.0,10.0,0.0,0.5033423598766327
GUIDED_NOGPS,0.5754549503326416,355.2688463493139,0.0,0.0,0.0,0.0,300,0,30,0.12962946656658442,8.486117307863568,78.11148451818069,-0.0,10.0,0.0,0.503344328546524
GUIDED_NOGPS,0.5764737129211426,988.2902921771913,0.0,0.0,0.0,0.0,300,0,30,0.12962946656658442,8.486117307863568,78.11148451818069,-0.0,10.0,0.0,0.5033450911521912
GUIDED_NOGPS,0.5786197185516357,469.00413731410043,0.0,0.0,0.0,0.0,300,0,30,0.14704444791813354,8.450098305275505,78.09374651690617,-0.0,10.0,0.0,0.5033456227302552
GUIDED_NOGPS,0.580066442489624,695.342175066313,0.0,0.0,0.0,0.0,300,0,30,0.14704444791813354,8.450098305275505,78.09374651690617,-0.0,10.0,0.0,0.5033470402240753
GUIDED_NOGPS,0.5814685821533203,716.6075516828977,0.0,0.0,0.0,0.0,300,0,30,0.14704444791813354,8.450098305275505,78.09374651690617,-0.0,10.0,0.0,0.50334798579216
GUIDED_NOGPS,0.5825271606445312,950.8737247789617,0.0,0.0,0.0,0.0,300,0,30,0.14704444791813354,8.450098305275505,78.09374651690617,-0.0,10.0,0.0,0.5033486053466797
GUIDED_NOGPS,0.5836279392242432,916.7877595628415,0.0,0.0,0.0,0.0,300,0,30,0.14704444791813354,8.450098305275505,78.09374651690617,-0.0,10.0,0.0,0.5033492506504059
GUIDED_NOGPS,0.584636926651001,996.9821725695269,0.0,0.0,0.0,0.0,300,0,30,0.14704444791813354,8.450098305275505,78.09374651690617,-0.0,10.0,0.0,0.5033499235630036
GUIDED_NOGPS,0.5855886936187744,1058.9002777076496,0.0,0.0,0.0,0.0,300,0,30,0.14704444791813354,8.450098305275505,78.09374651690617,-0.0,10.0,0.0,0.5033504996299744
GUIDED_NOGPS,0.5866470336914062,951.0893424036282,0.0,0.0,0.0,0.0,300,0,30,0.14704444791813354,8.450098305275505,78.09374651690617,-0.0,10.0,0.0,0.5033510694026947
GUIDED_NOGPS,0.587794303894043,878.2043551088777,0.0,0.0,0.0,0.0,300,0,30,0.14704444791813354,8.450098305275505,78.09374651690617,-0.0,10.0,0.0,0.5033517025470734
GUIDED_NOGPS,0.594536542892456,148.5603371940637,0.0,0.0,0.0,0.0,300,0,30,0.16906970023773546,8.402088905599486,78.09197066772197,-0.0,10.0,0.0,0.5033544054985046
GUIDED_NOGPS,0.6053440570831299,92.57723038891096,0.0,0.0,0.0,0.0,300,0,30,0.22908251704981783,8.320545838419642,78.10447674409225,-0.0,10.0,0.0,0.5033622923374176
GUIDED_NOGPS,0.6083512306213379,333.1721344030503,0.0,0.0,0.0,0.0,300,0,30,0.22908251704981783,8.320545838419642,78.10447674409225,-0.0,10.0,0.0,0.5033641976356507
GUIDED_NOGPS,0.6102011203765869,543.1629111629112,0.0,0.0,0.0,0.0,300,0,30,0.22908251704981783,8.320545838419642,78.10447674409225,-0.0,10.0,0.0,0.5033651785373687
GUIDED_NOGPS,0.611609935760498,714.0456247871978,0.0,0.0,0.0,0.0,300,0,30,0.22908251704981783,8.320545838419642,78.10447674409225,-0.0,10.0,0.0,0.5033658826351166
GUIDED_NOGPS,0.616992712020874,185.991929404461,0.0,0.0,0.0,0.0,300,0,30,0.26988155815940473,8.289732293752776,78.07356330790878,-0.0,10.0,0.0,0.5033674816608429
GUIDED_NOGPS,0.6179723739624023,1027.2603477834925,0.0,0.0,0.0,0.0,300,0,30,0.26988155815940473,8.289732293752776,78.07356330790878,-0.0,10.0,0.0,0.5033699751853943
GUIDED_NOGPS,0.6188976764678955,1088.8639667705088,0.0,0.0,0.0,0.0,300,0,30,0.26988155815940473,8.289732293752776,78.07356330790878,-0.0,10.0,0.0,0.5033704870224
GUIDED_NOGPS,0.6216392517089844,366.122905027933,0.0,0.0,0.0,0.0,300,0,30,0.26988155815940473,8.289732293752776,78.07356330790878,-0.0,10.0,0.0,0.5033710414886474
GUIDED_NOGPS,0.624544620513916,345.26703984194927,0.0,0.0,0.0,0.0,300,0,30,0.2940394036452109,8.248183399257941,78.05373526874824,-0.0,10.0,0.0,0.5033735441684722
GUIDED_NOGPS,0.6403543949127197,63.28159324079662,0.0,0.0,0.0,0.0,300,0,30,0.2940394036452109,8.248183399257941,78.05373526874824,-0.0,10.0,0.0,0.5033821373939514
GUIDED_NOGPS,0.6417465209960938,722.408542886669,0.0,0.0,0.0,0.0,300,0,30,0.2940394036452109,8.248183399257941,78.05373526874824,-0.0,10.0,0.0,0.5033840428352356
GUIDED_NOGPS,0.6428341865539551,926.5085045283853,0.0,0.0,0.0,0.0,300,0,30,0.2940394036452109,8.248183399257941,78.05373526874824,-0.0,10.0,0.0,0.5033848313331604
GUIDED_NOGPS,0.6439821720123291,876.9190884382186,0.0,0.0,0.0,0.0,300,0,30,0.2940394036452109,8.248183399257941,78.05373526874824,-0.0,10.0,0.0,0.5033854182720184
GUIDED_NOGPS,0.6450810432434082,915.3871671759057,0.0,0.0,0.0,0.0,300,0,30,0.2940394036452109,8.248183399257941,78.05373526874824,-0.0,10.0,0.0,0.5033860996246338
GUIDED_NOGPS,0.6461620330810547,931.8604754499,0.0,0.0,0.0,0.0,300,0,30,0.2940394036452109,8.248183399257941,78.05373526874824,-0.0,10.0,0.0,0.5033868391990661
GUIDED_NOGPS,0.6499149799346924,266.91510754740995,0.0,0.0,0.0,0.0,300,0,30,0.3074461845318733,8.123049211021431,78.04741734376597,-0.0,10.0,0.0,0.5033874056816101
GUIDED_NOGPS,0.6512110233306885,775.143965995195,0.0,0.0,0.0,0.0,300,0,30,0.3074461845318733,8.123049211021431,78.04741734376597,-0.0,10.0,0.0,0.5033897458553315
GUIDED_NOGPS,0.6534402370452881,450.4192439862543,0.0,0.0,0.0,0.0,300,0,30,0.2977928060375445,8.106456973980178,78.05129006102537,-0.0,10.0,0.0,0.5033905133247375
GUIDED_NOGPS,0.655052900314331,622.8547668547668,0.0,0.0,0.0,0.0,300,0,30,0.2977928060375445,8.106456973980178,78.05129006102537,-0.0,10.0,0.0,0.5033921588420868
GUIDED_NOGPS,0.6562204360961914,863.2031282156822,0.0,0.0,0.0,0.0,300,0,30,0.2977928060375445,8.106456973980178,78.05129006102537,-0.0,10.0,0.0,0.5033927301883697
GUIDED_NOGPS,0.657263994216919,969.5570966250577,0.0,0.0,0.0,0.0,300,0,30,0.2977928060375445,8.106456973980178,78.05129006102537,-0.0,10.0,0.0,0.5033934198379516
GUIDED_NOGPS,0.6625823974609375,188.26266888100903,0.0,0.0,0.0,0.0,300,0,30,0.31045344211823583,8.099731798968653,78.04033443759667,-0.0,10.0,0.0,0.503396300458908
GUIDED_NOGPS,0.6655800342559814,334.58072750478624,0.0,0.0,0.0,0.0,300,0,30,0.31045344211823583,8.099731798968653,78.04033443759667,-0.0,10.0,0.0,0.5033982157707214
GUIDED_NOGPS,0.6673111915588379,580.9285318559557,0.0,0.0,0.0,0.0,300,0,30,0.31045344211823583,8.099731798968653,78.04033443759667,-0.0,10.0,0.0,0.5033992936611176
GUIDED_NOGPS,0.6689631938934326,609.0175693335269,0.0,0.0,0.0,0.0,300,0,30,0.31045344211823583,8.099731798968653,78.04033443759667,-0.0,10.0,0.0,0.5034002523899078
GUIDED_NOGPS,0.6755638122558594,151.6653046465377,0.0,0.0,0.0,0.0,300,0,30,0.33695260174632835,8.081869146741777,78.01704349252692,-0.0,10.0,0.0,0.5034043689727783
GUIDED_NOGPS,0.6767222881317139,868.7456503728251,0.0,0.0,0.0,0.0,300,0,30,0.33695260174632835,8.081869146741777,78.01704349252692,-0.0,10.0,0.0,0.5034051025390625
GUIDED_NOGPS,0.6784586906433105,581.9764118218399,0.0,0.0,0.0,0.0,300,0,30,0.33695260174632835,8.081869146741777,78.01704349252692,-0.0,10.0,0.0,0.5034057527065278
GUIDED_NOGPS,0.6808316707611084,422.2595389107017,0.0,0.0,0.0,0.0,300,0,30,0.33695260174632835,8.081869146741777,78.01704349252692,-0.0,10.0,0.0,0.5034068785190582
GUIDED_NOGPS,0.6884551048278809,131.27712050078247,0.0,0.0,0.0,0.0,300,0,30,0.35711377271147215,8.064712565320352,77.99168300013866,-0.0,10.0,0.0,0.5034121622562409
GUIDED_NOGPS,0.6897399425506592,783.1038088125467,0.0,0.0,0.0,0.0,300,0,30,0.35711377271147215,8.064712565320352,77.99168300013866,-0.0,10.0,0.0,0.5034128119945526
GUIDED_NOGPS,0.6916491985321045,525.1413547013898,0.0,0.0,0.0,0.0,300,0,30,0.40046156827895807,8.025269076637175,77.9832477165137,-0.0,10.0,0.0,0.5034135173797607
GUIDED_NOGPS,0.6931140422821045,686.4654664484452,0.0,0.0,0.0,0.0,300,0,30,0.40046156827895807,8.025269076637175,77.9832477165137,-0.0,10.0,0.0,0.5034146955490112
GUIDED_NOGPS,0.6955060958862305,418.96953351313556,0.0,0.0,0.0,0.0,300,0,30,0.40046156827895807,8.025269076637175,77.9832477165137,-0.0,10.0,0.0,0.5034155469894409
GUIDED_NOGPS,0.696495532989502,1018.7767792081613,0.0,0.0,0.0,0.0,300,0,30,0.40046156827895807,8.025269076637175,77.9832477165137,-0.0,10.0,0.0,0.5034170261383056
GUIDED_NOGPS,0.6975400447845459,963.3220027560864,0.0,0.0,0.0,0.0,300,0,30,0.40046156827895807,8.025269076637175,77.9832477165137,-0.0,10.0,0.0,0.5034175630092621
GUIDED_NOGPS,0.6992993354797363,573.5408177218652,0.0,0.0,0.0,0.0,300,0,30,0.40046156827895807,8.025269076637175,77.9832477165137,-0.0,10.0,0.0,0.5034181881427765
GUIDED_NOGPS,0.7014093399047852,474.8447865957206,0.0,0.0,0.0,0.0,300,0,30,0.40046156827895807,8.025269076637175,77.9832477165137,-0.0,10.0,0.0,0.5034196710109711
GUIDED_NOGPS,0.7027084827423096,773.9996309282155,0.0,0.0,0.0,0.0,300,0,30,0.40046156827895807,8.025269076637175,77.9832477165137,-0.0,10.0,0.0,0.5034207124233245
GUIDED_NOGPS,0.7042248249053955,663.6556962025317,0.0,0.0,0.0,0.0,300,0,30,0.40046156827895807,8.025269076637175,77.9832477165137,-0.0,10.0,0.0,0.5034213033676147
GUIDED_NOGPS,0.7220470905303955,56.12535627784989,0.0,0.0,0.0,0.0,300,0,30,0.4314982680326134,7.983703106669416,77.98059760311574,-0.0,10.0,0.0,0.5034322250366211
GUIDED_NOGPS,0.7272861003875732,191.19770251173816,0.0,0.0,0.0,0.0,300,0,30,0.4464430421017186,7.883444467390091,77.94321597778826,-0.0,10.0,0.0,0.5034349540233612
GUIDED_NOGPS,0.7286128997802734,756.9579498285508,0.0,0.0,0.0,0.0,300,0,30,0.4464430421017186,7.883444467390091,77.94321597778826,-0.0,10.0,0.0,0.5034361044406891
GUIDED_NOGPS,0.7307379245758057,472.0126040963313,0.0,0.0,0.0,0.0,300,0,30,0.47127995780141213,7.833616529847555,77.92888624090958,-0.0,10.0,0.0,0.5034370995044708
GUIDED_NOGPS,0.7327451705932617,501.5310295348559,0.0,0.0,0.0,0.0,300,0,30,0.47127995780141213,7.833616529847555,77.92888624090958,-0.0,10.0,0.0,0.5034384939670563
GUIDED_NOGPS,0.7345449924468994,557.7531914893617,0.0,0.0,0.0,0.0,300,0,30,0.47127995780141213,7.833616529847555,77.92888624090958,-0.0,10.0,0.0,0.5034393741607666
GUIDED_NOGPS,0.736785888671875,448.7326414892479,0.0,0.0,0.0,0.0,300,0,30,0.47127995780141213,7.833616529847555,77.92888624090958,-0.0,10.0,0.0,0.5034404004096985
GUIDED_NOGPS,0.739715576171875,342.72789671514954,0.0,0.0,0.0,0.0,300,0,30,0.47127995780141213,7.833616529847555,77.92888624090958,-0.0,10.0,0.0,0.5034419240474701
GUIDED_NOGPS,0.7460277080535889,158.652797216023,0.0,0.0,0.0,0.0,300,0,30,0.4788528766828109,7.7993059283256425,77.92144816490342,-0.0,10.0,0.0,0.5034458734035492
GUIDED_NOGPS,0.749772310256958,269.3144985231797,0.0,0.0,0.0,0.0,300,0,30,0.4788528766828109,7.7993059283256425,77.92144816490342,-0.0,10.0,0.0,0.5034475612640381
GUIDED_NOGPS,0.7536466121673584,257.99987697607185,0.0,0.0,0.0,0.0,300,0,30,0.4865474583088005,7.75896853863484,77.91444722100417,-0.0,10.0,0.0,0.5034503207206726
GUIDED_NOGPS,0.7563230991363525,374.52486829181174,0.0,0.0,0.0,0.0,300,0,30,0.4865474583088005,7.75896853863484,77.91444722100417,-0.0,10.0,0.0,0.5034527514457703
GUIDED_NOGPS,0.7579379081726074,675.1938184159691,0.0,0.0,0.0,0.0,300,0,30,0.4865474583088005,7.75896853863484,77.91444722100417,-0.0,10.0,0.0,0.5034535415172577
GUIDED_NOGPS,0.7590265274047852,826.9526813880126,0.0,0.0,0.0,0.0,300,0,30,0.4865474583088005,7.75896853863484,77.91444722100417,-0.0,10.0,0.0,0.5034544757843018
GUIDED_NOGPS,0.7607285976409912,589.9991559994373,0.0,0.0,0.0,0.0,300,0,30,0.5250230878422459,7.726435493844423,77.90395605043902,-0.0,10.0,0.0,0.5034551072120667
GUIDED_NOGPS,0.762256383895874,658.5498508400062,0.0,0.0,0.0,0.0,300,0,30,0.5250230878422459,7.726435493844423,77.90395605043902,-0.0,10.0,0.0,0.5034564258575439
GUIDED_NOGPS,0.7633802890777588,895.6446722186632,0.0,0.0,0.0,0.0,300,0,30,0.5250230878422459,7.726435493844423,77.90395605043902,-0.0,10.0,0.0,0.5034570973396302
GUIDED_NOGPS,0.7655847072601318,454.51928912006935,0.0,0.0,0.0,0.0,300,0,30,0.5250230878422459,7.726435493844423,77.90395605043902,-0.0,10.0,0.0,0.5034576449394226
GUIDED_NOGPS,0.7668671607971191,784.7154349859682,0.0,0.0,0.0,0.0,300,0,30,0.5250230878422459,7.726435493844423,77.90395605043902,-0.0,10.0,0.0,0.5034590552806855
GUIDED_NOGPS,0.7678437232971191,1031.555336940482,0.0,0.0,0.0,0.0,300,0,30,0.5250230878422459,7.726435493844423,77.90395605043902,-0.0,10.0,0.0,0.5034598037242889
GUIDED_NOGPS,0.7688295841217041,1022.2529856202779,0.0,0.0,0.0,0.0,300,0,30,0.5250230878422459,7.726435493844423,77.90395605043902,-0.0,10.0,0.0,0.503460324716568
GUIDED_NOGPS,0.7698671817779541,970.6790094885444,0.0,0.0,0.0,0.0,300,0,30,0.5250230878422459,7.726435493844423,77.90395605043902,-0.0,10.0,0.0,0.5034609618663788
GUIDED_NOGPS,0.7737076282501221,263.27939237963716,0.0,0.0,0.0,0.0,300,0,30,0.5250230878422459,7.726435493844423,77.90395605043902,-0.0,10.0,0.0,0.5034615293502808
GUIDED_NOGPS,0.7762129306793213,397.7905918057663,0.0,0.0,0.0,0.0,300,0,30,0.5250230878422459,7.726435493844423,77.90395605043902,-0.0,10.0,0.0,0.5034645723342895
GUIDED_NOGPS,0.788062334060669,84.48252663806474,0.0,0.0,0.0,0.0,300,0,30,0.5670837129163018,7.715362903426186,77.87531706724916,-0.0,10.0,0.0,0.5034708196640014
GUIDED_NOGPS,0.7909395694732666,349.0308729300158,0.0,0.0,0.0,0.0,300,0,30,0.5670837129163018,7.715362903426186,77.87531706724916,-0.0,10.0,0.0,0.503473232793808
GUIDED_NOGPS,0.792755126953125,552.100039489272,0.0,0.0,0.0,0.0,300,0,30,0.5670837129163018,7.715362903426186,77.87531706724916,-0.0,10.0,0.0,0.5034744564533233
GUIDED_NOGPS,0.7951042652130127,427.42321410373995,0.0,0.0,0.0,0.0,300,0,30,0.5670837129163018,7.715362903426186,77.87531706724916,-0.0,10.0,0.0,0.5034760242938995
GUIDED_NOGPS,0.8025567531585693,134.2606914212548,0.0,0.0,0.0,0.0,300,0,30,0.5670837129163018,7.715362903426186,77.87531706724916,-0.0,10.0,0.0,0.5034803155422211
GUIDED_NOGPS,0.8042070865631104,609.0175693335269,0.0,0.0,0.0,0.0,300,0,30,0.5670837129163018,7.715362903426186,77.87531706724916,-0.0,10.0,0.0,0.5034812127590179
GUIDED_NOGPS,0.8053038120269775,916.3871531570898,0.0,0.0,0.0,0.0,300,0,30,0.5670837129163018,7.715362903426186,77.87531706724916,-0.0,10.0,0.0,0.5034822189807892
GUIDED_NOGPS,0.8072695732116699,510.56652465003043,0.0,0.0,0.0,0.0,300,0,30,0.5670837129163018,7.715362903426186,77.87531706724916,-0.0,10.0,0.0,0.5034833726882935
GUIDED_NOGPS,0.8219046592712402,68.36012777886434,0.0,0.0,0.0,0.0,300,0,30,0.6634281735535331,7.545991287482795,77.82067555388906,-0.0,10.0,0.0,0.5034862886428833
GUIDED_NOGPS,0.8262996673583984,228.12487762427935,0.0,0.0,0.0,0.0,300,0,30,0.6634281735535331,7.545991287482795,77.82067555388906,-0.0,10.0,0.0,0.5034927382469178
GUIDED_NOGPS,0.8313195705413818,200.89587125203565,0.0,0.0,0.0,0.0,300,0,30,0.6634281735535331,7.545991287482795,77.82067555388906,-0.0,10.0,0.0,0.5034972294807434
GUIDED_NOGPS,0.8327798843383789,678.4703979294727,0.0,0.0,0.0,0.0,300,0,30,0.6634281735535331,7.545991287482795,77.82067555388906,-0.0,10.0,0.0,0.5034986989021302
GUIDED_NOGPS,0.8354876041412354,370.1618568528815,0.0,0.0,0.0,0.0,300,0,30,0.6634281735535331,7.545991287482795,77.82067555388906,-0.0,10.0,0.0,0.5034999146938324
GUIDED_NOGPS,0.8440988063812256,116.44052080730685,0.0,0.0,0.0,0.0,300,0,30,0.7386954174640455,7.4807313912842615,77.74654068063774,-0.0,10.0,0.0,0.5035052370548249
GUIDED_NOGPS,0.8456363677978516,649.7759876065065,0.0,0.0,0.0,0.0,300,0,30,0.7386954174640455,7.4807313912842615,77.74654068063774,-0.0,10.0,0.0,0.5035063138008118
GUIDED_NOGPS,0.8467915058135986,871.0911734164071,0.0,0.0,0.0,0.0,300,0,30,0.7386954174640455,7.4807313912842615,77.74654068063774,-0.0,10.0,0.0,0.503507097864151
GUIDED_NOGPS,0.8478178977966309,982.0426129712012,0.0,0.0,0.0,0.0,300,0,30,0.7386954174640455,7.4807313912842615,77.74654068063774,-0.0,10.0,0.0,0.5035077152729034
GUIDED_NOGPS,0.8488304615020752,993.6754323619996,0.0,0.0,0.0,0.0,300,0,30,0.7386954174640455,7.4807313912842615,77.74654068063774,-0.0,10.0,0.0,0.5035082783222199
GUIDED_NOGPS,0.8501715660095215,750.5912670007158,0.0,0.0,0.0,0.0,300,0,30,0.7386954174640455,7.4807313912842615,77.74654068063774,-0.0,10.0,0.0,0.5035089023113251
GUIDED_NOGPS,0.8526055812835693,412.0141453831041,0.0,0.0,0.0,0.0,300,0,30,0.794347532017045,7.461369512534568,77.71779241442115,-0.0,10.0,0.0,0.5035105835914612
GUIDED_NOGPS,0.8549742698669434,424.4387775753896,0.0,0.0,0.0,0.0,300,0,30,0.794347532017045,7.461369512534568,77.71779241442115,-0.0,10.0,0.0,0.5035113447666169
GUIDED_NOGPS,0.8568019866943359,549.3521938441388,0.0,0.0,0.0,0.0,300,0,30,0.794347532017045,7.461369512534568,77.71779241442115,-0.0,10.0,0.0,0.503512991142273
GUIDED_NOGPS,0.8579785823822021,857.2049867157164,0.0,0.0,0.0,0.0,300,0,30,0.794347532017045,7.461369512534568,77.71779241442115,-0.0,10.0,0.0,0.5035136865139007
GUIDED_NOGPS,0.859429121017456,695.342175066313,0.0,0.0,0.0,0.0,300,0,30,0.794347532017045,7.461369512534568,77.71779241442115,-0.0,10.0,0.0,0.5035143574237824
GUIDED_NOGPS,0.8607323169708252,771.4371896266323,0.0,0.0,0.0,0.0,300,0,30,0.794347532017045,7.461369512534568,77.71779241442115,-0.0,10.0,0.0,0.5035152429103852
GUIDED_NOGPS,0.8619894981384277,803.8144883096973,0.0,0.0,0.0,0.0,300,0,30,0.794347532017045,7.461369512534568,77.71779241442115,-0.0,10.0,0.0,0.5035160419940948
GUIDED_NOGPS,0.86305832862854,942.7520791189031,0.0,0.0,0.0,0.0,300,0,30,0.794347532017045,7.461369512534568,77.71779241442115,-0.0,10.0,0.0,0.5035167686939239
GUIDED_NOGPS,0.864098072052002,971.1285019680481,0.0,0.0,0.0,0.0,300,0,30,0.794347532017045,7.461369512534568,77.71779241442115,-0.0,10.0,0.0,0.5035173988342285
GUIDED_NOGPS,0.8652431964874268,878.2043551088777,0.0,0.0,0.0,0.0,300,0,30,0.794347532017045,7.461369512534568,77.71779241442115,-0.0,10.0,0.0,0.5035180208206177
GUIDED_NOGPS,0.8784918785095215,75.53085663863428,0.0,0.0,0.0,0.0,300,0,30,0.836488198370437,7.440874676156299,77.70681630042495,-0.0,10.0,0.0,0.5035260673046112
GUIDED_NOGPS,0.8823020458221436,262.88335944844874,0.0,0.0,0.0,0.0,300,0,30,0.9212955090041648,7.411641466508644,77.66245422176571,-0.0,10.0,0.0,0.5035283897399903
GUIDED_NOGPS,0.8834686279296875,871.4531477249117,0.0,0.0,0.0,0.0,300,0,30,0.9212955090041648,7.411641466508644,77.66245422176571,-0.0,10.0,0.0,0.503528994846344
GUIDED_NOGPS,0.884981632232666,662.8166877370418,0.0,0.0,0.0,0.0,300,0,30,0.9212955090041648,7.411641466508644,77.66245422176571,-0.0,10.0,0.0,0.5035297676086425
GUIDED_NOGPS,0.8860156536102295,973.1563805104408,0.0,0.0,0.0,0.0,300,0,30,0.9212955090041648,7.411641466508644,77.66245422176571,-0.0,10.0,0.0,0.503530571269989
GUIDED_NOGPS,0.8868765830993652,1169.9592747559275,0.0,0.0,0.0,0.0,300,0,30,0.9212955090041648,7.411641466508644,77.66245422176571,-0.0,10.0,0.0,0.5035311519145965
GUIDED_NOGPS,0.8879172801971436,968.4377741861002,0.0,0.0,0.0,0.0,300,0,30,0.9212955090041648,7.411641466508644,77.66245422176571,-0.0,10.0,0.0,0.5035316833496094
GUIDED_NOGPS,0.8887479305267334,1209.0815797059672,0.0,0.0,0.0,0.0,300,0,30,0.9212955090041648,7.411641466508644,77.66245422176571,-0.0,10.0,0.0,0.5035322900295257
GUIDED_NOGPS,0.8897137641906738,1043.3592039800994,0.0,0.0,0.0,0.0,300,0,30,0.9212955090041648,7.411641466508644,77.66245422176571,-0.0,10.0,0.0,0.5035328093051911
GUIDED_NOGPS,0.8962283134460449,153.76705649448252,0.0,0.0,0.0,0.0,300,0,30,0.9493561672703985,7.403730399902477,77.62915021937273,-0.0,10.0,0.0,0.5035333726406097
GUIDED_NOGPS,0.8984169960021973,459.2471258075112,0.0,0.0,0.0,0.0,300,0,30,0.9493561672703985,7.403730399902477,77.62915021937273,-0.0,10.0,0.0,0.5035373161315918
GUIDED_NOGPS,0.8997726440429688,741.8295012380615,0.0,0.0,0.0,0.0,300,0,30,0.9493561672703985,7.403730399902477,77.62915021937273,-0.0,10.0,0.0,0.503538642501831
GUIDED_NOGPS,0.9055662155151367,172.80421885299933,0.0,0.0,0.0,0.0,300,0,30,0.9543600278893734,7.3635466894679995,77.59691172649028,-0.0,10.0,0.0,0.5035396208286286
GUIDED_NOGPS,0.9069454669952393,729.6979819067502,0.0,0.0,0.0,0.0,300,0,30,0.9543600278893734,7.3635466894679995,77.59691172649028,-0.0,10.0,0.0,0.5035429301738739
GUIDED_NOGPS,0.9086606502532959,585.7966480446927,0.0,0.0,0.0,0.0,300,0,30,0.9543600278893734,7.3635466894679995,77.59691172649028,-0.0,10.0,0.0,0.503543880033493
GUIDED_NOGPS,0.9180235862731934,106.86669384427232,0.0,0.0,0.0,0.0,300,0,30,0.9801782496737274,7.334976861943482,77.57955621580928,-0.0,10.0,0.0,0.5035496946334839
GUIDED_NOGPS,0.9191858768463135,867.3085194375517,0.0,0.0,0.0,0.0,300,0,30,0.9801782496737274,7.334976861943482,77.57955621580928,-0.0,10.0,0.0,0.5035504251956939
GUIDED_NOGPS,0.9206242561340332,698.7013160086624,0.0,0.0,0.0,0.0,300,0,30,0.9801782496737274,7.334976861943482,77.57955621580928,-0.0,10.0,0.0,0.503551125574112
GUIDED_NOGPS,0.9238498210906982,310.6891851851852,0.0,0.0,0.0,0.0,300,0,30,0.9853031327070583,7.329649314390872,77.55327364788306,-0.0,10.0,0.0,0.5035530935287476
GUIDED_NOGPS,0.9268631935119629,332.53817489891384,0.0,0.0,0.0,0.0,300,0,30,0.9853031327070583,7.329649314390872,77.55327364788306,-0.0,10.0,0.0,0.5035551026821137
GUIDED_NOGPS,0.928229570388794,735.9719248991051,0.0,0.0,0.0,0.0,300,0,30,0.9853031327070583,7.329649314390872,77.55327364788306,-0.0,10.0,0.0,0.5035556944847107
GUIDED_NOGPS,0.9294109344482422,851.2896285772275,0.0,0.0,0.0,0.0,300,0,30,0.9853031327070583,7.329649314390872,77.55327364788306,-0.0,10.0,0.0,0.5035565879821777
GUIDED_NOGPS,0.9319546222686768,398.66020340271837,0.0,0.0,0.0,0.0,300,0,30,1.0168271237693116,7.326250441505144,77.51494945645013,-0.0,10.0,0.0,0.5035572267055511
GUIDED_NOGPS,0.9337565898895264,552.100039489272,0.0,0.0,0.0,0.0,300,0,30,1.0168271237693116,7.326250441505144,77.51494945645013,-0.0,10.0,0.0,0.5035588431835174
GUIDED_NOGPS,0.937366247177124,277.5479089465326,0.0,0.0,0.0,0.0,300,0,30,1.0168271237693116,7.326250441505144,77.51494945645013,-0.0,10.0,0.0,0.5035598074913025
GUIDED_NOGPS,0.9383013248443604,1077.3963524274338,0.0,0.0,0.0,0.0,300,0,30,1.0168271237693116,7.326250441505144,77.51494945645013,-0.0,10.0,0.0,0.5035619825839996
GUIDED_NOGPS,0.9394440650939941,880.9712245326612,0.0,0.0,0.0,0.0,300,0,30,1.0168271237693116,7.326250441505144,77.51494945645013,-0.0,10.0,0.0,0.5035625808238983
GUIDED_NOGPS,0.9409646987915039,663.6556962025317,0.0,0.0,0.0,0.0,300,0,30,1.0168271237693116,7.326250441505144,77.51494945645013,-0.0,10.0,0.0,0.5035631721973419
GUIDED_NOGPS,0.9544761180877686,74.04936266374774,0.0,0.0,0.0,0.0,300,0,30,1.0906902835577106,7.25011261527972,77.41783782683088,-0.0,10.0,0.0,0.5035714953422546
GUIDED_NOGPS,0.9557008743286133,822.7351902706944,0.0,0.0,0.0,0.0,300,0,30,1.0906902835577106,7.25011261527972,77.41783782683088,-0.0,10.0,0.0,0.5035723032951355
GUIDED_NOGPS,0.9569435119628906,810.4935265700483,0.0,0.0,0.0,0.0,300,0,30,1.0906902835577106,7.25011261527972,77.41783782683088,-0.0,10.0,0.0,0.5035730222702026
GUIDED_NOGPS,0.9584088325500488,691.7869041728517,0.0,0.0,0.0,0.0,300,0,30,1.0906902835577106,7.25011261527972,77.41783782683088,-0.0,10.0,0.0,0.5035737757205964
GUIDED_NOGPS,0.9603345394134521,521.4850180280989,0.0,0.0,0.0,0.0,300,0,30,1.0906902835577106,7.25011261527972,77.41783782683088,-0.0,10.0,0.0,0.5035747590541839
GUIDED_NOGPS,0.9680843353271484,129.1111247922182,0.0,0.0,0.0,0.0,300,0,30,1.0829943679103986,7.172872567276984,77.37962974861382,-0.0,10.0,0.0,0.5035795525550842
GUIDED_NOGPS,0.970078706741333,502.13144977852266,0.0,0.0,0.0,0.0,300,0,30,1.0829943679103986,7.172872567276984,77.37962974861382,-0.0,10.0,0.0,0.503580644750595
GUIDED_NOGPS,0.9717733860015869,592.4158192090396,0.0,0.0,0.0,0.0,300,0,30,1.0906865482980082,7.083761650496767,77.35514352043933,-0.0,10.0,0.0,0.5035817439556122
GUIDED_NOGPS,0.9728121757507324,968.4377741861002,0.0,0.0,0.0,0.0,300,0,30,1.0906865482980082,7.083761650496767,77.35514352043933,-0.0,10.0,0.0,0.5035826742172241
GUIDED_NOGPS,0.9743986129760742,632.6250377073907,0.0,0.0,0.0,0.0,300,0,30,1.0906865482980082,7.083761650496767,77.35514352043933,-0.0,10.0,0.0,0.5035832027912139
GUIDED_NOGPS,0.9754054546356201,998.4060937871935,0.0,0.0,0.0,0.0,300,0,30,1.0906865482980082,7.083761650496767,77.35514352043933,-0.0,10.0,0.0,0.5035842387676239
GUIDED_NOGPS,0.9772899150848389,535.6026050312859,0.0,0.0,0.0,0.0,300,0,30,1.0906865482980082,7.083761650496767,77.35514352043933,-0.0,10.0,0.0,0.5035848088264465
GUIDED_NOGPS,0.9787232875823975,699.6336947456214,0.0,0.0,0.0,0.0,300,0,30,1.0906865482980082,7.083761650496767,77.35514352043933,-0.0,10.0,0.0,0.5035860987186432
GUIDED_NOGPS,0.980410099029541,595.6126100539619,0.0,0.0,0.0,0.0,300,0,30,1.0906865482980082,7.083761650496767,77.35514352043933,-0.0,10.0,0.0,0.5035868573188782
GUIDED_NOGPS,0.9821641445159912,572.9140827755771,0.0,0.0,0.0,0.0,300,0,30,1.0906865482980082,7.083761650496767,77.35514352043933,-0.0,10.0,0.0,0.5035878752708435
GUIDED_NOGPS,0.983595609664917,702.5634840871022,0.0,0.0,0.0,0.0,300,0,30,1.0906865482980082,7.083761650496767,77.35514352043933,-0.0,10.0,0.0,0.5035890507221222
GUIDED_NOGPS,0.9947664737701416,89.58933720657026,0.0,0.0,0.0,0.0,300,0,30,1.062215438351339,6.991114403273775,77.32423008425586,-0.0,10.0,0.0,0.5035955309391021
GUIDED_NOGPS,0.9969892501831055,452.21606469002694,0.0,0.0,0.0,0.0,300,0,30,1.062215438351339,6.991114403273775,77.32423008425586,-0.0,10.0,0.0,0.5035969282627105
GUIDED_NOGPS,0.9998054504394531,358.61012311901504,0.0,0.0,0.0,0.0,300,0,30,1.062215438351339,6.991114403273775,77.32423008425586,-0.0,10.0,0.0,0.5035982331752777
GUIDED_NOGPS,1.0025784969329834,370.6852850198851,0.0,0.0,0.0,0.0,300,0,30,1.062215438351339,6.991114403273775,77.32423008425586,-0.0,10.0,0.0,0.5035998047351837
GUIDED_NOGPS,1.0047974586486816,449.8878043548214,0.0,0.0,0.0,0.0,300,0,30,1.0266119033638839,6.924478223957484,77.28013438297425,-0.0,10.0,0.0,0.5036010647296906
GUIDED_NOGPS,1.0073258876800537,396.3995841602873,0.0,0.0,0.0,0.0,300,0,30,1.0266119033638839,6.924478223957484,77.28013438297425,-0.0,10.0,0.0,0.5036023890972138
GUIDED_NOGPS,1.0087635517120361,700.3346134580064,0.0,0.0,0.0,0.0,300,0,30,1.0266119033638839,6.924478223957484,77.28013438297425,-0.0,10.0,0.0,0.5036038656711579
GUIDED_NOGPS,1.010655403137207,530.5216291424234,0.0,0.0,0.0,0.0,300,0,30,1.0141571601340713,6.8313067597156945,77.23522588918142,-0.0,10.0,0.0,0.5036049179553985
GUIDED_NOGPS,1.0122547149658203,627.4201944652207,0.0,0.0,0.0,0.0,300,0,30,1.0141571601340713,6.8313067597156945,77.23522588918142,-0.0,10.0,0.0,0.503605859375
GUIDED_NOGPS,1.0147583484649658,401.3688038277512,0.0,0.0,0.0,0.0,300,0,30,1.0141571601340713,6.8313067597156945,77.23522588918142,-0.0,10.0,0.0,0.5036068172454834
GUIDED_NOGPS,1.016801357269287,491.5968120018753,0.0,0.0,0.0,0.0,300,0,30,0.9877113079980168,6.75158137662872,77.18953192363404,-0.0,10.0,0.0,0.5036089269638061
GUIDED_NOGPS,1.0342631340026855,57.29532135783075,0.0,0.0,0.0,0.0,300,0,30,0.9877113079980168,6.75158137662872,77.18953192363404,-0.0,10.0,0.0,0.5036098575115204
GUIDED_NOGPS,1.0461595058441162,84.11487245307235,0.0,0.0,0.0,0.0,300,0,30,0.9540617407217142,6.673169097409682,77.15443158148933,-0.0,10.0,0.0,0.5036265149593353
