Mode,Time,Freq,time2delay,actualDelay,North-Desired,East-Desired,Down-Desired,Roll-UAV,Pitch-UAV,Yaw-UAV,Roll-Control,Pitch-Control,Yaw-Control,Thrust-Control,North-Pos,East-Pos,Down-Pos,Yaw-Ang,North-Vel,East-Vel,Down-Vel,Yaw-Vel,North-Acc,East-Acc,Down-Acc,North-Avg,East-Avg,Down-Avg,Yaw-Avg,North-Dif,East-Dif,Down-Dif,Yaw-Dif,North-One,East-One,Down-One,Yaw-One,North-Two,East-Two,Down-Two,Yaw-Two,Landing-State,Q-Size,Kalman-Time,Kalman-Dt
STABILIZE,0.03429388999938965,29.167013205565947,0.03276518185933431,0.03288578987121582,0.0,0.0,0.0,0.2960968113696921,-1.3763016873343752,39.250911499528875,-0.13277910547203411,0.12723893019772126,0.04880407612857794,0.4,0.13589959027571621,0.14113175381686724,0.19482967269253743,0.13861970086390835,-0.2040129154920578,0.135076604783535,1.6958579421043396,-0.019955304794691393,-1.9803382456302643,0.8736079558730125,23.90904873609543,0.0,0.0,0.0,0.0,0.0,0.0,0.0,0.0,0.0,0.0,0.0,0.0,0.0,0.0,0.0,0.0,False,0,0.14551091194152832,0.029936279296875
STABILIZE,0.06772947311401367,29.91038943442512,0.03237918217976888,0.03251385688781738,0.0,0.0,0.0,0.29597472173827816,-1.3772352888165513,39.25422414127633,-0.07066447673586015,0.06699909638895395,0.039589087802408926,0.4,0.13866335591306286,0.1455390171304167,0.21874283075028875,0.1429280463310823,-0.23354815784841776,-0.10036149760708213,1.7841752618551254,-0.0885546832496847,-9.085746109485626,0.2658563433215022,18.054087460041046,0.0,0.0,0.0,0.0,0.0,0.0,0.0,0.0,0.0,0.0,0.0,0.0,0.0,0.0,0.0,0.0,False,0,0.17529582977294922,0.03488037109375
STABILIZE,0.10121750831604004,29.862261934427398,0.03242090543111165,0.03255057334899902,0.0,0.0,0.0,0.29489106953777333,-1.3777867198703242,39.256915235809316,-0.05143502798466712,0.046864771247593556,0.037099022363481525,0.4,0.14105743460247658,0.15410833039253968,0.24933577460199519,0.1469989117603553,-0.3783946158364415,0.1940416288562119,1.8469762057065964,-0.25637587293190944,-11.79424673318863,0.9370959363877773,24.99181032180786,0.0,0.0,0.0,0.0,0.0,0.0,0.0,0.0,0.0,0.0,0.0,0.0,0.0,0.0,0.0,0.0,False,0,0.21456503868103027,0.034925048828125
STABILIZE,0.13785123825073242,27.296004165039697,0.03236988385518392,0.0356898307800293,0.0,0.0,0.0,0.29602776242605155,-1.3784270501050129,39.258393971764626,-0.041448921879482896,0.036237906443103624,0.035773192317607505,0.4,0.14104426839526893,0.1612029925973299,0.2801792607651847,0.14878681446690264,-0.3783946158364415,0.1940416288562119,1.8469762057065964,-0.25637587293190944,-11.79424673318863,0.9370959363877773,24.99181032180786,0.0,0.0,0.0,0.0,0.0,0.0,0.0,0.0,0.0,0.0,0.0,0.0,0.0,0.0,0.0,0.0,False,0,0.24332022666931152,0.034925048828125
STABILIZE,0.17128682136535645,29.91060273269247,0.03238991101582845,0.032523393630981445,0.0,0.0,0.0,0.2954833750048604,-1.3774725311685037,39.26496802884076,-0.03508240548081057,0.029646367353567852,0.03505739394524354,0.4,0.13996082047256825,0.16552740280841058,0.30944896628115875,0.15012666653358653,-0.2973138587549329,0.06053929100744426,1.7091760411858559,-0.12791586281727813,-2.8227917850017548,0.6891669239848852,29.066026210784912,0.0,0.0,0.0,0.0,0.0,0.0,0.0,0.0,0.0,0.0,0.0,0.0,0.0,0.0,0.0,0.0,False,1,0.27191662788391113,0.064861083984375
STABILIZE,0.20466995239257812,29.952254111530852,0.03239014943440755,0.0325319766998291,0.0,0.0,0.0,0.29539596992782535,-1.3768220623717657,39.26644676479607,-0.012879558894677512,0.0065930532949056665,0.03439000689064394,0.4,0.14740688499606772,0.1820883317864661,0.4090339104286987,0.1650023638474331,-0.12368413154035807,0.005765185778727755,2.0015401765704155,0.06196541715137958,-7.033579796552658,2.395882084965706,24.507351219654083,0.0,0.0,0.0,0.0,0.0,0.0,0.0,0.0,0.0,0.0,0.0,0.0,0.0,0.0,0.0,0.0,False,0,0.32943058013916016,0.034925048828125
STABILIZE,0.23818254470825195,29.839954467842915,0.03245571454366048,0.0326075553894043,0.0,0.0,0.0,0.2959428119482495,-1.3774002805736896,39.267256142212716,-0.0123035020520008,0.004996354593796312,0.03473559533119314,0.4,0.14202773620762016,0.18298832651278657,0.43632943055484846,0.16658107399384064,-0.20854747854173183,0.19284631125628948,1.8100498244166374,0.24569615179308046,-2.0390577614307404,0.7968217134475708,28.511843085289,0.0,0.0,0.0,0.0,0.0,0.0,0.0,0.0,0.0,0.0,0.0,0.0,0.0,0.0,0.0,0.0,False,0,0.35802316665649414,0.06486083984375
STABILIZE,0.27155447006225586,29.964022917887096,0.032407553990681966,0.03253483772277832,0.0,0.0,0.0,0.2964795154066244,-1.3770872658106326,39.275004991826094,-0.013016265213339732,0.00525411490811922,0.036314233230832355,0.4,0.14521015511603125,0.19356914027686842,0.4965792641883452,0.17347229111193058,-0.09777687955647707,0.08891040342859924,1.514371670782566,-0.05390707459123391,-1.3091577216982841,0.5040076561272144,23.44493269920349,0.0,0.0,0.0,0.0,0.0,0.0,0.0,0.0,0.0,0.0,0.0,0.0,0.0,0.0,0.0,0.0,False,0,0.3867306709289551,0.034925048828125
STABILIZE,0.3051602840423584,29.759078202381122,0.03248003323872884,0.03262615203857422,0.0,0.0,0.0,0.2958122913020788,-1.3774467045157044,39.277228218400936,-0.010732532129275949,0.0031048948743415627,0.03532956580437405,0.4,0.1347820481669541,0.18808806774385978,0.5189150940343624,0.168908934916989,-0.3497274126857519,-0.03311051113996655,1.76718570291996,0.004793925683489477,-5.883581563830376,0.18862516153603792,22.857794165611267,0.0,0.0,0.0,0.0,0.0,0.0,0.0,0.0,0.0,0.0,0.0,0.0,0.0,0.0,0.0,0.0,False,0,0.41552114486694336,0.034925048828125
STABILIZE,0.3385441303253174,29.954821062554903,0.03233841260274251,0.03247714042663574,0.0,0.0,0.0,0.29683543229540554,-1.378180843129775,39.28075601110724,-0.00877912718932139,0.0010966228989506691,0.0343080022568477,0.4,0.12413116560569559,0.18234551833191057,0.5406742692789107,0.16416175253779497,-0.3497274126857519,-0.03311051113996655,1.76718570291996,0.004793925683489477,-5.883581563830376,0.18862516153603792,22.857794165611267,0.0,0.0,0.0,0.0,0.0,0.0,0.0,0.0,0.0,0.0,0.0,0.0,0.0,0.0,0.0,0.0,False,0,0.4446542263031006,0.034925048828125
STABILIZE,0.3723123073577881,29.612216801632297,0.03242066701253255,0.03287696838378906,0.0,0.0,0.0,0.29658100774882257,-1.3789396344578813,39.28324561505972,-0.004685673495547185,-0.0010911637607677158,0.033341506463979646,0.4,0.1198745957616635,0.17682875082595273,0.5636882603792218,0.1614150501366302,0.024891941575333476,-0.00993597786873579,1.8761267885565758,0.12695394006243027,0.6472230423241854,0.2850048243999481,25.1213401556015,0.0,0.0,0.0,0.0,0.0,0.0,0.0,0.0,0.0,0.0,0.0,0.0,0.0,0.0,0.0,0.0,False,1,0.4730491638183594,0.029935791015625
STABILIZE,0.40584278106689453,29.822980659840727,0.03243211110432943,0.032605648040771484,0.0,0.0,0.0,0.29613587151400816,-1.379012418661224,39.28604599261942,-0.002988222728660548,-0.003129922676628042,0.030701812646659596,0.4,0.1054016399368866,0.16937178197124111,0.5995499451719934,0.14969962792534525,-0.27074485551565886,0.03937290166504681,1.8103981390595436,0.1366393484087067,-2.532011829316616,0.31926927622407675,21.102073788642883,0.0,0.0,0.0,0.0,0.0,0.0,0.0,0.0,0.0,0.0,0.0,0.0,0.0,0.0,0.0,0.0,False,0,0.5302326679229736,0.034925048828125
STABILIZE,0.4392564296722412,29.929171334584453,0.03239301045735677,0.032526493072509766,0.0,0.0,0.0,0.29735666110644215,-1.3800964977485521,39.28993920044633,-0.00014259587539880328,-0.005575524831612412,0.03001661251782043,0.4,0.09633635067711732,0.1647484053139778,0.6198295418248962,0.14718746515227246,-0.27074485551565886,0.03937290166504681,1.8103981390595436,0.1366393484087067,-2.532011829316616,0.31926927622407675,21.102073788642883,0.0,0.0,0.0,0.0,0.0,0.0,0.0,0.0,0.0,0.0,0.0,0.0,0.0,0.0,0.0,0.0,False,0,0.5588982105255127,0.034925048828125
STABILIZE,0.4727139472961426,29.88864897991178,0.03243521054585775,0.032561540603637695,0.0,0.0,0.0,0.296996368627724,-1.3797021610456897,39.29321086105877,-0.0001525674142302787,-0.005902773324339957,0.0294229575696467,0.4,0.0857801835576234,0.15997951885317177,0.6426605054022545,0.14359455372484947,-0.3597482806071639,0.03294374619144946,2.0012250170111656,0.0736315803569597,2.600358985364437,0.47941459342837334,33.738285303115845,0.0,0.0,0.0,0.0,0.0,0.0,0.0,0.0,0.0,0.0,0.0,0.0,0.0,0.0,0.0,0.0,False,0,0.5884928703308105,0.064861083984375
STABILIZE,0.5062201023101807,29.84505037855069,0.03239110310872396,0.03263401985168457,0.0,0.0,0.0,0.29733713103428416,-1.3800859322996797,39.29976784266198,-0.001183646618799323,-0.004729346108353743,0.030414393920781664,0.4,0.08219882697039184,0.15984367253369655,0.6997035666975109,0.1468624574585007,0.009066890925168991,0.00623532832833007,1.8195271492004395,0.19296667785397215,-0.1593313179910183,0.01242890430148691,16.200250387191772,0.0,0.0,0.0,0.0,0.0,0.0,0.0,0.0,0.0,0.0,0.0,0.0,0.0,0.0,0.0,0.0,False,0,0.6171460151672363,0.034926025390625
STABILIZE,0.5399787425994873,29.624975278994206,0.03248408635457357,0.03263139724731445,0.0,0.0,0.0,0.2995107320159349,-1.3792018496889862,39.319240711985685,-0.0008782783139118125,-0.004828723400501686,0.03010355577158641,0.4,0.07803802013728595,0.15356953204279,0.7143336459000982,0.1447339042535994,0.009066890925168991,0.00623532832833007,1.8195271492004395,0.19296667785397215,-0.1593313179910183,0.01242890430148691,16.200250387191772,0.0,0.0,0.0,0.0,0.0,0.0,0.0,0.0,0.0,0.0,0.0,0.0,0.0,0.0,0.0,0.0,False,0,0.6458702087402344,0.034926025390625
STABILIZE,0.5742776393890381,29.153024911032027,0.032181533177693684,0.03339385986328125,0.0,0.0,0.0,0.3009646018137956,-1.379535461741259,39.3083943715837,-0.0011772610460264196,-0.00325587000402645,0.02926790984102562,0.4,0.07298114977699634,0.1483402104707044,0.7239647335808089,0.13913824754999912,-0.04943405510857701,0.054206891218200326,1.5825727954506874,0.0030603783154152836,2.989325672388077,0.08690045215189457,16.64433777332306,0.0,0.0,0.0,0.0,0.0,0.0,0.0,0.0,0.0,0.0,0.0,0.0,0.0,0.0,0.0,0.0,False,1,0.6744756698608398,0.02996142578125
STABILIZE,0.6077656745910645,29.861411515104052,0.03242042859395345,0.032584428787231445,0.0,0.0,0.0,0.29654803074173613,-1.3785576774728894,39.321115598912854,0.00039350394033787497,-0.004096349938232269,0.025405147236840998,0.4,0.061124280042927366,0.13676189255204615,0.7476612857103196,0.12165272947809827,-0.11449585435912013,0.024410321202594787,1.893620565533638,-0.16482913993893603,-1.8071390688419342,0.3329204162582755,29.15654182434082,0.0,0.0,0.0,0.0,0.0,0.0,0.0,0.0,0.0,0.0,0.0,0.0,0.0,0.0,0.0,0.0,False,0,0.7319519519805908,0.03492578125
STABILIZE,0.6413204669952393,29.801367040400166,0.03241113026936849,0.03254342079162598,0.0,0.0,0.0,0.2976456634856983,-1.378453837253164,39.32370765570287,0.000726660168517893,-0.003841232586630939,0.02390712225177709,0.4,0.05324846861615896,0.13097204447941202,0.7537022762256881,0.11433586395188572,-0.237010745331645,-0.006418216798920184,1.4397087506949902,-0.11722925812842627,-4.571500048041344,-1.8454710021615028,17.825035750865936,0.0,0.0,0.0,0.0,0.0,0.0,0.0,0.0,0.0,0.0,0.0,0.0,0.0,0.0,0.0,0.0,False,0,0.7606172561645508,0.034925048828125
STABILIZE,0.6747100353240967,29.949901459541287,0.032292874654134114,0.03243708610534668,0.0,0.0,0.0,0.2973935868166425,-1.3789998254999418,39.331087675101074,0.00127706944089124,-0.0045343613791611025,0.02356438525547799,0.4,0.04683765223617051,0.12813166930419093,0.7693048503284451,0.11294028544594906,-0.16718129627406597,0.14765977393835783,1.9950954243540764,0.19955918444499637,-1.616428792476654,-1.4620398171246052,28.545117378234863,0.0,0.0,0.0,0.0,0.0,0.0,0.0,0.0,0.0,0.0,0.0,0.0,0.0,0.0,0.0,0.0,False,0,0.789186954498291,0.064860107421875
STABILIZE,0.708244800567627,29.82022423979581,0.03238538106282552,0.03253793716430664,0.0,0.0,0.0,0.29636937860625795,-1.3803498550780773,39.33631276981613,0.00019982323171979536,-0.005424053411303556,0.02386847199652205,0.4,0.03900705009872923,0.12781947088274265,0.8202843399211386,0.11365594247807816,-0.16718129627406597,0.14765977393835783,1.9950954243540764,0.19955918444499637,-1.616428792476654,-1.4620398171246052,28.545117378234863,0.0,0.0,0.0,0.0,0.0,0.0,0.0,0.0,0.0,0.0,0.0,0.0,0.0,0.0,0.0,0.0,False,0,0.8178696632385254,0.064860107421875
STABILIZE,0.7416579723358154,29.9274629144696,0.03231933911641439,0.032505035400390625,0.0,0.0,0.0,0.29810232566473716,-1.3792735666752713,39.34129197772107,6.47144052957875e-05,-0.005748394122290077,0.02337413710693275,0.4,0.03322410002164382,0.12401778735602258,0.8597315261049879,0.11047746278939971,-0.05600900040008128,0.0022461115804617293,1.6488704830408096,0.018539214480677343,5.047788470983505,1.9670765846967697,15.423060953617096,0.0,0.0,0.0,0.0,0.0,0.0,0.0,0.0,0.0,0.0,0.0,0.0,0.0,0.0,0.0,0.0,False,0,0.8467042446136475,0.034926025390625
STABILIZE,0.7751007080078125,29.901007321437483,0.03241566022237142,0.032532453536987305,0.0,0.0,0.0,0.29590183081322946,-1.379731296071368,39.353241393674004,-0.0014064167295806966,-0.0050007714445999595,0.020980816604615798,0.4,0.026638356732324828,0.12102595288509232,0.8605481444048847,0.09751191047231007,-0.18869462655857205,0.15902273589745164,1.693493127822876,-0.3517315836455021,-4.171638935804367,-1.5663105994462967,26.503217220306396,0.0,0.0,0.0,0.0,0.0,0.0,0.0,0.0,0.0,0.0,0.0,0.0,0.0,0.0,0.0,0.0,False,0,0.8779942989349365,0.02993603515625
STABILIZE,0.8085815906524658,29.868003532059134,0.032412322362264,0.03254127502441406,0.0,0.0,0.0,0.29116776266647015,-1.3843413535960092,39.35852112990243,-4.7113599894179885e-05,-0.0048019143704262765,0.02074695917406239,0.4,0.020819054023763665,0.10949035200491723,0.8604280662460774,0.09526675193911673,-0.036369351437315345,0.010843001655302942,1.7643999308347702,0.20205116295541967,-3.330640494823456,0.17053945921361446,21.811379492282867,0.0,0.0,0.0,0.0,0.0,0.0,0.0,0.0,0.0,0.0,0.0,0.0,0.0,0.0,0.0,0.0,False,0,0.935737133026123,0.0349248046875
STABILIZE,0.8420696258544922,29.862049325055533,0.03238681157430013,0.032598018646240234,0.0,0.0,0.0,0.2876826586424711,-1.384682329445981,39.36050188476173,-0.0005347928617016791,-0.0034974506242106016,0.019543246314953234,0.4,0.0215432011463733,0.10928552052744248,0.8617469306782364,0.08958632839738884,0.14242244651541114,0.26479156222194433,1.6720736399292946,-0.044994398095881294,1.354045793414116,0.4038755316287279,21.786899864673615,0.0,0.0,0.0,0.0,0.0,0.0,0.0,0.0,0.0,0.0,0.0,0.0,0.0,0.0,0.0,0.0,False,0,0.9642279148101807,0.064861328125
STABILIZE,0.8755340576171875,29.882686539516527,0.03242519696553548,0.032547712326049805,0.0,0.0,0.0,0.2881049564322483,-1.3828771317926878,39.357127771311745,0.00037039151867622537,-0.003600126996444844,0.020206342391416002,0.4,0.01432850472617804,0.10461248062467808,0.8993073723751984,0.0922951136950038,-0.17818643245846033,-0.03626483667176217,1.8489636480808258,0.32221142601142766,-2.827729843556881,-1.6538694500923157,26.254606246948242,0.0,0.0,0.0,0.0,0.0,0.0,0.0,0.0,0.0,0.0,0.0,0.0,0.0,0.0,0.0,0.0,False,0,0.992912769317627,0.0349248046875
STABILIZE,0.9091479778289795,29.752745226002325,0.03238657315572103,0.03252530097961426,0.0,0.0,0.0,0.29020844125320067,-1.3818166382023374,39.35634229955719,0.0003058343263684172,-0.0035970983465562433,0.018867804516373883,0.4,0.009387553680855525,0.10158457253056993,0.8962964987556189,0.08580990930149504,-0.1596543937921524,0.11918273521587253,1.6588661819696426,-0.08209652594602608,-4.456722363829613,2.0637255162000656,16.479255259037018,0.0,0.0,0.0,0.0,0.0,0.0,0.0,0.0,0.0,0.0,0.0,0.0,0.0,0.0,0.0,0.0,False,0,1.021585464477539,0.034925048828125
STABILIZE,0.9424324035644531,30.04106890895938,0.03222087224324544,0.03235292434692383,0.0,0.0,0.0,0.2957576497887187,-1.3791845607726496,39.35776639399914,0.0008011455709845188,-0.003831178137202498,0.019776244375997266,0.4,0.0026220669696269744,0.09658141251609818,0.8963430061382625,0.087819637904999,-0.2601682208478451,0.011914445349248126,1.790795847773552,0.32095381743049906,-1.5061677433550358,0.12990443501621485,24.411486089229584,0.0,0.0,0.0,0.0,0.0,0.0,0.0,0.0,0.0,0.0,0.0,0.0,0.0,0.0,0.0,0.0,False,0,1.0502440929412842,0.034925048828125
STABILIZE,0.9759063720703125,29.873960113960113,0.03240779240926107,0.032553911209106445,0.0,0.0,0.0,0.29554441982056734,-1.379438771875821,39.36861956459029,-0.00028811896931018113,-0.004150401780799241,0.020379855004035347,0.4,-0.0038810094909219944,0.09182541681239324,0.8966386864260043,0.08989156727498684,-0.2601682208478451,0.011914445349248126,1.790795847773552,0.32095381743049906,-1.5061677433550358,0.12990443501621485,24.411486089229584,0.0,0.0,0.0,0.0,0.0,0.0,0.0,0.0,0.0,0.0,0.0,0.0,0.0,0.0,0.0,0.0,False,0,1.0791828632354736,0.034925048828125
STABILIZE,1.0098416805267334,29.471352885790974,0.03239181836446126,0.032942771911621094,0.0,0.0,0.0,0.29473386846515726,-1.3802241369086667,39.37390613100788,0.0009261693677016912,-0.0055547271595187825,0.018770105542766362,0.4,-0.010032608861731705,0.08572583038387062,0.8855717115593807,0.08189886358448353,-0.07566517451778054,0.02263493661303073,1.658196561038494,0.005234112699198287,-1.2548357248306274,1.8688661977648735,17.52384603023529,0.0,0.0,0.0,0.0,0.0,0.0,0.0,0.0,0.0,0.0,0.0,0.0,0.0,0.0,0.0,0.0,False,0,1.1369726657867432,0.0349248046875
STABILIZE,1.043259859085083,29.923192717362614,0.03230741818745931,0.03243446350097656,0.0,0.0,0.0,0.296256573763247,-1.3792203125440863,39.37529607450398,0.0008702640358564133,-0.006183120863045575,0.017112561537419732,0.4,-0.019199300105177085,0.0819244356314574,0.886445152742718,0.07482316469593107,-0.4356885328888893,0.026410710415802896,1.760263554751873,-0.16986234902700073,-5.97623772919178,0.11424701660871506,24.859818816184998,0.0,0.0,0.0,0.0,0.0,0.0,0.0,0.0,0.0,0.0,0.0,0.0,0.0,0.0,0.0,0.0,False,0,1.165555715560913,0.03485498046875
STABILIZE,1.0767796039581299,29.853334946653664,0.03234437306722005,0.03255486488342285,0.0,0.0,0.0,0.2928844880256705,-1.3813416198899042,39.3793668672493,0.0010723556090997165,-0.007162289718484836,0.01577000040824758,0.4,-0.02810489810113336,0.07829752614463406,0.8873459445814667,0.06793978831007487,-0.4356885328888893,0.026410710415802896,1.760263554751873,-0.16986234902700073,-5.97623772919178,0.11424701660871506,24.859818816184998,0.0,0.0,0.0,0.0,0.0,0.0,0.0,0.0,0.0,0.0,0.0,0.0,0.0,0.0,0.0,0.0,False,0,1.1943387985229492,0.03485498046875
STABILIZE,1.1141083240509033,26.769874904263467,0.03237131436665853,0.03649282455444336,0.0,0.0,0.0,0.2961665006435674,-1.3818834459901566,39.39666090622778,0.0007176417600691839,-0.0063103695549793695,0.01706061654974013,0.4,-0.029974544727104504,0.07536949999580259,0.8857081719366057,0.07365413408877125,-0.07277216645888984,0.054818904027342796,1.6197089105844498,0.4937092851795291,1.4547309838235378,1.961342990398407,14.155296981334686,0.0,0.0,0.0,0.0,0.0,0.0,0.0,0.0,0.0,0.0,0.0,0.0,0.0,0.0,0.0,0.0,False,0,1.222954273223877,0.02993603515625
STABILIZE,1.156902551651001,23.368158316990552,0.03249076207478841,0.041909217834472656,0.0,0.0,0.0,0.2918852526944388,-1.3860365211706418,39.39729952891518,0.0007675925818608967,-0.007614272513881859,0.014735475161353607,0.4,-0.04441572861645458,0.06998488111660169,0.8906923865082298,0.06328095737947088,-0.3274480113759637,0.029350197291933,1.956011913716793,-0.03804111210835625,-4.113160818815231,0.23508220911026,28.94710600376129,0.0,0.0,0.0,0.0,0.0,0.0,0.0,0.0,0.0,0.0,0.0,0.0,0.0,0.0,0.0,0.0,False,0,1.2829678058624268,0.02993603515625
STABILIZE,1.1903915405273438,29.85928567869067,0.03244140942891439,0.03256869316101074,0.0,0.0,0.0,0.2880706987646925,-1.3877231510088117,39.403788208626686,0.00029696236548519284,-0.00762918278789872,0.014133098716300236,0.4,-0.0496534499179458,0.067012709272756,0.8908685042333812,0.05946052424417496,-0.3274480113759637,0.029350197291933,1.956011913716793,-0.03804111210835625,-4.113160818815231,0.23508220911026,28.94710600376129,0.0,0.0,0.0,0.0,0.0,0.0,0.0,0.0,0.0,0.0,0.0,0.0,0.0,0.0,0.0,0.0,False,0,1.3163213729858398,0.02993603515625
STABILIZE,1.2239766120910645,29.77851615193468,0.03239634831746419,0.03254103660583496,0.0,0.0,0.0,0.2876862871804677,-1.3874274251620913,39.41462430374491,6.876957394673654e-05,-0.0062365216997239915,0.013508882478188638,0.4,-0.05081220361362273,0.06478553854791881,0.8919015066235683,0.055663273072627834,-0.10606617433950305,0.06225234246812761,1.9805410876870155,-0.047464572027792105,-0.9668340906500816,0.2844634000211954,25.81239938735962,0.0,0.0,0.0,0.0,0.0,0.0,0.0,0.0,0.0,0.0,0.0,0.0,0.0,0.0,0.0,0.0,False,0,1.3448760509490967,0.0349248046875
STABILIZE,1.2573270797729492,29.981157700610446,0.03226664861043294,0.032387733459472656,0.0,0.0,0.0,0.2913147184553312,-1.3854526467183115,39.41161902051011,-0.000212129787891751,-0.005480009832880638,0.012384549240569026,0.4,-0.054764561074667074,0.06297113946937251,0.8961425273549755,0.049734986151150115,-0.22827445063740015,0.07554959738627076,1.8475892022252083,-0.17834261585095337,-2.414153143763542,-1.754794456064701,22.166314721107483,0.0,0.0,0.0,0.0,0.0,0.0,0.0,0.0,0.0,0.0,0.0,0.0,0.0,0.0,0.0,0.0,False,0,1.3737666606903076,0.034925048828125
STABILIZE,1.2908003330230713,29.875662430907745,0.03236583073933919,0.03252553939819336,0.0,0.0,0.0,0.2916269861664477,-1.3855533920085692,39.40768483154818,-8.711825606105814e-05,-0.004737507269996159,0.011460436420792582,0.4,-0.05260738277269367,0.06007727831114483,0.9028021816484102,0.046244604229955646,0.11221716413274407,0.007185433787526563,1.993628405034542,-0.0444881703546136,2.1103670820593834,2.2120343521237373,27.58832573890686,0.0,0.0,0.0,0.0,0.0,0.0,0.0,0.0,0.0,0.0,0.0,0.0,0.0,0.0,0.0,0.0,False,0,1.4022433757781982,0.029936279296875
STABILIZE,1.3242383003234863,29.904631530914898,0.03236845334370931,0.03250479698181152,0.0,0.0,0.0,0.2936601413832901,-1.3858131526404411,39.419695719203645,-0.0006252745827891306,-0.0030227763636185775,0.011481404124683573,0.4,-0.05405435949072204,0.058983495493529714,0.9025981264907942,0.045148788131293936,-0.14366768300533295,0.10711115319281816,1.9022967666387558,0.08247780925025014,1.4385339803993702,0.3132512094452977,24.18200373649597,0.0,0.0,0.0,0.0,0.0,0.0,0.0,0.0,0.0,0.0,0.0,0.0,0.0,0.0,0.0,0.0,False,0,1.431199073791504,0.0349248046875
STABILIZE,1.3576173782348633,29.959314285714285,0.03238395055135091,0.03248310089111328,0.0,0.0,0.0,0.2921700929271695,-1.387476517146751,39.41970254939282,-0.0007008415565179964,-0.0027304278330406596,0.010901361166657339,0.4,-0.057095172315542994,0.05675403237505843,0.899647378577271,0.042007435100651316,-0.20281306933611631,0.03191170981153846,1.419833954423666,-0.039490152749030324,-8.039229363203049,0.19090116256847978,20.243272185325623,0.0,0.0,0.0,0.0,0.0,0.0,0.0,0.0,0.0,0.0,0.0,0.0,0.0,0.0,0.0,0.0,False,0,1.4597821235656738,0.034925048828125
STABILIZE,1.3910877704620361,29.877790599934464,0.032434733708699544,0.03256845474243164,0.0,0.0,0.0,0.29074920013639527,-1.3860198725845398,39.41654358690168,0.00025424719623088704,-0.0033581455454328598,0.01014943241729479,0.4,-0.061041138231523524,0.050244218615757445,0.8995536273981887,0.03813185561295797,-0.10175412753596902,-0.1035582390613854,1.792716234922409,0.08296029141198145,-0.19189859740436077,-1.7987975850701332,24.74748343229294,0.0,0.0,0.0,0.0,0.0,0.0,0.0,0.0,0.0,0.0,0.0,0.0,0.0,0.0,0.0,0.0,False,0,1.51705002784729,0.034925048828125
STABILIZE,1.4245736598968506,29.862474546826718,0.03241756757100423,0.03255009651184082,0.0,0.0,0.0,0.294547959253686,-1.3843161672734448,39.42319960624786,-0.0001037712945671977,-0.002592751747248746,0.00946234977475211,0.4,-0.06072158259998131,0.05035641573293832,0.9023239524563913,0.034272609669692936,-0.030482481815852225,0.1534642418846488,1.7819844186306,-0.09981404999325237,-5.4007623344659805,0.24339607916772366,26.007288694381714,0.0,0.0,0.0,0.0,0.0,0.0,0.0,0.0,0.0,0.0,0.0,0.0,0.0,0.0,0.0,0.0,False,0,1.5456969738006592,0.03492578125
STABILIZE,1.4580068588256836,29.91038943442512,0.03238490422566732,0.03251028060913086,0.0,0.0,0.0,0.2945822169212418,-1.383738375958344,39.427762172613434,-0.0006769994387976942,-0.0028949276451742264,0.008719416779906345,0.4,-0.060268546149623306,0.05057631180756146,0.9049853856507659,0.030498773702434877,-0.030482481815852225,0.1534642418846488,1.7819844186306,-0.09981404999325237,-5.4007623344659805,0.24339607916772366,26.007288694381714,0.0,0.0,0.0,0.0,0.0,0.0,0.0,0.0,0.0,0.0,0.0,0.0,0.0,0.0,0.0,0.0,False,0,1.5807359218597412,0.03492578125
STABILIZE,1.4914710521697998,29.883964005044422,0.03239587148030599,0.032526493072509766,0.0,0.0,0.0,0.2956587187674593,-1.3835075369087388,39.423541115706364,-0.0009546672704928304,-0.0027657411259664885,0.006973786188665639,0.4,-0.06084243269681474,0.050922649742712205,0.9043585452350766,0.02269713429761917,-0.09712668834254146,0.15525927301496267,1.5969112515449524,-0.33947849107876366,-1.353470515459776,0.1866782666184008,23.520097136497498,0.0,0.0,0.0,0.0,0.0,0.0,0.0,0.0,0.0,0.0,0.0,0.0,0.0,0.0,0.0,0.0,False,0,1.608922004699707,0.029935302734375
STABILIZE,1.5249600410461426,29.862261934427398,0.03237131436665853,0.0325169563293457,0.0,0.0,0.0,0.296556888643316,-1.3845374013695297,39.42834273869288,-0.0009330196007220948,-0.0023818182634486235,0.006517721496459792,0.4,-0.06156810051017892,0.04886609613576344,0.8998191650739285,0.020245312153806858,-0.14213344547897577,0.014471824397332966,1.6536269336938858,-0.04592825971221525,0.007620430551469326,0.022947959951125085,21.327292919158936,0.0,0.0,0.0,0.0,0.0,0.0,0.0,0.0,0.0,0.0,0.0,0.0,0.0,0.0,0.0,0.0,False,0,1.6376368999481201,0.03492578125
STABILIZE,1.558443546295166,29.863962918396265,0.032334359486897786,0.032466888427734375,0.0,0.0,0.0,0.2969220903205001,-1.3846994049189059,39.43250232389742,-0.0020354659009579733,-0.0020360806998056657,0.005835855693219208,0.4,-0.0632446203937807,0.04851592884461886,0.90606228731274,0.016726856773365814,-0.16915634041652083,0.10605566203594208,1.984301209449768,-0.10173398015036726,0.44012265279889107,0.3058881964534521,31.353887915611267,0.0,0.0,0.0,0.0,0.0,0.0,0.0,0.0,0.0,0.0,0.0,0.0,0.0,0.0,0.0,0.0,True,0,1.6664955615997314,0.034925048828125
STABILIZE,1.5918288230895996,29.952254111530852,0.03231671651204427,0.03245735168457031,0.0,0.0,0.0,0.2960332052330464,-1.383887786346438,39.43470847499933,-0.0017904591139080229,-0.0015564153959315465,0.004964556566995856,0.4,-0.06063239645987564,0.04740273793209436,0.9102695523614324,0.012398932959107937,0.07832228438928723,0.05716222804039717,1.8696948885917664,-0.15565615586296924,2.062438800930977,0.10744081810116768,20.913442969322205,0.0,0.0,0.0,0.0,0.0,0.0,0.0,0.0,0.0,0.0,0.0,0.0,0.0,0.0,0.0,0.0,True,0,1.6952579021453857,0.02993603515625
STABILIZE,1.6252965927124023,29.880131936083664,0.032392295201619466,0.032518863677978516,0.0,0.0,0.0,0.29651665456023635,-1.3845650422913272,39.437853777112124,-0.0009701383083813976,-0.001023798932634851,0.004224858335731499,0.4,-0.057655825555096525,0.043637926315207215,0.9113270694972413,0.008665423544659,-0.11537697864696383,-0.03666389384306967,2.002246119081974,0.08255678998263502,3.544589877128601,0.20013595931231976,28.740206360816956,0.0,0.0,0.0,0.0,0.0,0.0,0.0,0.0,0.0,0.0,0.0,0.0,0.0,0.0,0.0,0.0,True,0,1.7526328563690186,0.034925048828125
STABILIZE,1.6594202518463135,29.30538553981163,0.03237632115681966,0.03321266174316406,0.0,0.0,0.0,0.29450676467525433,-1.3865748254546033,39.451094098818196,-0.0004085694984318663,-0.0013213951462279457,0.004967208082768073,0.4,-0.05955426933174003,0.0411757486752959,0.9137801383145295,0.010853561759772593,-0.19715598318725824,-0.03426297043915838,1.7307331785559654,0.21319189518279805,1.14133907482028,0.06664135726168752,24.229027330875397,0.0,0.0,0.0,0.0,0.0,0.0,0.0,0.0,0.0,0.0,0.0,0.0,0.0,0.0,0.0,0.0,True,0,1.781451940536499,0.0349248046875
STABILIZE,1.6928472518920898,29.915509432616524,0.03240946133931478,0.03252601623535156,0.0,0.0,0.0,0.292711385418893,-1.385993405601506,39.45017543837483,-0.0007302258704105972,-0.00042465306926227174,0.0041426022616655265,0.4,-0.0558498396961066,0.04091737520803352,0.9148162251182821,0.006928119144101989,0.1357734901830554,0.09520602761767805,1.65923573076725,-0.16156569689784508,7.566084712743759,0.11159674031659961,22.180646657943726,0.0,0.0,0.0,0.0,0.0,0.0,0.0,0.0,0.0,0.0,0.0,0.0,0.0,0.0,0.0,0.0,True,0,1.8100306987762451,0.029936279296875
STABILIZE,1.7263832092285156,29.819164213908913,0.03241995175679525,0.03255796432495117,0.0,0.0,0.0,0.29088100144303536,-1.3865268006870017,39.452046910207414,-0.001137235135981581,-0.00020099380033566867,0.004564395491758207,0.4,-0.05617295448087615,0.04252785469409376,0.9073429300650907,0.008281217452959606,-0.129576213657856,0.20750886760652065,1.44673902541399,0.13732869058677552,0.023056287318468094,-0.004434170477907173,13.548597693443298,0.0,0.0,0.0,0.0,0.0,0.0,0.0,0.0,0.0,0.0,0.0,0.0,0.0,0.0,0.0,0.0,True,0,1.8397881984710693,0.034925048828125
STABILIZE,1.7597763538360596,29.94690770966314,0.032343180974324544,0.032483577728271484,0.0,0.0,0.0,0.2920720156795564,-1.3884182294785663,39.45898296730956,-0.0006579041763985314,-0.0003950511710529236,0.004692906539808321,0.4,-0.05481819898712261,0.039252972465272935,0.9071275479486121,0.00825340308530264,-0.00826623581815511,-0.09480055305175483,1.580854132771492,0.06116407721319973,1.9826136529445648,-0.07630164036527276,16.419827938079834,0.0,0.0,0.0,0.0,0.0,0.0,0.0,0.0,0.0,0.0,0.0,0.0,0.0,0.0,0.0,0.0,True,0,1.8677542209625244,0.03492578125
STABILIZE,1.7933387756347656,29.794804401412204,0.03238824208577474,0.0325770378112793,0.0,0.0,0.0,0.2896928686925705,-1.3895962236669819,39.46201898639563,-0.0006553881919829592,-0.0006443614209267485,0.004826266356519588,0.4,-0.053413695198372024,0.035981700191176066,0.9066960086863547,0.008323668279382853,-0.00826623581815511,-0.09480055305175483,1.580854132771492,0.06116407721319973,1.9826136529445648,-0.07630164036527276,16.419827938079834,0.0,0.0,0.0,0.0,0.0,0.0,0.0,0.0,0.0,0.0,0.0,0.0,0.0,0.0,0.0,0.0,True,0,1.8961131572723389,0.03492578125
STABILIZE,1.8266949653625488,29.978371965034913,0.03235653241475423,0.03247809410095215,0.0,0.0,0.0,0.28959532505348623,-1.3902178776031588,39.46649959049116,-0.0007950775491740405,-0.0005426748167338762,0.0024983856772443623,0.4,-0.054477235121704916,0.03455588570990619,0.9072219999466783,-0.0015181765775360827,-0.31452400144189596,-0.016194256022572517,1.509664673358202,-0.3991449159143059,-10.36258414387703,0.12237643823027611,21.28033936023712,0.0,0.0,0.0,0.0,0.0,0.0,0.0,0.0,0.0,0.0,0.0,0.0,0.0,0.0,0.0,0.0,True,0,1.953247308731079,0.02993603515625
STABILIZE,1.860213041305542,29.83464807767543,0.032440932591756184,0.03258824348449707,0.0,0.0,0.0,0.2902432325292854,-1.3904076287960383,39.4702254586834,-0.0005609529509334956,-0.001285909844053623,0.003736658339234713,0.4,-0.054807839737238656,0.033188947438802276,0.9008223322641827,0.003348179669145726,-0.1314415829256177,0.012864512973465025,1.5225458890199661,0.3257773450471297,1.6475804150104523,-0.002542549918871373,15.660963952541351,0.0,0.0,0.0,0.0,0.0,0.0,0.0,0.0,0.0,0.0,0.0,0.0,0.0,0.0,0.0,0.0,True,0,1.9820542335510254,0.0349248046875
STABILIZE,1.8937146663665771,29.851210259987045,0.032390626271565755,0.03252077102661133,0.0,0.0,0.0,0.2916407532664935,-1.390586494374928,39.473620062700896,4.8403932482796996e-05,-0.0007281611798013443,0.0034082747143230336,0.4,-0.05237924905880026,0.03163231220615985,0.9011109626337742,0.0020895911389734482,0.05197031423449516,-0.0029579721740446985,1.6346955671906471,-0.034338782722345716,3.2793447375297546,0.11393537279218435,21.861572563648224,0.0,0.0,0.0,0.0,0.0,0.0,0.0,0.0,0.0,0.0,0.0,0.0,0.0,0.0,0.0,0.0,True,0,2.0106451511383057,0.034925048828125
STABILIZE,1.9298348426818848,27.68517491749175,0.03233531316121419,0.03519845008850098,0.0,0.0,0.0,0.29330262366892224,-1.3894906758999641,39.47397864763232,-0.00024690465335493086,-0.0004943333515752147,0.0031360027695460898,0.4,-0.04989926162488163,0.030113868039005447,0.9012565782870686,0.0008871023449941561,0.05197031423449516,-0.0029579721740446985,1.6346955671906471,-0.034338782722345716,3.2793447375297546,0.11393537279218435,21.861572563648224,0.0,0.0,0.0,0.0,0.0,0.0,0.0,0.0,0.0,0.0,0.0,0.0,0.0,0.0,0.0,0.0,True,0,2.03939151763916,0.034925048828125
STABILIZE,1.963268756866455,29.907830092483653,0.03240207036336263,0.032538652420043945,0.0,0.0,0.0,0.2939429539036109,-1.3902390085009038,39.4764887421523,-0.0010593548015264847,-0.000656736362589756,0.0033467736580030253,0.4,-0.04943384509175015,0.031172163939173006,0.8995546656745363,0.0018078394286984325,-0.06961689796298742,0.14743279898539186,1.532904151827097,0.08828593131410056,-2.249644137918949,-0.03324559656903148,12.439033389091492,0.0,0.0,0.0,0.0,0.0,0.0,0.0,0.0,0.0,0.0,0.0,0.0,0.0,0.0,0.0,0.0,True,0,2.0680439472198486,0.064861083984375
STABILIZE,1.996819257736206,29.808356252976,0.032424004872639973,0.032601356506347656,0.0,0.0,0.0,0.29347412545011303,-1.391461078753807,39.48472253519675,-0.0011549447598623603,0.00011510509398505435,0.0019361608249361091,0.4,-0.04662014088164589,0.03038130484226273,0.9197883465614342,-0.005593472883900691,0.1146226772107184,0.14624745817855,1.710115559399128,-0.22901765693312914,-2.104089967906475,2.0846590399742126,19.386570155620575,0.0,0.0,0.0,0.0,0.0,0.0,0.0,0.0,0.0,0.0,0.0,0.0,0.0,0.0,0.0,0.0,True,0,2.1253631114959717,0.02993505859375
STABILIZE,2.0302464962005615,29.913802571801472,0.0323674996693929,0.03247880935668945,0.0,0.0,0.0,0.29284041196118277,-1.3910935291990958,39.486327629651704,-0.0009711325281236573,0.00047731999035112774,0.002329936388926984,0.4,-0.04513704784710077,0.02831128809725034,0.9106462944073512,-0.0032390633656234533,-0.029572428320534527,-0.03643010277301073,1.5277871862053871,0.14026313728936868,4.7493137419223785,0.06506317295134068,18.563033640384674,0.0,0.0,0.0,0.0,0.0,0.0,0.0,0.0,0.0,0.0,0.0,0.0,0.0,0.0,0.0,0.0,True,0,2.1541495323181152,0.03492578125
STABILIZE,2.0637266635894775,29.869279742490495,0.0323820432027181,0.0325162410736084,0.0,0.0,0.0,0.29315886953123466,-1.3919880705369558,39.48975638461505,-0.0012626605121024796,-0.00026227078224370036,0.0028964988014452647,0.4,-0.04655132843703784,0.028347099998843932,0.9116478731807427,-0.000935563063639368,-0.1799111138097942,0.07568309083580971,1.8201561644673347,0.14488030514765765,-1.1936157941818237,0.12573124840855598,21.785199642181396,0.0,0.0,0.0,0.0,0.0,0.0,0.0,0.0,0.0,0.0,0.0,0.0,0.0,0.0,0.0,0.0,True,0,2.1828243732452393,0.034925048828125
STABILIZE,2.0972931385040283,29.791418363650568,0.03235963185628255,0.03260493278503418,0.0,0.0,0.0,0.29385010601958106,-1.3920322533231493,39.495196630288966,-0.0011663130682885929,-0.0009111736552967417,0.0029988258590359857,0.4,-0.04765070993198896,0.02665733500028028,0.9106315503187622,-0.0006330922931374417,-0.16002668999135494,-0.022848886146675795,1.7003938555717468,0.030233692288822604,1.4855357818305492,0.15590605325996876,25.577884912490845,0.0,0.0,0.0,0.0,0.0,0.0,0.0,0.0,0.0,0.0,0.0,0.0,0.0,0.0,0.0,0.0,True,0,2.2117812633514404,0.029936279296875
STABILIZE,2.1306700706481934,29.959528282344873,0.03234818776448568,0.0324709415435791,0.0,0.0,0.0,0.29297231998952866,-1.3916870086049464,39.4982633852263,-0.0006314071451773706,-0.0011944410101809824,0.00306269469964568,0.4,-0.04856587924467489,0.024989549843526367,0.9054348890581274,-0.00023495616347617078,-0.16002668999135494,-0.022848886146675795,1.7003938555717468,0.030233692288822604,1.4855357818305492,0.15590605325996876,25.577884912490845,0.0,0.0,0.0,0.0,0.0,0.0,0.0,0.0,0.0,0.0,0.0,0.0,0.0,0.0,0.0,0.0,True,0,2.2406296730041504,0.029936279296875
STABILIZE,2.1640892028808594,29.9229792394949,0.03240922292073568,0.0325312614440918,0.0,0.0,0.0,0.29212729752315114,-1.3927462215348272,39.500947649570115,-0.00128952724685345,-0.001705578909762124,0.003360249473075168,0.4,-0.04856029072417136,0.02743344063322807,0.9022881306689877,9.757516615927387e-05,-0.10708378395065665,0.20882361568510532,1.7874754965305328,0.02643449294449557,-2.597753144800663,0.2293458441272378,23.98831844329834,0.0,0.0,0.0,0.0,0.0,0.0,0.0,0.0,0.0,0.0,0.0,0.0,0.0,0.0,0.0,0.0,True,0,2.2692253589630127,0.0349248046875
STABILIZE,2.1977322101593018,29.725122782648135,0.032448800404866536,0.03274941444396973,0.0,0.0,0.0,0.2922806566143591,-1.391774627125393,39.505510215935686,-0.0014629639115161912,-0.002756742251853583,0.0045704914967517555,0.4,-0.05228368253307992,0.026463782242567027,0.9052445375077327,0.0056552895981255066,-0.30631714034825563,0.009016179683385417,1.8631106242537498,0.3277108221907722,-1.0187966749072075,0.12171545531600714,21.54078632593155,0.0,0.0,0.0,0.0,0.0,0.0,0.0,0.0,0.0,0.0,0.0,0.0,0.0,0.0,0.0,0.0,True,1,2.298271656036377,0.034925048828125
STABILIZE,2.23166561126709,29.469696330958502,0.032421143849690755,0.03295493125915527,0.0,0.0,0.0,0.29189613830842853,-1.3892831021822192,39.49549032842328,-0.00127620813388357,-0.0037187996010720806,0.005609492390216534,0.4,-0.058101864813315224,0.025574713832910052,0.9031744306718253,0.010450871872623403,-0.20971319172531366,0.06541862967424095,1.4067111536860466,-0.04122052514635752,-5.153213441371918,0.026795000303536654,16.994871199131012,0.0,0.0,0.0,0.0,0.0,0.0,0.0,0.0,0.0,0.0,0.0,0.0,0.0,0.0,0.0,0.0,True,0,2.35599946975708,0.02993603515625
STABILIZE,2.2650811672210693,29.925327663582074,0.0323360284169515,0.032475948333740234,0.0,0.0,0.0,0.28972765996865524,-1.390018628178465,39.48681598817736,-0.0015445150039480483,-0.004264184899597547,0.00486557890632907,0.4,-0.0615974557972855,0.02539261025763151,0.8917462278585859,0.0072329599629449995,-0.31581013463437557,0.05347829428501427,1.285474468022585,-0.17272894740514336,-4.931728541851044,-0.012899655848741531,14.483378827571869,0.0,0.0,0.0,0.0,0.0,0.0,0.0,0.0,0.0,0.0,0.0,0.0,0.0,0.0,0.0,0.0,True,0,2.3855597972869873,0.034925048828125
STABILIZE,2.305687189102173,24.62703375549723,0.03238418896993001,0.039737701416015625,0.0,0.0,0.0,0.2944348342455576,-1.3969099688858906,39.504485687560184,-0.002011579769804071,-0.003329214031754846,0.0010952851379474322,0.4,-0.05719476975640146,0.026300986931817313,0.8900504320392737,-0.009466714485288352,0.16404720954596996,0.11131406063213944,1.5771977603435516,-0.9574568783477395,13.187815248966217,2.354472689330578,32.548364996910095,0.0,0.0,0.0,0.0,0.0,0.0,0.0,0.0,0.0,0.0,0.0,0.0,0.0,0.0,0.0,0.0,True,0,2.413236141204834,0.0349248046875
STABILIZE,2.339245319366455,29.79946146030934,0.032449992497762044,0.03258967399597168,0.0,0.0,0.0,0.29887371015412545,-1.400740531071504,39.50050027217948,-0.0016761270531335285,-0.0021471267203134643,0.005993903067607304,0.4,-0.05149663049107345,0.026776815922858792,0.8965878134617522,0.011851811821870216,0.23411675356328487,0.08464611601084471,2.0550094544887543,1.2483673349815705,7.257284224033356,-5.534075200557709,33.2270473241806,0.0,0.0,0.0,0.0,0.0,0.0,0.0,0.0,0.0,0.0,0.0,0.0,0.0,0.0,0.0,0.0,True,0,2.4419748783111572,0.02993603515625
STABILIZE,2.3726491928100586,29.93643429664471,0.032357009251912434,0.032480478286743164,0.0,0.0,0.0,0.2998513877007893,-1.3969649305643679,39.481160591544594,-0.0016841516895260505,-0.0019334873870499954,0.004836700003770143,0.4,-0.05360711257301335,0.025967207367961265,0.886011272477704,0.007515489652596798,-0.18345273565500975,0.25323405861854553,1.5181232243776321,1.0583408001012375,-7.984770834445953,2.182813733816147,30.018922686576843,0.0,0.0,0.0,0.0,0.0,0.0,0.0,0.0,0.0,0.0,0.0,0.0,0.0,0.0,0.0,0.0,True,0,2.4995315074920654,0.034925048828125
STABILIZE,2.406250238418579,29.7624568922697,0.03239396413167318,0.03256344795227051,0.0,0.0,0.0,0.2993132968602392,-1.3959659086765477,39.513293216494915,-0.0001454270832872214,-0.004157384128892341,0.005692264521134044,0.4,-0.06911763259596793,0.017844652492567985,0.8976104950376684,0.011819552865729333,-1.001650094985962,-0.4204877186566591,2.3332666605710983,0.25433137853382776,5.9235140681266785,-7.067128270864487,53.039634227752686,0.0,0.0,0.0,0.0,0.0,0.0,0.0,0.0,0.0,0.0,0.0,0.0,0.0,0.0,0.0,0.0,True,0,2.528153657913208,0.034925048828125
STABILIZE,2.4395289421081543,30.045803276574713,0.032277854283650716,0.03238844871520996,0.0,0.0,0.0,0.2958659723200869,-1.394714703397966,39.50761732929463,0.001535912343803248,-0.0068200466839568475,0.006791855052129481,0.4,-0.08474746294403507,0.009663863356969763,0.9092735695580461,0.016136716307893526,-1.001650094985962,-0.4204877186566591,2.3332666605710983,0.25433137853382776,5.9235140681266785,-7.067128270864487,53.039634227752686,0.0,0.0,0.0,0.0,0.0,0.0,0.0,0.0,0.0,0.0,0.0,0.0,0.0,0.0,0.0,0.0,True,0,2.556835412979126,0.034925048828125
STABILIZE,2.473257064819336,29.650106037042274,0.03244212468465169,0.03287196159362793,0.0,0.0,0.0,0.2999411406553515,-1.3932565647318742,39.49326027165927,0.0005307143003241949,-0.0039971774006992665,0.009265445523177786,0.4,-0.0679852786741457,0.015131483585853242,0.9071654298372892,0.025045891145627552,0.8850704878568649,0.37453710101544857,1.5316102653741837,0.521720584656839,45.896413922309875,12.118370085954666,22.46587723493576,0.0,0.0,0.0,0.0,0.0,0.0,0.0,0.0,0.0,0.0,0.0,0.0,0.0,0.0,0.0,0.0,True,0,2.585726499557495,0.02993603515625
STABILIZE,2.5067946910858154,29.81958821522011,0.03246572812398275,0.032572269439697266,0.0,0.0,0.0,0.297535953572155,-1.3913737803984778,39.51136710314897,0.00017867195089327353,-0.004767028233102127,0.0011140770650926216,0.4,-0.06672929997434911,0.017194880668743633,0.9094344739664333,-0.007617575443781364,-0.05554647068493068,0.1697633182629943,2.0571961998939514,-1.9012967073680007,-22.72873967885971,-10.468759387731552,67.28141903877258,0.0,0.0,0.0,0.0,0.0,0.0,0.0,0.0,0.0,0.0,0.0,0.0,0.0,0.0,0.0,0.0,True,0,2.6143205165863037,0.0349248046875
STABILIZE,2.540217638015747,29.919777436958306,0.03232529958089193,0.03244328498840332,0.0,0.0,0.0,0.29749059684719786,-1.3970481734948774,39.519631632044685,-0.00041006840441971465,-0.004223487620016958,-0.0063018285376400555,0.4,-0.06589091037049967,0.01928581206777484,0.916574027997405,-0.040320496854323505,-0.05554647068493068,0.1697633182629943,2.0571961998939514,-1.9012967073680007,-22.72873967885971,-10.468759387731552,67.28141903877258,0.0,0.0,0.0,0.0,0.0,0.0,0.0,0.0,0.0,0.0,0.0,0.0,0.0,0.0,0.0,0.0,True,0,2.6432974338531494,0.0349248046875
STABILIZE,2.5736474990844727,29.911242645747905,0.03236225446065267,0.03251290321350098,0.0,0.0,0.0,0.2882954546770682,-1.390138796819175,39.49695198890566,-0.0025041905150093953,-0.0017999720976096887,-0.014783318731235756,0.4,-0.06754768037451908,0.022324999508322983,0.9453518485674073,-0.07643508785959756,-0.39927433244884014,-0.0995672307908535,2.1242663264274597,0.25333462448225547,-4.676110669970512,-8.924730867147446,38.3734405040741,0.0,0.0,0.0,0.0,0.0,0.0,0.0,0.0,0.0,0.0,0.0,0.0,0.0,0.0,0.0,0.0,True,0,2.7004709243774414,0.0348779296875
STABILIZE,2.6071581840515137,29.840803665442955,0.032404454549153645,0.03254294395446777,0.0,0.0,0.0,0.2926307038093222,-1.3906256612409498,39.47446359106339,-0.004415554460220964,0.003220389844239801,-0.015069135461898971,0.4,-0.05693662345648774,0.02445094185525132,0.9458492490327493,-0.07689241938582467,0.454998342320323,0.16302001895383,1.8573794513940811,-0.06667917482350735,-5.597628653049469,4.468892514705658,36.858174204826355,0.0,0.0,0.0,0.0,0.0,0.0,0.0,0.0,0.0,0.0,0.0,0.0,0.0,0.0,0.0,0.0,True,0,2.7293708324432373,0.03492529296875
STABILIZE,2.6407501697540283,29.76837144601059,0.03235295613606771,0.0327458381652832,0.0,0.0,0.0,0.3005848859846252,-1.3913745274504183,39.51799238664388,-0.003894763288204267,0.002444419497079542,-0.015440937482606288,0.4,-0.04630101585116536,0.026594474950773127,0.9465419223308363,-0.07713510019744732,0.454998342320323,0.16302001895383,1.8573794513940811,-0.06667917482350735,-5.597628653049469,4.468892514705658,36.858174204826355,0.0,0.0,0.0,0.0,0.0,0.0,0.0,0.0,0.0,0.0,0.0,0.0,0.0,0.0,0.0,0.0,True,0,2.7578227519989014,0.03492529296875
STABILIZE,2.6742613315582275,29.84207755247243,0.032451661427815755,0.03258013725280762,0.0,0.0,0.0,0.29600225593836976,-1.3959681498323693,39.484114648360624,0.0008788692990435871,-0.0028316102089169875,-0.00939976671846092,0.4,-0.07034972539228204,0.005520115126510572,0.9356452069963003,-0.05494394652789005,-1.4356976374983788,-1.103877741843462,1.219345536082983,1.1465682746009964,-58.7956964969635,-46.86887562274933,23.493842780590057,0.0,0.0,0.0,0.0,0.0,0.0,0.0,0.0,0.0,0.0,0.0,0.0,0.0,0.0,0.0,0.0,True,0,2.786680221557617,0.02993603515625
STABILIZE,2.707782745361328,29.83337482484654,0.03241732915242513,0.032550811767578125,0.0,0.0,0.0,0.29934424615491584,-1.4015825653301197,39.4834589502003,0.0003798649876987136,-0.004524001519452471,-0.015897881449899936,0.4,-0.07765722751235289,0.009669880680389018,0.9275687614499785,-0.08721222269987391,-0.5461498163640499,0.2697370480746031,1.611434668302536,-1.890253358697148,21.79836481809616,45.11011242866516,13.462960720062256,0.0,0.0,0.0,0.0,0.0,0.0,0.0,0.0,0.0,0.0,0.0,0.0,0.0,0.0,0.0,0.0,True,0,2.8156869411468506,0.0349248046875
STABILIZE,2.7411718368530273,29.9492598913222,0.03234246571858724,0.03245830535888672,0.0,0.0,0.0,0.2910838794057259,-1.4067566470698158,39.59024895787345,0.005591189697885732,-0.0004118279661556677,-0.009103479515932798,0.4,-0.0593802581378976,-0.012554932338634004,0.9239550658307155,-0.0621740887044012,0.9019274264574051,-1.1895663104951382,1.579234004020691,1.3208154716730132,-47.95241951942444,30.353012681007385,52.97355055809021,0.0,0.0,0.0,0.0,0.0,0.0,0.0,0.0,0.0,0.0,0.0,0.0,0.0,0.0,0.0,0.0,True,0,2.84440541267395,0.064861083984375
STABILIZE,2.7746074199676514,29.907830092483653,0.032390864690144856,0.032514095306396484,0.0,0.0,0.0,0.2985502366639019,-1.4095636413752797,39.540771067525874,0.006247542421577398,-0.001665085474772803,-0.016719864677756383,0.4,-0.05621665960994398,-0.013869137479825593,0.9694285546856225,-0.09508508673031069,-0.8739844895899296,1.4359739609062672,1.8130749464035034,-2.8555558832454104,10.379151999950409,53.04376482963562,3.2992571592330933,0.0,0.0,0.0,0.0,0.0,0.0,0.0,0.0,0.0,0.0,0.0,0.0,0.0,0.0,0.0,0.0,True,0,2.9017491340637207,0.03492578125
STABILIZE,2.808701753616333,29.328951324741798,0.032317431767781575,0.03317999839782715,0.0,0.0,0.0,0.29329803463557363,-1.4229162343158315,39.57015454133527,0.010558038184076609,-0.0042155541825873106,-0.0029326956541299255,0.4,-0.0593754089503891,-0.032949567729737034,0.9515440626731893,-0.03487625008651796,-0.27538430877029896,-0.9382728487253189,1.1892640963196754,2.7970753766849383,-9.88321453332901,-93.59953999519348,11.241327971220016,0.0,0.0,0.0,0.0,0.0,0.0,0.0,0.0,0.0,0.0,0.0,0.0,0.0,0.0,0.0,0.0,True,0,2.9304087162017822,0.034925048828125
STABILIZE,2.8422157764434814,29.837831685281355,0.032453330357869466,0.03257393836975098,0.0,0.0,0.0,0.28885435625024564,-1.4267475435533854,39.628187243618285,0.008441780398695265,0.005704690766316194,-0.010384170253972326,0.4,-0.03254063509178143,-0.04081319748210248,0.9335387148412225,-0.0642184917242563,1.1963455937802792,-0.40787034668028355,1.1415251530706882,-1.5459403209856317,33.56870114803314,21.715131402015686,4.291882738471031,0.0,0.0,0.0,0.0,0.0,0.0,0.0,0.0,0.0,0.0,0.0,0.0,0.0,0.0,0.0,0.0,True,0,2.9591288566589355,0.029936279296875
STABILIZE,2.8755650520324707,29.985873201978894,0.03242066701253255,0.03252983093261719,0.0,0.0,0.0,0.2869880070595397,-1.4305721293234752,39.650962509405694,0.010344711410118376,0.01096689385868625,-0.011103405180211572,0.4,-0.013652943425139341,-0.04627263660788346,0.9195796141636229,-0.07133240344453426,0.8492224849760532,-0.3324409946799278,1.496252603828907,-0.4935683058061918,-37.29052245616913,-0.09006019681692123,17.337331175804138,0.0,0.0,0.0,0.0,0.0,0.0,0.0,0.0,0.0,0.0,0.0,0.0,0.0,0.0,0.0,0.0,True,0,2.990720510482788,0.0349248046875
STABILIZE,2.9125897884368896,27.012275075028658,0.03249243100484212,0.03613901138305664,0.0,0.0,0.0,0.30151240432957177,-1.426020662015308,39.5966829960716,0.0002716252410837617,0.005707612040944799,-0.024746978559833786,0.4,-0.023972887465524312,-0.014641680493739435,0.9234918986024802,-0.12770531894892617,-0.6283613853156567,1.5828536823391914,2.149180695414543,-2.9878707347337206,-24.440178275108337,47.36855328083038,28.358328342437744,0.0,0.0,0.0,0.0,0.0,0.0,0.0,0.0,0.0,0.0,0.0,0.0,0.0,0.0,0.0,0.0,True,0,3.0195488929748535,0.034925048828125
STABILIZE,2.9461653232574463,29.780419054110663,0.032429011662801106,0.03256416320800781,0.0,0.0,0.0,0.3001565050576185,-1.4239697909953057,39.64769426388784,0.002170340246276766,0.007407484792417261,-0.009798487849725422,0.4,-0.013117267501400812,-0.0248416177352555,0.9339736944806027,-0.06676441308862652,0.4621109925210476,-0.5532353650778532,2.469913102686405,3.010636395567608,-0.10998938232660294,-62.224531173706055,40.69584906101227,0.0,0.0,0.0,0.0,0.0,0.0,0.0,0.0,0.0,0.0,0.0,0.0,0.0,0.0,0.0,0.0,True,0,3.048175573348999,0.034926025390625
STABILIZE,2.9796810150146484,29.83698265682132,0.03232458432515462,0.03258967399597168,0.0,0.0,0.0,0.299883297490818,-1.4256971885250844,39.70300855088119,0.0005632376531034483,-0.002547716832319528,-0.0337402599510284,0.4,-0.06344295072074006,-0.033246171790325324,0.9062421064393613,-0.1628169941819366,-1.4170036651194096,-0.2604184206575155,1.2884525582194328,-2.6885759007285817,-41.811054944992065,38.990357518196106,18.832726776599884,0.0,0.0,0.0,0.0,0.0,0.0,0.0,0.0,0.0,0.0,0.0,0.0,0.0,0.0,0.0,0.0,True,0,3.1065785884857178,0.029934814453125
STABILIZE,3.013282299041748,29.761612147874832,0.032387765248616536,0.032503366470336914,0.0,0.0,0.0,0.3038219687643881,-1.425475207377059,39.639204338749515,-0.00609160410542524,-0.007738962205386616,-0.03850802498577055,0.4,-0.0653028898556973,-0.008278914828492703,0.8986711246870208,-0.18682660350617136,-0.21909307688474655,1.3061272911727428,1.6705235466361046,-1.547118955504282,23.27239215373993,8.433202654123306,35.92326045036316,0.0,0.0,0.0,0.0,0.0,0.0,0.0,0.0,0.0,0.0,0.0,0.0,0.0,0.0,0.0,0.0,True,0,3.135446071624756,0.034926025390625
STABILIZE,3.0465850830078125,30.024940226495055,0.032218011220296223,0.03234148025512695,0.0,0.0,0.0,0.30054443845813406,-1.4285709906183672,39.64568277317727,-0.007351018399210495,-0.009240970791414062,-0.028592371578111907,0.4,-0.056231807397319644,-0.0069310600728804015,0.8907483114757675,-0.14420467529383307,0.4063979722559452,0.04079952777829021,1.3853696174919605,2.183354491785555,19.13750469684601,-27.134060859680176,20.304931700229645,0.0,0.0,0.0,0.0,0.0,0.0,0.0,0.0,0.0,0.0,0.0,0.0,0.0,0.0,0.0,0.0,True,0,3.16398024559021,0.034925048828125
STABILIZE,3.079965829849243,29.95738845359941,0.0323672612508138,0.03249192237854004,0.0,0.0,0.0,0.2747012437946272,-1.4183591107572577,39.742435817865086,0.005672765191785604,-0.009795083943630729,-0.020765436745294963,0.4,-0.06667781788030727,-0.04454081293113504,0.8738506325429328,-0.11645658945305822,-0.6679480895400047,-2.10010539740324,0.8769743144512177,1.3571122708612244,-12.517577409744263,-27.79456079006195,6.2644533812999725,0.0,0.0,0.0,0.0,0.0,0.0,0.0,0.0,0.0,0.0,0.0,0.0,0.0,0.0,0.0,0.0,True,0,3.1926076412200928,0.029920654296875
STABILIZE,3.1135308742523193,29.793746181931837,0.03243544896443685,0.03256988525390625,0.0,0.0,0.0,0.30597700016923296,-1.4025782788450607,39.57336131515059,-0.002485131470808814,-0.010662370364780835,-0.03762595371283017,0.4,-0.061566396501892454,-0.014350221610221217,0.869787566914723,-0.18135347867369517,0.16309082275256515,1.6339605674147606,1.7827734351158142,-3.86368732242765,-9.555310010910034,28.97820770740509,21.50675803422928,0.0,0.0,0.0,0.0,0.0,0.0,0.0,0.0,0.0,0.0,0.0,0.0,0.0,0.0,0.0,0.0,True,0,3.221386194229126,0.034925048828125
STABILIZE,3.146854877471924,30.008184758034513,0.03230741818745931,0.032471656799316406,0.0,0.0,0.0,0.316055798063233,-1.401947126677069,39.5690104846493,-0.010166143697677444,-0.0006851061261077156,-0.05001382774092703,0.4,-0.056978711640058334,0.015301580672688607,0.870248760648606,-0.24696022724214886,0.16309082275256515,1.6339605674147606,1.7827734351158142,-3.86368732242765,-9.555310010910034,28.97820770740509,21.50675803422928,0.0,0.0,0.0,0.0,0.0,0.0,0.0,0.0,0.0,0.0,0.0,0.0,0.0,0.0,0.0,0.0,True,0,3.250845432281494,0.034925048828125
STABILIZE,3.1803348064422607,29.869705170203673,0.032485040028889973,0.03261113166809082,0.0,0.0,0.0,0.25406927002442853,-1.38203616475113,39.78017944321858,-0.0032215238645919068,0.0011423693646027905,-0.036521419848493095,0.4,-0.04964596981933542,0.0035544690803597945,0.8654613690171687,-0.19083764060537772,0.315907783806324,-0.6987974978983402,1.4744820073246956,2.9806145125142285,7.635755836963654,-76.78553462028503,24.96306747198105,0.0,0.0,0.0,0.0,0.0,0.0,0.0,0.0,0.0,0.0,0.0,0.0,0.0,0.0,0.0,0.0,True,0,3.2837865352630615,0.02993603515625
STABILIZE,3.2138280868530273,29.85673507449406,0.03244474728902181,0.032573699951171875,0.0,0.0,0.0,0.2605581631793522,-1.353285550657019,39.77381370691213,-0.025074664142528492,0.021788575898706024,-0.10082732389012533,0.4,0.055782670988583916,0.1098261798865804,0.8285670933255873,-0.4636648603774706,2.520197071135044,-0.6388210691511631,-0.3566312836483121,-4.939338383206638,-79.35062646865845,-305.71038722991943,-92.40992069244385,0.0,0.0,0.0,0.0,0.0,0.0,0.0,0.0,0.0,0.0,0.0,0.0,0.0,0.0,0.0,0.0,True,0,3.3411600589752197,0.02993505859375
STABILIZE,3.2481184005737305,29.162957246059392,0.0323977788289388,0.0333249568939209,0.0,0.0,0.0,0.31005803819831557,-1.4100930877576614,39.43756007897782,-0.029187784565757026,0.03273400673924128,-0.11931884090960192,0.4,0.09955852521704377,0.09753151974450239,0.7898034615252046,-0.53911271346408,2.520197071135044,-0.6388210691511631,-0.3566312836483121,-4.939338383206638,-79.35062646865845,-305.71038722991943,-92.40992069244385,0.0,0.0,0.0,0.0,0.0,0.0,0.0,0.0,0.0,0.0,0.0,0.0,0.0,0.0,0.0,0.0,True,0,3.3697500228881836,0.02993505859375
STABILIZE,3.2817513942718506,29.73355167549251,0.032349618275960286,0.0326690673828125,0.0,0.0,0.0,0.309299460313621,-1.396382336772507,39.539603105177804,0.005684362634392851,0.025275651283784357,-0.05984363276270347,0.4,0.06957111207088436,-0.044655958909205914,0.8294182700722345,-0.2878224445678733,-1.768326573073864,-8.321639895439148,4.19282391667366,14.23995745714152,27.669072151184082,-34.70462262630463,65.21418690681458,0.0,0.0,0.0,0.0,0.0,0.0,0.0,0.0,0.0,0.0,0.0,0.0,0.0,0.0,0.0,0.0,True,0,3.39850115776062,0.03492578125
STABILIZE,3.3151943683624268,29.90228635388224,0.03234723409016927,0.03248476982116699,0.0,0.0,0.0,0.278236720463755,-1.4041795313186054,39.68699175727751,-0.005723573040641242,0.026713677698641202,-0.07595993630636651,0.4,0.07999337544547767,0.035406982728623276,0.8209502094806946,-0.36539224936119824,0.5396882072091103,4.786761850118637,1.1205189861357212,-4.947872277687746,56.82503581047058,296.6062068939209,84.68796014785767,0.0,0.0,0.0,0.0,0.0,0.0,0.0,0.0,0.0,0.0,0.0,0.0,0.0,0.0,0.0,0.0,True,0,3.4272639751434326,0.034925048828125
STABILIZE,3.3487279415130615,29.81958821522011,0.03235796292622884,0.03248929977416992,0.0,0.0,0.0,0.28219897723430293,-1.3850147675594902,39.618181016484215,-0.02156052148223673,0.03011356170045135,-0.09852405257213655,0.4,0.10178852592868463,0.10123320696408789,0.8478786374936552,-0.45492109058790814,1.2293423525989056,3.8938965648412704,3.202724829316139,-5.637025985224162,-69.34754252433777,-43.82627308368683,127.376389503479,0.0,0.0,0.0,0.0,0.0,0.0,0.0,0.0,0.0,0.0,0.0,0.0,0.0,0.0,0.0,0.0,True,0,3.455892324447632,0.034925048828125
STABILIZE,3.3820180892944336,30.036981337458286,0.0322604497273763,0.032377004623413086,0.0,0.0,0.0,0.28489860950375046,-1.3934432209952858,39.58092916475097,-0.0164996959913545,0.015727132338868983,-0.11133191191060664,0.4,0.12334444976045457,0.16748518129879741,0.8751727742056981,-0.5445139464417433,1.2293423525989056,3.8938965648412704,3.202724829316139,-5.637025985224162,-69.34754252433777,-43.82627308368683,127.376389503479,0.0,0.0,0.0,0.0,0.0,0.0,0.0,0.0,0.0,0.0,0.0,0.0,0.0,0.0,0.0,0.0,True,0,3.4848291873931885,0.034925048828125
STABILIZE,3.4236629009246826,24.012732581439284,0.03243759473164876,0.04074358940124512,0.0,0.0,0.0,0.28929714460753286,-1.4024316432213169,39.580082221293885,-0.006676001056814367,-0.005033492342467666,-0.09709485040314957,0.4,0.04866621788610478,0.09747485507426402,0.9180163828274,-0.4889754461211041,-0.2709130523726344,-0.03915957931894809,2.9443709179759026,4.829300193696325,60.090988874435425,88.87147903442383,87.75660991668701,0.0,0.0,0.0,0.0,0.0,0.0,0.0,0.0,0.0,0.0,0.0,0.0,0.0,0.0,0.0,0.0,True,0,3.542029619216919,0.034926025390625
STABILIZE,3.457139015197754,29.87161974489178,0.03242305119832357,0.03255128860473633,0.0,0.0,0.0,0.28724189799759375,-1.4015266431562903,39.63598048946127,-0.03164693032508716,-0.0006215587300632779,-0.08407367418649837,0.4,0.04337352048897385,0.09569205497612962,0.9414532759548194,-0.3986800489086309,-0.2709130523726344,-0.03915957931894809,2.9443709179759026,4.829300193696325,60.090988874435425,88.87147903442383,87.75660991668701,0.0,0.0,0.0,0.0,0.0,0.0,0.0,0.0,0.0,0.0,0.0,0.0,0.0,0.0,0.0,0.0,True,0,3.570742607116699,0.034926025390625
STABILIZE,3.490609884262085,29.879919072179636,0.03240016301472982,0.0325319766998291,0.0,0.0,0.0,0.2882092235387968,-1.4065766075521626,39.60862899692995,-0.010455525246565787,-0.007634480727757309,-0.08793365570805992,0.4,0.019472587325930744,0.06277072087115282,0.9505079890023765,-0.4243230965438165,-1.362358033657074,-1.8654929473996162,2.100120857357979,-2.1287247178130886,-54.07012701034546,-61.323082447052,39.39240872859955,0.0,0.0,0.0,0.0,0.0,0.0,0.0,0.0,0.0,0.0,0.0,0.0,0.0,0.0,0.0,0.0,True,0,3.5998566150665283,0.06486083984375
STABILIZE,3.5241167545318604,29.844413294530344,0.03236535390218099,0.03254103660583496,0.0,0.0,0.0,0.29375202877196793,-1.4245148187467318,39.57930016463392,0.0003276986729340043,-0.021116998183744348,-0.08687066617534929,0.4,-0.025907191258157606,0.06712410219953585,0.9947937721772604,-0.43008824671875906,-2.4074234068393707,0.23516220971941948,2.259262092411518,-0.019080587013680192,-27.04790234565735,35.39927899837494,58.42171907424927,0.0,0.0,0.0,0.0,0.0,0.0,0.0,0.0,0.0,0.0,0.0,0.0,0.0,0.0,0.0,0.0,True,0,3.628228187561035,0.034925048828125
STABILIZE,3.5575923919677734,29.870981526058657,0.0323515256245931,0.03247785568237305,0.0,0.0,0.0,0.2839595652145795,-1.4119716032228264,39.65968807607038,0.00881656916321311,-0.01863897448892161,-0.08030553678118228,0.4,0.004735517882784725,0.08345933708316981,0.9652196242285446,-0.4119880439580103,0.9009484201669693,0.568436412140727,1.008142251521349,-0.2629954468155625,26.409414410591125,-43.29027831554413,33.7298184633255,0.0,0.0,0.0,0.0,0.0,0.0,0.0,0.0,0.0,0.0,0.0,0.0,0.0,0.0,0.0,0.0,True,0,3.6853573322296143,0.034925048828125
STABILIZE,3.5909767150878906,29.95375144616,0.03233054478963216,0.03246331214904785,0.0,0.0,0.0,0.27647858708271145,-1.4021919462701318,39.65936022699022,0.003078145963417209,-0.00803150583876368,-0.08500025635324969,0.4,0.0038017834101238615,0.06301596819300286,0.9512339140572824,-0.4253680412462217,-0.01035649620462209,-1.001512911170721,1.0572907514870167,-1.501638219925048,-46.572354435920715,-30.434373021125793,-3.1234033405780792,0.0,0.0,0.0,0.0,0.0,0.0,0.0,0.0,0.0,0.0,0.0,0.0,0.0,0.0,0.0,0.0,True,0,3.714021921157837,0.0299208984375
STABILIZE,3.6244993209838867,29.834011437676047,0.032399686177571614,0.03252005577087402,0.0,0.0,0.0,0.26672048791458464,-1.3767068029295217,39.60531294008791,0.0024117953118040726,-0.013179016143226998,-0.09143120809776523,0.4,-0.025321581857700268,0.06442027364142831,0.9511597946588952,-0.440313680074494,-1.5961471945047379,0.22209950257092714,2.083560638129711,-1.7316432393996406,18.060657382011414,29.67613935470581,57.95969367027283,0.0,0.0,0.0,0.0,0.0,0.0,0.0,0.0,0.0,0.0,0.0,0.0,0.0,0.0,0.0,0.0,True,0,3.7434937953948975,0.034926025390625
STABILIZE,3.65789794921875,29.93942595275995,0.03226307233174642,0.032382965087890625,0.0,0.0,0.0,0.2965693750828924,-1.4000819514251268,39.637947583942235,-0.0056523058974564545,-0.003689703087880641,-0.0791714925418525,0.4,-0.0007598211271200514,0.07503200951304904,0.9484028835625238,-0.38919324976554603,1.4138780534267426,0.7184386719018221,1.6375228762626648,2.106163535767479,79.88254427909851,-28.810709714889526,54.93791699409485,0.0,0.0,0.0,0.0,0.0,0.0,0.0,0.0,0.0,0.0,0.0,0.0,0.0,0.0,0.0,0.0,True,0,3.7719473838806152,0.034925048828125
