Mode,Time,Freq,North-Vision,East-Vision,Down-Vision,Yaw-Vision,North-Desired,East-Desired,Down-Desired,Roll-UAV,Pitch-UAV,Yaw-UAV,Roll-Control,Pitch-Control,Yaw-Control,Thrust-Control,northVraw,eastVraw,downVraw,yawVraw,zGyro
GUIDED_NOGPS,0.0032291412353515625,312.14586589268436,22.230081390587433,30.3299558044212,85.08180008799897,-2.341830583608013,7.03658903751524,-24.429090679621773,92.6624308856882,-0.42146594744148114,-0.1938418358620197,-2.0883068599561265,2.5,2.5,10.0,0.5113709461965338,22.230081390587433,30.3299558044212,85.08180008799897,-10.961046440788264,-0.40107045659157625
GUIDED_NOGPS,0.005744218826293945,398.43298185617937,22.230081390587433,30.3299558044212,85.08180008799897,-2.456104824068274,7.036615862044654,-24.42905946879691,92.66239639444602,-0.42146594744148114,-0.1938418358620197,-2.0883068599561265,1.9715296155075348,0.6077756140882079,10.0,0.5113708944596705,22.230081390587433,30.3299558044212,85.08180008799897,-10.961046440788264,-0.40107045659157625
GUIDED_NOGPS,0.044853925704956055,25.57783171323682,22.230081390587433,30.3299558044212,85.08180008799897,-2.5761436077572912,7.0368014690509035,-24.428843511690065,92.66215634140129,-0.3997686242433191,-0.18243520650468684,-2.089564681980467,1.9734537778412342,0.6083770448406339,3.3619909148851743,0.5113705343801035,22.230081390587433,30.3299558044212,85.08180008799897,-10.961046440788264,0.40107045659157625
GUIDED_NOGPS,0.0584416389465332,73.63078435503125,22.230081390587433,30.3299558044212,85.08180008799897,-2.693996664026593,7.037298727631367,-24.42826494234313,92.66150896272718,-0.36244686979278273,-0.23305309811341665,-2.0961278534426144,1.9739911679931597,0.6084456497036556,6.124908989880035,0.5113695633120923,22.230081390587433,30.3299558044212,85.08180008799897,-10.961046440788264,0.0
GUIDED_NOGPS,0.09508609771728516,27.2974253507927,22.230081390587433,30.3299558044212,85.08180008799897,-2.810729401973065,7.038254135812062,-24.427153307654702,92.6602566124634,-0.38084574523035747,-0.20600106668852333,-2.1271672212389143,1.9757954208609116,0.609001831015372,3.5869556407357877,0.5113676847866967,22.230081390587433,30.3299558044212,85.08180008799897,-10.961046440788264,-0.2864788975654116
GUIDED_NOGPS,0.12962889671325684,28.956389067235534,15.857807275616171,12.299190464887207,82.41670883141963,-2.83729996153899,7.039807908424486,-24.42534546513378,92.65820573459841,-0.11762899761764391,-0.031886097809969836,-2.1489561650214895,-0.5509485500337103,-0.38342250970470826,2.405652311555338,0.5153622453547682,-9.631289184268873,-59.82387089324876,71.75634380510223,-4.11055149805063,-0.6875493541569879
GUIDED_NOGPS,0.17110180854797363,24.117947420475193,9.485533160644911,-5.731574874646785,79.75161757484027,-2.8548045116142045,7.042094064982465,-24.422685480653456,92.65516683515176,0.4930614844254357,0.2593038629713028,-2.1039595190996803,-0.8908663003710913,-0.5171513518579238,2.2569004523569283,0.5193553238904672,-9.631289184268873,-59.82387089324876,71.75634380510223,-4.11055149805063,0.5156620156177409
GUIDED_NOGPS,0.20289182662963867,31.460898003270376,5.483165178629135,-21.0688183673397,78.77353978878011,-2.8212198245874185,7.045240517559004,-24.41902452620462,92.65095445425622,0.6674722858724154,0.1934177238032442,-2.119599798525363,-1.6013369094298409,-0.5621595150883684,1.50513905035529,0.5208161219982141,2.2182414805085524,-46.35626165904337,80.19141115769816,-0.6888259221464575,0.2291831180523293
GUIDED_NOGPS,0.24692487716674805,22.71722516803787,3.6645950581281674,-35.98669371209144,77.50438823931447,-2.8122670605552,7.049369158663126,-24.414220777649668,92.6453871382402,0.660312753518361,0.3715298474501361,-2.1227483022893274,-1.6344501260722302,-0.2998603723130817,1.9348021111008955,0.5227114983483886,13.137230788082592,-44.2594209193375,78.73604234067079,-1.8794787738104914,-0.34377467707849396
GUIDED_NOGPS,0.28574204444885254,25.77858086721367,2.172210956746283,-51.00815846185241,76.12586490401483,-2.809874902211304,7.054595949116723,-24.408139312476184,92.63828741170987,0.06432501405588759,0.310871364318076,-2.1324599775154396,-2.3542620514315633,-0.3490728617126817,2.014964964814653,0.5247686337615426,14.76816088367801,-44.7773679443837,78.18918341150082,-2.1033226010328594,-0.2864788975654116
GUIDED_NOGPS,0.3267371654510498,24.392579238150624,8.258714019395915,-31.362174712390146,67.98434705627452,-1.9709336444132108,7.061031005931404,-24.400652007550672,92.62948174963148,-0.5843852224141788,0.2406570196503449,-2.1613021588331107,1.5050104908410822,0.651639366200704,-8.920499525703107,0.5369677020400354,20.80122612897929,38.40604785406258,31.0487545664006,63.10248603680865,-0.11459155902616465
GUIDED_NOGPS,0.36142683029174805,28.840508557322718,14.345217082045547,-11.716190962927879,59.842829208534184,-1.1514145752703393,7.068778690185335,-24.39163743687222,92.61880054941366,-1.2687247138027935,0.151453468429509,-2.15718995806594,2.4829896421612525,0.9880512101573837,-10.0,0.5491639570113193,20.80122612897929,38.40604785406258,31.0487545664006,63.10248603680865,-0.057295779513082325
GUIDED_NOGPS,0.39844751358032227,27.018017147531904,18.061814011739695,5.236270939693311,50.01429789027467,-0.3495997951956282,7.077937694900092,-24.38098076932623,92.60607810298963,-1.6648748318898867,0.13982336382026977,-2.158056751760297,2.5,0.836942605337399,-10.0,0.5638876703190725,20.80122612897929,38.40604785406258,31.0487545664006,63.10248603680865,0.0
GUIDED_NOGPS,0.42638182640075684,35.80988158153116,19.594613079919036,21.76936469437333,40.476840335420626,0.46855870072604056,7.088601132917504,-24.368573666438103,92.59115256889945,-1.8703273490106935,0.13352528907528333,-2.1101092506736303,2.5,0.7199201122793008,-10.0,0.5781714683502183,20.80122612897929,38.40604785406258,31.0487545664006,63.10248603680865,2.0626480624709638
GUIDED_NOGPS,0.46256184577941895,27.646670313952185,20.801226128979295,38.40604785406258,31.04875456640058,1.280115970260705,7.100856624776502,-24.35431418012694,92.57386594437232,-1.6677697648809144,0.37654683483892204,-2.0431219569453187,2.5,0.6841603842648676,-10.0,0.5922876670669576,20.80122612897929,38.40604785406258,31.0487545664006,63.10248603680865,2.3491269600363753
GUIDED_NOGPS,0.4953022003173828,30.54735078839081,20.801226128979295,38.40604785406258,31.04875456640058,2.085506026235086,7.114786386589959,-24.338106650459263,92.5540640374088,-1.0784849489543094,0.5974436903335969,-1.9721481806192471,2.2684380644682687,0.5492384373959156,-10.0,0.5922579642065123,20.80122612897929,38.40604785406258,31.0487545664006,63.10248603680865,2.119943841984046
GUIDED_NOGPS,0.5387108325958252,23.04220802408434,17.06003472031278,18.77806604508263,40.07468697129862,2.1269846062525155,7.1304673179215445,-24.31986160340268,92.53159643886316,0.14528091175073476,0.898976478508973,-1.8596927444729836,-0.06501189148475106,0.05482288570267607,-1.8964547155060736,0.5786853642013469,2.0952690856467013,-59.73386119083715,76.17841659089079,0.9514335042131891,1.7188733853924698
GUIDED_NOGPS,0.5753417015075684,27.303822518487657,16.48455237243719,1.154629990201687,49.08441363935458,2.144995231453934,7.147971089662567,-24.299495648579615,92.50631649452549,0.9447480307364614,1.082406758198366,-1.8235834553218302,-0.8053630453307291,0.31288413965146955,-1.6851246159756645,0.5651328542827564,17.923814389601368,-49.71113242034215,76.09738790668041,-1.9871330008323416,1.3178029288008934
GUIDED_NOGPS,0.6132256984710693,26.40750487943084,15.909070024561606,-16.46880606467926,58.09414030741054,2.1246687093700736,7.167364231908821,-24.276931377020997,92.47808127720413,1.5968634366728964,1.0506775412958949,-1.8145381504266178,-1.3855651156936706,0.2912733179306093,-1.1639380507424044,0.5515759114546904,17.923814389601368,-49.71113242034215,76.09738790668041,-1.9871330008323416,0.057295779513082325
GUIDED_NOGPS,0.6513986587524414,26.20309991316245,15.849868121307685,-35.39885456025219,66.21324845951327,2.06637543223934,7.188708221837431,-24.252097258919967,92.44675155880778,1.6955911530827863,0.9611670584492316,-1.8699747404947915,-2.1754048669173605,0.34290069337342843,-0.6362444646247246,0.5393502546489417,20.50521661270968,-56.24419462380205,71.6442953269142,-1.5231771187353809,-1.776169164905552
GUIDED_NOGPS,0.6853306293487549,29.479845653197636,15.611433963859024,-57.22701625238553,73.54105286296586,1.9950029442841648,7.212059571583701,-24.224927541385572,92.41219178242787,1.4004316784549726,0.8123965737030682,-1.9526725365311903,-2.5,0.3102968477007198,-0.30507253251587096,0.528306708379193,19.609055341736,-70.73476060660415,67.68777658366355,-0.17756085372289743,-2.0626480624709638
GUIDED_NOGPS,0.7292332649230957,22.781882274981395,18.780894046354852,-56.17358193951814,73.30006158426025,1.8826213551008057,7.237469916117962,-24.195362146196466,92.37427003442076,0.5881540994538507,0.5881875033477603,-2.0866287678544193,-1.0556716026568815,0.7540320903166983,-0.005766163901502308,0.5286113126752408,17.94256949812584,-54.46668962650016,74.97346019736277,-1.255255503874693,-3.2658594322456924
GUIDED_NOGPS,0.7716274261474609,23.590143926568764,18.68974943355385,-57.06988699266916,73.34409518369719,1.711628212401891,7.264986101122414,-24.163346567554612,92.33285801649004,-0.5973173318339516,0.5210591235244055,-2.2638785801185968,-1.252837399878947,0.45201783419356606,0.8339126403982502,0.5284831442491893,17.46809132559637,-54.192657686097256,76.31755590386508,-1.490915720362412,-4.5263665815335035
GUIDED_NOGPS,0.8004982471466064,34.65536359054442,18.598604820752847,-57.966192045820186,73.38812878313412,1.5315135946662384,7.294650270867974,-24.128831769838992,92.28783101776874,-1.1002467854236162,0.44279497403299134,-2.3717302553208603,-1.3257732068958863,0.4417779607550114,2.093190197680591,0.5283495533519519,17.46809132559637,-54.192657686097256,76.31755590386508,-1.490915720362412,-3.552338329811104
GUIDED_NOGPS,0.835127592086792,28.883805168958702,17.991179763330184,-57.555884658279226,74.3227808985243,1.4024009579793613,7.3264999560911255,-24.09177408535929,92.23906788690167,-1.5604290732059327,0.2617038206909161,-2.516567618322154,-1.1576090938613655,0.3597438177607303,0.8941825084762632,0.5268744304825661,17.46809132559637,-54.192657686097256,76.31755590386508,-1.490915720362412,-3.6096341093241864
GUIDED_NOGPS,0.8725128173828125,26.756042638156174,17.562986960102258,-54.247464074177856,76.0487367625646,1.2659942861868851,7.360568161870762,-24.05213511210961,92.18645100412758,-1.7752015968926333,0.38844203616532236,-2.6517761221410225,-0.7647165227372388,0.36585512641683526,0.9495261008291626,0.5242065713623445,17.46809132559637,-54.192657686097256,76.31755590386508,-1.490915720362412,-2.864788975654116
GUIDED_NOGPS,0.9093217849731445,27.173981211532233,17.46809132559636,-54.19265768609728,76.31755590386506,1.1181568107622928,7.396883455505032,-24.00988161152216,92.12986625336151,-1.7144078973593482,0.30480274124051965,-2.7941716925140367,-1.079001419919529,0.39620482728386036,1.2321894450124122,0.5237184655242447,17.46809132559637,-54.192657686097256,76.31755590386508,-1.490915720362412,-3.4377467707849396
GUIDED_NOGPS,0.9447216987609863,28.258933865143103,17.46809132559636,-54.19265768609728,76.31755590386506,0.9920638726745755,7.4354700543881895,-23.964985406220972,92.06920299427703,-1.5896669786086417,0.5050988924247898,-2.850950414754118,-1.0873647189142879,0.4049322246846394,1.084270872933124,0.523627470635618,17.46809132559637,-54.192657686097256,76.31755590386508,-1.490915720362412,-2.291831180523293
GUIDED_NOGPS,0.9833600521087646,25.886451023594834,17.46809132559636,-54.19265768609728,76.31755590386506,0.8967343170929037,7.476347913887437,-23.917423277775583,92.00435403438843,-1.2813509588137968,0.6082522512517305,-2.934057381810483,-1.0900524202657618,0.4037390197870305,0.6212527565982565,0.5235301971957851,17.46809132559637,-54.192657686097256,76.31755590386508,-1.490915720362412,-1.3750987083139758
GUIDED_NOGPS,1.0235543251037598,24.886104188916576,17.453832570722334,-55.69431086782758,76.94903542170076,0.7912405921348593,7.519532815219774,-23.867176864454756,91.9352156011331,-1.0488382994184573,0.611207802171642,-3.017354100059727,-1.2802938682618232,0.4004683548760816,0.7421629841726406,0.5224792702691485,17.39679755122624,-61.700923594748836,79.47495349304354,-2.0410394423926914,-2.0626480624709638
GUIDED_NOGPS,1.057786226272583,29.24123314602825,18.221552253959043,-56.60214248970245,78.08337239761094,0.6595604611330359,7.565036453328842,-23.814232558980155,91.86168731395367,-0.920910136924588,0.4478883741631168,-3.104708377562782,-1.280059827004673,0.5204718259452923,1.4713108176990883,0.520667472374514,21.306689741779916,-58.73181579547164,81.98924078341607,-3.090070494228092,-2.807493196141034
GUIDED_NOGPS,1.0905582904815674,30.520676732763324,18.861203472123954,-57.81397625842038,79.24641517981661,0.538702155360875,7.61286652476177,-23.758581406280076,91.78367215638036,-0.8620689643594273,0.39154913190744345,-3.1874938988413333,-1.364819473449538,0.5320585273664047,1.4690655918431341,0.5188058854648456,20.666347416420912,-60.251826529686916,82.1327698148934,-2.7909442911007596,-2.864788975654116
GUIDED_NOGPS,1.1302590370178223,25.187384401047296,19.63740324902874,-58.975955219417074,80.7078601137664,0.43577313622179364,7.663026815546026,-23.700219001243124,91.70107644811323,-0.98126296909129,0.5537765834224129,-3.2593165396151904,-1.3800163530936076,0.5616602295959163,0.9738369214231007,0.5164898245015203,21.349090210120288,-60.00255249108072,83.62478057361403,-3.1279750268054043,-1.7188733853924698
GUIDED_NOGPS,1.1653187274932861,28.531127557683934,20.185042487160217,-60.58485761922945,82.11750212662184,0.32446602893485077,7.715517289066254,-23.639145386471924,91.61380981710438,-1.0473364048529952,0.4896460163144591,-3.3190542278697683,-1.501458546148843,0.5652438721178268,1.3370963989610778,0.5142444615357238,20.206287516253752,-62.237169685159216,83.3657659681423,-2.885768754622665,-1.8907607239317168
GUIDED_NOGPS,1.208376407623291,23.227875861152338,20.557791984097506,-61.29545126514017,82.76717592238236,0.2320782020892989,7.770334173941132,-23.575364950036818,91.52178517164029,-1.1955154379057176,0.5654909981792194,-3.3644019882035985,-1.425288660515304,0.5519451428509534,0.8967564803707482,0.5131319138738869,19.260545035912678,-65.25389182430243,82.7233224718461,-2.7189345414142734,-1.6615776058793874
GUIDED_NOGPS,1.247577428817749,25.520870348285346,19.83386555474295,-63.25268917930915,82.70701888198731,0.14000131380521894,7.827470051900209,-23.50888632322957,91.42491867242401,-1.2327852188855384,0.5528308156657776,-3.425801546860605,-1.6232227773224435,0.41091204683215715,1.079702204905599,0.513076849685655,17.68705759500714,-68.51800536631652,81.68845558144076,-2.5076226923366938,-1.1459155902616465
GUIDED_NOGPS,1.2832698822021484,28.024427725735972,19.178196243806365,-65.22808105754342,82.55354284935343,0.08767392464591094,7.8869139456607575,-23.439722278317063,91.32312970465746,-1.3414841577100005,0.5920736675420859,-3.410835748615461,-1.713823152222273,0.384210370218769,0.6509208750270845,0.513154380282956,17.388000861737986,-70.12878592085825,81.36538965172402,-2.3797131661746698,-0.057295779513082325
GUIDED_NOGPS,1.3158118724822998,30.73898672764183,18.385978374129905,-67.25332774349893,82.10166466497543,0.0523836416800481,7.948651406804613,-23.367889626295003,91.21634085012371,-1.3343388193428152,0.4785992525490213,-3.4222001161773044,-1.818797451816942,0.324614532680891,0.4930328950498363,0.5136720142777225,17.388000861737986,-70.12878592085825,81.36538965172402,-2.3797131661746698,0.0
GUIDED_NOGPS,1.3555934429168701,25.13907602311141,17.745684031201414,-69.36041011840805,81.59361009381455,0.028917805379197158,8.012664603655027,-23.293409114641612,91.1044778592692,-1.3670442196880692,0.4755352723760359,-3.4018333458459726,-1.8633661463191329,0.3313740944761885,0.26032815520460983,0.514266301648182,17.004815801611286,-72.7725815597048,80.82549311233788,-2.306745610876756,0.2291831180523293
GUIDED_NOGPS,1.4013147354125977,21.878607048219166,17.294538184341132,-70.86414806548854,81.2140442219129,0.03313343867990579,8.078932409153516,-23.216305325071346,90.98746962328599,-1.5205819630314898,0.471027560967239,-3.32461144053322,-1.8504884584506243,0.33621528002327583,-0.08263148820921162,0.5146601381020597,17.004815801611286,-72.7725815597048,80.82549311233788,-2.306745610876756,1.6615776058793874
GUIDED_NOGPS,1.437110424041748,27.94321157087561,16.73902436323572,-74.06489740325097,80.42357788620441,0.06521517939441646,8.147430488736692,-23.136606571288567,90.86524814619409,-1.5511528225394091,0.19649856600574309,-3.275465454690628,-2.175690129808392,0.28714446249609155,-0.5077013331050232,0.5156625053899845,14.909488489480083,-84.52175205512869,77.73612390289833,-2.0238385945322133,1.7188733853924698
GUIDED_NOGPS,1.4776623249053955,24.666137388778132,16.69359344865682,-76.93194412719352,80.20970392911076,0.12298377506344658,8.21813138821313,-23.054344796741283,90.73774851692365,-1.6600539989963272,0.168907803410065,-3.188158988511763,-2.2180106960886725,0.34107385558648523,-0.8195041054547032,0.5157920668817193,17.160846288843484,-84.46401954057103,80.29601986625576,-1.758044174680396,2.979380534680281
GUIDED_NOGPS,1.5082447528839111,32.70182989107977,16.64816253407792,-79.79899085113607,79.9958299720171,0.19228132049537253,8.291004621640202,-22.969555472374804,90.60490888139728,-1.7456175929980753,0.21041422266599782,-3.067063576508845,-2.4023601080053347,0.33298964274281967,-1.2608574755285518,0.5159136183640702,17.160846288843484,-84.46401954057103,80.29601986625576,-1.758044174680396,2.46371851906254
GUIDED_NOGPS,1.5402193069458008,31.289801338336552,16.679368631524362,-82.13727844730931,79.8899353228007,0.2517341587840827,8.366016759200921,-22.882277494385484,90.46667041461222,-1.779260223363502,0.0457153098885416,-2.982992912449274,-2.426771809641204,0.34113764844150185,-1.1323791659577884,0.5158651026377173,17.160846288843484,-84.46401954057103,80.29601986625576,-1.758044174680396,2.807493196141034
GUIDED_NOGPS,1.571542501449585,31.934946969293204,16.7105747289708,-84.47556604348256,79.78404067358426,0.3097992394944864,8.443131515080793,-22.79255308197439,90.32297729272275,-1.830157725841379,-0.15631677656196963,-2.9098501241748997,-2.5,0.33927817779989583,-1.154786620180337,0.5158084049287077,17.160846288843484,-84.46401954057103,80.29601986625576,-1.758044174680396,2.5783100780887045
GUIDED_NOGPS,1.60178542137146,33.07132606878716,17.33419684245626,-84.5932915913834,81.21469559569333,0.3880155922083869,8.522309835344672,-22.70042767510102,90.17377666512228,-1.9322124914290055,-0.15523269747464166,-2.805625065978502,-2.273812799189466,0.43925463473825094,-1.5839130504739207,0.5134386216041434,18.02759905690739,-85.11037979463286,84.8893985134437,-1.6341519534121136,3.724225668350351
GUIDED_NOGPS,1.6409516334533691,25.537341240364828,17.507547396069043,-84.72256364219577,82.13337132513092,0.4599634827821508,8.603509985813583,-22.60594983223701,90.01901862652574,-2.166040602569807,-0.2523710075203283,-2.680208918995316,-2.2795015144634787,0.3805432795690159,-1.2542785158632097,0.5118284709520922,18.02759905690739,-85.11037979463286,84.8893985134437,-1.6341519534121136,3.151267873219528
GUIDED_NOGPS,1.6704072952270508,33.96830178899714,17.627044227147234,-85.30574553563567,82.80186661185648,0.5483717676181509,8.68668763994159,-22.509171128119803,89.85865618905176,-2.2611838570476155,-0.3003255522395763,-2.602118512440914,-2.3692990319270484,0.3778934624547063,-1.9237721564830554,0.5105851843657929,17.758330444234453,-87.37992900777051,83.63849629988349,-1.5234402525959365,2.3491269600363753
GUIDED_NOGPS,1.7079451084136963,26.64318882007305,17.746541058225425,-85.88892742907555,83.47036189858204,0.6099417359509344,8.771795966692636,-22.410146051506395,89.692645254305,-2.368979183189226,-0.25148841901351576,-2.4965519624028434,-2.3769699898042487,0.3782601104163404,-1.2658338747615443,0.5093334250335845,17.758330444234453,-87.37992900777051,83.63849629988349,-1.5234402525959365,2.979380534680281
GUIDED_NOGPS,1.736678123474121,34.82195101701951,17.86603788930362,-86.47210932251546,84.1388571853076,0.684703594732034,8.858785718417383,-22.308931902926993,89.52094458545838,-2.376285351167024,-0.3987146406770215,-2.413555559033668,-2.4242579866685423,0.38071591255540915,-1.8102855706178844,0.5080731311002261,17.758330444234453,-87.37992900777051,83.63849629988349,-1.5234402525959365,2.291831180523293
GUIDED_NOGPS,1.7669105529785156,33.08645715006942,17.81218416676903,-86.926019165143,83.88867674259556,0.7368776209820531,8.94760531873007,-22.20558869243874,89.34351577933528,-2.3812278468051744,-0.3805813422042839,-2.310482881816298,-2.4262523259323325,0.3518917093075789,-1.4045525526984217,0.5081822585551096,17.758330444234453,-87.37992900777051,83.63849629988349,-1.5234402525959365,2.7501974166279517
GUIDED_NOGPS,1.7948665618896484,35.900915860652226,17.758330444234442,-87.37992900777053,83.63849629988354,0.7996091280259545,9.038200950385344,-22.10017903737942,89.16032323849191,-2.325048900551585,-0.4380548227490025,-2.2416087483297704,-2.4551617555980094,0.34413362843937306,-1.7326963910550794,0.5082827404079125,17.758330444234453,-87.37992900777051,83.63849629988349,-1.5234402525959365,3.0366763141933633
GUIDED_NOGPS,1.826418399810791,31.649869455637553,17.758330444234446,-87.37992900777054,83.63849629988354,0.8484932505850631,9.130516643155122,-21.992768060121133,88.9713341432995,-2.3178684507431973,-0.36321921477752306,-2.145989515044177,-2.399573071616104,0.3502651692795871,-1.3884558823807205,0.5079992567651239,17.758330444234453,-87.37992900777051,83.63849629988349,-1.5234402525959365,2.6929016371148693
GUIDED_NOGPS,1.861532211303711,28.48210999517863,17.758330444234446,-87.37992900777054,83.63849629988354,0.8873467313617484,9.224494361705428,-21.883423285824023,88.77651842402659,-2.230944688601265,-0.4545689395016239,-2.108856124404345,-2.40469716946095,0.3476567070461784,-1.2077468195997927,0.5077070331862146,17.758330444234453,-87.37992900777051,83.63849629988349,-1.5234402525959365,1.1459155902616465
GUIDED_NOGPS,1.8973097801208496,27.95736710548242,17.758330444234446,-87.37992900777054,83.63849629988354,0.9341632518317295,9.320074093473245,-21.772214540189967,88.57584873292127,-2.210388807407288,-0.44279027827793693,-2.0387512762067455,-2.410834585717208,0.34411509598232864,-1.3469378237096525,0.5074060286495566,17.758330444234453,-87.37992900777051,83.63849629988349,-1.5234402525959365,2.119943841984046
GUIDED_NOGPS,1.9276001453399658,33.01925590036685,17.758330444234446,-87.37992900777054,83.63849629988354,0.9796578605930737,9.417193936543354,-21.65921384721627,88.36930041629346,-2.2488694528609057,-0.2573331399523426,-1.9893673009602608,-2.41893141943695,0.33834709093317017,-1.478265846655482,0.5070962061746148,17.758330444234453,-87.37992900777051,83.63849629988349,-1.5234402525959365,1.7188733853924698
GUIDED_NOGPS,1.9602746963500977,30.60999532928538,17.758330444234446,-87.37992900777054,83.63849629988354,1.0003407365779724,9.515790187525187,-21.544495326949377,88.15685148659713,-2.2249208886401366,-0.20313665610534923,-1.959739647888038,-2.4242056334757924,0.3354295123613459,-1.061605513499802,0.5067775327800704,17.758330444234453,-87.37992900777051,83.63849629988349,-1.5234402525959365,1.088619810748564
GUIDED_NOGPS,2.0013065338134766,24.380668937535603,17.758330444234446,-87.37992900777054,83.63849629988354,0.9952524135841492,9.615797429429675,-21.42813509323857,87.93848259451265,-2.2037159260315975,-0.24212188178390107,-1.9711326168670307,-2.4284476207833667,0.33402413233918155,-0.6834041298915169,0.5064499794419437,17.758330444234453,-87.37992900777051,83.63849629988349,-1.5234402525959365,-0.34377467707849396
GUIDED_NOGPS,2.03523850440979,29.48502657256137,17.758330444234446,-87.37992900777054,83.63849629988354,0.9868865629806078,9.717148619546082,-21.310211151489657,87.71417700102894,-2.1396562221362827,-0.34143453986317895,-1.9767869462827434,-2.437040415930234,0.32800073838522964,-0.6189610682796651,0.5061135210517181,17.758330444234453,-87.37992900777051,83.63849629988349,-1.5234402525959365,-0.2291831180523293
GUIDED_NOGPS,2.080031633377075,22.351978171896317,17.758330444234446,-87.37992900777054,83.63849629988354,0.9660808445149505,9.819775177318867,-21.1908032964187,87.48392054952583,-2.1168030495036545,-0.2350248883494347,-1.979772165836862,-2.4410327709142736,0.3270757974421413,-0.499409868864603,0.5057681363744634,17.758330444234453,-87.37992900777051,83.63849629988349,-1.5234402525959365,-0.2291831180523293
GUIDED_NOGPS,2.0988948345184326,52.931650681474004,17.758330444234446,-87.37992900777054,83.63849629988354,0.9396071714419028,9.923607072224522,-21.069993009805685,87.24770163785624,-2.1789592650546514,-0.04276936392215047,-1.9755227209560564,-2.4591150255255827,0.3110771241279576,-0.04013425504101564,0.505413808006959,17.758330444234453,-87.37992900777051,83.63849629988349,-1.5234402525959365,-0.40107045659157625
GUIDED_NOGPS,2.128937244415283,33.30292828558724,17.758330444234446,-87.37992900777054,83.63849629988354,0.8863194664046117,10.028572911648418,-20.94786335824824,87.00551119042848,-2.157388246995282,-0.13657027278463965,-2.059343656224099,-2.457811379652602,0.3142569574157627,0.2110521686009379,0.5050505223358174,17.758330444234453,-87.37992900777051,83.63849629988349,-1.5234402525959365,-2.119943841984046
GUIDED_NOGPS,2.1607518196105957,31.471520863190594,17.758330444234446,-87.37992900777054,83.63849629988354,0.8263846222217581,10.134600028761657,-20.824498890915336,86.75734263028855,-2.198539923301197,-0.034687329143321316,-2.1014289340121906,-2.46339554704465,0.31098530408812247,0.30030671885071336,0.5046782694956075,17.758330444234453,-87.37992900777051,83.63849629988349,-1.5234402525959365,-1.8907607239317168
GUIDED_NOGPS,2.199340581893921,25.903237361198602,17.758330444234446,-87.37992900777054,83.63849629988354,0.7635850832374314,10.241614570397909,-20.699985537300982,86.50319185120229,-2.26403332659198,0.03715131988640342,-2.1360934247104746,-2.467831168443017,0.30925363894262076,0.21158254889363215,0.5042970433269781,17.758330444234453,-87.37992900777051,83.63849629988349,-1.5234402525959365,-1.604281826366305
GUIDED_NOGPS,2.240002393722534,24.596128472324033,17.758330444234446,-87.37992900777054,83.63849629988354,0.6845744364392068,10.349541584930268,-20.57441050497793,86.24305718973778,-2.295837889018733,0.09118558674060898,-2.245648805223833,-2.474273052675231,0.30574931947602013,0.4185896956583166,0.5039068413347814,17.758330444234453,-87.37992900777051,83.63849629988349,-1.5234402525959365,-1.948056503444799
GUIDED_NOGPS,2.2781407833099365,26.231122340492064,17.758330444234446,-87.37992900777054,83.63849629988354,0.5776915450403226,10.458305110148096,-20.447862177351368,85.97693939734746,-2.222623383758074,0.07977319441116393,-2.3259568888243733,-2.4820650223200293,0.30076461600711735,0.9342774697320837,0.5035076646461959,17.758330444234453,-87.37992900777051,83.63849629988349,-1.5234402525959365,-3.0939720937064457
GUIDED_NOGPS,2.3040454387664795,38.610917794347785,17.758330444234446,-87.37992900777054,83.63849629988354,0.45865073364839004,10.567828261133862,-20.32043001141263,85.70484161245055,-2.118465133349495,-0.04622330520806129,-2.428610790068257,-2.493778041119566,0.2912714717643973,1.886009197262063,0.5030995179688506,17.758330444234453,-87.37992900777051,83.63849629988349,-1.5234402525959365,-3.2658594322456924
GUIDED_NOGPS,2.3349525928497314,32.36021078132595,17.758330444234446,-87.37992900777054,83.63849629988354,0.36706894140948415,10.678033318140002,-20.19220443549289,85.42676933251512,-2.071182295046435,-0.044143726049203975,-2.5275825790192687,-2.4976310654317926,0.28959468904861,1.1511939318400541,0.5026824095489474,17.758330444234453,-87.37992900777051,83.63849629988349,-1.5234402525959365,-3.20856365273261
GUIDED_NOGPS,2.3746440410614014,25.202064568850005,17.758330444234446,-87.37992900777054,83.63849629988354,0.2608920450517197,10.788841814465746,-20.063276747016875,85.14273038614053,-1.9960378344584244,0.05640946513807749,-2.6636211642657055,-2.5,0.28851708627227873,1.0825920033636978,0.5022563511293855,17.758330444234453,-87.37992900777051,83.63849629988349,-1.5234402525959365,-3.2658594322456924
GUIDED_NOGPS,2.40401291847229,34.05960404722849,18.752193487495656,-86.40156099160222,84.37290475360342,0.11745857331408928,10.900174624333992,-19.933739010256545,84.85273490513958,-1.9877222925873455,0.18213062275638658,-2.7328293366913288,-2.3567024879328335,0.4556405377319578,2.2883688993417524,0.5007197452273042,22.72764566054052,-82.48808892692892,87.3105385684829,-1.3241002447714851,-3.9534087864026803
GUIDED_NOGPS,2.43701171875,30.30873065194456,19.746056530756867,-85.42319297543392,85.1073132073233,-0.010731535407459396,11.01195205076812,-19.80368395408481,84.55679529662082,-1.8617889722179428,0.16746108396649168,-2.9358003607093055,-2.3431878668260127,0.47776083557755566,1.8664773809423707,0.49917422313394627,22.72764566054052,-82.48808892692892,87.3105385684829,-1.3241002447714851,-4.640958140559668
GUIDED_NOGPS,2.476809501647949,25.135761629091608,20.12922682853489,-84.77599409771337,84.94239029820116,-0.14684835397760773,11.124093913468867,-19.67320486972923,84.25492621507078,-1.7608095345377703,0.24807225721145154,-3.1119821021420226,-2.3727203811844864,0.4100382446662443,1.7504954109565733,0.49896880387530446,19.67418193312456,-84.14393461916771,82.81388175427287,-0.6021596598802123,-4.297183463481175
GUIDED_NOGPS,2.511099338531494,29.17025878556476,20.51239712631291,-84.12879521999281,84.77746738907904,-0.2878068834173491,11.236519636691156,-19.542395508525708,83.94714453443626,-1.6505595024414805,0.3683173106627029,-3.228704912415663,-2.34996906109859,0.4253471036439152,2.1748178126254154,0.49875451571803586,19.67418193312456,-84.14393461916771,82.81388175427287,-0.6021596598802123,-2.979380534680281
GUIDED_NOGPS,2.549093246459961,26.327278205305245,20.895567424090927,-83.48159634227225,84.61254447995691,-0.4043556471052293,11.349148337120944,-19.41134997967219,83.63346932020657,-1.4910309361440182,0.37459617550064866,-3.359528221343971,-2.339170636031117,0.43386345695245754,1.752931663994358,0.4985313872603745,19.67418193312456,-84.14393461916771,82.81388175427287,-0.6021596598802123,-3.4377467707849396
GUIDED_NOGPS,2.5741515159606934,39.92179930137156,20.284874678607736,-83.81276548072002,83.7132131171149,-0.5232086797863783,11.461898911752087,-19.280162647982372,83.31392180149581,-1.4843834545343033,0.48488985677460306,-3.4338274460221934,-2.470037241785957,0.25999535422675724,2.677012808734907,0.49940106302657133,19.67418193312456,-84.14393461916771,82.81388175427287,-0.6021596598802123,-2.979380534680281
GUIDED_NOGPS,2.6148061752319336,24.60391968229573,19.719937090470847,-84.88635406099804,82.80930435671974,-0.5804066971119481,11.574690125763146,-19.148928031639407,82.9885253431251,-1.3658978151245649,0.5278101251887285,-3.5301476274713592,-2.5,0.28219705457381017,1.0407753049018549,0.5002688314796081,19.902957719856076,-87.85603182831902,82.7909947665071,-0.2688631082699274,-2.2345354010102105
GUIDED_NOGPS,2.644171953201294,34.057944653761204,19.76569224781715,-85.62877350282831,82.80472695916657,-0.6743909578131353,11.687440700394287,-19.017740699949595,82.65730541770488,-1.2850019083685802,0.4044838026481551,-3.5904895740240717,-2.5,0.33742573713816415,2.000376437708841,0.49977886768780744,19.902957719856076,-87.85603182831902,82.7909947665071,-0.2688631082699274,-2.0053522829578814
GUIDED_NOGPS,2.678966999053955,28.749770374940024,19.811447405163456,-86.37119294465859,82.80014956161342,-0.7245192233291253,11.80006940082408,-18.886695171096072,82.32028957771715,-1.2813741174239515,0.6098093209390819,-3.647976288060307,-2.5,0.33666468329752247,1.166439572517078,0.49928021002415557,19.902957719856076,-87.85603182831902,82.7909947665071,-0.2688631082699274,-1.5469860468532228
GUIDED_NOGPS,2.709690570831299,32.55208810312847,19.85720256250976,-87.11361238648885,82.79557216406026,-0.788701648617583,11.912495124046366,-18.755885809892547,81.97750742759771,-1.2230047081591975,0.3946216498168914,-3.7195724653744966,-2.5,0.3335372574406534,1.5355480488929971,0.4987729028953062,19.902957719856076,-87.85603182831902,82.7909947665071,-0.2688631082699274,-2.0626480624709638
GUIDED_NOGPS,2.748218059539795,25.96304526799918,19.90295771985606,-87.85603182831912,82.79099476650711,-0.8433319238687654,12.024636986747115,-18.62540672553697,81.62899059581848,-1.243007344030403,0.45258306200044274,-3.7873497131690024,-2.5,0.3332027192523297,1.2449124391571658,0.49825699374396704,19.902957719856076,-87.85603182831902,82.7909947665071,-0.2688631082699274,-1.948056503444799
GUIDED_NOGPS,2.7695188522338867,46.9765806126449,19.90295771985606,-87.85603182831912,82.79099476650711,-0.8942242816892098,12.136414413181242,-18.49535166936523,81.2747727069697,-1.215333125060804,0.4135809742923774,-3.816361795442278,-2.5,0.3146968351808802,1.7876424240697304,0.49772566691069386,19.902957719856076,-87.85603182831902,82.7909947665071,-0.2688631082699274,-1.432394487827058
GUIDED_NOGPS,2.7987847328186035,34.183406682966584,19.90295771985606,-87.85603182831912,82.79099476650711,-0.9199624485636829,12.247747223049485,-18.365813932604905,80.9148893538422,-1.2703738843222343,0.4008584663027593,-3.856572399746612,-2.5,0.31692410376859387,1.0309779674983384,0.4971858418810026,19.902957719856076,-87.85603182831902,82.7909947665071,-0.2688631082699274,-1.4896902673401404
GUIDED_NOGPS,2.834228515625,28.218628057805645,20.162978692053876,-84.63631295132669,84.07192761613189,-0.9797512064053531,12.358555719375234,-18.23688624412889,80.54937806950971,-1.3082530462420672,0.4696038934121145,-3.9146725501476793,-2.1881513333507843,0.3565527767137989,1.4888404914352436,0.49471617568006676,21.20306258084515,-71.75743744335689,89.19565901463099,-2.2711917282500718,-1.948056503444799
GUIDED_NOGPS,2.866133451461792,31.529245502860277,20.37286650822778,-81.56429832445089,84.7840781972078,-1.0622826610425986,12.468760776381373,-18.108660668209154,80.17827829941108,-1.2986509742077927,0.41814055245018406,-3.9885525719655917,-2.0640695418185886,0.35753223621296115,2.030184335806523,0.49309130015330493,20.95239680072561,-72.49595869393998,86.35174767188661,-2.3346453650927326,-2.635605857601787
GUIDED_NOGPS,2.897745370864868,31.471520863190594,20.582754324401687,-78.49228369757508,85.49622877828372,-1.147431348426769,12.578283927367137,-17.98122850227041,79.80163137343251,-1.3457485436296157,0.22791124632886642,-4.075878674938321,-1.9696140356590006,0.36257670143865045,2.116343390848381,0.4914581038927232,20.95239680072561,-72.49595869393998,86.35174767188661,-2.3346453650927326,-2.9220847551671985
GUIDED_NOGPS,2.9261741638183594,35.190361526650946,21.438174278004183,-75.40702451200207,85.7083897886345,-1.2345920777565935,12.687047452584963,-17.854680174643846,79.41948047798992,-1.4465569064154207,0.22124732957646115,-4.146355555002274,-1.8208762329955215,0.4875953716394576,2.3931767145480696,0.4905666360340331,24.18005748786856,-72.42973590045396,83.85179981826106,-2.682596441280055,-2.521014298575622
GUIDED_NOGPS,2.9599177837371826,29.648429326773545,22.29359423160668,-72.32176532642906,85.9205507989853,-1.309473826165728,12.794974467117328,-17.729105142320794,79.03187062811107,-1.5714953670435285,0.29744214519277307,-4.2174505671861136,-1.7719840081402731,0.5035140069096427,2.0398323975993113,0.48966697974368867,24.18005748786856,-72.42973590045396,83.85179981826106,-2.682596441280055,-2.4064227395494577
GUIDED_NOGPS,2.99196720123291,31.20227937183369,22.88899321301136,-72.45622501784848,84.85177895971131,-1.4020897717316951,12.901989008753578,-17.604591788706443,78.63884863951792,-1.6561208772514577,0.12970764021606934,-4.320738822249162,-2.13464429399973,0.4920316724349293,2.396484003635812,0.4906806045197099,24.18005748786856,-72.42973590045396,83.85179981826106,-2.682596441280055,-2.807493196141034
GUIDED_NOGPS,3.0347213745117188,23.397488606126196,23.682741892735145,-71.77948032113748,84.7562538132818,-1.4996529158811203,13.008016125866815,-17.481227321373538,78.24046310070887,-1.768341525645002,0.0962595635202822,-4.451707699584157,-2.0417551799522293,0.5256593965697856,2.200019529356775,0.4902263139311406,24.921140199344542,-69.11223521038504,85.87412193973913,-3.042672255476597,-2.9220847551671985
GUIDED_NOGPS,3.064791440963745,33.28971220851787,25.000946483568317,-70.7475877534566,84.55611468346474,-1.6205607758168943,13.112981965290713,-17.359097669816094,77.836764345041,-1.8485482236250501,0.12103223275309533,-4.510586918437428,-1.9468774462823144,0.6751460680298638,3.187684118878156,0.4899209744923644,27.54341975489146,-67.33649585553553,85.35105202280128,-3.6892448681875485,-2.46371851906254
GUIDED_NOGPS,3.104360342025757,25.267957082527577,25.673618936972893,-69.72893974447291,84.85596512437279,-1.7019239696417607,13.216813860196366,-17.23828738320308,77.42780442281236,-1.955591802071136,0.0593129358655676,-4.608158732051999,-1.948178050197983,0.5925219858302926,2.234989302336771,0.48885775894765937,27.54341975489146,-67.33649585553553,85.35105202280128,-3.6892448681875485,-2.4064227395494577
GUIDED_NOGPS,3.1415176391601562,26.923151975761932,26.08937658335435,-68.78965068663635,85.00492340854062,-1.8101190403158243,13.319440417969155,-17.118879528132116,77.01363707334419,-2.0389591700896075,0.11501953184936847,-4.688545362827995,-1.9234573411471856,0.5829409055284523,2.774242328167464,0.4880130704972053,26.258845719775863,-67.7332906112712,84.59659123910019,-3.376163385864232,-2.5783100780887045
GUIDED_NOGPS,3.173133611679077,31.63053626237717,26.505134229735813,-67.85036162879979,85.15388169270844,-1.904950576411455,13.42079160808556,-17.000955586383213,76.59431769706319,-2.1642677415933655,0.21155251637986275,-4.753716893454141,-1.883985667671538,0.6026228436353172,2.877065644702288,0.48716065400653213,26.258845719775863,-67.7332906112712,84.59659123910019,-3.376163385864232,-2.2345354010102105
GUIDED_NOGPS,3.212149143218994,25.639749122785567,26.520833661714818,-67.58310359417928,84.83687992474825,-1.976119035145402,13.520798849990046,-16.8845953526724,76.16990332758388,-2.2810688855990495,0.20208331286928632,-4.819736648197837,-1.9611664800188273,0.5507353778399418,2.350082772737926,0.4869995351042535,24.99963735923957,-67.77594503728244,84.28911309993812,-3.3347919085678637,-1.776169164905552
GUIDED_NOGPS,3.2440719604492188,31.329767844871373,26.01207718258444,-67.67099343052865,84.6244921401756,-2.0460589056667455,13.619395100971884,-16.769876832405508,75.74045260379066,-2.3933288075803216,0.20502114798603804,-4.85144281321186,-2.0085094934946808,0.4580882346834254,2.5889929762138912,0.4866739406954226,24.99963735923957,-67.77594503728244,84.28911309993812,-3.3347919085678637,-1.088619810748564
GUIDED_NOGPS,3.280137062072754,27.73460292270052,25.71458455061451,-67.26829382094681,84.68629473389795,-2.100415830729339,13.716514944041995,-16.656876139431805,75.30602574192031,-2.497979258495964,0.10992485105877366,-4.90329675561695,-1.9484043614858582,0.4748889044387276,2.3063366207525045,0.48592959651203355,26.0559565950418,-65.32299780762635,85.66006499141307,-3.709810854124777,-1.3178029288008934
GUIDED_NOGPS,3.3226518630981445,23.528609253691155,25.6740067256677,-66.78623526021784,84.89898948436054,-2.146844493880176,13.812094675809805,-16.545667393797757,74.86668450764401,-2.588533266181759,0.2258218487730772,-4.9497770466925335,-1.9378437510071225,0.5030983086960853,2.1208310163416657,0.48495154253492523,26.0559565950418,-65.32299780762635,85.66006499141307,-3.709810854124777,-0.6875493541569879
GUIDED_NOGPS,3.3588874340057373,27.604638612101986,25.59395270353246,-66.2501013473905,84.86945858687106,-2.1870592435620333,13.906072394360118,-16.436322619500643,74.42249218814979,-2.6714077933629317,0.25685950902208454,-4.964312543019967,-1.9139270977293654,0.4901647218861114,2.1749227261487043,0.4843295504019181,25.85857560909967,-65.05262104713448,84.44893675165281,-3.7750454133289275,-0.2291831180523293
GUIDED_NOGPS,3.393127202987671,29.21068612976015,25.765740353504476,-65.70543654936091,84.90142331721401,-2.208427653492974,13.998388087129888,-16.328911642242364,73.97351356422473,-2.698031443860818,0.3037844027239531,-4.969958975029452,-1.8975770067628162,0.5235987512191843,1.9521474531244647,0.48360813537051606,25.85857560909967,-65.05262104713448,84.44893675165281,-3.7750454133289275,-0.057295779513082325
GUIDED_NOGPS,3.4298675060272217,27.221422498555956,26.168524193463963,-64.26009102363923,85.09989702402838,-2.230091901423701,14.088983718785164,-16.223501987183038,73.51981488233717,-2.6781060745045986,0.3384646882346928,-4.983591605725974,-1.7660009128776464,0.5626925935038176,1.9580365200318415,0.48262987678746316,27.013556559037028,-60.54921740867403,85.28148163401,-4.142769696710994,-0.2864788975654116
GUIDED_NOGPS,3.466038703918457,27.657608588139873,26.360044186263007,-63.30533494384878,85.02418035254777,-2.2524641724062024,14.17780331909785,-16.12015877669479,73.06146382671905,-2.6087237322551395,0.36250716755654927,-4.980148336610641,-1.7841385577994395,0.5448768061978787,2.0021636890901577,0.4820559252112569,27.013556559037028,-60.54921740867403,85.28148163401,-4.142769696710994,-0.2864788975654116
GUIDED_NOGPS,3.4987223148345947,30.601062277476217,26.55156417906205,-62.35057886405832,84.94846368106717,-2.266073206216692,14.264793070822604,-16.018944628115378,72.59852949144809,-2.514186443622758,0.33159885401494904,-4.99631112550783,-1.746638701213449,0.5514324944733,1.9154248395086526,0.48147509871557137,27.013556559037028,-60.54921740867403,85.28148163401,-4.142769696710994,0.17188733853924698
GUIDED_NOGPS,3.525683879852295,37.105913160409074,26.782560369049527,-61.44989813636623,85.1149726575386,-2.268420083089142,14.349901397573644,-15.919919551501977,72.13108235253014,-2.413305403355316,0.4465473092082671,-4.98269514339741,-1.7063338019187861,0.5677845894452384,1.7575535531035893,0.4805241645424873,27.013556559037028,-60.54921740867403,85.28148163401,-4.142769696710994,0.5729577951308232
GUIDED_NOGPS,3.5635645389556885,26.40102222585904,27.013556559037,-60.549217408674146,85.28148163401004,-2.288252431058107,14.433079051701652,-15.82314084738477,71.65919423998137,-2.15473856048414,0.461458039053228,-4.9938923847679995,-1.7119666578000678,0.568953270368129,2.0094986609999896,0.479566568908957,27.013556559037028,-60.54921740867403,85.28148163401,-4.142769696710994,-0.6302535746439055
GUIDED_NOGPS,3.5955650806427,31.259951555803987,27.013556559037,-60.549217408674146,85.28148163401004,-2.309438231751481,14.514279202170561,-15.728663004520762,71.18293830991057,-2.01758238553476,0.6766124130032147,-5.019733124832274,-1.8087658288533455,0.5399991294913036,2.1026403370488924,0.4788521850138508,27.013556559037028,-60.54921740867403,85.28148163401,-4.142769696710994,-0.4583662361046586
GUIDED_NOGPS,3.625890016555786,32.98316360633822,27.013556559037,-60.549217408674146,85.28148163401004,-2.321508400147769,14.593457522434443,-15.636537597647383,70.70238901660137,-1.8890224305426646,0.6593486829891844,-5.014233968776767,-1.8157175909854226,0.5373365484452365,1.9861014819258287,0.478131361073887,27.013556559037028,-60.54921740867403,85.28148163401,-4.142769696710994,0.17188733853924698
GUIDED_NOGPS,3.652074098587036,38.22142030491083,27.013556559037,-60.549217408674146,85.28148163401004,-2.316944620911232,14.670572278314316,-15.546813185236303,70.21762208459455,-1.8236773704229179,0.8427187716365167,-4.984612292120068,-1.8235583282857994,0.533625742878173,1.6953479783287522,0.4774042106758768,27.013556559037028,-60.54921740867403,85.28148163401,-4.142769696710994,0.9740282517223995
GUIDED_NOGPS,3.678708791732788,37.548041717022514,27.013556559037,-60.549217408674146,85.28148163401004,-2.306682651126139,14.745584415875031,-15.45953520724698,69.72871448077028,-1.757848007202335,0.8456480690168059,-4.980491980503258,-1.8292182648898432,0.5320559947551508,1.588280271079868,0.47667084927014036,27.013556559037028,-60.54921740867403,85.28148163401,-4.142769696710994,1.088619810748564
GUIDED_NOGPS,3.7148263454437256,27.697972660635276,27.013556559037,-60.549217408674146,85.28148163401004,-2.3055127814626455,14.818457649302102,-15.374745882880497,69.23574438643038,-1.651068564978058,0.9636018074449295,-4.955659120228384,-1.8324727918229924,0.5332980822194087,1.7794067182694444,0.4759313941286305,27.013556559037028,-60.54921740867403,85.28148163401,-4.142769696710994,0.34377467707849396
GUIDED_NOGPS,3.7431421279907227,35.33205852869574,27.013556559037,-60.549217408674146,85.28148163401004,-2.300470764738049,14.889158548778541,-15.292484108333205,68.73879116938059,-1.597292351208432,1.0149629090127215,-4.945310102975346,-1.8408413511275636,0.5292615467785838,1.7083960101956683,0.4751859643030558,27.013556559037028,-60.54921740867403,85.28148163401,-4.142769696710994,0.34377467707849396
GUIDED_NOGPS,3.7784512042999268,28.326685531745333,27.013556559037,-60.549217408674146,85.28148163401004,-2.2936346815245923,14.957656628361724,-15.212785354550434,68.23793535601278,-1.50916412789505,1.1612986447631868,-4.903551607050357,-1.8448243751776499,0.5298178374646223,1.7063339046038022,0.47443468058300414,27.013556559037028,-60.54921740867403,85.28148163401,-4.142769696710994,0.8021409131831525
GUIDED_NOGPS,3.8108091354370117,30.91799290869017,27.013556559037,-60.549217408674146,85.28148163401004,-2.272249784269152,15.023924433860207,-15.135681564980167,67.7332586033873,-1.475700896717042,1.2142227924338536,-4.863114752729766,-1.851676859842633,0.5274770008663726,1.4532304879414817,0.47367766545406587,27.013556559037028,-60.54921740867403,85.28148163401,-4.142769696710994,1.3750987083139758
GUIDED_NOGPS,3.8421404361724854,31.918178497503956,27.013556559037,-60.549217408674146,85.28148163401004,-2.2493411648244668,15.087937630710618,-15.061201053326776,67.22484367131517,-1.4226137850016467,1.260834778094371,-4.794101667582311,-1.8576117131825605,0.5260231151656006,1.4182319069339862,0.4729150430559577,27.013556559037028,-60.54921740867403,85.28148163401,-4.142769696710994,1.260507149287811
GUIDED_NOGPS,3.8808035850524902,25.87431447906578,27.013556559037,-60.549217408674146,85.28148163401004,-2.2224362290210427,15.149675091854474,-14.989368401304716,66.71277439444037,-1.4316117054594923,1.293643164885704,-4.7592869127222865,-1.8623323945685333,0.5260640382484134,1.4124254577235327,0.4721469391406455,27.013556559037028,-60.54921740867403,85.28148163401,-4.142769696710994,1.3750987083139758
GUIDED_NOGPS,3.9078564643859863,36.96822584767798,27.013556559037,-60.549217408674146,85.28148163401004,-2.190089937472702,15.209118985615033,-14.920204356392205,66.19713565432208,-1.4057225137407936,1.2947769762879262,-4.703487682297867,-1.8703098769848305,0.5225037739818276,1.167387864202302,0.47137348103046806,27.013556559037028,-60.54921740867403,85.28148163401,-4.142769696710994,1.2032113697747289
GUIDED_NOGPS,3.9442381858825684,27.49732192611532,27.013556559037,-60.549217408674146,85.28148163401004,-2.154493010867459,15.266254863574103,-14.853725729584966,65.678013351517,-1.3531448914487991,1.2944751673039763,-4.637847856826752,-1.8740737636867777,0.5234274336387167,1.2410543307716098,0.47059479757626044,27.013556559037028,-60.54921740867403,85.28148163401,-4.142769696710994,2.119943841984046
GUIDED_NOGPS,3.9757275581359863,31.76179622127144,27.013556559037,-60.549217408674146,85.28148163401004,-2.0985883494562483,15.321071748448984,-14.789945293149849,65.15549437766153,-1.26018868488757,1.1176430637962271,-4.55438209139555,-1.8806765506769547,0.521403073567411,0.7918055798579018,0.46981101911547724,27.013556559037028,-60.54921740867403,85.28148163401,-4.142769696710994,2.3491269600363753
GUIDED_NOGPS,4.0115344524383545,27.937999986678122,27.013556559037,-60.549217408674146,85.28148163401004,-2.0414029912410734,15.373562221969214,-14.728871678378653,64.62966658755406,-1.239035909193158,1.1711275004222466,-4.444838236826416,-1.8854382074229503,0.5213886782931443,0.8524994338775413,0.46902227743031605,27.013556559037028,-60.54921740867403,85.28148163401,-4.142769696710994,2.5783100780887045
GUIDED_NOGPS,4.044456243515015,30.384920203710546,27.013556559037,-60.549217408674146,85.28148163401004,-1.9720186077269546,15.42372251275347,-14.670509273341708,64.10061877123728,-1.1817934811414563,1.0376250497920005,-4.3702218352386115,-1.891443001936301,0.5200592431616424,0.545322782960755,0.46822870570584085,27.013556559037028,-60.54921740867403,85.28148163401,-4.142769696710994,2.521014298575622
GUIDED_NOGPS,4.077727317810059,30.067341950006092,27.013556559037,-60.549217408674146,85.28148163401004,-1.9034969262992694,15.471552584186396,-14.614858120641614,63.56844062608035,-1.171179580614668,0.9168709338041716,-4.277338946489254,-1.896850099034198,0.5193118863816665,0.5107266818371137,0.4674304384881055,27.013556559037028,-60.54921740867403,85.28148163401,-4.142769696710994,2.7501974166279517
GUIDED_NOGPS,4.1055426597595215,35.96556336820442,27.013556559037,-60.549217408674146,85.28148163401004,-1.8207763431601287,15.517056222295464,-14.561913815167017,63.033222728861276,-1.190217558987315,0.8653877426049659,-4.161700428746354,-1.9029610483890707,0.5176591903166164,0.007372765201512976,0.46662761164227684,27.013556559037028,-60.54921740867403,85.28148163401,-4.142769696710994,3.552338329811104
GUIDED_NOGPS,4.131563186645508,38.43647993548564,27.013556559037,-60.549217408674146,85.28148163401004,-1.7357205317297522,15.560241123627803,-14.511667401846204,62.495056507849036,-1.1522996570882833,0.7771942056076456,-4.07595636834013,-1.9083333671354268,0.5166265281202516,-0.21118851384430815,0.4658203623107585,27.013556559037028,-60.54921740867403,85.28148163401,-4.142769696710994,4.068000345428845
GUIDED_NOGPS,4.169346809387207,26.475347645228283,27.013556559037,-60.549217408674146,85.28148163401004,-1.655379412103114,15.60111898312705,-14.464105273400804,61.95403421488594,-1.1920225431971965,0.6881103961406965,-3.9271969826513673,-1.9115103137642393,0.5183215226370974,0.3207670237271174,0.46500882887131384,27.013556559037028,-60.54921740867403,85.28148163401,-4.142769696710994,3.896113006889598
GUIDED_NOGPS,4.201431751251221,31.180475330255657,27.013556559037,-60.549217408674146,85.28148163401004,-1.543247870778401,15.639705582010206,-14.419209068099619,61.4102488974699,-1.1617592556453396,0.6683463900036183,-3.8621279048627715,-1.917379977572145,0.5171535036446452,-0.4858417497565195,0.4641931508951898,27.013556559037028,-60.54921740867403,85.28148163401,-4.142769696710994,3.380450991271857
GUIDED_NOGPS,4.234946250915527,29.84462565284834,27.013556559037,-60.549217408674146,85.28148163401004,-1.453342455574572,15.676020875644474,-14.376955567512162,60.86379437083656,-1.0966711813931145,0.6291127161940073,-3.7154218447932443,-1.9220990542925414,0.5172062166653766,-0.09402346043122578,0.4633734691052398,27.013556559037028,-60.54921740867403,85.28148163401,-4.142769696710994,3.323155211758775
GUIDED_NOGPS,4.268104553222656,30.162697042917962,27.013556559037,-60.549217408674146,85.28148163401004,-1.357169536042682,15.71008908142412,-14.337316594262482,60.31476519004178,-1.0083255659650556,0.47865773604378953,-3.5778027110841846,-1.927092610378095,0.5169870291728854,-0.2809551178902907,0.4625499253340476,27.013556559037028,-60.54921740867403,85.28148163401,-4.142769696710994,3.4377467707849396
GUIDED_NOGPS,4.29816746711731,33.27571461438987,27.013556559037,-60.549217408674146,85.28148163401004,-1.2658457630715712,15.741938766647271,-14.30025890978279,59.76325662204361,-0.9669052711256885,0.35507762928686787,-3.477594871336812,-1.9322526805496347,0.5164503594174633,-0.4244750338889054,0.46172266248205035,27.013556559037028,-60.54921740867403,85.28148163401,-4.142769696710994,3.2658594322456924
GUIDED_NOGPS,4.33265233039856,29.0070541370439,27.013556559037,-60.549217408674146,85.28148163401004,-1.1954606185037688,15.771602936392823,-14.265744112067175,59.20936461778488,-0.9509540046493584,0.32718612492429766,-3.399904244292267,-1.9364916190500538,0.5170401654969035,0.050447361797221424,0.46089182447566224,27.013556559037028,-60.54921740867403,85.28148163401,-4.142769696710994,2.7501974166279517
GUIDED_NOGPS,4.368022680282593,28.282371663036663,27.013556559037,-60.549217408674146,85.28148163401004,-1.1243302025886217,15.799119121397274,-14.233728533425314,58.65318578427511,-1.0462424006470294,0.41395300615873154,-3.303621201996713,-1.941181474415522,0.5172726795376287,0.02339668442141929,0.4600575562253976,27.013556559037028,-60.54921740867403,85.28148163401,-4.142769696710994,2.3491269600363753
GUIDED_NOGPS,4.392131328582764,41.484224477281266,27.013556559037,-60.549217408674146,85.28148163401004,-1.0564635656582837,15.824529465931532,-14.204163138236204,58.09481735667309,-1.0925934517369111,0.40236815155274364,-3.2723726596570817,-1.9468928875444562,0.5159397675531122,-0.4452371995280926,0.45922000358399456,27.013556559037028,-60.54921740867403,85.28148163401,-4.142769696710994,2.177239621497128
GUIDED_NOGPS,4.424711227416992,30.698714758321866,27.013556559037,-60.549217408674146,85.28148163401004,-1.021133187450221,15.84788081567781,-14.176993420701805,57.53435717036895,-1.2513122137309038,0.3862683284619658,-3.1780586328331952,-1.9502073692219093,0.5173650826011451,0.44512570643831306,0.45837931330453835,27.013556559037028,-60.54921740867403,85.28148163401,-4.142769696710994,2.177239621497128
GUIDED_NOGPS,4.4553046226501465,32.72530370532196,27.013556559037,-60.549217408674146,85.28148163401004,-0.9709346763198037,15.869224805606413,-14.15215930260078,56.97190363306644,-1.3140853874630234,0.40574589354072654,-3.1718301406403784,-1.954843263529684,0.5173589537988952,0.07401642543205256,0.45753563299858463,27.013556559037028,-60.54921740867403,85.28148163401,-4.142769696710994,1.948056503444799
GUIDED_NOGPS,4.48220419883728,37.42074318597493,27.013556559037,-60.549217408674146,85.28148163401004,-0.9387156918610902,15.888617947852671,-14.129595031042165,56.4075556968653,-1.3947894085920132,0.44887170796018705,-3.1456265467764473,-1.959139483525541,0.5176078970745621,0.34817558743417165,0.4566891110942829,27.013556559037028,-60.54921740867403,85.28148163401,-4.142769696710994,1.5469860468532228
GUIDED_NOGPS,4.514514207839966,30.779590369049455,27.013556559037,-60.549217408674146,85.28148163401004,-0.9218177420351131,15.906121719593704,-14.109229076219094,55.841412830343344,-1.6001329628512169,0.42688831722967785,-3.1135436541410164,-1.96298186919167,0.5185837411526326,0.6850484103034635,0.4558398967945,27.013556559037028,-60.54921740867403,85.28148163401,-4.142769696710994,0.8594366926962349
GUIDED_NOGPS,4.552319765090942,26.45881328774555,27.013556559037,-60.549217408674146,85.28148163401004,-0.9014130351958132,15.921802650925285,-14.090984029162506,55.273574990638906,-1.8784081031290534,0.5693156906710151,-3.057154893013861,-1.9671971242091715,0.5194759062193898,0.65925315209122,0.4549881400349433,27.013556559037028,-60.54921740867403,85.28148163401,-4.142769696710994,0.8594366926962349
GUIDED_NOGPS,4.57958984375,36.68530245250673,27.013556559037,-60.549217408674146,85.28148163401004,-0.88555412271724,15.935732412738743,-14.074776499494838,54.70414259553296,-2.0074794685352537,0.5107043432992546,-3.0327909679141904,-1.9718224098648691,0.5194242026482281,0.6297115609035924,0.4541339914422844,27.013556559037028,-60.54921740867403,85.28148163401,-4.142769696710994,0.5156620156177409
GUIDED_NOGPS,4.615757465362549,27.656879100590157,27.013556559037,-60.549217408674146,85.28148163401004,-0.8977547894747825,15.94798790459773,-14.060517013183691,54.13321649553144,-2.101840879796507,0.5044873770506622,-3.0413233682914176,-1.975590019576347,0.5206828073690527,1.1352158746941392,0.4532776022922821,27.013556559037028,-60.54921740867403,85.28148163401,-4.142769696710994,-0.2291831180523293
GUIDED_NOGPS,4.64637565612793,32.669735561007904,27.013556559037,-60.549217408674146,85.28148163401004,-0.912019395693978,15.95865134261514,-14.048109910295544,53.56089794594755,-2.2629705918458085,0.7822489724802781,-3.0513289550952516,-1.9798567166808592,0.5211791319892607,1.218577306686798,0.4524191244679063,27.013556559037028,-60.54921740867403,85.28148163401,-4.142769696710994,-0.2864788975654116
GUIDED_NOGPS,4.68434739112854,26.34315215616325,27.013556559037,-60.549217408674146,85.28148163401004,-0.9321625829984066,15.967810347329921,-14.037453242749542,52.98728857898391,-2.2708344874580204,0.8382802158930662,-3.0591243353723514,-1.9838780634271689,0.5223243341919894,1.273402327630761,0.4515587104174608,27.013556559037028,-60.54921740867403,85.28148163401,-4.142769696710994,-0.2864788975654116
GUIDED_NOGPS,4.72295880317688,25.9107583011583,27.013556559037,-60.549217408674146,85.28148163401004,-0.9562632869532802,15.975558031583835,-14.028438672071111,52.4124903758149,-2.2500593998803686,0.8125675418757301,-3.068533347840867,-1.9881518396354543,0.523216665289369,1.3566086915042481,0.4506965131127073,27.013556559037028,-60.54921740867403,85.28148163401,-4.142769696710994,-0.40107045659157625
GUIDED_NOGPS,4.745168447494507,45.03708794158703,27.013556559037,-60.549217408674146,85.28148163401004,-0.9774350180767464,15.981993088398523,-14.020951367145592,51.83660563866894,-2.2729230312401634,0.9690751368476369,-3.0620363438363043,-1.9922087222167932,0.5235211904248286,1.5287639373548587,0.44983268600698834,27.013556559037028,-60.54921740867403,85.28148163401,-4.142769696710994,-0.057295779513082325
GUIDED_NOGPS,4.7804481983184814,28.367108982943094,27.013556559037,-60.549217408674146,85.28148163401004,-1.0030669816493412,15.9872198788521,-14.014869901972112,51.25973696291061,-2.2386713400998417,1.0482944456057952,-3.0897306264865905,-1.995838396517196,0.5249152612143927,1.44852960681056,0.44896738299335087,27.013556559037028,-60.54921740867403,85.28148163401,-4.142769696710994,-0.5729577951308232
GUIDED_NOGPS,4.812302112579346,31.40648001856996,27.013556559037,-60.549217408674146,85.28148163401004,-1.0295366546810876,15.991348519956246,-14.01006615341715,50.681987209123115,-2.1931598686693428,1.1194229684052501,-3.114323789810279,-1.9997943422323285,0.5258393583447294,1.5251164273082416,0.4481007583626696,27.013556559037028,-60.54921740867403,85.28148163401,-4.142769696710994,-0.34377467707849396
GUIDED_NOGPS,4.839827537536621,36.32060962937305,27.013556559037,-60.549217408674146,85.28148163401004,-1.058548124129252,15.99449497253279,-14.006405198968288,50.10345947519037,-2.1806273253160158,1.2036814626669967,-3.1175619398070995,-2.003541084002137,0.5267376617239218,1.6689745828483376,0.4472329667617705,27.013556559037028,-60.54921740867403,85.28148163401,-4.142769696710994,-0.5729577951308232
GUIDED_NOGPS,4.875895261764526,27.748180687501655,27.013556559037,-60.549217408674146,85.28148163401004,-1.0801228689585192,15.996781129090762,-14.003745214488,49.5242570683794,-2.1694853657890207,1.0838669245768677,-3.123006027462423,-2.0074598468924907,0.5279114177561779,1.4555294784963955,0.446364163151554,27.013556559037028,-60.54921740867403,85.28148163401,-4.142769696710994,-0.11459155902616465
GUIDED_NOGPS,4.908502578735352,30.66594528199804,27.013556559037,-60.549217408674146,85.28148163401004,-1.1076281534103323,15.998334901703172,-14.001937371967081,48.944483477422466,-2.1961845752546005,1.1311006708952678,-3.141928853114532,-2.0113599390403056,0.5289419157316827,1.610792589411578,0.44549450276511865,27.013556559037028,-60.54921740867403,85.28148163401,-4.142769696710994,-0.4583662361046586
