E-kp,E-ki,E-kd,E-I-Tot,E-P,E-I,E-D,E-PID,N-kp,N-ki,N-kd,N-I-Tot,N-P,N-I,N-D,N-PID,D-kp,D-ki,D-kd,D-I-Tot,D-P,D-I,D-D,D-PID,Y-kp,Y-ki,Y-kd,Y-I-Tot,Y-P,Y-I,Y-D,Y-PID,errorN,desiredN,actualN,errorE,desiredE,actualE,errorD,desiredD,actualD,errorY,desiredY,actualY,roll,pitch,yaw-rate,thrust,dt,Time,Mode
0.03,0.005,0.05,-0.0009791461911985984,-0.0008888744054446452,-4.895730955992992e-06,-0.04482917621703049,-0.045722946353431125,0.03,0.005,0.05,-0.0009641905501415828,-0.0008752975905909561,-4.820952750707914e-06,-0.044144447956419176,-0.04502456649976084,0.002,8e-05,0,-0.0011115944839210949,-6.727411390811762e-05,-8.892755871368759e-08,-0.0,-6.736304146683131e-05,0.05,0.02,0.005,-0.0009658653778096245,-0.001461363347573163,-1.931730755619249e-05,-0.0044221128175715016,-0.0059027934727008576,-0.02917658635303187,0.0,0.02917658635303187,-0.02962914684815484,0.0,0.02962914684815484,-0.03363705695405881,0.0,0.03363705695405881,-0.029227266951463257,0,0.029227266951463257,-0.0457459079770052,0.045001236817330904,0.0059027934727008576,0.4,0.033046722412109375,0.03333330154418945,STABILIZE
0.03,0.005,0.05,-0.003484397987581361,-0.00220598904762988,-1.7421989937906806e-05,-0.05463069419379283,-0.05685410523136061,0.03,0.005,0.05,-0.0034083951019080595,-0.0021522341503353434,-1.7041975509540298e-05,-0.053305589970286296,-0.05547486609613118,0.002,8e-05,0,-0.00433146655745737,-0.00018901633066041742,-3.4651732459658965e-07,-0.0,-0.00018936284798501402,0.05,0.02,0.005,-0.0034074040864610507,-0.0035831445887835158,-6.814808172922102e-05,-0.005324932484592282,-0.00897622515510502,-0.07174113834451144,0.0,0.07174113834451144,-0.07353296825432933,0.0,0.07353296825432933,-0.09450816533020871,0.0,0.09450816533020871,-0.07166289177567031,0,0.07166289177567031,-0.05692344612055106,0.0554037122565179,0.00897622515510502,0.4,0.03406977653503418,0.06734228134155273,STABILIZE
0.03,0.005,0.05,-0.0065776890878118735,-0.0027742218305346154,-3.288844543905937e-05,-0.04585787487682616,-0.048664985152799836,0.03,0.005,0.05,-0.006406884160854692,-0.0026891985061894283,-3.2034420804273465e-05,-0.04445515490790664,-0.047176387834900343,0.002,8e-05,0,-0.00863186854701666,-0.00025712137855633945,-6.905494837613328e-07,-0.0,-0.0002578119280401008,0.05,0.02,0.005,-0.006398520556512509,-0.0044709773183379715,-0.0001279704111302502,-0.004434681487021192,-0.009033629216489415,-0.08963995020631428,0.0,0.08963995020631428,-0.09247406101782052,0.0,0.09247406101782052,-0.12856068927816972,0.0,0.12856068927816972,-0.08941954636675943,0,0.08941954636675943,-0.04873855241773201,0.047100380649153464,0.009033629216489415,0.4,0.03345036506652832,0.10079646110534668,STABILIZE
0.03,0.005,0.05,-0.010102077671434194,-0.0031502764329216257,-5.051038835717097e-05,-0.039061969872380156,-0.042262756693658955,0.03,0.005,0.05,-0.009796606697291507,-0.00302990512178567,-4.898303348645753e-05,-0.03757109913155753,-0.04064998728682966,0.002,8e-05,0,-0.013925300434354256,-0.0003154357761314413,-1.1140240347483405e-06,-0.0,-0.00031654980016618966,0.05,0.02,0.005,-0.009806137749453318,-0.005076500448533945,-0.00019612275498906637,-0.0037770503999023076,-0.009049673603425318,-0.10099683739285567,0.0,0.10099683739285567,-0.10500921443072087,0.0,0.10500921443072087,-0.15771788806572065,0.0,0.15771788806572065,-0.10153000897067889,0,0.10153000897067889,-0.04233472341805206,0.040575032506257616,0.009049673603425318,0.4,0.033562660217285156,0.13439726829528809,STABILIZE
0.03,0.005,0.05,-0.014098314224172475,-0.003580635236074536,-7.049157112086238e-05,-0.03553404558829122,-0.03918517239548662,0.03,0.005,0.05,-0.013576785283684051,-0.003387046904372287,-6.788392641842026e-05,-0.033612431396786484,-0.03706736222757719,0.002,8e-05,0,-0.020360587191520438,-0.0003844019110290834,-1.6288469753216352e-06,-0.0,-0.00038603075800440505,0.05,0.02,0.005,-0.01366145965092749,-0.005757292419442843,-0.0002732291930185498,-0.0034283008845644647,-0.009458822497025857,-0.11290156347907623,0.0,0.11290156347907623,-0.11935450786915121,0.0,0.11935450786915121,-0.19220095551454172,0.0,0.19220095551454172,-0.11514584838885686,0,0.11514584838885686,-0.039259586535604046,0.0369885379979777,0.009458822497025857,0.4,0.03348207473754883,0.1678617000579834,STABILIZE
0.03,0.005,0.05,-0.018506898249467312,-0.0039496493296469004,-9.253449124733656e-05,-0.030241539616813314,-0.03428372343770755,0.03,0.005,0.05,-0.017671882337515734,-0.003668796430033701,-8.835941168757867e-05,-0.02758820102581776,-0.03134535686753904,0.002,8e-05,0,-0.027961427105457175,-0.00045397270565161274,-2.236914168436574e-06,-0.0,-0.0004562096198200493,0.05,0.02,0.005,-0.01790497748657077,-0.006336277619120665,-0.0003580995497314154,-0.002889686785122715,-0.009584063953974795,-0.12229321433445671,0.0,0.12229321433445671,-0.1316549776548967,0.0,0.1316549776548967,-0.22698635282580637,0.0,0.22698635282580637,-0.1267255523824133,0,0.1267255523824133,-0.0343529684988394,0.03126945226933698,0.009584063953974795,0.4,0.03348588943481445,0.2013864517211914,STABILIZE
0.03,0.005,0.05,-0.023349738484148785,-0.004249829657016069,-0.00011674869242074393,-0.020282018841815526,-0.024648597191252338,0.03,0.005,0.05,-0.022053697559211848,-0.0038452576129539414,-0.00011026848779605924,-0.016815447256787127,-0.020770973357537127,0.002,8e-05,0,-0.036909726524877125,-0.0005235047535421031,-2.95277812199017e-06,-0.0,-0.0005264575316640933,0.05,0.02,0.005,-0.02255165996814773,-0.006796152691390492,-0.00045103319936295463,-0.0019131782979499878,-0.009160364188703436,-0.1281752537651314,0.0,0.1281752537651314,-0.14166098856720233,0.0,0.14166098856720233,-0.26175237677105156,0.0,0.26175237677105156,-0.13592305382780984,0,0.13592305382780984,-0.02469780286619136,0.020712440978766348,0.009160364188703436,0.4,0.03418612480163574,0.2355489730834961,STABILIZE
0.03,0.005,0.05,-0.028313171175925935,-0.004452349117688721,-0.0001415658558796297,-0.016638083552005804,-0.021231998525574156,0.03,0.005,0.05,-0.02646343421102857,-0.003955667037347491,-0.00013231717105514286,-0.012565041302540068,-0.016653025510942703,0.002,8e-05,0,-0.04658584876050284,-0.0005786516036211372,-3.7268679008402273e-06,-0.0,-0.0005823784715219774,0.05,0.02,0.005,-0.0272872436111083,-0.007079936058972178,-0.0005457448722221659,-0.001552050570609429,-0.009177731501803774,-0.13185556791158304,0.0,0.13185556791158304,-0.14841163725629072,0.0,0.14841163725629072,-0.2893258018105686,0.0,0.2893258018105686,-0.14159872117944355,0,0.14159872117944355,-0.021273089331109805,0.016600502714337117,0.009177731501803774,0.4,0.03344368934631348,0.26897335052490234,STABILIZE
0.03,0.005,0.05,-0.03372219921321701,-0.004850816683089915,-0.00016861099606608505,-0.01687374077623253,-0.02189316845538853,0.03,0.005,0.05,-0.03128280354362386,-0.004322010719736099,-0.0001564140177181193,-0.012831666468068121,-0.01731009120552234,0.002,8e-05,0,-0.058458648304675814,-0.0007098351583907361,-4.676691864374066e-06,-0.0,-0.0007145118502551102,0.05,0.02,0.005,-0.03251871856740696,-0.007819311781533363,-0.0006503743713481392,-0.0016332672724773411,-0.010102953425358843,-0.1440670239912033,0.0,0.1440670239912033,-0.1616938894363305,0.0,0.1616938894363305,-0.35491757919536804,0.0,0.35491757919536804,-0.15638623563066725,0,0.15638623563066725,-0.02194033395564938,0.017250270388434498,0.010102953425358843,0.4,0.03345227241516113,0.3024418354034424,STABILIZE
0.03,0.005,0.05,-0.03928517035057903,-0.004986029979554402,-0.00019642585175289517,-0.013935828793866685,-0.01911828462517398,0.03,0.005,0.05,-0.0362464642237288,-0.004448874593851411,-0.000181232321118644,-0.010539522133206965,-0.01516962904817702,0.002,8e-05,0,-0.07144496698630207,-0.0007759663277268118,-5.715597358904166e-06,-0.0,-0.000781681925085716,0.05,0.02,0.005,-0.037964398618934234,-0.00813483877755418,-0.0007592879723786847,-0.0014151422970216378,-0.010309269046954502,-0.14829581979504705,0.0,0.14829581979504705,-0.1662009993184801,0.0,0.1662009993184801,-0.3879831638634059,0.0,0.3879831638634059,-0.16269677555108358,0,0.16269677555108358,-0.019161283083073136,0.015115279788306771,0.010309269046954502,0.4,0.03347134590148926,0.33594202995300293,STABILIZE
0.03,0.005,0.05,-0.04568040959974217,-0.005043542712793689,-0.00022840204799871085,-0.010766464555441618,-0.016038409316234018,0.03,0.005,0.05,-0.04180623202172095,-0.004384656346681272,-0.00020903116010860474,-0.007172139681638712,-0.011765827188428588,0.002,8e-05,0,-0.0871676236515837,-0.000826634598648935,-6.9734098921266965e-06,-0.0,-0.0008336080085410617,0.05,0.02,0.005,-0.044198369295436066,-0.00819393305766595,-0.0008839673859087214,-0.001100403249245959,-0.01017830369282063,-0.1461552115560424,0.0,0.1461552115560424,-0.1681180904264563,0.0,0.1681180904264563,-0.4133172993244675,0.0,0.4133172993244675,-0.163878661153319,0,0.163878661153319,-0.01607199654656797,0.011719905709097441,0.01017830369282063,0.4,0.0380401611328125,0.37395572662353516,STABILIZE
0.03,0.005,0.05,-0.051429309753705764,-0.0051512817858467615,-0.0002571465487685288,-0.008912200872982416,-0.014320629207597706,0.03,0.005,0.05,-0.04666275076299888,-0.004351666556135996,-0.00023331375381499441,-0.005123098321417285,-0.009708078631368276,0.002,8e-05,0,-0.1020666318393083,-0.0008900135962144888,-8.165330547144664e-06,-0.0,-0.0008981789267616335,0.05,0.02,0.005,-0.04977678852340988,-0.00833087158508246,-0.0009955357704681976,-0.0009131634970276152,-0.010239570852578272,-0.1450555518711999,0.0,0.1450555518711999,-0.17170939286155873,0.0,0.17170939286155873,-0.4450067981072444,0.0,0.4450067981072444,-0.1666174317016492,0,0.1666174317016492,-0.014348799929714938,0.009666392925561344,0.010239570852578272,0.4,0.03348040580749512,0.40746212005615234,STABILIZE
0.03,0.005,0.05,-0.05727749261142825,-0.005246969294076202,-0.0002863874630571412,-0.007847583349309687,-0.01338094010644303,0.03,0.005,0.05,-0.05144864824239617,-0.004293890551974584,-0.0002572432412119809,-0.0034466869886695694,-0.007997820781856135,0.002,8e-05,0,-0.11814468950594867,-0.0009616784898560453,-9.451575160475894e-06,-0.0,-0.0009711300650165212,0.05,0.02,0.005,-0.055434535048814355,-0.008460184133168652,-0.001108690700976287,-0.0008208011712066166,-0.010389676005351555,-0.14312968506581947,0.0,0.14312968506581947,-0.17489897646920674,0.0,0.17489897646920674,-0.4808392449280226,0.0,0.4808392449280226,-0.16920368266337305,0,0.16920368266337305,-0.013404500578850108,0.007958269888770589,0.010389676005351555,0.4,0.033437490463256836,0.44087934494018555,STABILIZE
0.03,0.005,0.05,-0.06314245163716296,-0.00525733503151808,-0.0003157122581858148,-0.003980317618570132,-0.009553364908274027,0.03,0.005,0.05,-0.05617577157616154,-0.004237381879713638,-0.0002808788578808077,0.0007665493887049801,-0.003751711348889466,0.002,8e-05,0,-0.13600956451342336,-0.0010676020389158974,-1.0880765161073869e-05,-0.0,-0.0010784828040769712,0.05,0.02,0.005,-0.06098684031533514,-0.008295121601383897,-0.0012197368063067027,-0.0002801119397980217,-0.009794970347488621,-0.14124606265712128,0.0,0.14124606265712128,-0.17524450105060269,0.0,0.17524450105060269,-0.5338010194579487,0.0,0.5338010194579487,-0.16590243202767793,0,0.16590243202767793,-0.009564188088659472,0.0037240334747115095,0.009794970347488621,0.4,0.03346729278564453,0.4743356704711914,STABILIZE
0.03,0.005,0.05,-0.0690400373964855,-0.005287598605009692,-0.00034520018698242747,-0.0029352422750795267,-0.008568041067071645,0.03,0.005,0.05,-0.06085069514444132,-0.00419139633520186,-0.0003042534757222066,0.002488060042501926,-0.0020075897684221407,0.002,8e-05,0,-0.15482565201170512,-0.001124662667831319,-1.2386052160936411e-05,-0.0,-0.0011370487199922554,0.05,0.02,0.005,-0.06661122849315869,-0.008404429738073321,-0.0013322245698631737,-0.00015691128309163548,-0.009893565591028131,-0.13971321117339536,0.0,0.13971321117339536,-0.1762532868336564,0.0,0.1762532868336564,-0.5623313339156595,0.0,0.5623313339156595,-0.1680885947614664,0,0.1680885947614664,-0.008573893852758295,0.0019824451081765213,0.009893565591028131,0.4,0.03346085548400879,0.5077991485595703,STABILIZE
0.03,0.005,0.05,-0.07505562952886237,-0.0053766579839461415,-0.00037527814764431186,-0.0033157229550688123,-0.009067659086659265,0.03,0.005,0.05,-0.06546623512859455,-0.004125309588802649,-0.00032733117564297276,0.002581642079368286,-0.0018709986850773352,0.002,8e-05,0,-0.1746700688275568,-0.0011824454380303451,-1.3973605506204546e-05,-0.0,-0.0011964190435365496,0.05,0.02,0.005,-0.0722493538006498,-0.008398805077961377,-0.001444987076012996,-0.00012249036810797702,-0.009966282522082351,-0.13751031962675497,0.0,0.13751031962675497,-0.17922193279820473,0.0,0.17922193279820473,-0.5912227190151725,0.0,0.5912227190151725,-0.16797610155922754,0,0.16797610155922754,-0.009073105384489081,0.0018444066995624093,0.009966282522082351,0.4,0.03356504440307617,0.5413689613342285,STABILIZE
0.03,0.005,0.05,-0.08139866415456465,-0.005311150583470734,-0.00040699332077282326,-0.001633613143471937,-0.0073517570477154934,0.03,0.005,0.05,-0.07022433889095463,-0.003984056065416015,-0.0003511216944547731,0.0035673535547304743,-0.0007678242051403143,0.002,8e-05,0,-0.1964900148836375,-0.001218018672613103,-1.5719201190691e-05,-0.0,-0.001233737873803794,0.05,0.02,0.005,-0.07817661238327044,-0.008271688221046637,-0.0015635322476654087,3.027015834286459e-05,-0.009804950310369182,-0.13280186884720052,0.0,0.13280186884720052,-0.1770383527823578,0.0,0.1770383527823578,-0.6090093363065515,0.0,0.6090093363065515,-0.16543376442093274,0,0.16543376442093274,-0.007353943387212731,0.0007465938362348909,0.009804950310369182,0.4,0.035828590393066406,0.5772056579589844,STABILIZE
0.03,0.005,0.05,-0.08725922774866914,-0.00524760053050449,-0.00043629613874334567,-4.746004074960411e-05,-0.00573135670999744,0.03,0.005,0.05,-0.07450748610246449,-0.0038351679353771234,-0.00037253743051232245,0.004472679333973155,0.00026497396808370863,0.002,8e-05,0,-0.21796326594821935,-0.0012818226082273148,-1.743706127585755e-05,-0.0,-0.0012992596695031724,0.05,0.02,0.005,-0.08361821528850405,-0.008120765700482096,-0.001672364305770081,0.00019770757765944438,-0.009595422428592732,-0.12783893117923745,0.0,0.12783893117923745,-0.174920017683483,0.0,0.174920017683483,-0.6409113041136574,0.0,0.6409113041136574,-0.1624153140096419,0,0.1624153140096419,-0.005730582567150153,-0.0002812194553537737,0.009595422428592732,0.4,0.03350424766540527,0.610710859298706,STABILIZE
0.03,0.005,0.05,-0.09301923471916251,-0.005163660905030938,-0.00046509617359581255,0.0008918843495399232,-0.004736872729086828,0.03,0.005,0.05,-0.07872668454376676,-0.0037823756383499425,-0.0003936334227188338,0.0044357055442728185,0.0002596964832040421,0.002,8e-05,0,-0.24044672235805484,-0.0013437130136376722,-1.923573778864439e-05,-0.0,-0.0013629487514263167,0.05,0.02,0.005,-0.08896038609889334,-0.007981807054202745,-0.001779207721977867,0.00018211444583723463,-0.009578900330343377,-0.1260791879449981,0.0,0.1260791879449981,-0.17212203016769795,0.0,0.17212203016769795,-0.6718565068188361,0.0,0.6718565068188361,-0.1596361410840549,0,0.1596361410840549,-0.004736130784210551,-0.0002728932205244167,0.009578900330343377,0.4,0.033464670181274414,0.6441709995269775,STABILIZE
0.03,0.005,0.05,-0.09876310774784873,-0.005030916453256772,-0.0004938155387392436,0.0024852287714004183,-0.003039503220595598,0.03,0.005,0.05,-0.08295359618206904,-0.0037022474559228673,-0.0004147679809103452,0.00475740592493321,0.0006403904880999973,0.002,8e-05,0,-0.26424511105533793,-0.0013896280397125084,-2.1139608884427038e-05,-0.0,-0.0014107676485969355,0.05,0.02,0.005,-0.09428375477704981,-0.007771011805662774,-0.0018856750955409962,0.00037053627791225346,-0.009286150623291517,-0.12340824853076225,0.0,0.12340824853076225,-0.1676972151085591,0.0,0.1676972151085591,-0.6948140198562542,0.0,0.6948140198562542,-0.15542023611325548,0,0.15542023611325548,-0.00303775492020446,-0.0006486330627046082,0.009286150623291517,0.4,0.03425145149230957,0.6784231662750244,STABILIZE
0.03,0.005,0.05,-0.10430128792889505,-0.004964977190732841,-0.0005215064396444753,0.004026502627998401,-0.0014599810023789147,0.03,0.005,0.05,-0.08674533773683099,-0.0033992953853282173,-0.00043372668868415495,0.007118839077931968,0.003285817003919596,0.002,8e-05,0,-0.28881784226956275,-0.001468629838735045,-2.3105427381565023e-05,-0.0,-0.00149173526611661,0.05,0.02,0.005,-0.0992829816202504,-0.007469676089851377,-0.001985659632405008,0.0005472830433781366,-0.008908052678878248,-0.11330984617760725,0.0,0.11330984617760725,-0.1654992396910947,0.0,0.1654992396910947,-0.7343149193675225,0.0,0.7343149193675225,-0.14939352179702753,0,0.14939352179702753,-0.0014514085808988904,-0.003289612597532962,0.008908052678878248,0.4,0.033463478088378906,0.7119035720825195,STABILIZE
0.03,0.005,0.05,-0.10969224107652861,-0.004835813411808041,-0.0005484612053826431,0.004704417315241682,-0.0006798573019490021,0.03,0.005,0.05,-0.09034992023489317,-0.003233396379219006,-0.0004517496011744659,0.007458182881155167,0.003773036900761695,0.002,8e-05,0,-0.31412278273925354,-0.0015132756324306132,-2.5129822619140286e-05,-0.0,-0.0015384054550497536,0.05,0.02,0.005,-0.1042502274640263,-0.0074262297758432285,-0.002085004549280526,0.0005023062937022043,-0.00900892803142155,-0.10777987930730021,0.0,0.10777987930730021,-0.16119378039360138,0.0,0.16119378039360138,-0.7566378162153066,0.0,0.7566378162153066,-0.14852459551686456,0,0.14852459551686456,-0.0006700743993826419,-0.0037747865773861684,0.00900892803142155,0.4,0.03344392776489258,0.7453680038452148,STABILIZE
0.03,0.005,0.05,-0.11513621741995853,-0.004796221565116283,-0.0005756810870997926,0.004459725171556824,-0.0009121774806592512,0.03,0.005,0.05,-0.09389139158679366,-0.003120087266860715,-0.0004694569579339683,0.007086085215053778,0.003496540990259095,0.002,8e-05,0,-0.3403140983923822,-0.0015383284206210495,-2.7225127871390577e-05,-0.0,-0.0015655535484924402,0.05,0.02,0.005,-0.10915337525232031,-0.00719957303131593,-0.0021830675050464065,0.0005453399571593416,-0.008837300579202994,-0.10400290889535717,0.0,0.10400290889535717,-0.15987405217054276,0.0,0.15987405217054276,-0.7691642103105247,0.0,0.7691642103105247,-0.1439914606263186,0,0.1439914606263186,-0.0009033873644810429,-0.0034988223622356004,0.008837300579202994,0.4,0.03405165672302246,0.7793922424316406,STABILIZE
0.03,0.005,0.05,-0.12034252839102491,-0.004668687262135761,-0.0006017126419551246,0.004894341246568622,-0.0003760586575222635,0.03,0.005,0.05,-0.09714131247979614,-0.0029143215532901217,-0.0004857065623989807,0.0086104291982527,0.005210401082563597,0.002,8e-05,0,-0.36675591512835315,-0.0015807555313670986,-2.9340473210268256e-05,-0.0,-0.0016100960045773668,0.05,0.02,0.005,-0.11396239725575837,-0.0071873731373186135,-0.0022792479451151674,0.0004695853778087874,-0.008997035704624992,-0.09714405177633739,0.0,0.09714405177633739,-0.15562290873785872,0.0,0.15562290873785872,-0.7903777656835493,0.0,0.7903777656835493,-0.14374746274637226,0,0.14374746274637226,-0.00036298528689000223,-0.0052113281643529925,0.008997035704624992,0.4,0.03345465660095215,0.8128478527069092,STABILIZE
0.03,0.005,0.05,-0.12555202446914762,-0.004673808437398901,-0.0006277601223457381,0.003551428416241588,-0.0017501401435030509,0.03,0.005,0.05,-0.10022416317439797,-0.0027658440224535884,-0.0005011208158719898,0.009310733968421551,0.006043769130095973,0.002,8e-05,0,-0.3937057132517587,-0.001611905028387567,-3.1496457060140696e-05,-0.0,-0.0016434014854477077,0.05,0.02,0.005,-0.11853942537441592,-0.0068439609507945955,-0.0023707885074883183,0.0005518980985501867,-0.008662851359732725,-0.09219480074845295,0.0,0.09219480074845295,-0.15579361457996335,0.0,0.15579361457996335,-0.8059525141937836,0.0,0.8059525141937836,-0.1368792190158919,0,0.1368792190158919,-0.0017356966405189288,-0.006047932952000478,0.008662851359732725,0.4,0.03343844413757324,0.8462889194488525,STABILIZE
0.03,0.005,0.05,-0.1308769193918982,-0.004550112676799907,-0.000654384596959491,0.004069020210123782,-0.001135477063635616,0.03,0.005,0.05,-0.1033812970249747,-0.0026977649257429663,-0.0005169064851248735,0.00693936732336013,0.0037246959124922897,0.002,8e-05,0,-0.42246899632304286,-0.0016385447453603538,-3.379751970584343e-05,-0.0,-0.0016723422650661971,0.05,0.02,0.005,-0.12322299584270448,-0.006670170231715246,-0.0024644599168540896,0.0004708023956955901,-0.008663827752873745,-0.08992549752476554,0.0,0.08992549752476554,-0.1516704225599969,0.0,0.1516704225599969,-0.8192723726801768,0.0,0.8192723726801768,-0.13340340463430492,0,0.13340340463430492,-0.0011268016775130122,-0.0037273295778792077,0.008663827752873745,0.4,0.035108327865600586,0.8814053535461426,STABILIZE
0.03,0.005,0.05,-0.13577128909544672,-0.004389990681551767,-0.0006788564454772336,0.004377442113385817,-0.0006914050136431838,0.03,0.005,0.05,-0.10617382280829303,-0.002504747885692483,-0.0005308691140414652,0.007209486347086934,0.004173869347352985,0.002,8e-05,0,-0.45072334713243994,-0.0016895105230351913,-3.60578677705952e-05,-0.0,-0.0017255683908057864,0.05,0.02,0.005,-0.12760643821122788,-0.0065528598221016995,-0.0025521287642245576,0.0005149682971686663,-0.00859002028915759,-0.08349159618974944,0.0,0.08349159618974944,-0.14633302271839224,0.0,0.14633302271839224,-0.8447552615175956,0.0,0.8447552615175956,-0.13105719644203398,0,0.13105719644203398,-0.0006818559896761612,-0.004175439932630634,0.00859002028915759,0.4,0.0334467887878418,0.9148647785186768,STABILIZE
0.03,0.005,0.05,-0.14051214489182878,-0.00425166037977902,-0.0007025607244591439,0.0053682799409656215,0.0004140588367274574,0.03,0.005,0.05,-0.10880096925420231,-0.0023560586813194846,-0.0005440048462710116,0.007581924443141164,0.004681860915550668,0.002,8e-05,0,-0.47945329000809617,-0.0017176921226045214,-3.8356263200647695e-05,-0.0,-0.0017560483858051691,0.05,0.02,0.005,-0.13180893095210477,-0.006281415792879522,-0.0026361786190420957,0.0005441327212144876,-0.008373461690707129,-0.07853528937731616,0.0,0.07853528937731616,-0.14172201265930068,0.0,0.14172201265930068,-0.8588460613022607,0.0,0.8588460613022607,-0.12562831585759043,0,0.12562831585759043,0.0004243234113281072,-0.004680941785093242,0.008373461690707129,0.4,0.03345179557800293,0.9483206272125244,STABILIZE
0.03,0.005,0.05,-0.14521561356507598,-0.0041839278076424916,-0.0007260780678253799,0.004767016317747941,-0.00014298955771993062,0.03,0.005,0.05,-0.1111184996404027,-0.002061538090607938,-0.0005555924982020135,0.008442708448504789,0.005825577859694837,0.002,8e-05,0,-0.5086671891853899,-0.0017324638988635167,-4.0693375134831197e-05,-0.0,-0.001773157273998348,0.05,0.02,0.005,-0.1358811558909636,-0.006037351135335659,-0.0027176231178192723,0.0006815763290703911,-0.008073397924084541,-0.06871793635359794,0.0,0.06871793635359794,-0.13946426025474973,0.0,0.13946426025474973,-0.8662319494317583,0.0,0.8662319494317583,-0.12074702270671317,0,0.12074702270671317,-0.0001307122336237302,-0.005825866263910005,0.008073397924084541,0.4,0.03372526168823242,0.9820389747619629,STABILIZE
0.03,0.005,0.05,-0.14973712060447883,-0.004024284545056213,-0.0007486856030223942,0.006396817785909501,0.0016238476378308934,0.03,0.005,0.05,-0.11324420040536064,-0.0018919410411808546,-0.0005662210020268032,0.008639786492492921,0.006181624449285264,0.002,8e-05,0,-0.5383159882215606,-0.0017592247113032856,-4.3065279057724846e-05,-0.0,-0.0018022899903610103,0.05,0.02,0.005,-0.13980405152875264,-0.005819169047490764,-0.0027960810305750526,0.0006056360234380154,-0.0080096140546278,-0.06306470137269515,0.0,0.06306470137269515,-0.13414281816854046,0.0,0.13414281816854046,-0.8796123556516428,0.0,0.8796123556516428,-0.11638338094981528,0,0.11638338094981528,0.0016364008471699597,-0.006178313220473024,0.0080096140546278,0.4,0.0337066650390625,1.0157551765441895,STABILIZE
0.03,0.005,0.05,-0.15415166708917563,-0.00391681297547219,-0.0007707583354458782,0.006281890192901381,0.0015943188819833119,0.03,0.005,0.05,-0.11530276156119451,-0.0018264614664097092,-0.0005765138078059726,0.008638935279926433,0.006235960005710752,0.002,8e-05,0,-0.568421730913163,-0.0017807576840107287,-4.547373847305304e-05,-0.0,-0.0018262314224837817,0.05,0.02,0.005,-0.14357964265050713,-0.0055831647890407215,-0.0028715928530101426,0.0006462302164865455,-0.007808527425564319,-0.06088204888032364,0.0,0.06088204888032364,-0.13056043251573968,0.0,0.13056043251573968,-0.8903788420053643,0.0,0.8903788420053643,-0.11166329578081442,0,0.11166329578081442,0.0016064690601317458,-0.0062328410094524295,0.007808527425564319,0.4,0.03381228446960449,1.0496573448181152,STABILIZE
0.03,0.005,0.05,-0.1582798877350908,-0.0037040364737436667,-0.0007913994386754541,0.006807359839520574,0.0023119239271014533,0.03,0.005,0.05,-0.11688100076089798,-0.0014160714897296196,-0.0005844050038044899,0.010806661824005238,0.008806185330471127,0.002,8e-05,0,-0.5995287220775165,-0.0018607117487804792,-4.796229776620132e-05,-0.0,-0.0019086740465466805,0.05,0.02,0.005,-0.14707975360225317,-0.005234110826999705,-0.0029415950720450635,0.0007848746385825304,-0.007390831260462237,-0.04720238299098732,0.0,0.04720238299098732,-0.12346788245812222,0.0,0.12346788245812222,-0.9303558743902396,0.0,0.9303558743902396,-0.10468221653999409,0,0.10468221653999409,0.002328009394580595,-0.008801946635719485,0.007390831260462237,0.4,0.03343558311462402,1.0830011367797852,STABILIZE
0.03,0.005,0.05,-0.16233248695670455,-0.003633671999831416,-0.0008116624347835228,0.0061299635315236415,0.0016846290969087033,0.03,0.005,0.05,-0.11834373768029054,-0.001311530180129664,-0.0005917186884014527,0.010366531011414756,0.00846328214288364,0.002,8e-05,0,-0.6311432181744224,-0.0018897618207336204,-5.04914574539538e-05,-0.0,-0.0019402532781875742,0.05,0.02,0.005,-0.1505075022611307,-0.005122356313036081,-0.003010150045222614,0.0006893864256341292,-0.007443119932624566,-0.0437176726709888,0.0,0.0437176726709888,-0.12112239999438053,0.0,0.12112239999438053,-0.9448809103668102,0.0,0.9448809103668102,-0.10244712626072161,0,0.10244712626072161,0.001699759080040127,-0.008460256431930753,0.007443119932624566,0.4,0.033458709716796875,1.1164679527282715,STABILIZE
0.03,0.005,0.05,-0.16629327741622868,-0.0035521383986765846,-0.0008314663870811434,0.006272969412645416,0.0018893646268876877,0.03,0.005,0.05,-0.11961956954719609,-0.0011441987176557015,-0.0005980978477359805,0.009122964674892297,0.007380668109500615,0.002,8e-05,0,-0.6629142387953099,-0.0018995377053457893,-5.30331391036248e-05,-0.0,-0.001952570844449414,0.05,0.02,0.005,-0.15385197876145776,-0.004999020406695358,-0.0030770395752291553,0.0006183899617131474,-0.007457670020211367,-0.03813995725519005,0.0,0.03813995725519005,-0.11840461328921949,0.0,0.11840461328921949,-0.9497688526728947,0.0,0.9497688526728947,-0.09998040813390716,0,0.09998040813390716,0.0019022409159990107,-0.007377359956883837,0.007457670020211367,0.4,0.03345131874084473,1.1499314308166504,STABILIZE
0.03,0.005,0.05,-0.1701944849744094,-0.0034937476084896273,-0.000850972424872047,0.00527524304144884,0.0009305230080871654,0.03,0.005,0.05,-0.1206774551656866,-0.0009473952089286904,-0.000603387275828433,0.00940409470175755,0.007853312217000426,0.002,8e-05,0,-0.6947421184539679,-0.0019002420281818034,-5.557936947631744e-05,-0.0,-0.001955821397658121,0.05,0.02,0.005,-0.15705851015877972,-0.004786044335361665,-0.0031411702031755944,0.0006160852316334451,-0.007311129306903815,-0.031579840297623014,0.0,0.031579840297623014,-0.11645825361632091,0.0,0.11645825361632091,-0.9501210140909017,0.0,0.9501210140909017,-0.09572088670723329,0,0.09572088670723329,0.0009436417973444987,-0.007851746684946743,0.007311129306903815,0.4,0.03349876403808594,1.1834523677825928,STABILIZE
0.03,0.005,0.05,-0.17400388812156162,-0.0033759708539792908,-0.0008700194406078081,0.005375485861407202,0.0011294955668201025,0.03,0.005,0.05,-0.12172113196515329,-0.0009249276907349349,-0.0006086056598257664,0.008979809398179444,0.007446276047618743,0.002,8e-05,0,-0.7269047882017765,-0.0019002143111042447,-5.8152383056142126e-05,-0.0,-0.0019583666941603867,0.05,0.02,0.005,-0.16021489507464987,-0.004662087938843058,-0.0032042979014929975,0.0005497236037438479,-0.007316662236592207,-0.030830923024497834,0.0,0.030830923024497834,-0.1125323617993097,0.0,0.1125323617993097,-0.9501071555521223,0.0,0.9501071555521223,-0.09324175877686115,0,0.09324175877686115,0.0011416119544493959,-0.007444428074625015,0.007316662236592207,0.4,0.03385162353515625,1.2172770500183105,STABILIZE
0.03,0.005,0.05,-0.17771587535723748,-0.003326729064011833,-0.0008885793767861874,0.003744573386659138,-0.0004707350541388825,0.03,0.005,0.05,-0.12255024245116855,-0.0007430591152347431,-0.0006127512122558428,0.006699491777104207,0.005343681449613621,0.002,8e-05,0,-0.7589541398916787,-0.0019148684694605257,-6.07163311913343e-05,-0.0,-0.00197558480065186,0.05,0.02,0.005,-0.16330187322573986,-0.004610980266176639,-0.003266037464514797,0.0003714672483367963,-0.00750555048235464,-0.024768637174491438,0.0,0.024768637174491438,-0.11089096880039442,0.0,0.11089096880039442,-0.9574342347302628,0.0,0.9574342347302628,-0.09221960532353277,0,0.09221960532353277,-0.000462133601790281,-0.005344432192500547,0.00750555048235464,0.4,0.03347420692443848,1.2508609294891357,STABILIZE
0.03,0.005,0.05,-0.18137428975237851,-0.0032795105967636804,-0.0009068714487618926,0.003513876755486799,-0.0006725052900387737,0.03,0.005,0.05,-0.12317967039077911,-0.0005642377748659549,-0.0006158983519538955,0.007439115219155471,0.0062589790923356205,0.002,8e-05,0,-0.7912189996448323,-0.0019282114787961737,-6.32975199715866e-05,-0.0,-0.0019915089987677602,0.05,0.02,0.005,-0.16635696361638572,-0.004564455265784532,-0.0033271392723277144,0.00033247005498843266,-0.007559124483123813,-0.018807925828865164,0.0,0.018807925828865164,-0.10931701989212268,0.0,0.10931701989212268,-0.9641057393980869,0.0,0.9641057393980869,-0.09128910531569064,0,0.09128910531569064,-0.0006625320376849827,-0.006260042647016515,0.007559124483123813,0.4,0.03346610069274902,1.2842979431152344,STABILIZE
0.03,0.005,0.05,-0.18488504574757347,-0.003146024608203452,-0.0009244252287378674,0.004030507267123211,-3.994256981810877e-05,0.03,0.005,0.05,-0.12330128599372453,-0.00010898099444435144,-0.0006165064299686226,0.010304594617654858,0.009579107193241884,0.002,8e-05,0,-0.8252949436813519,-0.0020357202956358595,-6.602359549450816e-05,-0.0,-0.0021017438911303675,0.05,0.02,0.005,-0.1694062250677775,-0.004554124323485901,-0.00338812450135555,0.000264901296263303,-0.007677347528578148,-0.0036326998148117147,0.0,0.0036326998148117147,-0.10486748694011506,0.0,0.10486748694011506,-1.0178601478179297,0.0,1.0178601478179297,-0.09108248646971802,0,0.09108248646971802,-2.4714721747022995e-05,-0.009579158585754338,0.007677347528578148,0.4,0.0334780216217041,1.31770920753479,STABILIZE
0.03,0.005,0.05,-0.1882604743216629,-0.0030273218941148567,-0.0009413023716083145,0.004632382363229467,0.000663758097506296,0.03,0.005,0.05,-0.12330843986226515,-6.416092767264564e-06,-0.0006165421993113258,0.009368360964662639,0.008745402672584049,0.002,8e-05,0,-0.8607368647179281,-0.00211912060287952,-6.885894917743425e-05,-0.0,-0.0021879795520569545,0.05,0.02,0.005,-0.1724621750400355,-0.004567985000656335,-0.00344924350080071,0.00012945922447664429,-0.007887769276980401,-0.0002138697589088188,0.0,0.0002138697589088188,-0.10091072980382856,0.0,0.10091072980382856,-1.05956030143976,0.0,1.05956030143976,-0.09135970001312671,0,0.09135970001312671,0.000677702033451066,-0.008744333174776776,0.007887769276980401,0.4,0.033449649810791016,1.3511509895324707,STABILIZE
0.03,0.005,0.05,-0.19151068080630262,-0.0029143491896280794,-0.0009575534040315131,0.004598189056151977,0.0007262864624923847,0.03,0.005,0.05,-0.1232639629470186,3.988093141729724e-05,-0.000616319814735093,0.009608380826547594,0.009031941943229798,0.002,8e-05,0,-0.895885018446454,-0.002101076630459214,-7.167080147571632e-05,-0.0,-0.00217274743193493,0.05,0.02,0.005,-0.1754708307221142,-0.004496264719577219,-0.003509416614442284,9.909684964954822e-05,-0.007906584484369955,0.0013293643805765746,0.0,-0.0013293643805765746,-0.09714497298760265,0.0,0.09714497298760265,-1.0505383152296068,0.0,1.0505383152296068,-0.08992529439154437,0,0.08992529439154437,0.0007404611269905843,-0.009030790918346476,0.007906584484369955,0.4,0.033457279205322266,1.3846168518066406,STABILIZE
0.03,0.005,0.05,-0.19464012634123948,-0.0028085086282454213,-0.0009732006317061975,0.005163245646937823,0.0013815363869862044,0.03,0.005,0.05,-0.12317101815562162,8.341293870581049e-05,-0.0006158550907781081,0.00823143363881464,0.007698991486742342,0.002,8e-05,0,-0.930733080440678,-0.002084950442408736,-7.445864643525425e-05,-0.0,-0.00215940908884399,0.05,0.02,0.005,-0.17843318629536653,-0.0044309239951766345,-0.0035686637259073305,0.00010765448030071903,-0.007891933240783246,0.002780431290193683,0.0,-0.002780431290193683,-0.09361695427484738,0.0,0.09361695427484738,-1.042475221204368,0.0,1.042475221204368,-0.08861847990353268,0,0.08861847990353268,0.001393442638653018,-0.00769684547813464,0.007891933240783246,0.4,0.033428192138671875,1.4180402755737305,STABILIZE
0.03,0.005,0.05,-0.1977108491545977,-0.002685457769745737,-0.0009885542457729885,0.005888627684980499,0.002214615669461774,0.03,0.005,0.05,-0.12290237453677706,0.00023493852664929331,-0.0006145118726838853,0.007922698777226954,0.007543125431192362,0.002,8e-05,0,-0.9663754077502645,-0.002078033319255608,-7.731003262002116e-05,-0.0,-0.002155343351875629,0.05,0.02,0.005,-0.18136306651272796,-0.004270476405918749,-0.0036272613302545595,0.00017339502457166273,-0.007724342711601645,0.007831284221643111,0.0,-0.007831284221643111,-0.08951525899152456,0.0,0.08951525899152456,-1.039016659627804,0.0,1.039016659627804,-0.08540952811837497,0,0.08540952811837497,0.0022258575719235033,-0.00753981577385266,0.007724342711601645,0.4,0.034303903579711914,1.4523956775665283,STABILIZE
0.03,0.005,0.05,-0.2005626087774696,-0.0025573670752562466,-0.001002813043887348,0.005835844131772965,0.00227566401262937,0.03,0.005,0.05,-0.12247338593758385,0.0003847032935167904,-0.0006123669296879192,0.004882076290624575,0.0046544126544534456,0.002,8e-05,0,-1.002413347754204,-0.0021545116796653743,-8.019306782033634e-05,-0.0,-0.0022347047474857106,0.05,0.02,0.005,-0.184204987732945,-0.004247573849238576,-0.0036840997546589,0.00018091543695142247,-0.007750758166946055,0.012823443117226347,0.0,-0.012823443117226347,-0.08524556917520823,0.0,0.08524556917520823,-1.0772558398326872,0.0,1.0772558398326872,-0.08495147698477153,0,0.08495147698477153,0.0022825625271642056,-0.004651033451384599,0.007750758166946055,0.4,0.03345346450805664,1.4857966899871826,STABILIZE
0.03,0.005,0.05,-0.2032829730937009,-0.002439918512750464,-0.0010164148654685046,0.00582339628297466,0.002367062904755691,0.03,0.005,0.05,-0.12206154772532989,0.000369381289241645,-0.0006103077386266495,0.003707300053208597,0.0034663736038235927,0.002,8e-05,0,-1.0376725229186707,-0.0021082841420611734,-8.301380183349367e-05,0.0,-0.002191297943894667,0.05,0.02,0.005,-0.18678541536641216,-0.003857346799803914,-0.0037357083073282435,0.00042253495649701545,-0.007170520150635141,0.012312709641388168,0.0,-0.012312709641388168,-0.08133061709168214,0.0,0.08133061709168214,-1.0541420710305867,0.0,1.0541420710305867,-0.07714693599607828,0,0.07714693599607828,0.0023717281189069403,-0.003463183288008528,0.007170520150635141,0.4,0.033448219299316406,1.519258737564087,STABILIZE
0.03,0.005,0.05,-0.20586413795532585,-0.0023150198019401087,-0.0010293206897766293,0.00594252497114834,0.002598184479431602,0.03,0.005,0.05,-0.12163621344856182,0.00038147786985682006,-0.0006081810672428092,0.0033665926735750515,0.0031398894761890624,0.002,8e-05,0,-1.0727563396341977,-0.0020977539154667132,-8.582050717073582e-05,0.0,-0.002183574422637449,0.05,0.02,0.005,-0.1892682506831431,-0.0037113817670999943,-0.003785365013662862,0.0004669385469363422,-0.007029808233826514,0.012715928995227336,0.0,-0.012715928995227336,-0.07716732673133696,0.0,0.07716732673133696,-1.0488769577333565,0.0,1.0488769577333565,-0.07422763534199989,0,0.07422763534199989,0.0026022500769864445,-0.0031365208509853927,0.007029808233826514,0.4,0.03344893455505371,1.552699089050293,STABILIZE
0.03,0.005,0.05,-0.20837356057266,-0.002251140259558637,-0.0010418678028633,0.005523842111863165,0.0022308340494412273,0.03,0.005,0.05,-0.12102600280867082,0.000547404701296974,-0.0006051300140433541,0.0045863835703201464,0.004528658257573767,0.002,8e-05,0,-1.1076988545406605,-0.002089737071595922,-8.861590836325285e-05,-0.0,-0.0021783529799591747,0.05,0.02,0.005,-0.19174027839152163,-0.003695990370211923,-0.0038348055678304326,0.0004370501870460557,-0.0070937457509963,0.018246823376565798,0.0,-0.018246823376565798,-0.07503800865195458,0.0,0.07503800865195458,-1.0448685357979608,0.0,1.0448685357979608,-0.07391980740423845,0,0.07391980740423845,0.0022366748126177935,-0.004525776392249021,0.0070937457509963,0.4,0.033442020416259766,1.5861527919769287,STABILIZE
0.03,0.005,0.05,-0.2110770470746872,-0.0021627534505398345,-0.001055385235373436,0.00511379619904762,0.0018956575131343495,0.03,0.005,0.05,-0.1202154774621201,0.0006484095588005087,-0.0006010773873106005,0.004011805377419566,0.004059137548909474,0.002,8e-05,0,-1.1465181167607863,-0.002070326428509592,-9.172144934086291e-05,0.0,-0.002162047877850455,0.05,0.02,0.005,-0.1942687726006934,-0.003371269883941638,-0.0038853754520138677,0.0005166867840608016,-0.006739958551894704,0.021613651960016956,0.0,-0.021613651960016956,-0.07209178168466115,0.0,0.07209178168466115,-1.035163214254796,0.0,1.035163214254796,-0.06742539767883275,0,0.06742539767883275,0.0019004329729731455,-0.0040569039381412484,0.006739958551894704,0.4,0.037500619888305664,1.6236498355865479,STABILIZE
0.03,0.005,0.05,-0.21348898502274458,-0.002162949025034334,-0.001067444925113723,0.0038355402608313788,0.0006051463106833219,0.03,0.005,0.05,-0.1195665452366535,0.0005819417226371125,-0.0005978327261832675,0.0018572442459029023,0.0018413532423567473,0.002,8e-05,0,-1.180916073316487,-0.002056466022968501,-9.447328586531897e-05,0.0,-0.00215093930883382,0.05,0.02,0.005,-0.19644020283341437,-0.0032454489611951015,-0.003928804056668287,0.0005782160561884031,-0.006596036961674986,0.019398057421237083,0.0,-0.019398057421237083,-0.0720983008344778,0.0,0.0720983008344778,-1.0282330114842506,0.0,1.0282330114842506,-0.06490897922390203,0,0.06490897922390203,0.0006072319457066125,-0.001840666505531272,0.006596036961674986,0.4,0.03345346450805664,1.6570930480957031,STABILIZE
0.03,0.005,0.05,-0.21578448273174342,-0.0020598503586072366,-0.001078922413658717,0.003693032429547446,0.0005542596572814923,0.03,0.005,0.05,-0.11887710768142713,0.0006186624320307888,-0.0005943855384071357,0.002376061311413765,0.002400338205037418,0.002,8e-05,0,-1.2150806643809282,-0.002043825321770166,-9.720645315047426e-05,0.0,-0.0021410317749206405,0.05,0.02,0.005,-0.1985667702124445,-0.0031804363247859035,-0.00397133540424889,0.0003837764760166413,-0.006767995253018152,0.020622081067692963,0.0,-0.020622081067692963,-0.06866167862024122,0.0,0.06866167862024122,-1.021912660885083,0.0,1.021912660885083,-0.06360872649571807,0,0.06360872649571807,0.0005569241267445539,-0.0023997213970171345,0.006767995253018152,0.4,0.0334320068359375,1.6905279159545898,STABILIZE
0.03,0.005,0.05,-0.2179404188018808,-0.001913802132513426,-0.0010897020940094041,0.003888867423407526,0.0008853631968846957,0.03,0.005,0.05,-0.11798291300693436,0.0007937673563842469,-0.0005899145650346718,0.003982611666674443,0.004186464458024018,0.002,8e-05,0,-1.2488632109046376,-0.0019992277901724953,-9.990905687237101e-05,0.0,-0.0020991368470448662,0.05,0.02,0.005,-0.20069763003914612,-0.0031525703513160044,-0.004013952600782923,0.00031299102474574385,-0.006853531927353183,0.026458911879474897,0.0,-0.026458911879474897,-0.0637934044171142,0.0,0.0637934044171142,-0.9996138950862475,0.0,0.9996138950862475,-0.06305140702632009,0,0.06305140702632009,0.0008899696741497971,-0.004185487621268271,0.006853531927353183,0.4,0.03379559516906738,1.7243263721466064,STABILIZE
0.03,0.005,0.05,-0.22002361152712427,-0.0018654685080438818,-0.0011001180576356213,0.003733059775302824,0.0007674732096233207,0.03,0.005,0.05,-0.1171768080932575,0.0007218551180702067,-0.0005858840404662875,0.0016132209569059562,0.0017491920345098755,0.002,8e-05,0,-1.2820790112683373,-0.0019829507786167594,-0.000102566320901467,0.0,-0.0020855170995182264,0.05,0.02,0.005,-0.20266041138573668,-0.002929403143127108,-0.004053208227714733,0.00043701483948067665,-0.006545596531361165,0.024061837269006892,0.0,-0.024061837269006892,-0.06218228360146273,0.0,0.06218228360146273,-0.9914753893083798,0.0,0.9914753893083798,-0.05858806286254216,0,0.05858806286254216,0.0007692614524297595,-0.0017484063368931081,0.006545596531361165,0.4,0.033501386642456055,1.757917881011963,STABILIZE
0.03,0.005,0.05,-0.22222527838826067,-0.0018332162313802855,-0.0011111263919413035,0.0032457992771193103,0.00030145665379772155,0.03,0.005,0.05,-0.11633546455731272,0.0007005440530020735,-0.0005816773227865636,0.0005182521527934691,0.0006371188830089791,0.002,8e-05,0,-1.3186481982608562,-0.0020299537090567076,-0.0001054918558608685,0.0,-0.002135445564917576,0.05,0.02,0.005,-0.20462283480661497,-0.002723350605775403,-0.0040924566961323,0.0003782131015163333,-0.00643759420039137,0.023351468433402453,0.0,-0.023351468433402453,-0.061107207712676186,0.0,0.061107207712676186,-1.0149768545283537,0.0,1.0149768545283537,-0.054467012115508064,0,0.054467012115508064,0.00030206218098649,-0.0006368320218261747,0.00643759420039137,0.4,0.03602957725524902,1.7938520908355713,STABILIZE
0.03,0.005,0.05,-0.2242220471055082,-0.0017900261504879048,-0.001121110235527541,0.003677950686921019,0.0007668143009055728,0.03,0.005,0.05,-0.11535704886593257,0.0008771119351431037,-0.0005767852443296629,0.002939280292897825,0.003239606983711266,0.002,8e-05,0,-1.3533342889708813,-0.0020729828444938222,-0.0001082667431176705,-0.0,-0.0021812495876114926,0.05,0.02,0.005,-0.20632589895094444,-0.0025445522124284766,-0.004126517979018889,0.0004098488840421163,-0.00626122130740525,0.02923706450477012,0.0,-0.02923706450477012,-0.05966753834959683,0.0,0.05966753834959683,-1.036491422246911,0.0,1.036491422246911,-0.05089104424856953,0,0.05089104424856953,0.0007696914697164806,-0.003238924608945042,0.00626122130740525,0.4,0.033464908599853516,1.8273305892944336,STABILIZE
0.03,0.005,0.05,-0.2262612904136686,-0.0017547078356575608,-0.001131306452068343,0.0029876775346583035,0.00010166324693239954,0.03,0.005,0.05,-0.11416572237479465,0.001025100791289045,-0.0005708286118739733,0.0039880456841488296,0.004442317863563901,0.002,8e-05,0,-1.3889994168892996,-0.0020459183452262264,-0.00011111995335114398,-0.0,-0.0021570382985773703,0.05,0.02,0.005,-0.20797248807166208,-0.002361401098036162,-0.004159449761433242,0.0004760204668574463,-0.006044830392611957,0.0341700263763015,0.0,-0.0341700263763015,-0.058490261188585364,0.0,0.058490261188585364,-1.022959172613113,0.0,1.022959172613113,-0.04722802196072324,0,0.04722802196072324,0.00010532494566136367,-0.004442232554981471,0.006044830392611957,0.4,0.03486466407775879,1.8621902465820312,STABILIZE
0.03,0.005,0.05,-0.22808344789866394,-0.0016316920574619323,-0.0011404172394933198,0.0027711415049077315,-9.677920475206075e-07,0.03,0.005,0.05,-0.11295099836928169,0.0010877520346760318,-0.0005647549918464085,0.002884308368084311,0.003407305410913934,0.002,8e-05,0,-1.42272920238646,-0.0020136065277494048,-0.00011381833619091681,-0.0,-0.0021274248639403213,0.05,0.02,0.005,-0.20928981378842557,-0.0019660484222990644,-0.004185796275768512,0.0006955478954446349,-0.0054562968026229414,0.03625840115586773,0.0,-0.03625840115586773,-0.05438973524873108,0.0,0.05438973524873108,-1.0068032638747024,0.0,1.0068032638747024,-0.039320968445981284,0,0.039320968445981284,1.3705747960429002e-06,-0.003407305272702983,0.0054562968026229414,0.4,0.03350186347961426,1.8956902027130127,STABILIZE
0.03,0.005,0.05,-0.2298457042906728,-0.0015797161126805122,-0.001149228521453364,0.0028079198960756207,7.897526194174456e-05,0.03,0.005,0.05,-0.11159006059403921,0.0012199673904745188,-0.0005579503029701961,0.004916712932500732,0.0055787300200050545,0.002,8e-05,0,-1.4561738939441553,-0.0019986920698901863,-0.00011649391151553243,-0.0,-0.0021151859814057187,0.05,0.02,0.005,-0.21049077440181682,-0.0017942686435713528,-0.004209815488036337,0.0006649767676499785,-0.005339107363957711,0.04066557968248396,0.0,-0.04066557968248396,-0.052657203756017075,0.0,0.052657203756017075,-0.9993460349450931,0.0,0.9993460349450931,-0.035885372871427054,0,0.035885372871427054,8.24693047494254e-05,-0.0055786794621916136,0.005339107363957711,0.4,0.03346657752990723,1.9291646480560303,STABILIZE
0.03,0.005,0.05,-0.2314164782705935,-0.0014081784266826113,-0.0011570823913529674,0.004218213997125117,0.0016529531790895383,0.03,0.005,0.05,-0.1103422225201925,0.0011186705904517509,-0.0005517111126009625,0.004104861592425478,0.004671821070276266,0.002,8e-05,0,-1.4895165247729045,-0.0019927489684313845,-0.00011916132198183237,0.0,-0.0021119102904132167,0.05,0.02,0.005,-0.2116200622398352,-0.0016873197452770298,-0.004232401244796704,0.0006145159724851673,-0.005305205017588566,0.03728901968172503,0.0,-0.03728901968172503,-0.04693928088942038,0.0,0.04693928088942038,-0.9963744842156922,0.0,0.9963744842156922,-0.03374639490554059,0,0.03374639490554059,0.0016557045280339567,-0.004670846694207308,0.005305205017588566,0.4,0.03346395492553711,1.9626257419586182,STABILIZE
0.03,0.005,0.05,-0.23336739720188127,-0.0014642378994302405,-0.0011668369860094064,0.003320514210482032,0.0006894393250423854,0.03,0.005,0.05,-0.10871678022113042,0.0012199554678844243,-0.000543583901105652,0.0031907705466487344,0.0038671421134275066,0.002,8e-05,0,-1.5289841530185617,-0.001974795779606239,-0.00012231873224148495,0.0,-0.002097114511847724,0.05,0.02,0.005,-0.2128906203987326,-0.001589335996020338,-0.004257812407974652,0.0005566857178021751,-0.005290462686192815,0.04066518226281415,0.0,-0.04066518226281415,-0.04880792998100802,0.0,0.04880792998100802,-0.9873978898031196,0.0,0.9873978898031196,-0.031786719920406756,0,0.031786719920406756,0.0006915846432307943,-0.003866759029162122,0.005290462686192815,0.4,0.039971351623535156,2.002613067626953,STABILIZE
0.03,0.005,0.05,-0.23495965873486213,-0.00143170549881973,-0.0011747982936743107,0.003307865722724978,0.0007013619302309376,0.03,0.005,0.05,-0.10742256039784656,0.0011637168890264603,-0.0005371128019892328,0.001214017976357659,0.0018406220633948864,0.002,8e-05,0,-1.561426833840543,-0.0019447544082086552,-0.00012491414670724344,0.0,-0.0020696685549158986,0.05,0.02,0.005,-0.21398091911099862,-0.0016339303451665598,-0.0042796183822199725,0.0004248899038704175,-0.005488658823516115,0.03879056296754868,0.0,-0.03879056296754868,-0.04772351662732433,0.0,0.04772351662732433,-0.9723772041043276,0.0,0.9723772041043276,-0.032678606903331194,0,0.032678606903331194,0.0007024116135767005,-0.0018402217427652278,0.005488658823516115,0.4,0.033364295959472656,2.035968065261841,STABILIZE
0.03,0.005,0.05,-0.23655994703748404,-0.0014296263320213638,-0.0011827997351874203,0.0021045343809438454,-0.0005078916862649384,0.03,0.005,0.05,-0.10613104523427416,0.0011537821547672768,-0.0005306552261713708,0.000492043313463749,0.001115170242059655,0.002,8e-05,0,-1.5938623769013758,-0.0019317646858675558,-0.00012750899015211007,0.0,-0.002059273676019666,0.05,0.02,0.005,-0.2150965741387859,-0.0016611275632475338,-0.004301931482775718,0.00017267372852664993,-0.005790385317496602,0.03845940515890923,0.0,-0.03845940515890923,-0.04765421106737879,0.0,0.04765421106737879,-0.9658823429337778,0.0,0.9658823429337778,-0.033222551264950675,0,0.033222551264950675,-0.0005072449773667963,-0.001115464551964154,0.005790385317496602,0.4,0.03358125686645508,2.0695743560791016,STABILIZE
0.03,0.005,0.05,-0.2380998053072669,-0.0013805022372821673,-0.0011904990265363346,0.002076181715573272,-0.0004948195482452297,0.03,0.005,0.05,-0.10486426181977547,0.0011356872071830153,-0.0005243213090988774,-0.0010050945111108069,-0.0003937286130266689,0.002,8e-05,0,-1.6261046506847106,-0.001927040168410399,-0.00013008837205477684,0.0,-0.0020571285404651757,0.05,0.02,0.005,-0.2162294968174365,-0.0016927989664544292,-0.0043245899363487305,5.108701022018633e-05,-0.005966301892582973,0.03785624023943385,0.0,-0.03785624023943385,-0.04601674124273891,0.0,0.04601674124273891,-0.9635200842051995,0.0,0.9635200842051995,-0.033855979329088584,0,0.033855979329088584,-0.0004950521154182383,0.0003934361562711856,0.005966301892582973,0.4,0.0334630012512207,2.1030113697052,STABILIZE
0.03,0.005,0.05,-0.23966224366867764,-0.0013771671026328164,-0.0011983112183433882,0.00040016346521494446,-0.0021753148557612603,0.03,0.005,0.05,-0.10374720801449244,0.0009845954826132207,-0.0005187360400724622,-0.0014758085618774253,-0.0010099491193366669,0.002,8e-05,0,-1.6588035470244522,-0.0019214344895642711,-0.0001327042837619562,0.0,-0.0020541387733262273,0.05,0.02,0.005,-0.21748726354435505,-0.001847704845920459,-0.004349745270887101,-0.0001038567907075431,-0.0063013069075151034,0.03281984942044069,0.0,-0.03281984942044069,-0.04590557008776055,0.0,0.04590557008776055,-0.9607172447821356,0.0,0.9607172447821356,-0.03695409691840918,0,0.03695409691840918,-0.0021759657908180193,0.0010085458951055496,0.0063013069075151034,0.4,0.03403592109680176,2.137092351913452,STABILIZE
0.03,0.005,0.05,-0.24119541505929337,-0.0013750265991714656,-0.001205977075296467,0.0008889907094304667,-0.0016920129650374659,0.03,0.005,0.05,-0.10267665608516093,0.0009601257808717514,-0.0005133832804258046,-0.002564295053976747,-0.0021175525535308,0.002,8e-05,0,-1.6906323401693821,-0.001903046085244615,-0.00013525058721355058,0.0,-0.0020382966724581657,0.05,0.02,0.005,-0.2187800883899178,-0.0019324525203110688,-0.004375601767798356,-0.00020355448115751067,-0.006511608769266935,0.03200419269572505,0.0,-0.03200419269572505,-0.04583421997238219,0.0,0.04583421997238219,-0.9515230426223075,0.0,0.9515230426223075,-0.03864905040622137,0,0.03864905040622137,-0.0016934409817913909,0.0021164107191207243,0.006511608769266935,0.4,0.03345036506652832,2.1705334186553955,STABILIZE
0.03,0.005,0.05,-0.24273371345370165,-0.0013782102122952393,-0.0012136685672685082,0.0005322763900617444,-0.002059602389502003,0.03,0.005,0.05,-0.10162539490303282,0.0009418581611117399,-0.0005081269745151641,-0.0021842815981414584,-0.0017505504115448826,0.002,8e-05,0,-1.7223628552969266,-0.0018952248427714779,-0.00013778902842375413,0.0,-0.002033013871195232,0.05,0.02,0.005,-0.22013559089066645,-0.0020240626440599535,-0.004402711817813329,-0.00023154030821602963,-0.006658314770089312,0.031395272037058,0.0,-0.031395272037058,-0.04594034040984131,0.0,0.04594034040984131,-0.9476124213857389,0.0,0.9476124213857389,-0.04048125288119907,0,0.04048125288119907,-0.0020608386937286055,0.0017490948014997048,0.006658314770089312,0.4,0.033484697341918945,2.204029083251953,STABILIZE
0.03,0.005,0.05,-0.24418685359489675,-0.001302424283804093,-0.0012209342679744839,0.0012663672466423036,-0.001256991305136273,0.03,0.005,0.05,-0.10045329409993298,0.0010505336035711043,-0.0005022664704996649,-0.0010034020210234408,-0.00045513488795200137,0.002,8e-05,0,-1.754073828501712,-0.0018947996546295933,-0.00014032590628013696,0.0,-0.00203512556090973,0.05,0.02,0.005,-0.22145202794043198,-0.001966499459925824,-0.0044290405588086395,-0.00018094719711618225,-0.006576487215850646,0.03501778678570348,0.0,-0.03501778678570348,-0.04341414279346977,0.0,0.04341414279346977,-0.9473998273147967,0.0,0.9473998273147967,-0.03932998919851648,0,0.03932998919851648,-0.001257303430760621,0.00045427193443668115,0.006576487215850646,0.4,0.03347158432006836,2.2375993728637695,STABILIZE
0.03,0.005,0.05,-0.24561660179449085,-0.0012827193749573005,-0.0012280830089724543,0.0009734581215939145,-0.00153734426233584,0.03,0.005,0.05,-0.09941401702518615,0.0009324025308128734,-0.0004970700851259308,-0.0020007427028971465,-0.0015654102572102038,0.002,8e-05,0,-1.7855699339300328,-0.0018838125799621904,-0.00014284559471440265,0.0,-0.002026658174676593,0.05,0.02,0.005,-0.22282999089884314,-0.0020604324887758536,-0.004456599817976863,-0.00021820024512051155,-0.0067352325518732275,0.031080084360429115,0.0,-0.031080084360429115,-0.042757312498576686,0.0,0.042757312498576686,-0.9419062899810952,0.0,0.9419062899810952,-0.04120864977551707,0,0.04120864977551707,-0.001538469749341203,0.0015643041535065554,0.0067352325518732275,0.4,0.033438682556152344,2.270944118499756,STABILIZE
0.03,0.005,0.05,-0.2469986839090438,-0.001239477828759543,-0.001234993419545219,0.0013716824593840184,-0.0011027887889207436,0.03,0.005,0.05,-0.09845673160718746,0.0008585119790715139,-0.0004922836580359373,-0.0012573087147482393,-0.0008910803937126627,0.002,8e-05,0,-1.817234862822269,-0.0018931811599279022,-0.00014537878902578152,0.0,-0.0020385599489536835,0.05,0.02,0.005,-0.22406838778073374,-0.0018510302464973848,-0.004481367755614675,-1.9780014275280337e-06,-0.006334376003539588,0.028617065969050465,0.0,-0.028617065969050465,-0.041315927625318105,0.0,0.041315927625318105,-0.946590579963951,0.0,0.946590579963951,-0.037020604929947694,0,0.037020604929947694,-0.0011033643137456132,0.000890367661239483,0.006334376003539588,0.4,0.03345155715942383,2.3043954372406006,STABILIZE
0.03,0.005,0.05,-0.2483567784033869,-0.0012172885449911472,-0.0012417838920169345,0.0015713380902031345,-0.0008877343468049472,0.03,0.005,0.05,-0.09748802939027545,0.0008682680896404644,-0.0004874401469513773,-0.0009163055190804861,-0.000535477576391399,0.002,8e-05,0,-1.8489929383316566,-0.0018976952236911078,-0.00014791943506653254,0.0,-0.0020456146587576403,0.05,0.02,0.005,-0.22526106815367825,-0.0017817073380736383,-0.004505221363073565,9.011641747987516e-05,-0.006196812283667329,0.02894226965468215,0.0,-0.02894226965468215,-0.04057628483303824,0.0,0.04057628483303824,-0.9488476118455539,0.0,0.9488476118455539,-0.035634146761472765,0,0.035634146761472765,-0.0008880672063709857,0.0005349253614137637,0.006196812283667329,0.4,0.03347015380859375,2.337841510772705,STABILIZE
0.03,0.005,0.05,-0.24971153416554034,-0.0012155428220671403,-0.0012485576708277017,0.0016204340285650395,-0.0008436664643298025,0.03,0.005,0.05,-0.09648295183590802,0.0009017970921121332,-0.0004824147591795401,-0.0004001928032628282,1.9189529669764885e-05,0.002,8e-05,0,-1.8817223044343057,-0.0019577426007102955,-0.00015053778435474447,-0.0,-0.00210828038506504,0.05,0.02,0.005,-0.2264265497009931,-0.0017428636322835648,-0.004528530994019862,0.00016806880818002348,-0.006103325818123404,0.03005990307040444,0.0,-0.03005990307040444,-0.04051809406890468,0.0,0.04051809406890468,-0.9788713003551477,0.0,0.9788713003551477,-0.034857272645671296,0,0.034857272645671296,-0.000843654633787676,-1.9702790976895756e-05,0.006103325818123404,0.4,0.033435821533203125,2.3712918758392334,STABILIZE
0.03,0.005,0.05,-0.2512777286931268,-0.0012179276877511969,-0.001256388643465634,0.0008450988375574486,-0.0016292174936593821,0.03,0.005,0.05,-0.09568684211286961,0.000619082787672987,-0.00047843421056434804,-0.0039252200462713644,-0.0037845714691627256,0.002,8e-05,0,-1.9205326809882455,-0.0020120204884950953,-0.00015364261447905965,-0.0,-0.0021656631029741548,0.05,0.02,0.005,-0.22783898242316147,-0.0018305952092953729,-0.00455677964846323,8.819145621041559e-05,-0.006299183401548187,0.020636092922432903,0.0,-0.020636092922432903,-0.04059758959170656,0.0,0.04059758959170656,-1.0060102442475476,0.0,1.0060102442475476,-0.03661190418590746,0,0.03661190418590746,-0.0016316354955093718,0.0037835296294122184,0.006299183401548187,0.4,0.03857851028442383,2.409902334213257,STABILIZE
0.03,0.005,0.05,-0.2526587005731412,-0.0012389589910087521,-0.001263293502865706,0.0004390201188365881,-0.00206323237503787,0.03,0.005,0.05,-0.09507395470010979,0.0005498608490905345,-0.000475369773500549,-0.0034376695963431307,-0.003363178520753145,0.002,8e-05,0,-1.9538726117143521,-0.001994093557371469,-0.00015630980893714818,-0.0,-0.002150403366308617,0.05,0.02,0.005,-0.22900687412539356,-0.0017463183549036336,-0.004580137482507871,0.0001947805139237437,-0.0061316753234877605,0.018328694969684485,0.0,-0.018328694969684485,-0.04129863303362507,0.0,0.04129863303362507,-0.9970467786857345,0.0,0.9970467786857345,-0.03492636709807267,0,0.03492636709807267,-0.002065282118279274,0.003361920190571989,0.0061316753234877605,0.4,0.033438682556152344,2.443293809890747,STABILIZE
0.03,0.005,0.05,-0.2542255376081421,-0.0012696413985920508,-0.0012711276880407105,-0.00026811830815462673,-0.002808887394787388,0.03,0.005,0.05,-0.0941013855723126,0.0007880934647700518,-0.000470506927861563,-0.0005564315139045489,-0.00023884497699606016,0.002,8e-05,0,-1.9900772099874569,-0.0019558237715046273,-0.00015920617679899657,-0.0,-0.002115029948303624,0.05,0.02,0.005,-0.23002406737295783,-0.0013737555646889383,-0.004600481347459157,0.0002708469134755984,-0.005703389998672498,0.026269782159001727,0.0,-0.026269782159001727,-0.04232137995306836,0.0,0.04232137995306836,-0.9779118857523136,0.0,0.9779118857523136,-0.027475111293778765,0,0.027475111293778765,-0.002809001605438545,0.00023749800057138446,0.005703389998672498,0.4,0.03702235221862793,2.4803476333618164,STABILIZE
0.03,0.005,0.05,-0.2557092534912547,-0.0012819354132047613,-0.0012785462674562735,-0.0006071270749743469,-0.0031676087556353817,0.03,0.005,0.05,-0.09333513825358378,0.000662040208864673,-0.0004666756912679189,-0.0018637096787824988,-0.0016683451611857448,0.002,8e-05,0,-2.0238892273066758,-0.0019475796270136889,-0.00016191113818453406,-0.0,-0.002109490765198223,0.05,0.02,0.005,-0.23089016539957377,-0.001247185915963676,-0.004617803307991475,0.00030232759257338134,-0.00556266163138177,0.022068006962155766,0.0,-0.022068006962155766,-0.04273118044015871,0.0,0.04273118044015871,-0.9737898135068445,0.0,0.9737898135068445,-0.02494371831927352,0,0.02494371831927352,-0.0031683347695211257,0.001666965984617963,0.00556266163138177,0.4,0.034722089767456055,2.515031576156616,STABILIZE
0.03,0.005,0.05,-0.25724884215221794,-0.001285544220916344,-0.0012862442107610898,-0.0006580121892964786,-0.003229800620973912,0.03,0.005,0.05,-0.09265898990762006,0.0005645784622055831,-0.00046329494953810033,-0.00310219173339326,-0.003000908220725777,0.002,8e-05,0,-2.0588575169057157,-0.0019465494799218474,-0.00016470860135245726,0.0,-0.0021112580812743045,0.05,0.02,0.005,-0.23157259504696118,-0.0009497054977788293,-0.004631451900939223,0.0004446886548015119,-0.005136468743916541,0.018819282073519437,0.0,-0.018819282073519437,-0.0428514740305448,0.0,0.0428514740305448,-0.9732747399609236,0.0,0.9732747399609236,-0.018994109955576585,0,0.018994109955576585,-0.0032307952738358805,0.0029998373454277077,0.005136468743916541,0.4,0.03592848777770996,2.5510051250457764,STABILIZE
0.03,0.005,0.05,-0.25866625363882556,-0.0012716422467806462,-0.001293331268194128,-0.0004988252533708546,-0.003063798768345629,0.03,0.005,0.05,-0.09213436499613768,0.0004706715075036226,-0.0004606718249806884,-0.0015955345015845998,-0.0015855348190616657,0.002,8e-05,0,-2.0909248740547905,-0.0019179660236828106,-0.00016727398992438325,0.0,-0.002085240013607194,0.05,0.02,0.005,-0.23202418432525904,-0.000675244991665728,-0.004640483686505181,0.0006543270689463901,-0.004661401609224519,0.015689050250120753,0.0,-0.015689050250120753,-0.042388074892688206,0.0,0.042388074892688206,-0.9589830118414053,0.0,0.9589830118414053,-0.01350489983331456,0,0.01350489983331456,-0.0030641724016672828,0.001584812622436374,0.004661401609224519,0.4,0.033438920974731445,2.584425687789917,STABILIZE
