Mode,Time,Freq,time2delay,actualDelay,North-Desired,East-Desired,Down-Desired,Roll-UAV,Pitch-UAV,Yaw-UAV,Roll-Control,Pitch-Control,Yaw-Control,Thrust-Control,North-Pos,East-Pos,Down-Pos,Yaw-Ang,North-Vel,East-Vel,Down-Vel,Yaw-Vel,North-Acc,East-Acc,Down-Acc,North-Avg,East-Avg,Down-Avg,Yaw-Avg,North-Dif,East-Dif,Down-Dif,Yaw-Dif,North-One,East-One,Down-One,Yaw-One,North-Two,East-Two,Down-Two,Yaw-Two,Landing-State,Q-Size,Kalman-Time,Kalman-Dt
STABILIZE,0.034299612045288086,29.162551712150183,0.03282168706258138,0.03295111656188965,0.0,0.0,0.0,-1.308793164795027,-0.9741646949963543,46.97309605438861,-0.045299681800615575,0.04514087172352285,0.002951198465224387,0.4,0.0292123474465575,0.029285133823892553,0.03345446322368403,0.029317941070450056,-0.09330284083262086,0.013248695177026093,1.7651818692684174,-0.1263043917404047,-0.2970318542793393,-0.10693841613829136,23.730352520942688,0.0,0.0,0.0,0.0,0.0,0.0,0.0,0.0,0.0,0.0,0.0,0.0,0.0,0.0,0.0,0.0,False,0,0.058763742446899414,0.02993603515625
STABILIZE,0.06776785850524902,29.88183495650563,0.032369168599446614,0.0325014591217041,0.0,0.0,0.0,-1.3086177143107223,-0.9733203128602114,46.9753534319093,-0.039702849310974724,0.03926823271100811,0.005024053104335365,0.4,0.049909469862736526,0.05037639182304719,0.061189125726025126,0.049714020304497036,-0.012089044321328402,0.14354707673192024,1.7826033756136894,-0.18783456442507446,2.0798034965991974,0.31258019153028727,26.93917155265808,0.0,0.0,0.0,0.0,0.0,0.0,0.0,0.0,0.0,0.0,0.0,0.0,0.0,0.0,0.0,0.0,False,0,0.08718180656433105,0.034926025390625
STABILIZE,0.10120177268981934,29.907616833758787,0.03237799008687337,0.032511234283447266,0.0,0.0,0.0,-1.3095099077710552,-0.9726713381673544,46.97847141326541,-0.04928331985100648,0.04765370485597577,0.008913754111894488,0.4,0.0891458033436374,0.0919202656255396,0.12544982983412578,0.08802225162615847,-0.1236757030710578,0.16235958319157362,1.6667913645505905,-0.11517371803379622,-3.460928052663803,0.16652708873152733,22.156982123851776,0.0,0.0,0.0,0.0,0.0,0.0,0.0,0.0,0.0,0.0,0.0,0.0,0.0,0.0,0.0,0.0,False,0,0.14465808868408203,0.034926025390625
STABILIZE,0.13463306427001953,29.912735882696943,0.032413752873738606,0.03254079818725586,0.0,0.0,0.0,-1.3105456419256643,-0.9724331353200503,46.98125471535219,-0.04414135537749632,0.042970730967190146,0.010505509949474889,0.4,0.10492681427027661,0.10740344215579477,0.15734974422325285,0.10324895861779361,0.08112662471830845,-0.09134513675235212,1.7723117023706436,0.01984040553820444,4.545306414365768,-0.15126386424526572,24.408401548862457,0.0,0.0,0.0,0.0,0.0,0.0,0.0,0.0,0.0,0.0,0.0,0.0,0.0,0.0,0.0,0.0,False,0,0.17318391799926758,0.06475439453125
STABILIZE,0.16805410385131836,29.92041774264884,0.032430442174275716,0.03255033493041992,0.0,0.0,0.0,-1.3103888677398714,-0.9721828729199927,46.981626960661956,-0.047150652049976004,0.04624893338690803,0.013827032815036463,0.4,0.138315544214871,0.1403489874364543,0.22232146080776405,0.13555759440824136,0.08112662471830845,-0.09134513675235212,1.7723117023706436,0.01984040553820444,4.545306414365768,-0.15126386424526572,24.408401548862457,0.0,0.0,0.0,0.0,0.0,0.0,0.0,0.0,0.0,0.0,0.0,0.0,0.0,0.0,0.0,0.0,False,0,0.2022547721862793,0.06475439453125
STABILIZE,0.20156574249267578,29.8422898775516,0.032446893056233723,0.032578229904174805,0.0,0.0,0.0,-1.3092677562206372,-0.9711688032716574,46.98428731934368,-0.04747066182242561,0.04623913008724504,0.01665887304939206,0.4,0.16471805501349268,0.16766833641137613,0.2886256934949703,0.16278640819937262,-0.02624554035719484,0.044527321006171405,1.9782468676567078,0.12425501482428353,-1.275525614619255,-1.6060581430792809,29.554668068885803,0.0,0.0,0.0,0.0,0.0,0.0,0.0,0.0,0.0,0.0,0.0,0.0,0.0,0.0,0.0,0.0,False,0,0.23352432250976562,0.0399150390625
STABILIZE,0.2350761890411377,29.838256217631326,0.03237775166829427,0.03252911567687988,0.0,0.0,0.0,-1.3093523865333219,-0.9708812949962822,46.98544162131341,-0.04326060817059363,0.04279469755564905,0.01724828957936126,0.4,0.1728284168450131,0.1738818599603169,0.3203859307452521,0.16755938126811473,0.135139434132725,-0.04480060306377709,1.517023891210556,-0.16385586466263566,7.12427943944931,-0.0354175892425701,20.81887125968933,0.0,0.0,0.0,0.0,0.0,0.0,0.0,0.0,0.0,0.0,0.0,0.0,0.0,0.0,0.0,0.0,False,0,0.2592306137084961,0.024947021484375
STABILIZE,0.26853466033935547,29.890352971358936,0.03234437306722005,0.03251028060913086,0.0,0.0,0.0,-1.3101869502725327,-0.9706441593660358,46.98837860265652,-0.029587675946287726,0.03060727601580949,0.016859651238226327,0.4,0.17124899316551118,0.17016081914449738,0.33363059952971175,0.16258414292996398,0.135139434132725,-0.04480060306377709,1.517023891210556,-0.16385586466263566,7.12427943944931,-0.0354175892425701,20.81887125968933,0.0,0.0,0.0,0.0,0.0,0.0,0.0,0.0,0.0,0.0,0.0,0.0,0.0,0.0,0.0,0.0,False,0,0.28793787956237793,0.024947021484375
STABILIZE,0.3018991947174072,29.972373677102166,0.03234437306722005,0.03245258331298828,0.0,0.0,0.0,-1.3103204591264654,-0.9699927300739458,46.99020226316491,-0.025125570430793654,0.024860247397384162,0.017049161315250833,0.4,0.1680478917762554,0.17061943387592649,0.3739442805114609,0.16338773380933383,-0.051307055400684476,0.10959969367831945,1.586182415485382,-0.05206531141349732,-3.1075268983840942,0.09269529255107045,17.811939120292664,0.0,0.0,0.0,0.0,0.0,0.0,0.0,0.0,0.0,0.0,0.0,0.0,0.0,0.0,0.0,0.0,False,0,0.3463022708892822,0.069850830078125
STABILIZE,0.33537817001342773,29.868216226224302,0.03242305119832357,0.032547712326049805,0.0,0.0,0.0,-1.3106012439343764,-0.969392527200631,46.99158537647184,-0.020918627211315172,0.0179129000781288,0.018829108665427394,0.4,0.17703862162945289,0.1874769226157234,0.4414814411093,0.1799828855272051,-0.36873382050544024,0.15065796906128526,1.5968725085258484,0.18824851124137426,-4.220627620816231,2.309642545878887,27.204525470733643,0.0,0.0,0.0,0.0,0.0,0.0,0.0,0.0,0.0,0.0,0.0,0.0,0.0,0.0,0.0,0.0,False,0,0.3750600814819336,0.02993701171875
STABILIZE,0.3688664436340332,29.863962918396265,0.032395156224568684,0.03253602981567383,0.0,0.0,0.0,-1.3109264249718924,-0.9685908337468008,46.99462139555791,-0.011325819305914281,0.00809760076144776,0.01859969085512634,0.4,0.17109220709915082,0.18319735172890758,0.46043642867793205,0.17650767304022888,-0.08727314416319132,0.021151303371880203,1.7877181991934776,0.06396945068275685,-5.866823345422745,2.000531926751137,25.990968942642212,0.0,0.0,0.0,0.0,0.0,0.0,0.0,0.0,0.0,0.0,0.0,0.0,0.0,0.0,0.0,0.0,False,0,0.404249906539917,0.0399150390625
STABILIZE,0.40235209465026855,29.862474546826718,0.032350810368855794,0.032581329345703125,0.0,0.0,0.0,-1.3103732863708273,-0.9687161250293881,46.99629820699914,-0.010372833070750159,0.003907572348631099,0.018532893913892796,0.4,0.16569791562475167,0.18585730685504143,0.49474533467609016,0.17466788947035305,-0.23303094785660505,0.2534231171011925,1.996368169784546,-0.03994676156721626,-4.91800457239151,2.2697169333696365,25.89353919029236,0.0,0.0,0.0,0.0,0.0,0.0,0.0,0.0,0.0,0.0,0.0,0.0,0.0,0.0,0.0,0.0,False,0,0.43294334411621094,0.02993603515625
STABILIZE,0.43587160110473633,29.830616483172598,0.03242972691853841,0.03270125389099121,0.0,0.0,0.0,-1.3098149184061787,-0.9675067546594728,46.99972013177332,-0.011066888064132373,0.001447163451901729,0.01807332992961203,0.4,0.1568118841227535,0.18453371657014894,0.5158488136118958,0.16893772611504532,-0.23303094785660505,0.2534231171011925,1.996368169784546,-0.03994676156721626,-4.91800457239151,2.2697169333696365,25.89353919029236,0.0,0.0,0.0,0.0,0.0,0.0,0.0,0.0,0.0,0.0,0.0,0.0,0.0,0.0,0.0,0.0,False,0,0.4616515636444092,0.02993603515625
STABILIZE,0.46943116188049316,29.798402910000284,0.032511266072591145,0.03269481658935547,0.0,0.0,0.0,-1.3105816071405125,-0.9675507240022547,47.00161209417342,-0.009971300493439677,8.79765633874496e-05,0.017511753165218323,0.4,0.14976769670698525,0.18157829627087996,0.5300487832297158,0.1622338251434014,-0.11947527527809143,0.1458325539715588,1.5698403120040894,-0.10459211416322008,0.20203636959195137,0.08744012448005378,24.290871620178223,0.0,0.0,0.0,0.0,0.0,0.0,0.0,0.0,0.0,0.0,0.0,0.0,0.0,0.0,0.0,0.0,False,0,0.49038124084472656,0.02993701171875
STABILIZE,0.5029051303863525,29.873109028232815,0.032460959752400716,0.03258037567138672,0.0,0.0,0.0,-1.3115358059119044,-0.9674180689219684,47.002950811250734,-0.002010165479018449,-0.0076789209373295565,0.016578658872100832,0.4,0.1344337767457301,0.17280944933338616,0.5687969061291165,0.15188766966113765,-0.1662168768234551,-0.07735990802757442,1.7334233969449997,0.0220324060089426,-2.4921853095293045,-0.15891699586063623,18.996337056159973,0.0,0.0,0.0,0.0,0.0,0.0,0.0,0.0,0.0,0.0,0.0,0.0,0.0,0.0,0.0,0.0,False,0,0.5481164455413818,0.034925048828125
STABILIZE,0.5394582748413086,27.359212028309578,0.03242328961690267,0.03557920455932617,0.0,0.0,0.0,-1.3108381661212112,-0.966608157896793,47.005846811458824,-0.002819895420574726,-0.008090864490821166,0.016208198775635233,0.4,0.1272797702028739,0.17119050097196759,0.5864052381011169,0.1471093186528269,-0.17427857965230942,0.1569128013215959,1.4939259737730026,-0.041204069993347345,-3.6206889897584915,2.009757049381733,21.03552520275116,0.0,0.0,0.0,0.0,0.0,0.0,0.0,0.0,0.0,0.0,0.0,0.0,0.0,0.0,0.0,0.0,False,0,0.5765399932861328,0.029936767578125
STABILIZE,0.5732600688934326,29.583811196456406,0.03233960469563802,0.032828330993652344,0.0,0.0,0.0,-1.3103906820088695,-0.967189684471596,47.00767047196722,-0.000853884981945059,-0.0088396986711626,0.015922310951250535,0.4,0.12007825490058242,0.1675630122487782,0.6039755173331787,0.14328170899434714,-0.14079974498599768,0.11378071503713727,1.9317824393510818,0.07821475068185064,3.1018923968076706,0.2691454254090786,30.102866888046265,0.0,0.0,0.0,0.0,0.0,0.0,0.0,0.0,0.0,0.0,0.0,0.0,0.0,0.0,0.0,0.0,False,0,0.6050782203674316,0.03492626953125
STABILIZE,0.606673002243042,29.92981204241533,0.032290013631184895,0.03242039680480957,0.0,0.0,0.0,-1.3094441672002939,-0.9683282983505783,47.01066892501285,-6.368836063248971e-05,-0.008270592292160022,0.015639769392097,0.4,0.11379621422199279,0.16392915224944474,0.6244581416857355,0.139523066835015,-0.11855997145175934,0.0420413474785164,1.7495522275567055,0.027255042789716077,-5.32645657658577,-0.0533236307092011,25.524452328681946,0.0,0.0,0.0,0.0,0.0,0.0,0.0,0.0,0.0,0.0,0.0,0.0,0.0,0.0,0.0,0.0,False,0,0.6337175369262695,0.034925048828125
STABILIZE,0.6401271820068359,29.890352971358936,0.03238871892293294,0.032506704330444336,0.0,0.0,0.0,-1.3100919679543872,-0.969105872698902,47.01242428362954,0.0002977515850979922,-0.008257958106476683,0.015346275866625712,0.4,0.10748939777719897,0.16012693906438516,0.644047918143872,0.13568067031001638,-0.11855997145175934,0.0420413474785164,1.7495522275567055,0.027255042789716077,-5.32645657658577,-0.0533236307092011,25.524452328681946,0.0,0.0,0.0,0.0,0.0,0.0,0.0,0.0,0.0,0.0,0.0,0.0,0.0,0.0,0.0,0.0,False,0,0.6624908447265625,0.034925048828125
STABILIZE,0.6736240386962891,29.852697508896796,0.03235891660054525,0.032640933990478516,0.0,0.0,0.0,-1.3099237745460757,-0.969486228858307,47.01370152900434,0.0007670336611943877,-0.007234691988155442,0.014155691654406508,0.4,0.09672677611347225,0.150745551115784,0.6764589391817475,0.12294921108424056,-0.14388597337529063,0.0632958603091538,1.9868150353431702,-0.2280528660324384,0.43573370203375816,-0.11927232844755054,23.38850498199463,0.0,0.0,0.0,0.0,0.0,0.0,0.0,0.0,0.0,0.0,0.0,0.0,0.0,0.0,0.0,0.0,False,0,0.719841480255127,0.03492626953125
STABILIZE,0.7071545124053955,29.8244650970967,0.032496007283528645,0.03262972831726074,0.0,0.0,0.0,-1.3100170493169288,-0.9688479263360282,47.01620479333515,0.0009468334587829303,-0.007380832740559052,0.013607457706428202,0.4,0.09036816235478094,0.14880121713316258,0.6911697950564725,0.11668556342141866,-0.13391042593866587,0.1638464629650116,1.5812914818525314,-0.11572560265481854,-2.426796406507492,0.002417116775177419,21.04470133781433,0.0,0.0,0.0,0.0,0.0,0.0,0.0,0.0,0.0,0.0,0.0,0.0,0.0,0.0,0.0,0.0,False,0,0.7484574317932129,0.034925048828125
STABILIZE,0.7406766414642334,29.830828645192494,0.0324130376180013,0.03255414962768555,0.0,0.0,0.0,-1.3098624095652514,-0.968302578419485,47.01848949161251,0.002743903197700641,-0.00671379204559788,0.013264691009057252,0.4,0.08593159754768791,0.1401281347240406,0.7073334999368602,0.11250495114815542,-0.02186114725191146,-0.2380132908001542,1.7247576266527176,0.010670729835116874,-0.5289589986205101,-0.035863035009242594,30.99644184112549,0.0,0.0,0.0,0.0,0.0,0.0,0.0,0.0,0.0,0.0,0.0,0.0,0.0,0.0,0.0,0.0,False,0,0.777163028717041,0.029936767578125
STABILIZE,0.7743098735809326,29.730601019301517,0.0323217233022054,0.0327916145324707,0.0,0.0,0.0,-1.3119800883730728,-0.9692979717693087,47.02211290696721,0.0017271404549914443,-0.005901496120277133,0.012924620806695961,0.4,0.08267677168258193,0.13983997099830303,0.7198411209183891,0.10837245989712876,0.04552961036097258,0.30427107121795416,1.9162103533744812,0.029182730280819948,4.177028685808182,2.427736483514309,32.92917609214783,0.0,0.0,0.0,0.0,0.0,0.0,0.0,0.0,0.0,0.0,0.0,0.0,0.0,0.0,0.0,0.0,False,0,0.8059313297271729,0.034926025390625
STABILIZE,0.807786226272583,29.87183249056335,0.032518657048543294,0.03263258934020996,0.0,0.0,0.0,-1.3118298242113324,-0.9691622217595546,47.02364628443588,0.00041956954959782174,-0.005020620780021528,0.012624431595656547,0.4,0.07963463906513274,0.14027455837630898,0.7380585080178542,0.10467029590056098,0.04552961036097258,0.30427107121795416,1.9162103533744812,0.029182730280819948,4.177028685808182,2.427736483514309,32.92917609214783,0.0,0.0,0.0,0.0,0.0,0.0,0.0,0.0,0.0,0.0,0.0,0.0,0.0,0.0,0.0,0.0,False,0,0.834547758102417,0.034926025390625
STABILIZE,0.8413877487182617,29.764357742500906,0.032482179005940755,0.03258824348449707,0.0,0.0,0.0,-1.3117241697226087,-0.969452077912457,47.02488937886482,-0.0014718632799114821,-0.0030258981864603957,0.012325480431235462,0.4,0.0759812690728769,0.1374913405081769,0.7552410885084682,0.10100510091946786,0.0019071565475314856,0.10892730206251144,1.9023757427930832,0.02805058974030397,3.6098435521125793,0.01467973634134978,22.20376282930374,0.0,0.0,0.0,0.0,0.0,0.0,0.0,0.0,0.0,0.0,0.0,0.0,0.0,0.0,0.0,0.0,False,0,0.8631985187530518,0.0399150390625
STABILIZE,0.8746519088745117,30.059153617371987,0.031972678502400716,0.03215217590332031,0.0,0.0,0.0,-1.3114805240683098,-0.9687769564016836,47.02826349231481,-0.0005196757953885767,-0.002767139380447988,0.01172096514352704,0.4,0.0710259380637922,0.1328301548867001,0.7697493310027144,0.09432858605058893,-0.08097384124994278,-0.032761378679424524,1.4420399442315102,-0.1638998740260573,-1.6084246337413788,-0.1580900396220386,21.254566311836243,0.0,0.0,0.0,0.0,0.0,0.0,0.0,0.0,0.0,0.0,0.0,0.0,0.0,0.0,0.0,0.0,False,1,0.8925504684448242,0.024947021484375
STABILIZE,0.9082052707672119,29.80433176055938,0.03254845937093099,0.03267025947570801,0.0,0.0,0.0,-1.3118347334097984,-0.968872899215181,47.03052428493008,-2.9621105573336955e-05,-0.0038938560415545877,0.011026931131002327,0.4,0.06364600956582236,0.12354161574972847,0.7802908764233415,0.08680735762860364,0.09950014064088464,0.03447456983849406,1.7149895429611206,0.016574020980097904,3.1685087829828262,-0.04784683114849031,24.73841905593872,0.0,0.0,0.0,0.0,0.0,0.0,0.0,0.0,0.0,0.0,0.0,0.0,0.0,0.0,0.0,0.0,False,0,0.9499392509460449,0.0349267578125
STABILIZE,0.941641092300415,29.907616833758787,0.03242472012837728,0.032547712326049805,0.0,0.0,0.0,-1.310267952047221,-0.96974748359406,47.033003643598796,0.0014957192513728084,-0.004589980109210711,0.010740065942613388,0.4,0.05863770168929333,0.11866037663525188,0.7912725682680424,0.08338075517574843,-0.10601188987493515,-0.02142437733709812,1.6921082511544228,0.022655470672667842,-0.28163264505565166,-0.09776115184649825,21.843576431274414,0.0,0.0,0.0,0.0,0.0,0.0,0.0,0.0,0.0,0.0,0.0,0.0,0.0,0.0,0.0,0.0,False,0,0.9787094593048096,0.029936279296875
STABILIZE,0.9750401973724365,29.940708274143926,0.03244021733601888,0.03255867958068848,0.0,0.0,0.0,-1.3105858760087439,-0.9699143963419022,47.035489832456676,0.0029238472687725513,-0.004595723261932829,0.010452182605800494,0.4,0.055864532137096495,0.11471602443683654,0.7928309406120704,0.07996713412442738,0.015242538938764483,0.05148181808181107,1.5078112483024597,0.021678915371441343,1.8362918868660927,-0.03939579473808408,21.985509991645813,0.0,0.0,0.0,0.0,0.0,0.0,0.0,0.0,0.0,0.0,0.0,0.0,0.0,0.0,0.0,0.0,False,0,1.0073909759521484,0.0349248046875
STABILIZE,1.008498191833496,29.88886196821777,0.0324886163075765,0.032613515853881836,0.0,0.0,0.0,-1.3114574721798609,-0.9700413951717822,47.0374193608972,0.003648331553129102,-0.004058962883403311,0.010209084521041878,0.4,0.05417243178287308,0.10999943371119007,0.7995683149749571,0.07702117713601618,0.07732445374131203,-0.020636255794670433,1.494169421494007,0.03780953934702373,2.1199041977524757,1.7349790781736374,22.270169854164124,0.0,0.0,0.0,0.0,0.0,0.0,0.0,0.0,0.0,0.0,0.0,0.0,0.0,0.0,0.0,0.0,False,0,1.0360503196716309,0.034926025390625
STABILIZE,1.0420379638671875,29.817044388204852,0.032473357518514,0.032605648040771484,0.0,0.0,0.0,-1.3113756166315267,-0.9694473821574027,47.04012411580853,0.0028303417995014404,-0.004095124990080998,0.010153215660760192,0.4,0.049607126379517065,0.1082231874219897,0.8097252146717399,0.07595413613206214,-0.10151640744879842,0.1520710764452815,1.7405671998858452,0.14371526430628123,1.8391318619251251,1.6841985285282135,20.839251577854156,0.0,0.0,0.0,0.0,0.0,0.0,0.0,0.0,0.0,0.0,0.0,0.0,0.0,0.0,0.0,0.0,False,0,1.0647964477539062,0.034926025390625
STABILIZE,1.0755763053894043,29.815348744633056,0.03238108952840169,0.03269147872924805,0.0,0.0,0.0,-1.3110796773413946,-0.9692024558426342,47.04167798384471,0.0005964920426364132,-0.0033743268134236166,0.010109089233331627,0.4,0.04512784289098639,0.10653552055552883,0.8192610719786403,0.07500866915420522,-0.10151640744879842,0.1520710764452815,1.7405671998858452,0.14371526430628123,1.8391318619251251,1.6841985285282135,20.839251577854156,0.0,0.0,0.0,0.0,0.0,0.0,0.0,0.0,0.0,0.0,0.0,0.0,0.0,0.0,0.0,0.0,False,0,1.094693899154663,0.034926025390625
STABILIZE,1.109070062637329,29.856097491529283,0.03247836430867513,0.032598257064819336,0.0,0.0,0.0,-1.3115832970709773,-0.9690259381412717,47.045455078455724,0.00116001387343658,-0.004769324299933363,0.010078836391236228,0.4,0.03644911870858428,0.10043533214974824,0.8272823756296807,0.0742097569671683,-0.04660716513171792,0.06193467997945845,1.5454549342393875,0.2570911751649096,1.79233830422163,-0.5396312102675438,17.215265333652496,0.0,0.0,0.0,0.0,0.0,0.0,0.0,0.0,0.0,0.0,0.0,0.0,0.0,0.0,0.0,0.0,False,0,1.15458345413208,0.034925048828125
STABILIZE,1.1425902843475342,29.83231386383681,0.0324280579884847,0.032561540603637695,0.0,0.0,0.0,-1.312202709851333,-0.9694284924154793,47.046913323843526,0.0009468597086071622,-0.005010952779486158,0.010258821869782489,0.4,0.03322269540777843,0.0974905052906205,0.832286832339967,0.07550386612303889,-0.04660716513171792,0.06193467997945845,1.5454549342393875,0.2570911751649096,1.79233830422163,-0.5396312102675438,17.215265333652496,0.0,0.0,0.0,0.0,0.0,0.0,0.0,0.0,0.0,0.0,0.0,0.0,0.0,0.0,0.0,0.0,False,0,1.1833298206329346,0.034925048828125
STABILIZE,1.1759624481201172,29.964236981789867,0.03235581715901693,0.03245973587036133,0.0,0.0,0.0,-1.3111841578913546,-0.9701708486008951,47.04904092776999,0.0005720060433285451,-0.005746744964931023,0.010170508761667241,0.4,0.029496698713597287,0.09434878008628189,0.8347289106150968,0.07412574386232634,-0.08330562268383801,0.046423112507909536,1.4279074035584927,0.09300549864908682,-2.5285443291068077,-0.42279791086912155,19.002771377563477,0.0,0.0,0.0,0.0,0.0,0.0,0.0,0.0,0.0,0.0,0.0,0.0,0.0,0.0,0.0,0.0,False,0,1.2120609283447266,0.034923828125
STABILIZE,1.2094323635101318,29.878003433513083,0.03241470654805501,0.0325465202331543,0.0,0.0,0.0,-1.3116164875214753,-0.9693675543214781,47.054020135674925,0.001747729886903866,-0.0051976436378244235,0.010266838218634226,0.4,0.02703721387395983,0.0891910119546254,0.8444050153973456,0.0745899161881855,-0.015358674863819033,-0.07625803700648248,1.8869070336222649,0.1984210508136901,-1.349353976547718,-0.2814638428390026,26.358118653297424,0.0,0.0,0.0,0.0,0.0,0.0,0.0,0.0,0.0,0.0,0.0,0.0,0.0,0.0,0.0,0.0,False,0,1.240774154663086,0.02993701171875
STABILIZE,1.2429111003875732,29.87013061003575,0.03239920934041341,0.03254079818725586,0.0,0.0,0.0,-1.3111365600105762,-0.969175668694483,47.05618530564182,0.0029650440868907325,-0.004561897573130462,0.010347773066139808,0.4,0.02493225206739765,0.08399631341188432,0.8485796878810354,0.07489804129888768,-0.015358674863819033,-0.07625803700648248,1.8869070336222649,0.1984210508136901,-1.349353976547718,-0.2814638428390026,26.358118653297424,0.0,0.0,0.0,0.0,0.0,0.0,0.0,0.0,0.0,0.0,0.0,0.0,0.0,0.0,0.0,0.0,False,0,1.2694075107574463,0.02993701171875
STABILIZE,1.2762916088104248,29.95888630162426,0.032382996877034505,0.03249216079711914,0.0,0.0,0.0,-1.3116656862278406,-0.9679325742655407,47.06013315498208,0.0011593399791612923,-0.002840386875457494,0.01024427927846959,0.4,0.02231577287913631,0.08389281683984535,0.8448661784133228,0.07337286337336028,-0.05284242215566337,0.21958374418318272,1.4109071344137192,0.08521493418896002,-0.6649638526141644,-0.4720838274806738,16.91739857196808,0.0,0.0,0.0,0.0,0.0,0.0,0.0,0.0,0.0,0.0,0.0,0.0,0.0,0.0,0.0,0.0,False,0,1.2989552021026611,0.06985107421875
STABILIZE,1.3101646900177002,29.52404550061944,0.032430442174275716,0.03285527229309082,0.0,0.0,0.0,-1.311643914999861,-0.9680220070549856,47.06238028721902,0.001328865961431721,-0.002670810609192351,0.009676346160313858,0.4,0.019908630190861178,0.08068338571119679,0.8862295542637786,0.06723950127103566,0.05633783293887973,-0.01665430754655972,1.7513539642095566,-0.2668981528742843,6.386371701955795,-0.23617660626769066,29.559150338172913,0.0,0.0,0.0,0.0,0.0,0.0,0.0,0.0,0.0,0.0,0.0,0.0,0.0,0.0,0.0,0.0,False,1,1.3275682926177979,0.02993701171875
STABILIZE,1.3435218334197998,29.97494407798352,0.032277615865071614,0.032404422760009766,0.0,0.0,0.0,-1.3110988872484353,-0.9680452723868459,47.06398538167397,0.0023018092668067483,-0.0051905116887552396,0.00915896655102146,0.4,0.009013951882480959,0.07492177830918645,0.8858760949862089,0.06165321421482045,-0.21979992743581533,0.048318610060960054,1.7003227025270462,0.013569538158085655,-4.413197189569473,1.5284102410078049,22.433701157569885,0.0,0.0,0.0,0.0,0.0,0.0,0.0,0.0,0.0,0.0,0.0,0.0,0.0,0.0,0.0,0.0,False,0,1.3849761486053467,0.034926025390625
STABILIZE,1.376997470855713,29.87289626437805,0.03239897092183431,0.03252816200256348,0.0,0.0,0.0,-1.3101689143042556,-0.9692021356775169,47.06818594801353,0.00182824207683828,-0.0054017339905688255,0.00893687288255527,0.4,0.0061791785276233725,0.07168802253053135,0.8893659345415968,0.059037355537904755,-0.07654367364011705,0.016197300283238292,1.7647631466388702,0.013217216456768034,-1.257900521159172,-0.30577913857996464,26.774752140045166,0.0,0.0,0.0,0.0,0.0,0.0,0.0,0.0,0.0,0.0,0.0,0.0,0.0,0.0,0.0,0.0,False,0,1.4136998653411865,0.064862060546875
STABILIZE,1.4104304313659668,29.91060273269247,0.03236964543660482,0.03250718116760254,0.0,0.0,0.0,-1.310842221546031,-0.9690783384988104,47.070265740615795,0.001407863312663266,-0.005993698138576925,0.008650257992958335,0.4,0.00252200438354091,0.06826358570771425,0.9207352631950123,0.055797795586400606,-0.02642175240907818,-0.0073412425990682095,1.719513162970543,-0.03378242245978719,1.4228587038815022,-0.4329249728471041,21.71129286289215,0.0,0.0,0.0,0.0,0.0,0.0,0.0,0.0,0.0,0.0,0.0,0.0,0.0,0.0,0.0,0.0,False,0,1.4422354698181152,0.034926025390625
STABILIZE,1.444025993347168,29.765413875326445,0.0323973019917806,0.0327305793762207,0.0,0.0,0.0,-1.3108932345213944,-0.969038958189377,47.07280657098704,0.0018678847971916968,-0.006386114712955127,0.008419805170810485,0.4,-0.0010160145267380039,0.0667526394259158,0.9191190945227959,0.053135853931696134,-0.13033469440415502,0.10427550878375769,1.6855468973517418,0.011187989932719725,-5.01016192138195,1.5966253355145454,21.746741235256195,0.0,0.0,0.0,0.0,0.0,0.0,0.0,0.0,0.0,0.0,0.0,0.0,0.0,0.0,0.0,0.0,False,0,1.4778308868408203,0.0349248046875
STABILIZE,1.4775822162628174,29.803061093978712,0.03246143658955892,0.03259420394897461,0.0,0.0,0.0,-1.311100488074022,-0.9694240101038365,47.07437068430698,0.0013669066824941493,-0.006811560146358917,0.008199002759719338,0.4,-0.004425847640746952,0.06537185418151839,0.9176154818629211,0.05058886556722036,-0.13033469440415502,0.10427550878375769,1.6855468973517418,0.011187989932719725,-5.01016192138195,1.5966253355145454,21.746741235256195,0.0,0.0,0.0,0.0,0.0,0.0,0.0,0.0,0.0,0.0,0.0,0.0,0.0,0.0,0.0,0.0,False,0,1.5066661834716797,0.0349248046875
STABILIZE,1.5109291076660156,29.98480136687613,0.03234246571858724,0.03245353698730469,0.0,0.0,0.0,-1.3106372091492247,-0.9695802506811005,47.075743552330145,0.0004139187624727004,-0.004343387185001317,0.008241750731434542,0.4,-0.00677793477488853,0.06303346228990149,0.9140933591188662,0.050677852879335815,-0.08182167657651007,0.04814447893295437,1.575632020831108,0.14299596000931425,-0.3855390241369605,1.588701643049717,21.749447286128998,0.0,0.0,0.0,0.0,0.0,0.0,0.0,0.0,0.0,0.0,0.0,0.0,0.0,0.0,0.0,0.0,False,0,1.5392565727233887,0.02993701171875
STABILIZE,1.5445053577423096,29.787609990980563,0.032446893056233723,0.032563209533691406,0.0,0.0,0.0,-1.3131084569683,-0.9697623179111637,47.07875566575412,0.0001962113714162042,-0.005039633081342823,0.0078321475205574,0.4,-0.011393075687436426,0.06076115892256155,0.9071006048518829,0.04627235682107765,-0.2272705314680934,0.04763773758895695,1.6332544386386871,-0.09842091818619456,-6.513018906116486,-0.5644913762807846,17.269569635391235,0.0,0.0,0.0,0.0,0.0,0.0,0.0,0.0,0.0,0.0,0.0,0.0,0.0,0.0,0.0,0.0,True,0,1.5648019313812256,0.034926025390625
STABILIZE,1.577836036682129,29.999814034661078,0.03229478200276693,0.03241586685180664,0.0,0.0,0.0,-1.3133050383503495,-0.9698707471642376,47.08103353384232,0.0012567381589312903,-0.005621903271629647,0.007474716598956723,0.4,-0.016401225100733073,0.054496860548971404,0.906019088730469,0.042414441557617,-0.2036970341578126,0.030906428582966328,1.6594745218753815,-0.03944818443823177,-2.8873931616544724,-0.1524616382084787,30.401763319969177,0.0,0.0,0.0,0.0,0.0,0.0,0.0,0.0,0.0,0.0,0.0,0.0,0.0,0.0,0.0,0.0,True,0,1.6223053932189941,0.02993603515625
STABILIZE,1.6122701168060303,29.039991137698017,0.03241542180379232,0.033596038818359375,0.0,0.0,0.0,-1.3131875377522841,-0.9701471563822116,47.08514189262809,0.0016187691775920556,-0.004875175557927325,0.007669454431159065,0.4,-0.0173330028495684,0.05196960461803217,0.8955961039155282,0.044057688401482546,-0.04985926207154989,0.012862775474786758,1.4046696946024895,0.21111228934351428,-1.4152022078633308,-0.47759278677403927,18.33200603723526,0.0,0.0,0.0,0.0,0.0,0.0,0.0,0.0,0.0,0.0,0.0,0.0,0.0,0.0,0.0,0.0,True,0,1.6509764194488525,0.03492578125
STABILIZE,1.645799160003662,29.82361682914169,0.0324886163075765,0.03261137008666992,0.0,0.0,0.0,-1.3141738597571162,-0.9704346646575868,47.0872353456087,0.0014264358328078715,-0.004363722626691301,0.007643486315037156,0.4,-0.018838853612559835,0.051284607387902977,0.8990068651231561,0.04350704565710427,-0.06436029798351228,0.10786557104438543,1.884685829281807,0.08663761456830607,1.8870877102017403,1.7732514068484306,27.701985836029053,0.0,0.0,0.0,0.0,0.0,0.0,0.0,0.0,0.0,0.0,0.0,0.0,0.0,0.0,0.0,0.0,True,0,1.679687738418579,0.03492626953125
STABILIZE,1.679262399673462,29.885454519544552,0.03240016301472982,0.0325322151184082,0.0,0.0,0.0,-1.3139055613887816,-0.9701578285527898,47.08902144007666,0.0014160680893108752,-0.003664093409156913,0.007289263946895833,0.4,-0.018843074026556227,0.0491918961749037,0.8973990011461377,0.03969921617684778,0.012827262980863452,0.0247783464146778,1.608024723827839,-0.09721341544613035,3.5230226814746857,-0.27764942497015,27.315929532051086,0.0,0.0,0.0,0.0,0.0,0.0,0.0,0.0,0.0,0.0,0.0,0.0,0.0,0.0,0.0,0.0,True,0,1.708350658416748,0.02993603515625
STABILIZE,1.712695837020874,29.908256619057465,0.032392056783040364,0.03251242637634277,0.0,0.0,0.0,-1.3141692707237675,-0.9711894005608732,47.09210185539233,0.0013969171820860141,-0.0021515418550320958,0.006942544599912398,0.4,-0.018437192703153252,0.047187869828218404,0.8913048532708949,0.03599132222726668,0.012827262980863452,0.0247783464146778,1.608024723827839,-0.09721341544613035,3.5230226814746857,-0.27764942497015,27.315929532051086,0.0,0.0,0.0,0.0,0.0,0.0,0.0,0.0,0.0,0.0,0.0,0.0,0.0,0.0,0.0,0.0,True,0,1.7371563911437988,0.02993603515625
STABILIZE,1.7461202144622803,29.919564007818185,0.0323674996693929,0.032479047775268555,0.0,0.0,0.0,-1.3149988185428068,-0.9702074541459781,47.09410651591373,0.0005326736798416983,-0.0019269490623010548,0.006711384959475172,0.4,-0.02223583894596329,0.04414361368493834,0.8828461698587289,0.03345600956175156,-0.22830066736787558,-0.04084975807927549,1.4426523819565773,-0.03853507352356569,-2.501983195543289,-0.5779500119388103,18.03336590528488,0.0,0.0,0.0,0.0,0.0,0.0,0.0,0.0,0.0,0.0,0.0,0.0,0.0,0.0,0.0,0.0,True,0,1.76591157913208,0.03492578125
STABILIZE,1.7795560359954834,29.907616833758787,0.03241017659505208,0.03252553939819336,0.0,0.0,0.0,-1.3148405502531328,-0.9713790450320469,47.09682493120339,0.001099862313228447,-0.0032532382355772763,0.006773634539371845,0.4,-0.027000142226145107,0.04023739449747281,0.8822201885747359,0.033852196343765795,-0.2480276394635439,0.02735102898441255,1.6206709668040276,-0.039879526892573944,-6.897230446338654,-0.363728916272521,25.327184796333313,0.0,0.0,0.0,0.0,0.0,0.0,0.0,0.0,0.0,0.0,0.0,0.0,0.0,0.0,0.0,0.0,True,0,1.8232169151306152,0.02993603515625
STABILIZE,1.8130285739898682,29.874811248183708,0.032404454549153645,0.032521724700927734,0.0,0.0,0.0,-1.3152989199794642,-0.9715073245223962,47.0988739879544,0.0005863429736680982,-0.0030119082217429567,0.007217941801112961,0.4,-0.02761123051125958,0.04114107337440584,0.8721556053662624,0.03804084908830761,-0.06072318064980209,0.1709271688014269,1.3195241801440716,0.3399858460680487,-1.2807154096662998,1.4153840951621532,17.47909039258957,0.0,0.0,0.0,0.0,0.0,0.0,0.0,0.0,0.0,0.0,0.0,0.0,0.0,0.0,0.0,0.0,True,0,1.8519058227539062,0.034926025390625
STABILIZE,1.8465886116027832,29.800308354707383,0.03237489064534505,0.03248786926269531,0.0,0.0,0.0,-1.3156150296719888,-0.9701527059109122,47.09986436538405,9.029497413465314e-05,-0.0026355104191417627,0.007229231417073155,0.4,-0.02647378839276001,0.04073207366437638,0.8728135448994364,0.03790022252203849,0.05880602402612567,0.0905425928067416,1.6676215454936028,0.08306511880748528,3.599322587251663,1.3743767514824867,15.848517417907715,0.0,0.0,0.0,0.0,0.0,0.0,0.0,0.0,0.0,0.0,0.0,0.0,0.0,0.0,0.0,0.0,True,0,1.8808119297027588,0.034926025390625
STABILIZE,1.8798344135284424,30.07531908791051,0.0322301705678304,0.03235316276550293,0.0,0.0,0.0,-1.3149135478998875,-0.9704672147778501,47.10290038447012,-3.28256314691037e-05,-0.002129075619660654,0.00715880428432958,0.4,-0.02458258206667442,0.03928636117678426,0.8736319478302548,0.03694895030055759,0.09693040046840906,0.026233019889332354,1.6788763925433159,0.03379512567782848,0.02667997032403946,-0.4554792772978544,21.39742225408554,0.0,0.0,0.0,0.0,0.0,0.0,0.0,0.0,0.0,0.0,0.0,0.0,0.0,0.0,0.0,0.0,True,0,1.9095308780670166,0.03492578125
STABILIZE,1.9133689403533936,29.822556562051165,0.032448800404866536,0.032578229904174805,0.0,0.0,0.0,-1.3147834541405399,-0.9695681911283472,47.104249346831196,0.0005284204361272406,-0.002309565768752721,0.006872183652364116,0.4,-0.028512470039716995,0.03486112450562635,0.870285291959416,0.03385620796111386,-0.24580960161983967,-0.1500121201388538,1.4389258809387684,-0.092153599302793,0.09267693385481834,1.2127790600061417,13.45396637916565,0.0,0.0,0.0,0.0,0.0,0.0,0.0,0.0,0.0,0.0,0.0,0.0,0.0,0.0,0.0,0.0,True,0,1.9379875659942627,0.029936279296875
STABILIZE,1.947631597518921,29.185075914663845,0.03235987027486165,0.03339052200317383,0.0,0.0,0.0,-1.3153919813069057,-0.9702524907058179,47.1087811773455,0.0007619253133037638,-0.0020480579093374637,0.006584082994502282,0.4,-0.03206305889322458,0.030546670935799866,0.8627607473982715,0.03076395327765136,-0.24580960161983967,-0.1500121201388538,1.4389258809387684,-0.092153599302793,0.09267693385481834,1.2127790600061417,13.45396637916565,0.0,0.0,0.0,0.0,0.0,0.0,0.0,0.0,0.0,0.0,0.0,0.0,0.0,0.0,0.0,0.0,True,0,1.9666309356689453,0.029936279296875
STABILIZE,1.9811177253723145,29.862899780708,0.032451661427815755,0.03256845474243164,0.0,0.0,0.0,-1.314503096219452,-0.9706444795311532,47.11054678124595,0.0014046917813596946,-0.005474286549360298,0.007214732298654002,0.4,-0.042845992614129774,0.029424073214822738,0.8589608131252265,0.03682419163152645,-0.14382917433977127,0.13177283108234406,1.5492217615246773,0.20234784929749208,-1.4651289209723473,-0.4974448122084141,18.30730140209198,0.0,0.0,0.0,0.0,0.0,0.0,0.0,0.0,0.0,0.0,0.0,0.0,0.0,0.0,0.0,0.0,True,0,2.0254626274108887,0.03492578125
STABILIZE,2.014584541320801,29.881196301098555,0.03240326245625814,0.03254508972167969,0.0,0.0,0.0,-1.314165642185771,-0.96944770232252,47.111786460580305,0.002220515615257622,-0.006192582187412063,0.007042800151931933,0.4,-0.04395862647622869,0.02660038082327876,0.8555383719268417,0.034871395077415775,-0.09042600286193192,-0.07436592131853104,1.389123871922493,-0.03838900485888394,-0.7735718041658401,1.3749823905527592,17.158105969429016,0.0,0.0,0.0,0.0,0.0,0.0,0.0,0.0,0.0,0.0,0.0,0.0,0.0,0.0,0.0,0.0,True,0,2.054161548614502,0.034926025390625
STABILIZE,2.0481462478637695,29.79586269606729,0.03052976926167806,0.030679941177368164,0.0,0.0,0.0,-1.3154553740001398,-0.9713501234497801,47.11505470609816,0.002710556569725469,-0.007102453570972476,0.006869221844725953,0.4,-0.044967605681555105,0.02382504169789589,0.8520321897876081,0.03291525274810703,-0.09042600286193192,-0.07436592131853104,1.389123871922493,-0.03838900485888394,-0.7735718041658401,1.3749823905527592,17.158105969429016,0.0,0.0,0.0,0.0,0.0,0.0,0.0,0.0,0.0,0.0,0.0,0.0,0.0,0.0,0.0,0.0,True,0,2.082864999771118,0.034926025390625
STABILIZE,2.081641674041748,29.85354743195536,0.03229716618855794,0.03249382972717285,0.0,0.0,0.0,-1.316079802700667,-0.9702140708917366,47.11665297036394,0.001666258743526413,-0.006520266027569863,0.006699203933991172,0.4,-0.04671932659569038,0.02297668692550289,0.8517746485441978,0.03100723524571251,-0.13985830591991544,0.035956702777184546,1.5840649604797363,-0.03580904430720377,-2.486036531627178,-0.4514044150710106,21.71337604522705,0.0,0.0,0.0,0.0,0.0,0.0,0.0,0.0,0.0,0.0,0.0,0.0,0.0,0.0,0.0,0.0,True,0,2.1115453243255615,0.029936279296875
STABILIZE,2.11649227142334,28.694501645333204,0.03230121930440267,0.03399038314819336,0.0,0.0,0.0,-1.3158920792201976,-0.9712182154214342,47.12057691404211,0.0006538641438907799,-0.00621691788764694,0.006533499769131723,0.4,-0.0489672287628843,0.022202712297449804,0.8503106639535049,0.029146400392090738,-0.20096765365451574,0.03138046304229647,1.7495982348918915,-0.031266218122151516,-0.7305832114070654,-0.35067920107394457,24.393072724342346,0.0,0.0,0.0,0.0,0.0,0.0,0.0,0.0,0.0,0.0,0.0,0.0,0.0,0.0,0.0,0.0,True,0,2.1402180194854736,0.03492578125
STABILIZE,2.1499266624450684,29.90804335424986,0.03245070775349935,0.032562971115112305,0.0,0.0,0.0,-1.3167538569943826,-0.9712303816958933,47.120809140473895,0.0009532850583046917,-0.003748118017524682,0.006587977451327715,0.4,-0.0512058431120284,0.020287168619411867,0.8526533214843769,0.029493891864355457,-0.17579480772837996,-0.035798558383248746,1.7133355140686035,0.0948025721125274,-2.3652171716094017,-0.39257192984223366,24.743804335594177,0.0,0.0,0.0,0.0,0.0,0.0,0.0,0.0,0.0,0.0,0.0,0.0,0.0,0.0,0.0,0.0,True,1,2.169036626815796,0.06480322265625
STABILIZE,2.183436155319214,29.843563891478052,0.03246429761250814,0.03259706497192383,0.0,0.0,0.0,-1.3155301859158925,-0.9710467136402434,47.11998268758432,0.0010346899215996862,-0.006482462607571363,0.006408074390427597,0.4,-0.060359855436827134,0.017512067872018217,0.900655462449001,0.0275107871561118,-0.1443373505026102,0.07104416727088392,1.5935607254505157,-0.09436128452922773,-1.8578415736556053,-0.4667301196604967,21.353264153003693,0.0,0.0,0.0,0.0,0.0,0.0,0.0,0.0,0.0,0.0,0.0,0.0,0.0,0.0,0.0,0.0,True,0,2.2264890670776367,0.034926025390625
STABILIZE,2.216970682144165,29.82064827125296,0.032408984502156575,0.03252816200256348,0.0,0.0,0.0,-1.3162338021221096,-0.9700706369191663,47.12704168809153,4.437998469245346e-05,-0.0056248837366193365,0.006339211136107904,0.4,-0.05866434110124896,0.017984100250145373,0.889825016483776,0.0266439819279793,-0.008459885430056602,0.08114858064800501,1.304180733859539,0.02671778738001908,1.7363665625452995,-0.8034978061914444,11.961796879768372,0.0,0.0,0.0,0.0,0.0,0.0,0.0,0.0,0.0,0.0,0.0,0.0,0.0,0.0,0.0,0.0,True,0,2.2550270557403564,0.029937255859375
STABILIZE,2.250440835952759,29.880557672990474,0.032306702931722005,0.03242301940917969,0.0,0.0,0.0,-1.3201336266947754,-0.9677367399354317,47.12118821597283,0.0007329828491458996,-0.00578647590713825,0.006387895714963671,0.4,-0.06068363814066933,0.015157262921698167,0.8815422092500609,0.026950556085934017,-0.22340207360684872,-0.09416009997949004,1.6128618270158768,0.0865455804372828,-4.0793705731630325,-0.5201916676014662,22.04592078924179,0.0,0.0,0.0,0.0,0.0,0.0,0.0,0.0,0.0,0.0,0.0,0.0,0.0,0.0,0.0,0.0,True,0,2.2846362590789795,0.03492578125
STABILIZE,2.2848031520843506,29.099224354438107,0.03225568135579427,0.033391714096069336,0.0,0.0,0.0,-1.3166879029802099,-0.9742269137508248,47.12054617819085,0.0014199938966791487,-0.00594787206785362,0.0064448394415791525,0.4,-0.06312259280111093,0.012360205160665216,0.8780770423751366,0.0273318149985877,-0.22340207360684872,-0.09416009997949004,1.6128618270158768,0.0865455804372828,-4.0793705731630325,-0.5201916676014662,22.04592078924179,0.0,0.0,0.0,0.0,0.0,0.0,0.0,0.0,0.0,0.0,0.0,0.0,0.0,0.0,0.0,0.0,True,0,2.3132715225219727,0.03492578125
STABILIZE,2.318403720855713,29.76013396056394,0.03236964543660482,0.03264188766479492,0.0,0.0,0.0,-1.3172720975976575,-0.9686330955422902,47.13883742478814,0.00107796269375577,-0.005912815147828314,0.006019139395787984,0.4,-0.06499707109030523,0.011658849143306454,0.8777816084586659,0.022920683297857316,-0.19654687494039536,0.012638255429919809,1.7631659284234047,-0.1676572918225709,-4.210503399372101,-0.6915302947163582,18.598568439483643,0.0,0.0,0.0,0.0,0.0,0.0,0.0,0.0,0.0,0.0,0.0,0.0,0.0,0.0,0.0,0.0,True,0,2.3419535160064697,0.034925048828125
STABILIZE,2.352367639541626,29.4432167576902,0.03236869176228841,0.03307366371154785,0.0,0.0,0.0,-1.3163261163976108,-0.9688469658406762,47.12986597131333,0.0063102677124146234,-0.005994677760564967,0.004903834772298922,0.4,-0.07352492273948916,-0.006760959828248736,0.8653391795777313,0.011688150580932869,-0.552272517234087,-0.9298091754317284,1.1055687442421913,-0.5323633000441882,-11.437451094388962,-30.210909247398376,13.50816786289215,0.0,0.0,0.0,0.0,0.0,0.0,0.0,0.0,0.0,0.0,0.0,0.0,0.0,0.0,0.0,0.0,True,1,2.370671272277832,0.02993701171875
STABILIZE,2.385852336883545,29.865664096155626,0.0324280579884847,0.03254842758178711,0.0,0.0,0.0,-1.3154585756513133,-0.9722474395519906,47.11319347954933,0.001656001085768318,-0.0071333162401605015,0.0027575424555371154,0.4,-0.07537437945969322,0.007593830787514621,0.8543938563546235,-0.00970978241250239,-0.8806139230728149,0.07646841113455594,1.7472928389906883,-1.85169886182313,-6.26380518078804,-38.47087621688843,59.336960315704346,0.0,0.0,0.0,0.0,0.0,0.0,0.0,0.0,0.0,0.0,0.0,0.0,0.0,0.0,0.0,0.0,True,0,2.4279534816741943,0.034926025390625
STABILIZE,2.423349380493164,26.66910829645455,0.032376797993977864,0.03648233413696289,0.0,0.0,0.0,-1.3175041105860263,-0.968834372679394,47.13451391504352,0.008387053830980064,-0.005647029253629999,0.004934805932000536,0.4,-0.0724167416479117,-0.01745130709225608,0.8449781787926076,0.011973258675047829,0.057237292639911175,-1.3305568136274815,1.1933603323996067,1.2408105844385977,24.2974653840065,-5.8372002094984055,38.89820873737335,0.0,0.0,0.0,0.0,0.0,0.0,0.0,0.0,0.0,0.0,0.0,0.0,0.0,0.0,0.0,0.0,True,0,2.456969976425171,0.02993603515625
STABILIZE,2.456695795059204,29.987588297537677,0.03229335149129232,0.03240776062011719,0.0,0.0,0.0,-1.3134635200834348,-0.9724267320177034,47.112121139849634,0.0026459596490764578,-0.006287844557502469,0.0032689258374798275,0.4,-0.07640953087811045,-0.0027095849766887725,0.8485258390544934,-0.004654434392061035,-0.35939242225140333,0.829914677888155,2.1070092916488647,-0.8802452183187419,-2.7313347905874252,33.36116373538971,37.98027038574219,0.0,0.0,0.0,0.0,0.0,0.0,0.0,0.0,0.0,0.0,0.0,0.0,0.0,0.0,0.0,0.0,True,0,2.485604763031006,0.04490478515625
STABILIZE,2.4995179176330566,23.35176545258165,0.03236106236775716,0.04189562797546387,0.0,0.0,0.0,-1.3197240287879863,-0.9665873471641656,47.128616046695214,-0.006158411211633013,-0.009271275607524068,0.0007614212636843655,0.4,-0.08954464037952427,0.029280170969476545,0.8689686423416594,-0.029476866095262566,-0.4456397145986557,0.9530541487038136,1.5069878660142422,-0.2844156404242365,8.036600053310394,-9.112697839736938,45.045965909957886,0.0,0.0,0.0,0.0,0.0,0.0,0.0,0.0,0.0,0.0,0.0,0.0,0.0,0.0,0.0,0.0,True,0,2.5428452491760254,0.024947265625
STABILIZE,2.533054828643799,29.817468329233787,0.032434733708699544,0.03255891799926758,0.0,0.0,0.0,-1.3237844695278531,-0.9676183855637202,47.13959216069143,-0.01150101821014085,-0.009669562297455695,0.0006558337342001167,0.4,-0.09820800773028737,0.029041449570957625,0.8584757665850791,-0.030329802426402014,-0.6841050926595926,0.0473632593639195,1.6176596283912659,-0.09043269845685391,-6.176922470331192,27.48023271560669,30.580690503120422,0.0,0.0,0.0,0.0,0.0,0.0,0.0,0.0,0.0,0.0,0.0,0.0,0.0,0.0,0.0,0.0,True,0,2.572150468826294,0.03492626953125
STABILIZE,2.566453695297241,29.941563216093318,0.0323517640431722,0.03248119354248047,0.0,0.0,0.0,-1.3218091574755442,-0.96869862266964,47.12837357497968,-0.010988618338680683,-0.010587073179400417,-0.000449498983140438,0.4,-0.10256421094694093,0.040323446896495654,0.8584718103272041,-0.041108119161739475,-0.3665620693936944,0.6459636148065329,1.687774620950222,-0.574448897997397,14.973743259906769,9.895752370357513,24.656738340854645,0.0,0.0,0.0,0.0,0.0,0.0,0.0,0.0,0.0,0.0,0.0,0.0,0.0,0.0,0.0,0.0,True,0,2.6009061336517334,0.034926025390625
STABILIZE,2.5998642444610596,29.930452777678667,0.03239301045735677,0.032527923583984375,0.0,0.0,0.0,-1.3177280127247557,-0.9649769166239235,47.1454524629993,-0.01729447537292417,-0.005628713612977756,0.00013498280368860142,0.4,-0.08531357241002813,0.039153791032187246,0.8616563538218247,-0.03502893677543442,0.8235215209424496,-0.0391774665331468,1.8570901826024055,0.3497420509258979,29.15107011795044,-28.663712739944458,35.33912897109985,0.0,0.0,0.0,0.0,0.0,0.0,0.0,0.0,0.0,0.0,0.0,0.0,0.0,0.0,0.0,0.0,True,0,2.62961483001709,0.03492578125
STABILIZE,2.633517026901245,29.715014417184435,0.03245142300923665,0.032594919204711914,0.0,0.0,0.0,-1.3178225681560782,-0.9661411437122933,47.1617151434131,-0.012461848595630239,0.0013402604279090808,0.0007406925984651037,0.4,-0.06796885045175996,0.03788520262067158,0.8649505035620286,-0.028779213218185815,0.8235215209424496,-0.0391774665331468,1.8570901826024055,0.3497420509258979,29.15107011795044,-28.663712739944458,35.33912897109985,0.0,0.0,0.0,0.0,0.0,0.0,0.0,0.0,0.0,0.0,0.0,0.0,0.0,0.0,0.0,0.0,True,0,2.6582961082458496,0.03492578125
STABILIZE,2.666752338409424,30.088911526073016,0.03225138982137044,0.03236031532287598,0.0,0.0,0.0,-1.3278514202917724,-0.9715176765278569,47.146562368739424,-0.002907805730319799,0.009106519547125394,-0.0005160182348078893,0.4,-0.05386631626265552,0.03163910260669694,0.8575464440245965,-0.04107183975440035,0.6417248398065567,-0.312085566110909,1.2558947317302227,-0.6913293362304765,8.676206320524216,3.945918008685112,15.347354114055634,0.0,0.0,0.0,0.0,0.0,0.0,0.0,0.0,0.0,0.0,0.0,0.0,0.0,0.0,0.0,0.0,True,0,2.6869921684265137,0.029945068359375
STABILIZE,2.7002294063568115,29.870768792507924,0.03244617780049642,0.03256058692932129,0.0,0.0,0.0,-1.3407616517618601,-0.9775712518448981,47.188766107620935,-0.015958025066255318,0.018285113233530367,0.0019850316717572,0.4,-0.03413028059479287,0.07045500598789269,0.8838219925825072,-0.01595463118990431,0.41533131152391434,1.1478363536298275,2.511785365641117,0.6845044831457529,-6.306883692741394,32.52889811992645,54.196763038635254,0.0,0.0,0.0,0.0,0.0,0.0,0.0,0.0,0.0,0.0,0.0,0.0,0.0,0.0,0.0,0.0,True,0,2.744269847869873,0.03492578125
STABILIZE,2.7336628437042236,29.909962847016708,0.032410415013631184,0.032529354095458984,0.0,0.0,0.0,-1.3451149368623914,-0.9869317059372832,47.1946503155909,-0.011045630384667063,0.01763404802730515,0.0005858310111231703,0.4,-0.039962379340136536,0.06582490850533043,0.8806051932019191,-0.029747664882104737,-0.4685990512371063,-0.2228845376521349,1.448663417249918,-0.8068041428767087,37.78250515460968,39.423128962516785,23.152022063732147,0.0,0.0,0.0,0.0,0.0,0.0,0.0,0.0,0.0,0.0,0.0,0.0,0.0,0.0,0.0,0.0,True,0,2.7730300426483154,0.034926025390625
STABILIZE,2.7671525478363037,29.861198917841378,0.03241422971089681,0.03254079818725586,0.0,0.0,0.0,-1.3635878238029255,-0.9894001789920082,47.204980976710544,-0.02013163190415913,0.025241245025352535,5.3604536962273755e-05,0.4,-0.0017652222463566056,0.0919545451932589,0.8746873830143957,-0.0348369030827454,2.048194594681263,1.5402534045279026,1.2996034696698189,-0.3102068082561749,66.76071286201477,47.01468050479889,18.640390038490295,0.0,0.0,0.0,0.0,0.0,0.0,0.0,0.0,0.0,0.0,0.0,0.0,0.0,0.0,0.0,0.0,True,0,2.802734136581421,0.029936279296875
STABILIZE,2.800544023513794,29.945624857208134,0.032353909810384114,0.03250288963317871,0.0,0.0,0.0,-1.37035067157659,-0.9879145061258247,47.225358846099276,-0.022998109995027792,0.020124726730247497,-8.661195119653593e-06,0.4,-0.0015716587048272617,0.09934657090156754,0.8611501470626531,-0.035223829789516256,-0.08393510361202061,0.5412175785750151,1.1104152537882328,-0.06739406350989761,-20.033255219459534,58.31623077392578,32.19881355762482,0.0,0.0,0.0,0.0,0.0,0.0,0.0,0.0,0.0,0.0,0.0,0.0,0.0,0.0,0.0,0.0,True,0,2.8304646015167236,0.02993603515625
STABILIZE,2.8340375423431396,29.858435428872454,0.03245404561360677,0.0325775146484375,0.0,0.0,0.0,-1.3648852395801105,-1.0239951938598286,47.273159925005615,-0.027277795311932893,0.015935259929002986,-6.820058350607379e-05,0.4,-0.0014865592810917446,0.10650305072809281,0.8482869037887457,-0.03558120824200316,-0.08393510361202061,0.5412175785750151,1.1104152537882328,-0.06739406350989761,-20.033255219459534,58.31623077392578,32.19881355762482,0.0,0.0,0.0,0.0,0.0,0.0,0.0,0.0,0.0,0.0,0.0,0.0,0.0,0.0,0.0,0.0,True,0,2.859051465988159,0.02993603515625
STABILIZE,2.867490291595459,29.89163109245494,0.032398494084676106,0.032620906829833984,0.0,0.0,0.0,-1.3653532142599623,-0.9899005970704173,47.19093469268241,-0.012819376308246047,0.017257614408060565,-0.0024115648832064985,0.4,0.020188528800968074,0.09792240649735631,0.837081559626471,-0.058621820005219205,1.2038707733154297,-0.3797669894993305,1.1717806570231915,-1.4157180687042843,44.072720408439636,-30.794614553451538,3.463248163461685,0.0,0.0,0.0,0.0,0.0,0.0,0.0,0.0,0.0,0.0,0.0,0.0,0.0,0.0,0.0,0.0,True,0,2.8877291679382324,0.02993701171875
STABILIZE,2.9010088443756104,29.835921439190777,0.032471450169881184,0.032586097717285156,0.0,0.0,0.0,-1.3418137143374538,-0.9884854672517553,47.11511959289527,-0.004851510759068668,0.02790460816503551,-0.0004622987778197885,0.4,0.046851284756885145,0.06988951654568575,0.8658254408007432,-0.03886915667035243,-1.1340100318193436,-3.010134771466255,2.906283922493458,2.8031753759439946,-114.15836811065674,-121.37831449508667,21.251419186592102,0.0,0.0,0.0,0.0,0.0,0.0,0.0,0.0,0.0,0.0,0.0,0.0,0.0,0.0,0.0,0.0,True,0,2.9451401233673096,0.034926025390625
STABILIZE,2.934460163116455,29.89312237189081,0.03240087827046712,0.03252243995666504,0.0,0.0,0.0,-1.315874790303861,-1.0232275446301426,47.18139633350649,0.006191542473681581,-0.031355435582269754,0.0029621733458100926,0.4,-0.09633901226314551,0.06012203452129933,0.8811642254984825,-0.004593703876850597,-8.63209068775177,-0.47163995914161205,2.4538641795516014,1.9936861149498244,-179.84120845794678,103.18553447723389,-30.718153715133667,0.0,0.0,0.0,0.0,0.0,0.0,0.0,0.0,0.0,0.0,0.0,0.0,0.0,0.0,0.0,0.0,True,0,2.973743438720703,0.02993603515625
STABILIZE,2.9678452014923096,29.952895808041134,0.03240183194478353,0.03252124786376953,0.0,0.0,0.0,-1.3102253700866142,-0.9655437156033287,47.22187203452798,-0.016909827458549246,-0.007425216906900087,0.005299866774644333,0.4,-0.02451811443077491,0.13582027397200777,0.9046127013088042,0.018658476795265833,4.261802136898041,4.701161757111549,3.2342858612537384,1.3469683727266977,423.59042167663574,101.21251344680786,133.3516240119934,0.0,0.0,0.0,0.0,0.0,0.0,0.0,0.0,0.0,0.0,0.0,0.0,0.0,0.0,0.0,0.0,True,0,3.002455472946167,0.034926025390625
STABILIZE,3.001404285430908,29.799249744230988,0.032462390263875325,0.03260159492492676,0.0,0.0,0.0,-1.3256488977278549,-0.9832832109817329,47.19256369279946,-0.04051185493081811,0.016457703109329553,0.007699906664222109,0.4,0.047152829875961505,0.21278323336047467,0.9332984356647162,0.042375254843775884,4.261802136898041,4.701161757111549,3.2342858612537384,1.3469683727266977,423.59042167663574,101.21251344680786,133.3516240119934,0.0,0.0,0.0,0.0,0.0,0.0,0.0,0.0,0.0,0.0,0.0,0.0,0.0,0.0,0.0,0.0,True,0,3.0312864780426025,0.034926025390625
STABILIZE,3.0348191261291504,29.926822307209317,0.03233078320821126,0.03245997428894043,0.0,0.0,0.0,-1.3445914668955332,-0.9501954267646638,47.3043670593234,-0.0301636093106718,0.0032667147058908982,0.0019246242007081508,0.4,0.026887198717758156,0.1740827251762625,0.9807025387158068,-0.015275375684343097,-1.2964056804776192,-2.2593459114432335,4.355964809656143,-3.528074451614849,-58.29201340675354,-218.9121961593628,179.63438034057617,0.0,0.0,0.0,0.0,0.0,0.0,0.0,0.0,0.0,0.0,0.0,0.0,0.0,0.0,0.0,0.0,True,0,3.0616378784179688,0.034926025390625
STABILIZE,3.068249225616455,29.913802571801472,0.03239181836446126,0.0325319766998291,0.0,0.0,0.0,-1.3372140088182733,-0.962185930574327,47.259397093828035,-0.0221374920904092,-0.0017915698283241903,0.014550058304267546,0.4,0.03574541050913888,0.12489720488946904,1.0642946985236188,0.11024146816375552,0.47677522525191307,-2.8137244284152985,6.507538259029388,7.458015035878446,-0.728391483426094,-64.65752124786377,264.36173915863037,0.0,0.0,0.0,0.0,0.0,0.0,0.0,0.0,0.0,0.0,0.0,0.0,0.0,0.0,0.0,0.0,True,0,3.0962820053100586,0.029935791015625
STABILIZE,3.1016550064086914,29.93258876003568,0.032416613896687825,0.03252410888671875,0.0,0.0,0.0,-1.3161426617853724,-0.9556259607633529,47.224402619615475,-0.043521106748442104,0.06240236671140192,0.0067866524963743685,0.4,0.09965195753068531,0.17995393925245345,1.0491745391695473,0.03239082584455265,3.846393898129463,3.5392675548791885,1.0303923860192299,-4.672736463107177,154.33366298675537,123.22230339050293,53.92012000083923,0.0,0.0,0.0,0.0,0.0,0.0,0.0,0.0,0.0,0.0,0.0,0.0,0.0,0.0,0.0,0.0,True,0,3.1253621578216553,0.03492626953125
STABILIZE,3.135178327560425,29.830828645192494,0.03245499928792318,0.032634735107421875,0.0,0.0,0.0,-1.3296718791489925,-0.9666821160388995,47.33021249514273,-0.03972742354662966,0.06278253832184445,-0.000987008128915205,0.4,0.16494987539324266,0.23660078366008605,1.0407953512219204,-0.04504402876813737,3.846393898129463,3.5392675548791885,1.0303923860192299,-4.672736463107177,154.33366298675537,123.22230339050293,53.92012000083923,0.0,0.0,0.0,0.0,0.0,0.0,0.0,0.0,0.0,0.0,0.0,0.0,0.0,0.0,0.0,0.0,True,1,3.1535441875457764,0.03492626953125
STABILIZE,3.1686015129089355,29.919564007818185,0.0324278195699056,0.03254556655883789,0.0,0.0,0.0,-1.3294837287816998,-0.9676411172870516,47.30514570088878,-0.028297541902148716,0.047386487972888164,-0.012272945973722712,0.4,0.182742597467773,0.2713357935611705,1.0517954821112292,-0.15685434683872906,-0.9029466658830643,3.3597558736801147,0.7007882464677095,-5.871223353466967,-48.90097677707672,114.17077779769897,33.42691659927368,0.0,0.0,0.0,0.0,0.0,0.0,0.0,0.0,0.0,0.0,0.0,0.0,0.0,0.0,0.0,0.0,True,0,3.2109546661376953,0.064862060546875
STABILIZE,3.2021520137786865,29.80666159739051,0.03244760831197103,0.03256368637084961,0.0,0.0,0.0,-1.3231694323374346,-0.960029084900484,47.217784166309734,-0.042864683497116085,0.0664818721140317,-0.00804913972013409,0.4,0.2216360218633496,0.2801765799209512,1.0907101871670968,-0.11385483686628692,1.4041632413864136,-0.2096615731716156,1.8177436664700508,3.161234809690396,81.17343783378601,-79.92591261863708,19.02700364589691,0.0,0.0,0.0,0.0,0.0,0.0,0.0,0.0,0.0,0.0,0.0,0.0,0.0,0.0,0.0,0.0,True,0,3.2396535873413086,0.03492578125
STABILIZE,3.235633373260498,29.86757815281635,0.0323217233022054,0.032448768615722656,0.0,0.0,0.0,-1.325753805164638,-0.9706967731669861,47.30200381387058,-0.054316933221383666,0.07145583119619449,-0.0021338018549823057,0.4,0.24443419652785728,0.27011214137563583,1.088223635232697,-0.05433802098231638,1.4041632413864136,-0.2096615731716156,1.8177436664700508,3.161234809690396,81.17343783378601,-79.92591261863708,19.02700364589691,0.0,0.0,0.0,0.0,0.0,0.0,0.0,0.0,0.0,0.0,0.0,0.0,0.0,0.0,0.0,0.0,True,0,3.268216371536255,0.03492578125
STABILIZE,3.2689943313598633,29.974087228705578,0.032277615865071614,0.03240609169006348,0.0,0.0,0.0,-1.324795337525015,-0.9603021857455787,47.2522527159562,-0.02962879056693318,0.05365600883893088,-0.0006251802418858355,0.4,0.2483408016874266,0.2452849261755494,1.0792392625358096,-0.03899100609158232,0.3923119977116585,-0.9965267032384872,1.4700918458402157,0.7049219462873308,5.642179399728775,38.825103640556335,19.356364011764526,0.0,0.0,0.0,0.0,0.0,0.0,0.0,0.0,0.0,0.0,0.0,0.0,0.0,0.0,0.0,0.0,True,0,3.2976677417755127,0.03492626953125
STABILIZE,3.3023905754089355,29.944128334915863,0.032384665807088216,0.03250288963317871,0.0,0.0,0.0,-1.3209879339495558,-0.9630791912517178,47.22954916715508,-0.003986355933557636,0.027474435740086157,0.005252767159541568,0.4,0.2282708301733724,0.21889904600732113,1.0725943670804694,0.019656985623917232,-0.8935839869081974,-1.0612181387841702,1.6086582094430923,3.0890770627603845,11.73165738582611,-58.326929807662964,40.51004648208618,0.0,0.0,0.0,0.0,0.0,0.0,0.0,0.0,0.0,0.0,0.0,0.0,0.0,0.0,0.0,0.0,True,0,3.3263354301452637,0.034926025390625
STABILIZE,3.3368022441864014,29.060514099632787,0.03243234952290853,0.03344416618347168,0.0,0.0,0.0,-1.3245349365629082,-0.9691028844911401,47.28812145438253,0.01503532217196463,0.015466505435821312,0.011170397993814621,0.4,0.20760335626341803,0.19230383080963212,1.0658274336266822,0.07829582109882373,-0.8935839869081974,-1.0612181387841702,1.6086582094430923,3.0890770627603845,11.73165738582611,-58.326929807662964,40.51004648208618,0.0,0.0,0.0,0.0,0.0,0.0,0.0,0.0,0.0,0.0,0.0,0.0,0.0,0.0,0.0,0.0,True,1,3.3548572063446045,0.034926025390625
STABILIZE,3.3701441287994385,29.99187689491448,0.03235009511311849,0.03246140480041504,0.0,0.0,0.0,-1.3245982225344366,-0.9613331174234275,47.27486747229811,0.02028888018484723,0.005867373627808733,0.00848401897994458,0.4,0.2135866710889555,0.18444635413375562,1.0416235114819408,0.05109033036676751,0.05591544904746115,0.6932730786502361,1.5556992962956429,-3.2639102687188473,-33.39459002017975,6.216347962617874,52.87357568740845,0.0,0.0,0.0,0.0,0.0,0.0,0.0,0.0,0.0,0.0,0.0,0.0,0.0,0.0,0.0,0.0,True,0,3.4123144149780273,0.03492578125
STABILIZE,3.403550386428833,29.933443238344,0.03243902524312337,0.03254985809326172,0.0,0.0,0.0,-1.3227334741693173,-0.9650804366785315,47.25569854639247,0.02629032569354956,-0.01040050813228752,0.012405679073302839,0.4,0.18514978004358523,0.15747244335043104,1.035574549133367,0.08970735998555104,-1.3103273697197437,-1.1195302940905094,1.6222279518842697,2.095798510258573,-13.510175049304962,-43.1586354970932,40.93043506145477,0.0,0.0,0.0,0.0,0.0,0.0,0.0,0.0,0.0,0.0,0.0,0.0,0.0,0.0,0.0,0.0,True,0,3.4411470890045166,0.034926025390625
STABILIZE,3.4369821548461914,29.91145595618439,0.032474549611409505,0.03258800506591797,0.0,0.0,0.0,-1.326068314031576,-0.9658723117354299,47.296881171993064,0.016820321433169534,-0.00632845617200583,0.011627842805246372,0.4,0.2007858523341204,0.16349392090807352,1.0309703128001988,0.08138478329070548,1.1847016401588917,0.7336560636758804,1.705162413418293,-0.5286446355670865,54.05434966087341,33.381178975105286,32.711783051490784,0.0,0.0,0.0,0.0,0.0,0.0,0.0,0.0,0.0,0.0,0.0,0.0,0.0,0.0,0.0,0.0,True,0,3.4696686267852783,0.034926025390625
STABILIZE,3.471501350402832,28.97138989044994,0.03248337109883626,0.03260326385498047,0.0,0.0,0.0,-1.325047841080894,-0.9651507662826415,47.28547134098456,0.009074512633011272,0.0029826614933157938,0.009253291568332298,0.4,0.2106357462670234,0.16294611851374652,1.0192233381028408,0.057256260580490034,0.8620990440249443,0.3519343212246895,1.303345151245594,-1.390468353446628,6.705183535814285,-6.108591705560684,33.55502188205719,0.0,0.0,0.0,0.0,0.0,0.0,0.0,0.0,0.0,0.0,0.0,0.0,0.0,0.0,0.0,0.0,True,0,3.498384952545166,0.02993603515625
STABILIZE,3.5039448738098145,30.82052789371583,0.031397136052449544,0.03154301643371582,0.0,0.0,0.0,-1.3245866965902122,-0.966550528175671,47.281130755767016,0.010661068396728387,0.0010400673197690897,0.01116315596141328,0.4,0.1866635809659138,0.1349117787236462,1.0067364660914386,0.07584711288767086,-0.9739825502038002,-1.2011023238301277,1.522363070398569,1.1039720132856234,-42.71772503852844,-29.83889877796173,37.24868595600128,0.0,0.0,0.0,0.0,0.0,0.0,0.0,0.0,0.0,0.0,0.0,0.0,0.0,0.0,0.0,0.0,True,0,3.527092933654785,0.034926025390625
STABILIZE,3.537571907043457,29.737346237016556,0.032425912221272786,0.03278160095214844,0.0,0.0,0.0,-1.3244499860851062,-0.9646428776848276,47.28921086955514,0.017450322579418476,-0.008225842206448493,0.013167014878378094,0.4,0.16402327485158094,0.107385339991466,0.9995149181323274,0.09524457134066047,-0.9739825502038002,-1.2011023238301277,1.522363070398569,1.1039720132856234,-42.71772503852844,-29.83889877796173,37.24868595600128,0.0,0.0,0.0,0.0,0.0,0.0,0.0,0.0,0.0,0.0,0.0,0.0,0.0,0.0,0.0,0.0,True,1,3.555649995803833,0.034926025390625
STABILIZE,3.571197748184204,29.740298232303537,0.03248170216878255,0.03261113166809082,0.0,0.0,0.0,-1.3238530915846705,-0.9661694249643255,47.2871481524258,0.006459712813042341,0.0006578082974122429,0.01192068372146844,0.4,0.16512348659687043,0.11605138942358946,0.9776183053764126,0.08222918784642032,0.9621644392609596,0.05834992043673992,1.078161597251892,-0.22237877976094286,36.085742712020874,-16.34628176689148,16.397958993911743,0.0,0.0,0.0,0.0,0.0,0.0,0.0,0.0,0.0,0.0,0.0,0.0,0.0,0.0,0.0,0.0,True,0,3.6131510734558105,0.02993701171875
STABILIZE,3.6045212745666504,30.01162025243997,0.032301934560139973,0.03241419792175293,0.0,0.0,0.0,-1.3270383076154237,-0.9627029972388381,47.30259804032837,0.012681471129156421,-0.0071731161678433185,0.01207084383368658,0.4,0.1556065279145839,0.10284270598257096,0.9644153330804484,0.08317650947185039,-0.18649747362360358,-0.4334804601967335,1.4103254303336143,0.15414481642654523,-28.504565358161926,20.83139419555664,23.238244652748108,0.0,0.0,0.0,0.0,0.0,0.0,0.0,0.0,0.0,0.0,0.0,0.0,0.0,0.0,0.0,0.0,True,0,3.6417574882507324,0.034925048828125
STABILIZE,3.6380021572113037,29.864600837344423,0.032366069157918294,0.03248858451843262,0.0,0.0,0.0,-1.3254011966487362,-0.9634852673422162,47.29075449230756,0.016876085383864474,-0.013006163597856233,0.012304474089654226,0.4,0.14686393838091247,0.08977195121551222,0.9560116794135961,0.08494446256739317,-0.18649747362360358,-0.4334804601967335,1.4103254303336143,0.15414481642654523,-28.504565358161926,20.83139419555664,23.238244652748108,0.0,0.0,0.0,0.0,0.0,0.0,0.0,0.0,0.0,0.0,0.0,0.0,0.0,0.0,0.0,0.0,True,0,3.670468330383301,0.034925048828125
