E-kp,E-ki,E-kd,E-I-Tot,E-P,E-I,E-D,E-PID,N-kp,N-ki,N-kd,N-I-Tot,N-P,N-I,N-D,N-PID,D-kp,D-ki,D-kd,D-I-Tot,D-P,D-I,D-D,D-PID,Y-kp,Y-ki,Y-kd,Y-I-Tot,Y-P,Y-I,Y-D,Y-PID,errorN,desiredN,actualN,errorE,desiredE,actualE,errorD,desiredD,actualD,errorY,desiredY,actualY,roll,pitch,yaw-rate,thrust,dt,Time,Mode
0.16,0.015,0.11,1.3221264530788472,6.396585969942163,0.019831896796182708,13.75,20.166417866738346,0.17,0.015,0.08,-0.3308810848831284,-1.7008896022207618,-0.004963216273246925,-10.0,-11.705852818494009,0.002,8e-05,0,0.3098455703250821,0.01873831568242541,2.478764562600657e-05,0.0,0.018763103328051416,0.2,0.02,0.0,0.0002223402793327559,0.0013446318882934711,4.446805586655118e-06,0.0,0.0013490786938801262,-10.005232954239775,-10.0,0.005232954239775364,39.97866231213852,40.0,0.02133768786148415,9.369157841212704,10.0,0.6308421587872952,0.006723159441467355,0,-0.006723159441467355,4.000469337534537,3.99953060738957,-0.0013490786938801262,0.5187631033280514,0.03307080268859863,0.03337407112121582,STABILIZE
0.16,0.015,0.11,2.6563338198154804,6.396560915159409,0.039845007297232206,6.874741930564755,13.311147853021396,0.17,0.015,0.08,-0.664775370963165,-1.700830877544519,-0.009971630564447474,-4.999585967031619,-6.710388475140586,0.002,8e-05,0,0.6225593701433731,0.01874046081046254,4.9804749611469854e-05,0.0,0.018790265560074012,0.2,0.02,0.0,0.0005356610102048409,0.0018776833262317523,1.0713220204096818e-05,0.0,0.0018883965464358491,-10.004887514967757,-10.0,0.004887514967757698,39.9785057197463,40.0,0.02149428025370138,9.37023040523127,10.0,0.6297695947687305,0.00938841663115876,0,-0.00938841663115876,4.000655381424718,3.999344511176482,-0.0018883965464358491,0.518790265560074,0.033373117446899414,0.06666874885559082,STABILIZE
0.16,0.015,0.11,3.993904812428882,6.396738297509923,0.05990857218643323,4.584376307561649,11.041023177258005,0.17,0.015,0.08,-0.9995789753687501,-1.7012212741713566,-0.01499368463053125,-3.334887718178558,-5.051102676980446,0.002,8e-05,0,0.9355294754278103,0.018709173844831836,7.484235803422483e-05,0.0,0.01878401620286606,0.2,0.02,0.0,0.0009242792965256431,0.0023231378829133387,1.8485585930512862e-05,0.0,0.0023416234688438515,-10.007183965713862,-10.0,0.007183965713861613,39.97961435943702,40.0,0.020385640562979267,9.354586922415917,10.0,0.6454130775840821,0.011615689414566694,0,-0.011615689414566694,4.00081084589459,3.9991889897043142,-0.0023416234688438515,0.5187840162028661,0.03345632553100586,0.10012483596801758,STABILIZE
0.16,0.015,0.11,5.368045684707131,6.396853004617259,0.08052068527060696,3.4388558425944447,9.91622953248231,0.17,0.015,0.08,-1.3436512439293347,-1.7018203918782244,-0.02015476865894002,-2.5032165180476307,-4.225191678584795,0.002,8e-05,0,1.2571531719486306,0.01871514368496203,0.00010057225375589046,0.0,0.018815715938717923,0.2,0.02,0.0,0.0014136445852796402,0.002847595432966211,2.8272891705592804e-05,0.0,0.002875868324671804,-10.010708187518967,-10.0,0.010708187518967129,39.98033127885787,40.0,0.01966872114213511,9.357571842481015,10.0,0.6424281575189851,0.014237977164831056,0,-0.014237977164831056,4.000993874807088,3.999005878184748,-0.002875868324671804,0.5188157159387179,0.03437042236328125,0.1345198154449463,STABILIZE
0.16,0.015,0.11,6.705986981063528,6.3969137080218275,0.10058980471595293,2.7513340928830012,9.248837605620782,0.17,0.015,0.08,-1.6786770070020096,-1.7019256252590922,-0.025180155105030144,-2.002869177857008,-3.7299749582211303,0.002,8e-05,0,1.570622406360726,0.018734338794559584,0.00012564979250885807,0.0,0.018859988587068444,0.2,0.02,0.0,0.001940032126153813,0.0031459299495425457,3.880064252307626e-05,0.0,0.003184730592065622,-10.011327207406424,-10.0,0.011327207406423907,39.98071067513642,40.0,0.019289324863579888,9.367169397279792,10.0,0.6328306027202076,0.015729649747712727,0,-0.015729649747712727,4.001023854859279,3.728876680959524,-0.003184730592065622,0.5188599885870684,0.033464670181274414,0.16802549362182617,STABILIZE
0.16,0.015,0.11,8.14409877521754,6.397282850483393,0.12216148162826308,0.0027452638229907506,6.5221895959346465,0.17,0.015,0.08,-2.0385381896571775,-1.7008532598577584,-0.03057807284485766,-6.311899267689114e-05,-1.731494451695293,0.002,8e-05,0,1.9074958517305751,0.018731807947826674,0.00015259966813844603,-0.0,0.01888440761596512,0.2,0.02,0.0,0.0024281721801965687,0.0027142969769943823,4.8563443603931375e-05,0.0,0.002762860420598314,-10.005019175633873,-10.0,0.005019175633872263,39.9830178155212,40.0,0.016982184478799435,9.365903973913337,10.0,0.6340960260866632,0.01357148488497191,0,-0.01357148488497191,4.000410021845991,1.7305469347480114,-0.002762860420598314,0.5188844076159651,0.03596806526184082,0.20395517349243164,STABILIZE
0.16,0.015,0.11,9.48289850049275,6.397144004580512,0.14224347750739125,0.002278345314514464,6.541665827402418,0.17,0.015,0.08,-2.3736202647163798,-1.7011814855342908,-0.035604303970745696,-0.0011512911659707027,-1.7379370806710073,0.002,8e-05,0,2.221081677937045,0.018729964330790515,0.00017768653423496362,-0.0,0.01890765086502548,0.2,0.02,0.0,0.002816121581324119,0.002317157804347421,5.632243162648238e-05,0.0,0.0023734802359739035,-10.006949914907592,-10.0,0.006949914907592272,39.9821500286282,40.0,0.017849971371800746,9.364982165395258,10.0,0.6350178346047421,0.011585789021737104,0,-0.011585789021737104,4.000351346763321,1.7371282044858247,-0.0023734802359739035,0.5189076508650254,0.03348493576049805,0.2374885082244873,STABILIZE
0.16,0.015,0.11,10.829464115322802,6.397401062808841,0.16244196172984202,0.0025988519504084903,6.562441876489092,0.17,0.015,0.08,-2.710582340593247,-1.7009283569344111,-0.040658735108898704,0.0006543583002714518,-1.7409327337430385,0.002,8e-05,0,2.5365695558123966,0.018735649260190425,0.00020292556446499174,0.0,0.018938574824655417,0.2,0.02,0.0,0.0032067859329118226,0.00232000998551798,6.413571865823646e-05,0.0,0.0023841457041762167,-10.005460923143595,-10.0,0.005460923143593911,39.98375664255526,40.0,0.01624335744474132,9.367824630095212,10.0,0.6321753699047881,0.0116000499275899,0,-0.0116000499275899,4.000352385631108,1.7401228618099107,-0.0023841457041762167,0.5189385748246554,0.03367781639099121,0.27111244201660156,STABILIZE
0.16,0.015,0.11,12.16795674114754,6.397453089338513,0.1825193511172131,0.0023536595473676713,6.582326100003094,0.17,0.015,0.08,-3.045521820618433,-1.7009298691709451,-0.045682827309276496,0.002290690137912398,-1.744322006342309,0.002,8e-05,0,2.850239953104402,0.01874021953383302,0.00022801919624835216,0.0,0.018968238730081372,0.2,0.02,0.0,0.003556445697303131,0.002089040216549778,7.112891394606263e-05,-0.0,0.0021601691304958407,-10.005469818652617,-10.0,0.005469818652618147,39.98408180836571,40.0,0.01591819163429206,9.370109766916508,10.0,0.6298902330834915,0.010445201082748889,0,-0.010445201082748889,4.000317928925605,1.7435927647608598,-0.0021601691304958407,0.5189682387300814,0.033475637435913086,0.30460405349731445,STABILIZE
0.16,0.015,0.11,13.505236674774396,6.397534695083598,0.20257855012161594,0.002439741703485354,6.602552986908699,0.17,0.015,0.08,-3.3800893487941033,-1.700603420982231,-0.05070134023191155,0.003505315369512659,-1.74779944584463,0.002,8e-05,0,3.16355609189543,0.018736268469692535,0.00025308448735163446,0.0,0.01898935295704417,0.2,0.02,0.0,0.00408964255028361,0.0031885109471812183,8.179285100567219e-05,0.0,0.0032703037981868903,-10.003549535189594,-10.0,0.003549535189592859,39.98459184427249,40.0,0.015408155727510916,9.368134234846268,10.0,0.6318657651537326,0.01594255473590609,0,-0.01594255473590609,4.000486170467982,1.746686377913681,-0.0032703037981868903,0.5189893529570442,0.033444881439208984,0.3380613327026367,STABILIZE
0.16,0.015,0.11,14.842247414159743,6.397523841422509,0.22263371121239614,0.000983939828084262,6.621141492462989,0.17,0.015,0.08,-3.714495162354069,-1.7001207775003884,-0.05571742743531104,0.0020577405476884907,-1.7537804643880108,0.002,8e-05,0,3.4770334746770737,0.01874965334061432,0.00027816267797416594,0.0,0.019027816018588484,0.2,0.02,0.0,0.004406002343779156,0.0018922055576435573,8.812004687558313e-05,-0.0,0.0019803256045191403,-10.000710455884636,-10.0,0.0007104558846365077,39.98452400889068,40.0,0.015475991109319305,9.37482667030716,10.0,0.6251733296928399,0.009461027788217787,0,-0.009461027788217787,4.000289540368394,1.753119936139068,-0.0019803256045191403,0.5190278160185885,0.03343820571899414,0.37150144577026367,STABILIZE
0.16,0.015,0.11,16.18029500277307,6.397695390244728,0.24270442504159606,0.002258977904994154,6.642658793191318,0.17,0.015,0.08,-4.048966307152403,-1.6991808078592108,-0.06073449460728605,0.005624028347914033,-1.7542912741185828,0.002,8e-05,0,3.790824868743729,0.01875439420468597,0.00030326598949949833,0.0,0.019057660194185467,0.2,0.02,0.0,0.004654522281586959,0.001485331009550098,9.309044563173918e-05,-0.0,0.001578421455181837,-9.99518122270124,-10.0,-0.0048187772987605074,39.98559618902955,40.0,0.014403810970451576,9.377197102342985,10.0,0.6228028976570158,0.00742665504775049,0,-0.00742665504775049,4.00022735690029,1.7537727810509312,-0.001578421455181837,0.5190576601941854,0.033463239669799805,0.4049851894378662,STABILIZE
0.16,0.015,0.11,17.519308699744492,6.397665341292524,0.2627896304961674,0.0010860778836720502,6.661541049672363,0.17,0.015,0.08,-4.3837194548525815,-1.6993784524085416,-0.06575579182278872,0.0043611378692924125,-1.7607731063620378,0.002,8e-05,0,4.104805506148542,0.01875207705403865,0.00032838444049188334,0.0,0.019080461494530535,0.2,0.02,0.0,0.004870008893990211,0.0012869652069308207,9.740017787980423e-05,-0.0,0.001384365384810625,-9.996343837697303,-10.0,-0.0036561623026976978,39.98540838307827,40.0,0.01459161692172868,9.376038527019325,10.0,0.623961472980674,0.006434826034654103,0,-0.006434826034654103,4.0001977252656635,1.7603238596540207,-0.001384365384810625,0.5190804614945306,0.033487558364868164,0.4384613037109375,STABILIZE
0.16,0.015,0.11,18.85536068098645,6.3974977314375465,0.28283041021479677,0.00018266673308411024,6.680510808385428,0.17,0.015,0.08,-4.717866214578868,-1.7000158790880526,-0.07076799321868302,0.0025699611206043875,-1.7682139111861312,0.002,8e-05,0,4.418055277247797,0.018749408033117226,0.0003534444221798238,0.0,0.01910285245529705,0.2,0.02,0.0,0.005050947244462348,0.001082997427240365,0.00010101894488924697,-0.0,0.001184016372129612,-10.000093406400309,-10.0,9.340640030793945e-05,39.984360821484664,40.0,0.01563917851533694,9.374704016558614,10.0,0.6252959834413863,0.0054149871362018254,0,-0.0054149871362018254,4.000167094891044,1.7678358658719153,-0.001184016372129612,0.5191028524552971,0.033414363861083984,0.47187089920043945,STABILIZE
0.16,0.015,0.11,20.193226760434047,6.397420072099723,0.3028984014065107,-0.0004719649596964328,6.699846508546537,0.17,0.015,0.08,-5.052428619807573,-1.6998018687567795,-0.0757864292971136,0.0022532737374310794,-1.773335024316462,0.002,8e-05,0,4.731892651649866,0.01875887980510602,0.0003785514121319893,0.0,0.01913743121723801,0.2,0.02,0.0,0.00519805303317947,0.0008792897322816797,0.0001039610606635894,-0.0,0.000983250792945269,-9.998834522098702,-10.0,-0.0011654779012980599,39.983875450623266,40.0,0.016124549376731676,9.37943990255301,10.0,0.6205600974469905,0.004396448661408398,0,-0.004396448661408398,4.00013606066191,1.773028089078028,-0.000983250792945269,0.519137431217238,0.033460140228271484,0.5053603649139404,STABILIZE
0.16,0.015,0.11,21.530403024077263,6.397586016629876,0.3229560453611589,0.00025496245816434914,6.720797024449199,0.17,0.015,0.08,-5.386876584561221,-1.7001411188803695,-0.0808031487684183,-5.997987339898647e-05,-1.7810042475221866,0.002,8e-05,0,5.0453455801630485,0.01874605209921941,0.0004036276464130439,-0.0,0.019149679745632454,0.2,0.02,0.0,0.005275495505643597,0.00046314469939426393,0.00010550991011287194,-0.0,0.0005686546095071359,-10.000830111060996,-10.0,0.0008301110609947515,39.98491260393672,40.0,0.015087396063277473,9.373026049609704,10.0,0.626973950390295,0.0023157234969713196,0,-0.0023157234969713196,4.000071979580851,1.7808425780692134,-0.0005686546095071359,0.5191496797456324,0.033442020416259766,0.5387718677520752,STABILIZE
0.16,0.015,0.11,22.86661670935448,6.397632949987702,0.3429992506403172,-0.000256818009878499,6.74037538261814,0.17,0.015,0.08,-5.721021160481098,-1.6998349671173623,-0.08581531740721647,-0.001841462569816407,-1.7874917470943952,0.002,8e-05,0,5.358528865601567,0.018743556217686703,0.0004286823092481254,-0.0,0.01917223852693483,0.2,0.02,0.0,0.0052552136557851336,-0.000121383870307288,0.00010510427311570268,-0.0,-1.6279597191585325e-05,-9.999029218337425,-10.0,-0.0009707816625759822,39.98520593742313,40.0,0.014794062576866421,9.371778108843351,10.0,0.6282218911566493,-0.00060691935153644,0,0.00060691935153644,3.9999810653385097,1.7875341179580242,1.6279597191585325e-05,0.5191722385269348,0.033417701721191406,0.5721888542175293,STABILIZE
0.16,0.015,0.11,24.203965278565423,6.397589408041662,0.36305947917848136,-0.0003124407548298366,6.760336446465313,0.17,0.015,0.08,-6.0554491692121255,-1.6998215399086076,-0.09083173753818188,-0.0012481934078221921,-1.7919014708546117,0.002,8e-05,0,5.671927138110208,0.018740378489009172,0.00045375417104881666,-0.0,0.01919413266005799,0.2,0.02,0.0,0.0051657763047080725,-0.0005348114387555541,0.00010331552609416145,-0.0,-0.00043149591266139264,-9.998950234756515,-10.0,-0.0010497652434849618,39.984933800260386,40.0,0.015066199739613463,9.370189244504585,10.0,0.6298107554954147,-0.0026740571937777704,0,0.0026740571937777704,3.9999163656265773,1.7920881533126636,0.00043149591266139264,0.519194132660058,0.033446311950683594,0.605668306350708,STABILIZE
0.16,0.015,0.11,25.54145277418449,6.397524336792611,0.3831217916127673,0.00010979156012986932,6.780755919965508,0.17,0.015,0.08,-6.390039216844691,-1.7004512029560133,-0.09585058825267037,-0.001224429542307786,-1.7975262207509914,0.002,8e-05,0,5.9854011543677705,0.018742770068213264,0.0004788320923494217,-0.0,0.019221602160562686,0.2,0.02,0.0,0.005037412652364122,-0.0007674927733155252,0.00010074825304728243,-0.0,-0.0006667445202682427,-10.002654135035371,-10.0,0.002654135035371026,39.98452710495382,40.0,0.015472895046178721,9.371385034106632,10.0,0.6286149658933677,-0.0038374638665776254,0,0.0038374638665776254,3.99987959923028,1.79779412223668,0.0006667445202682427,0.5192216021605627,0.03345012664794922,0.6390910148620605,STABILIZE
0.16,0.015,0.11,26.878763431683197,6.397453650109516,0.4031814514752479,0.00013832258961500967,6.80077342417438,0.17,0.015,0.08,-6.724618108306585,-1.7006005650835183,-0.10086927162459876,-0.002246710767694348,-1.8037165474758114,0.002,8e-05,0,6.298976194700526,0.018751082397266052,0.0005039180955760421,-0.0,0.019255000492842095,0.2,0.02,0.0,0.0048749914478389104,-0.0009712422857009236,9.749982895677822e-05,-0.0,-0.0008737424567441454,-10.0035327357854,-10.0,0.0035327357854012973,39.98408531318447,40.0,0.015914686815529114,9.375541198633027,10.0,0.6244588013669732,-0.004856211428504618,0,0.004856211428504618,3.9998471082482823,1.8040555685111022,0.0008737424567441454,0.5192550004928421,0.03344607353210449,0.6725528240203857,STABILIZE
0.16,0.015,0.11,28.218629172281602,6.397682450164184,0.42327943758422404,0.0003948848108517953,6.82135677255926,0.17,0.015,0.08,-7.059788298497877,-1.7004181107823553,-0.10589682447746815,-0.0007794734001344054,-1.8070944086599579,0.002,8e-05,0,6.6132308708847045,0.018756558640416778,0.0005290584696707764,0.0,0.019285617110087555,0.2,0.02,0.0,0.0046871308949787876,-0.0011212617481869626,9.374261789957576e-05,-0.0,-0.001027519130287387,-10.002459475190324,-10.0,0.0024594751903248583,39.98551531352615,40.0,0.014484686473848726,9.378279320208389,10.0,0.6217206797916108,-0.005606308740934813,0,0.005606308740934813,3.9998231592904885,1.8074857941941176,0.001027519130287387,0.5192856171100876,0.0335087776184082,0.7060606479644775,STABILIZE
0.16,0.015,0.11,29.557402261854662,6.397654465863781,0.4433610339278199,8.684942039319291e-05,6.841102349211994,0.17,0.015,0.08,-7.394654334549685,-1.7002541604546064,-0.11091981501824527,-0.0011808508602939682,-1.8123548263331457,0.002,8e-05,0,6.92723275124105,0.018756684271193775,0.000554178620099284,0.0,0.01931086289129306,0.2,0.02,0.0,0.004434633475610912,-0.0015082758004505519,8.869266951221825e-05,-0.0,-0.0014195831309383336,-10.001495061497684,-10.0,0.0014950614976836844,39.98534041164863,40.0,0.01465958835136991,9.378342135596887,10.0,0.6216578644031129,-0.007541379002252759,0,0.007541379002252759,3.9997614197776903,1.8128812982076357,0.0014195831309383336,0.519310862891293,0.033481597900390625,0.7395424842834473,STABILIZE
0.16,0.015,0.11,30.89408247195902,6.397949476583375,0.4634112370793853,0.0014793365297736717,6.862840050192534,0.17,0.015,0.08,-7.728901080912535,-1.6998453639190676,-0.11593351621368803,-6.764485511751219e-05,-1.8158465249878732,0.002,8e-05,0,7.240825256836095,0.018762425296881984,0.0005792660205468876,0.0,0.019341691317428873,0.2,0.02,0.0,0.004225625370348024,-0.0012505078697581462,8.451250740696049e-05,-0.0,-0.0011659953623511857,-9.999090375994514,-10.0,-0.0009096240054851015,39.98718422864609,40.0,0.012815771353905435,9.381212648440991,10.0,0.618787351559008,-0.00625253934879073,0,0.00625253934879073,3.9998018175759276,1.8162830237677279,0.0011659953623511857,0.5193416913174289,0.03342771530151367,0.772968053817749,STABILIZE
0.16,0.015,0.11,32.237739175969786,6.397757589089601,0.4835660876395468,0.0009616389265481217,6.882285315655696,0.17,0.015,0.08,-8.06501681634812,-1.7004240574993341,-0.12097525224522179,8.318324982057557e-05,-1.8213161264947355,0.002,8e-05,0,7.55622285814547,0.018771883764418268,0.0006044978286516377,0.0,0.019376381593069907,0.2,0.02,0.0,0.004059215158253807,-0.0009904429030773271,8.118430316507615e-05,-0.0,-0.000909258599912251,-10.002494455878436,-10.0,0.0024944558784366477,39.98598493181,40.0,0.014015068189999464,9.385941882209133,10.0,0.6140581177908667,-0.004952214515386635,0,0.004952214515386635,3.9998425642466477,1.821661849485406,0.000909258599912251,0.5193763815930699,0.03360319137573242,0.806602954864502,STABILIZE
0.16,0.015,0.11,33.574769990615685,6.398121713922721,0.5036215498592352,0.0027496602319498934,6.904492924013906,0.17,0.015,0.08,-8.399203040266894,-1.6991376483978078,-0.1259880456040034,0.004124596259852374,-1.8210010977419588,0.002,8e-05,0,7.870037923937523,0.01877132303727023,0.0006296030339150018,0.0,0.019400926071185234,0.2,0.02,0.0,0.003912466314224824,-0.0008778004171537745,7.824932628449648e-05,0.0,-0.000799551090869278,-9.994927343516515,-10.0,-0.0050726564834842995,39.988260712017,40.0,0.011739287982997622,9.385661518635116,10.0,0.6143384813648833,-0.004389002085768872,0,0.004389002085768872,3.999860494959774,1.8213075025479828,0.000799551090869278,0.5194009260711853,0.03343558311462402,0.8400194644927979,STABILIZE
0.16,0.015,0.11,34.91245957867701,6.39808056784835,0.5236868936801551,0.0016416774354161433,6.923409138963922,0.17,0.015,0.08,-8.73361737268678,-1.699449167633079,-0.13100426059030168,0.0027356720849945905,-1.827717756138386,0.002,8e-05,0,8.184035803428657,0.01877288786807941,0.0006547228642742926,0.0,0.0194276107323537,0.2,0.02,0.0,0.004017621238843043,0.0006286862866186738,8.035242477686087e-05,0.0,0.0007090387113955347,-9.996759809606345,-10.0,-0.0032401903936547655,39.98800354905219,40.0,0.011996450947813733,9.386443934039704,10.0,0.6135560659602961,0.003143431433093369,0,-0.003143431433093369,4.000100268476558,1.8274983004745322,-0.0007090387113955347,0.5194276107323537,0.03345227241516113,0.8734731674194336,STABILIZE
0.16,0.015,0.11,36.250406058166355,6.398123656345827,0.5437560908724953,0.0019336767864412353,6.943813424004763,0.17,0.015,0.08,-9.068074301630023,-1.6993507388181226,-0.13602111452445034,0.0025516806457323423,-1.8328201726968405,0.002,8e-05,0,8.498258999903676,0.018782878253720936,0.0006798607199922941,0.0,0.01946273897371323,0.2,0.02,0.0,0.00417196532420226,0.0009226009400342119,8.34393064840452e-05,0.0,0.0010060402465182571,-9.99618081657719,-10.0,-0.003819183422808804,39.988272852161415,40.0,0.011727147838582013,9.391439126860467,10.0,0.6085608731395327,0.0046130047001710596,0,-0.0046130047001710596,4.000147551273905,1.8324981182751217,-0.0010060402465182571,0.5194627389737132,0.03345847129821777,0.9069325923919678,STABILIZE
0.16,0.015,0.11,37.58787127590905,6.398421092560835,0.5638180691386357,0.0019430257446308378,6.964182187444102,0.17,0.015,0.08,-9.402384100080269,-1.6992933833490642,-0.14103576150120403,0.001562095307509363,-1.838767049542759,0.002,8e-05,0,8.812407995307986,0.01878607319779695,0.0007049926396246389,0.0,0.01949106583742159,0.2,0.02,0.0,0.0042370289998719885,0.0003890800198409506,8.474057999743977e-05,0.0,0.00047382059983839034,-9.995843431465083,-10.0,-0.004156568534917229,39.99013182850522,40.0,0.009868171494779733,9.393036598898474,10.0,0.6069634011015258,0.0019454000992047528,0,-0.0019454000992047528,4.000062430523217,1.8386312339348754,-0.00047382059983839034,0.5194910658374216,0.033444881439208984,0.9403722286224365,STABILIZE
0.16,0.015,0.11,38.92582824637809,6.397945872100523,0.5838874236956713,0.0007753218844592049,6.982608617680654,0.17,0.015,0.08,-9.736866998201828,-1.6994221375152019,-0.14605300497302742,0.0028207631874698495,-1.8426543793007593,0.002,8e-05,0,9.12668908929618,0.018785669796765853,0.0007301351271436945,0.0,0.019515804923909547,0.2,0.02,0.0,0.004205877433115247,-0.00018620370678932392,8.411754866230494e-05,0.0,-0.00010208615812701898,-9.996600808912952,-10.0,-0.003399191087048451,39.98716170062827,40.0,0.012838299371732155,9.392834898382926,10.0,0.6071651016170732,-0.0009310185339466196,0,0.0009310185339466196,3.999970057556592,1.842719376412746,0.00010208615812701898,0.5195158049239096,0.03345966339111328,0.9738271236419678,STABILIZE
0.16,0.015,0.11,40.2723440119825,6.398160726445117,0.6040851601797375,0.00015524558817217073,7.002401132213027,0.17,0.015,0.08,-10.07363691687708,-1.7002231835794654,-0.15110455375315618,-0.003039333638558257,-1.85436707097118,0.002,8e-05,0,9.44292526856144,0.018783013483208554,0.0007554340214849153,0.0,0.019538447504693468,0.2,0.02,0.0,0.004013181987914303,-0.001144524688405828,8.026363975828606e-05,-0.0,-0.001064261048647542,-10.00131284458509,-10.0,0.0013128445850896886,39.98850454028198,40.0,0.011495459718020651,9.391506741604276,10.0,0.6084932583957234,-0.00572262344202914,0,0.00572262344202914,3.999814768423111,1.8547665762048358,0.001064261048647542,0.5195384475046935,0.03367257118225098,1.007504940032959,STABILIZE
0.16,0.015,0.11,41.61889767654621,6.398522027622369,0.6242834651481931,0.0017997639610964028,7.024605256731658,0.17,0.015,0.08,-10.410278738082505,-1.6996246049491532,-0.15615418107123757,-0.0004897526424344564,-1.8562685386628255,0.002,8e-05,0,9.759306737882966,0.018792175294042337,0.0007807445390306373,0.0,0.019572919833072973,0.2,0.02,0.0,0.004380812133799429,0.0021836203490877538,8.76162426759886e-05,0.0,0.0022712365917637424,-9.997791793818548,-10.0,-0.0022082061814513564,39.990762672639804,40.0,0.009237327360194607,9.396087647021169,10.0,0.6039123529788322,0.01091810174543877,0,-0.01091810174543877,4.000353652010392,1.8555062776710145,-0.0022712365917637424,0.519572919833073,0.03367161750793457,1.04117751121521,STABILIZE
0.16,0.015,0.11,42.960258279449526,6.3984466311642,0.6444038741917428,0.001313614536891422,7.044164119892834,0.17,0.015,0.08,-10.745580737238727,-1.6993940247481614,-0.1611837110585809,-0.00011963311345206636,-1.8606973689201944,0.002,8e-05,0,10.074468883498064,0.018792002729510933,0.0008059575106798451,0.0,0.019597960240190778,0.2,0.02,0.0,0.004319767307135868,-0.0003639886849498637,8.639534614271737e-05,-0.0,-0.0002775933388071463,-9.996435439695066,-10.0,-0.0035645603049342485,39.99029144477625,40.0,0.009708555223751813,9.396001364755467,10.0,0.6039986352445329,-0.0018199434247493183,0,0.0018199434247493183,3.999940894781647,1.8608244240013436,0.0002775933388071463,0.5195979602401908,0.03354215621948242,1.0747275352478027,STABILIZE
0.16,0.015,0.11,44.29713467932759,6.398842889743511,0.6644570201899138,0.0017207221620359908,7.065020632095461,0.17,0.015,0.08,-11.079641595824265,-1.6988878958931337,-0.16619462393736398,0.001143986781368814,-1.863938533049129,0.002,8e-05,0,10.3885181668133,0.018789620563969427,0.0008310814533450641,0.0,0.01962070201731449,0.2,0.02,0.0,0.003844586435962053,-0.002843015011643953,7.689172871924106e-05,-0.0,-0.002766123282924712,-9.99345821113608,-10.0,-0.00654178886392043,39.99276806089694,40.0,0.0072319391030586135,9.394810281984713,10.0,0.6051897180152875,-0.014215075058219765,0,0.014215075058219765,3.9995374340026277,1.864930875125675,0.002766123282924712,0.5196207020173145,0.03342795372009277,1.108156681060791,STABILIZE
0.16,0.015,0.11,45.634671637056854,6.398581841663717,0.6845200745558528,0.0026004041078093215,7.085702320327379,0.17,0.015,0.08,-11.413726117673644,-1.6980998836362382,-0.17120589176510465,0.0037236470044649966,-1.8655821283968779,0.002,8e-05,0,10.703241361045615,0.018819873575531807,0.0008562593088836493,0.0,0.019676132884415456,0.2,0.02,0.0,0.0028583129654667023,-0.005897735650179682,5.716625930933404e-05,-0.0,-0.005840569390870348,-9.988822844919047,-10.0,-0.011177155080952853,39.99113651039823,40.0,0.00886348960177543,9.409936787765904,10.0,0.5900632122340965,-0.029488678250898407,0,0.029488678250898407,3.9990393026621445,1.8676405793292499,0.005840569390870348,0.5196761328844155,0.03344583511352539,1.141603708267212,STABILIZE
0.16,0.015,0.11,46.97168006833986,6.398699008858998,0.7045752010250979,0.0022049469910842825,7.10547915687518,0.17,0.015,0.08,-11.747581370759047,-1.6976364387288227,-0.1762137205613857,0.007267325798561475,-1.866582833491647,0.002,8e-05,0,11.018429833892563,0.018855492246917016,0.0008814743867114051,0.0,0.019736966633628422,0.2,0.02,0.0,0.0022946071501283335,-0.0033722523335477264,4.589214300256667e-05,-0.0,-0.00332636019054516,-9.98609669840484,-10.0,-0.013903301595160334,39.99186880536873,40.0,0.008131194631267187,9.427746123458508,10.0,0.5722538765414923,-0.01686126166773863,0,0.01686126166773863,3.9994505203452992,1.8677598907770296,0.00332636019054516,0.5197369666336284,0.0334320068359375,1.1750285625457764,STABILIZE
0.16,0.015,0.11,48.308445891274864,6.398815644611378,0.7246266883691229,0.0012093509782828858,7.124651683958785,0.17,0.015,0.08,-12.081279328006499,-1.697175490518405,-0.18121918992009747,0.006892119838319783,-1.8715025606001827,0.002,8e-05,0,11.33415726563552,0.018891506603172892,0.0009067325812508417,0.0,0.019798239184423735,0.2,0.02,0.0,0.002162945720902557,-0.000787794315454635,4.3258914418051144e-05,-0.0,-0.0007445354010365839,-9.983385238343558,-10.0,-0.016614761656440984,39.992597778821114,40.0,0.007402221178888739,9.445753301586446,10.0,0.5542466984135539,-0.003938971577273175,0,0.003938971577273175,3.9998713284461287,1.8717775482699972,0.0007445354010365839,0.5197982391844237,0.033425331115722656,1.2084603309631348,STABILIZE
0.16,0.015,0.11,49.64583704174269,6.399709133608237,0.7446875556261403,0.005192717518073179,7.149589406752451,0.17,0.015,0.08,-12.415683583894573,-1.7002098399553924,-0.1862352537584186,-0.0022960684668633428,-1.8887411621806744,0.002,8e-05,0,11.650127651601299,0.018899842468558782,0.000932010212128104,0.0,0.019831852680686886,0.2,0.02,0.0,0.00322190187571024,0.006334170984347748,6.44380375142048e-05,0.0,0.006398609021861953,-10.001234352678779,-10.0,0.0012343526787783402,39.99818208505148,40.0,0.001817914948519338,9.44992123427939,10.0,0.550078765720609,0.03167085492173874,0,-0.03167085492173874,4.001043410736137,1.8865298309649243,-0.006398609021861953,0.5198318526806869,0.03343629837036133,1.2418978214263916,STABILIZE
0.16,0.015,0.11,50.984186840447016,6.399778726507294,0.7647628026067053,0.0038487624534153616,7.168390291567414,0.17,0.015,0.08,-12.750368094663582,-1.7004343633265018,-0.19125552141995372,-0.0043526433949017795,-1.8960425281413573,0.002,8e-05,0,11.96548420500822,0.018849819416718816,0.0009572387364006577,0.0,0.019807058153119474,0.2,0.02,0.0,0.0037414562798246454,0.0031055345414307527,7.482912559649291e-05,0.0,0.003180363667027246,-10.002555078391186,-10.0,0.0025550783911866175,39.99861704067059,40.0,0.001382959329414119,9.424909708359408,10.0,0.5750902916405912,0.015527672707153762,0,-0.015527672707153762,4.000513697717826,1.8949584224707186,-0.003180363667027246,0.5198070581531195,0.03345990180969238,1.2753798961639404,STABILIZE
0.16,0.015,0.11,52.32230516483657,6.399538251120042,0.7848345774725486,0.003933621174493528,7.188306449767084,0.17,0.015,0.08,-13.085201101151071,-1.7014191725832393,-0.19627801651726606,-0.009340629715346455,-1.9070378188158519,0.002,8e-05,0,12.280750552826326,0.01884697914395282,0.0009824600442261062,0.0,0.019829439188178928,0.2,0.02,0.0,0.0050464011134288295,0.007801107930852417,0.0001009280222685766,0.0,0.007902035953120994,-10.008348074019054,-10.0,0.008348074019054177,39.99711406950026,40.0,0.002885930499738021,9.423489571976411,10.0,0.5765104280235891,0.03900553965426208,0,-0.03900553965426208,4.001297336839681,1.9043142767394248,-0.007902035953120994,0.5198294391881789,0.03345537185668945,1.3088583946228027,STABILIZE
0.16,0.015,0.11,53.661689989237914,6.4007601065609,0.8049253498385687,0.008469710592523754,7.214155166991992,0.17,0.015,0.08,-13.420581869430771,-1.7029161751656756,-0.20130872804146155,-0.014853551160615305,-1.9190784543677526,0.002,8e-05,0,12.596079030642832,0.01883646417836445,0.0010076863224514267,-0.0,0.019844150500815876,0.2,0.02,0.0,0.005523250913494325,0.002848510302523581,0.00011046501826988649,0.0,0.0029589753207934677,-10.017153971562797,-10.0,0.01715397156279637,40.00475066600562,40.0,-0.004750666005621117,9.418232089182224,10.0,0.5817679108177768,0.014242551512617906,0,-0.014242551512617906,4.000476919816495,1.9180840774152867,-0.0029589753207934677,0.5198441505008159,0.03348064422607422,1.3423664569854736,STABILIZE
0.16,0.015,0.11,55.01089318070871,6.399602318637559,0.8251633977106306,0.0032705061334983767,7.228036222481688,0.17,0.015,0.08,-13.758497519501523,-1.7029930356879632,-0.20637746279252284,-0.016365921789421922,-1.9257364202699079,0.002,8e-05,0,12.913627811635093,0.01882764886680329,0.0010330902249308074,-0.0,0.0198607390917341,0.2,0.02,0.0,0.006145201415956577,0.0036875801054252915,0.00012290402831913153,0.0,0.003810484133744423,-10.017606092282136,-10.0,0.017606092282135822,39.99751449148474,40.0,0.002485508515255871,9.413824433401645,10.0,0.5861755665983552,0.018437900527126457,0,-0.018437900527126457,4.000619498845084,1.9244491122953786,-0.003810484133744423,0.5198607390917341,0.03373217582702637,1.3760368824005127,STABILIZE
0.16,0.015,0.11,56.34944254620581,6.399319474427291,0.8452416381930871,-0.0015658485594621076,7.242995264060917,0.17,0.015,0.08,-14.093753630944509,-1.7029623313229088,-0.2114063044641676,-0.007738382566443368,-1.9221070183535198,0.002,8e-05,0,13.228594023604723,0.01882232984824698,0.001058287521888378,-0.0,0.019880617370135356,0.2,0.02,0.0,0.006289912677804057,0.0008647921585671382,0.00012579825355608112,-0.0,0.0009905904121232194,-10.01742547837005,-10.0,0.01742547837005003,39.99574671517057,40.0,0.004253284829429204,9.411164924123488,10.0,0.588835075876512,0.004323960792835691,0,-0.004323960792835691,4.000145044937236,1.9218051434700494,-0.0009905904121232194,0.5198806173701354,0.03346729278564453,1.4095146656036377,STABILIZE
0.16,0.015,0.11,57.702226038346396,6.399035983076718,0.865533390575196,-0.0030042480585443314,7.26156512559337,0.17,0.015,0.08,-14.432572489593568,-1.7028750061550377,-0.2164885873439035,-0.00686384876556511,-1.9262274422645063,0.002,8e-05,0,13.546932723312509,0.018822864172934026,0.0010837546178650008,-0.0,0.019906618790799028,0.2,0.02,0.0,0.0059571415127691206,-0.0019676233036923577,0.00011914283025538241,-0.0,-0.0018484804734369752,-10.016911800911986,-10.0,0.016911800911985974,39.99397489422949,40.0,0.006025105770509697,9.411432086467013,10.0,0.5885679135329872,-0.009838116518461788,0,0.009838116518461788,3.999669193287127,1.9269142439669604,0.0018484804734369752,0.519906618790799,0.03382468223571777,1.4433376789093018,STABILIZE
0.16,0.015,0.11,59.039487004024224,6.398082492883553,0.8855923050603633,-0.005936325719836033,7.2777384722240805,0.17,0.015,0.08,-14.766944721485725,-1.6997803730922758,-0.22150417082228588,0.004616159636133633,-1.916668384278428,0.002,8e-05,0,13.861260049090728,0.018798613469185044,0.0011089008039272582,-0.0,0.0199075142731123,0.2,0.02,0.0,0.005646983015756764,-0.0018549293113741421,0.00011293966031513529,-0.0,-0.0017419896510590068,-9.998708077013386,-10.0,-0.0012919229866129103,39.98801558052221,40.0,0.011984419477794203,9.399306734592521,10.0,0.6006932654074779,-0.00927464655687071,0,0.00927464655687071,3.9996896905053685,1.9173158516419635,0.0017419896510590068,0.5199075142731123,0.03344154357910156,1.476783037185669,STABILIZE
0.16,0.015,0.11,60.37748184896611,6.3988565093573575,0.9056622277344917,-0.007773177479497593,7.296745559612351,0.17,0.015,0.08,-15.101720403784686,-1.7011036399530683,-0.22652580605677028,0.005101792270844756,-1.922527653738994,0.002,8e-05,0,14.175986566486506,0.018814439309301052,0.0011340789253189206,-0.0,0.019948518234619975,0.2,0.02,0.0,0.005569072948003598,-0.0004657485659151344,0.00011138145896007196,-0.0,-0.00035436710695506245,-10.00649199972393,-10.0,0.0064919997239313455,39.99285318348348,40.0,0.007146816516514581,9.407219654650525,10.0,0.5927803453494747,-0.002328742829575672,0,0.002328742829575672,3.999921857040343,1.9226902290702192,0.00035436710695506245,0.51994851823462,0.033455848693847656,1.510300636291504,STABILIZE
0.16,0.015,0.11,61.71973652929274,6.39770922436737,0.9257960479393911,-0.0077531841127806,7.315752088193981,0.17,0.015,0.08,-15.43727345325756,-1.6993377268868906,-0.2315591017988634,0.010267438532759177,-1.9206293901529947,0.002,8e-05,0,14.49192606069915,0.01882363539211447,0.0011593540848559322,-0.0,0.019982989476970404,0.2,0.02,0.0,0.005034222044169598,-0.0031866349688266164,0.00010068444088339197,-0.0,-0.0030859505279432244,-9.996104275805237,-10.0,-0.0038957241947628956,39.98568265229606,40.0,0.014317347703939933,9.411817696057236,10.0,0.5881823039427639,-0.01593317484413308,0,0.01593317484413308,3.9994657445042727,1.9217416613208833,0.0030859505279432244,0.5199829894769704,0.033568382263183594,1.5438082218170166,STABILIZE
0.16,0.015,0.11,63.05850532392032,6.399411150563512,0.9458775798588048,0.0004001771005780081,7.345688907522894,0.17,0.015,0.08,-15.771267398145762,-1.6962972771681009,-0.2365690109721864,0.018730248743141855,-1.9141360393971456,0.002,8e-05,0,14.807114871447762,0.018832814879347883,0.001184569189715821,0.0,0.020017384069063705,0.2,0.02,0.0,0.00456241721949682,-0.00281907625500464,9.12483443899364e-05,-0.0,-0.002727827910614704,-9.978219277459417,-10.0,-0.021780722540583684,39.996319691021945,40.0,0.003680308978054908,9.416407439673941,10.0,0.5835925603260591,-0.0140953812750232,0,0.0140953812750232,3.9995289807996834,1.9151200247144926,0.002727827910614704,0.5200173840690637,0.033472299575805664,1.5772886276245117,STABILIZE
0.16,0.015,0.11,65.01734926610426,6.397498136716279,0.9752602389915639,-0.0038166277162665833,7.368941747991576,0.17,0.015,0.08,-16.26159005884281,-1.701458003206567,-0.24392385088264212,0.008572733372333588,-1.9368091207168754,0.002,8e-05,0,15.268500651698039,0.018835820747974085,0.0012214800521358432,0.0,0.02005730080010993,0.2,0.02,0.0,0.004407757484712661,-0.0006313898620246617,8.815514969425321e-05,0.0,-0.0005432347123304085,-10.008576489450393,-10.0,0.008576489450392077,39.98436335447674,40.0,0.015636645523258184,9.417910373987043,10.0,0.5820896260129576,-0.003156949310123308,0,0.003156949310123308,3.9998932773730127,1.9370295144158882,0.0005432347123304085,0.5200573008001099,0.04899024963378906,1.6263701915740967,STABILIZE
0.16,0.015,0.11,66.36847052024181,6.396944645691601,0.9955270578036272,-0.0021482240429547377,7.390323479452273,0.17,0.015,0.08,-16.59917640162021,-1.6982126604885308,-0.24898764602430312,0.0089015854134337,-1.9382987210994,0.002,8e-05,0,15.586193500085365,0.018801639372136282,0.0012468954800068292,0.0,0.020048534852143113,0.2,0.02,0.0,0.005425365910035032,0.006022391354441947,0.00010850731820070065,0.0,0.006130898672642648,-9.989486238167828,-10.0,-0.010513761832171457,39.98090403557251,40.0,0.019095964427489717,9.400819686068141,10.0,0.5991803139318596,0.030111956772209736,0,-0.030111956772209736,4.001018125842169,1.9361962423519956,-0.006130898672642648,0.5200485348521431,0.03379416465759277,1.660083532333374,STABILIZE
0.16,0.015,0.11,67.76821341796962,6.399680868680648,1.0165232012695442,0.005421535890483614,7.421625605840676,0.17,0.015,0.08,-16.949038627795805,-1.6995581914452438,-0.2542355794169371,0.009005467399220975,-1.9447883034629598,0.002,8e-05,0,15.91522144748027,0.018804112737619172,0.0012732177157984217,-0.0,0.020077330453417593,0.2,0.02,0.0,0.00846196073713203,0.017354292217211013,0.0001692392147426406,0.0,0.017523531431953655,-9.997401126148493,-10.0,-0.0025988738515077166,39.99800542925405,40.0,0.0019945707459507224,9.402056368809586,10.0,0.5979436311904149,0.08677146108605506,0,-0.08677146108605506,4.002940691930394,1.9387282847717868,-0.017523531431953655,0.5200773304534176,0.034995317459106445,1.6950786113739014,STABILIZE
0.16,0.015,0.11,69.10735074540021,6.402495282541296,1.036610261181003,0.021684595773085152,7.460790139495384,0.17,0.015,0.08,-17.283876894542328,-1.7009367919592082,-0.2592581534181349,0.0001771136195936851,-1.9600178317577495,0.002,8e-05,0,16.22981165563402,0.018800931412899333,0.0012983849324507218,-0.0,0.020099316345350053,0.2,0.02,0.0,0.013340820995088397,0.029157651670495877,0.00026681641990176794,0.0,0.029424468090397646,-10.005510540936518,-10.0,0.00551054093651876,40.0155955158831,40.0,-0.015595515883101157,9.400465706449666,10.0,0.5995342935503353,0.14578825835247938,0,-0.14578825835247938,4.004974282022262,1.9498335572937022,-0.029424468090397646,0.52009931634535,0.03346538543701172,1.7285351753234863,STABILIZE
0.16,0.015,0.11,70.44553953686278,6.404576384982496,1.0566830930529416,0.023252812610311088,7.484512290645749,0.17,0.015,0.08,-17.61722129601973,-1.6950992276654757,-0.26425831944029593,0.008062428553091576,-1.9512951185526801,0.002,8e-05,0,16.543365928888473,0.01875839854125689,0.001323469274311078,-0.0,0.020081867815567967,0.2,0.02,0.0,0.018149151317405385,0.02876585784268243,0.0003629830263481077,0.0,0.029128840869030538,-9.971171927443974,-10.0,-0.028828072556025187,40.0286024061406,40.0,-0.02860240614059742,9.379199270628444,10.0,0.6208007293715567,0.14382928921341215,0,-0.14382928921341215,4.0048857174150125,1.9412478023510449,-0.029128840869030538,0.520081867815568,0.03343081474304199,1.7619731426239014,STABILIZE
0.16,0.015,0.11,71.85164409547865,6.407811952515076,1.0777746614321797,0.04129345329194206,7.5268800672391984,0.17,0.015,0.08,-17.96590373581981,-1.6883059726414398,-0.26948855603729716,0.03618742978191265,-1.9216070988968244,0.002,8e-05,0,16.872231171881737,0.01873355204905062,0.001349778493750539,-0.0,0.020083330542801158,0.2,0.02,0.0,0.019531082313230284,0.007872062125766298,0.0003906216462646057,0.0,0.008262683772030903,-9.931211603773175,-10.0,-0.06878839622682528,40.048824703219225,40.0,-0.0488247032192224,9.36677602452531,10.0,0.6332239754746909,0.03936031062883148,0,-0.03936031062883148,4.001319136741735,1.918858777626703,-0.008262683772030903,0.5200833305428012,0.035109758377075195,1.7970921993255615,STABILIZE
0.16,0.015,0.11,73.23433351314353,6.4077118509168365,1.0985150026971529,0.04314681032796642,7.549373663941956,0.17,0.015,0.08,-18.31065549515175,-1.6975155626258183,-0.2746598324272762,0.0020435158324905024,-1.970131879220604,0.002,8e-05,0,17.1953092914945,0.01871526126336113,0.0013756247433195602,-0.0,0.02009088600668069,0.2,0.02,0.0,0.022139443098635646,0.015109705858904171,0.00044278886197271294,0.0,0.015552494720876884,-9.985385662504813,-10.0,-0.014614337495187278,40.048199068230225,40.0,-0.0481990682302271,9.357630631680564,10.0,0.6423693683194357,0.07554852929452086,0,-0.07554852929452086,4.002594279928074,1.9648558857606766,-0.015552494720876884,0.5200908860066807,0.03452563285827637,1.8316009044647217,STABILIZE
0.16,0.015,0.11,74.57453994555169,6.409296229834929,1.1186180991832753,0.038907415130701326,7.566821744148906,0.17,0.015,0.08,-18.6439686250854,-1.6936357294223365,-0.27965952937628097,0.016576707719874698,-1.9567185510787428,0.002,8e-05,0,17.50747816320072,0.018661143575689466,0.0014005982530560577,-0.0,0.020061741828745525,0.2,0.02,0.0,0.025134568491905283,0.017904560658308675,0.0005026913698381057,0.0,0.01840725202814678,-9.962563114249038,-10.0,-0.037436885750961615,40.058101436468306,40.0,-0.058101436468309176,9.330571787844733,10.0,0.6694282121552666,0.08952280329154337,0,-0.08952280329154337,4.003052425627887,1.950466294456376,-0.01840725202814678,0.5200617418287455,0.03345656394958496,1.8650743961334229,STABILIZE
0.16,0.015,0.11,75.91407745438583,6.408700399461674,1.1387111618157875,0.024894025532272383,7.572305586809733,0.17,0.015,0.08,-18.975545894669956,-1.6855000896962282,-0.2846331884200493,0.04334977551458048,-1.926783502601697,0.002,8e-05,0,17.81943880337002,0.01865627377065172,0.0014255551042696016,-0.0,0.020081828874921322,0.2,0.02,0.0,0.02921939710660866,0.024428620514671477,0.0005843879421321732,-0.0,0.02501300845680365,-9.914706409977812,-10.0,-0.08529359002218748,40.05437749663546,40.0,-0.05437749663545858,9.32813688532586,10.0,0.6718631146741404,0.12214310257335738,0,-0.12214310257335738,4.004098423475017,1.9182519336685027,-0.02501300845680365,0.5200818288749213,0.03344297409057617,1.898526668548584,STABILIZE
0.16,0.015,0.11,77.29354785266976,6.409081184305376,1.1594032177900464,0.017854867398037495,7.58633926949346,0.17,0.015,0.08,-19.318529093951256,-1.6931099935290674,-0.2897779364092688,0.0061176829087371655,-1.976770247029599,0.002,8e-05,0,18.140819662931428,0.01866437314071099,0.0014512655730345143,-0.0,0.020115638713745505,0.2,0.02,0.0,0.03331760313848028,0.023800560708796218,0.0006663520627696055,-0.0,0.024466912771565822,-9.959470550170984,-10.0,-0.04052944982901581,40.0567574019086,40.0,-0.05675740190859775,9.332186570355494,10.0,0.6678134296445063,0.11900280354398109,0,-0.11900280354398109,4.004097102770138,1.9684580262553861,-0.024466912771565822,0.5201156387137456,0.03443789482116699,1.9329633712768555,STABILIZE
0.16,0.015,0.11,78.6346534018111,6.41122033259753,1.1795198010271664,0.013971674931401865,7.6047118085560985,0.17,0.015,0.08,-19.650768316776393,-1.68755363133305,-0.2947615247516459,0.0035321899357497488,-1.9787829661489462,0.002,8e-05,0,18.453501785478363,0.018684901264820312,0.0014762801428382692,-0.0,0.02016118140765858,0.2,0.02,0.0,0.036108266043425916,0.016676124754934997,0.0007221653208685184,0.0,0.017398290075803517,-9.926786066664999,-10.0,-0.07321393333500209,40.070127078734565,40.0,-0.0701270787345625,9.342450632410156,10.0,0.6575493675898438,0.08338062377467498,0,-0.08338062377467498,4.002875419781267,1.972959807201395,-0.017398290075803517,0.5201611814076585,0.03346896171569824,1.9664273262023926,STABILIZE
0.16,0.015,0.11,79.97431677140173,6.413783557032775,1.199614751571026,0.024916339245287206,7.638314647849088,0.17,0.015,0.08,-19.98147766048783,-1.6822634972623798,-0.29972216490731746,0.04353602644813174,-1.9384496357215655,0.002,8e-05,0,18.765691343175526,0.018683016730979638,0.0015012553074540422,-0.0,0.02018427203843368,0.2,0.02,0.0,0.03837083434668864,0.01354036367412616,0.0007674166869337728,-0.0,0.014307780361059935,-9.895667630955174,-10.0,-0.1043323690448254,40.086147231454845,40.0,-0.08614723145484708,9.341508365489819,10.0,0.6584916345101819,0.0677018183706308,0,-0.0677018183706308,4.002287717178385,1.9337218050050793,-0.014307780361059935,0.5201842720384336,0.03341960906982422,1.9998598098754883,STABILIZE
0.16,0.015,0.11,81.31538208258985,6.412352660038547,1.2197307312388477,0.012525102768233806,7.644608494045628,0.17,0.015,0.08,-20.31455027881058,-1.6921362921600978,-0.30471825418215864,0.004852654018853027,-1.9920018923234035,0.002,8e-05,0,19.078436058318992,0.018692503166442512,0.0015262748846655194,0.0,0.02021877805110803,0.2,0.02,0.0,0.04182689467922636,0.020656598043468883,0.0008365378935845272,0.0,0.02149313593705341,-9.953742895059397,-10.0,-0.04625710494060209,40.07720412524092,40.0,-0.0772041252409158,9.346251583221255,10.0,0.6537484167787452,0.10328299021734441,0,-0.10328299021734441,4.003584337986319,1.9847881467931703,-0.02149313593705341,0.520218778051108,0.0334620475769043,2.0333051681518555,STABILIZE
0.16,0.015,0.11,82.65503184433558,6.410151420222972,1.2398254776650337,0.005923209070440315,7.655900106958446,0.17,0.015,0.08,-20.648025870294976,-1.6953915239580244,-0.30972038805442464,-0.027205670479823276,-2.032317582492272,0.002,8e-05,0,19.39145667266858,0.018722333188576405,0.0015513165338134863,0.0,0.020273649722389892,0.2,0.02,0.0,0.045043744815707595,0.01924056669496443,0.0009008748963141519,-0.0,0.02014144159127858,-9.972891317400142,-10.0,-0.027108682599857974,40.06344637639357,40.0,-0.06344637639356845,9.361166594288202,10.0,0.6388334057117991,0.09620283347482214,0,-0.09620283347482214,4.003406735363364,2.025598496088128,-0.02014144159127858,0.5202736497223899,0.03343820571899414,2.0667495727539062,STABILIZE
0.16,0.015,0.11,83.99366217662298,6.408060612155724,1.2599049326493446,-0.004198423533865832,7.663767121271204,0.17,0.015,0.08,-20.98198613694916,-1.6985943974611577,-0.3147297920542374,-0.015427018032245646,-2.028751207547641,0.002,8e-05,0,19.70471918056611,0.01874495416793957,0.001576377534445289,0.0,0.02032133170238486,0.2,0.02,0.0,0.04804818257110304,0.017977908816249697,0.0009609636514220608,-0.0,0.018938872467671758,-9.991731749771516,-10.0,-0.008268250228483886,40.050378825973276,40.0,-0.05037882597327613,9.372477083969784,10.0,0.6275229160302158,0.08988954408124848,0,-0.08988954408124848,4.00317791987728,2.0224732393614078,-0.018938872467671758,0.5203213317023848,0.033423662185668945,2.100188970565796,STABILIZE
0.16,0.015,0.11,85.33364377582024,6.404797859220747,1.2800046566373036,-0.02638877209647711,7.658413743761574,0.17,0.015,0.08,-21.317558419143115,-1.7042041291020726,-0.31976337628714674,-0.04682446613175948,-2.0707919715209786,0.002,8e-05,0,20.01830995329121,0.018736129576558586,0.001601464796263297,0.0,0.020337594372821885,0.2,0.02,0.0,0.05415155018310825,0.03646583266407018,0.0010830310036621651,0.0,0.03754886366773234,-10.024730171188661,-10.0,0.024730171188661297,40.02998662012967,40.0,-0.029986620129670974,9.368064788279293,10.0,0.6319352117207064,0.18232916332035087,0,-0.18232916332035087,4.006569501325497,2.058052531002087,-0.03754886366773234,0.5203375943728219,0.03347444534301758,2.133676052093506,STABILIZE
0.16,0.015,0.11,86.75168721718109,6.406748832093024,1.3012753082577162,-0.029359786173086117,7.678664354177655,0.17,0.015,0.08,-21.675935218139667,-1.7203506965418127,-0.325139028272095,-0.1046348232352313,-2.1501245480491393,0.002,8e-05,0,20.351624452640316,0.018824020276269043,0.0016281299562112253,0.0,0.020452150232480266,0.2,0.02,0.0,0.05879473187083622,0.026222485492492283,0.0011758946374167245,0.0,0.027398380129909007,-10.11970997965772,-10.0,0.11970997965772028,40.0421802005814,40.0,-0.04218020058139638,9.412010138134521,10.0,0.5879898618654782,0.1311124274624614,0,-0.1311124274624614,4.004909746318186,2.1409655522612026,-0.027398380129909007,0.5204521502324803,0.03541374206542969,2.169062852859497,STABILIZE
0.16,0.015,0.11,88.0929428683362,6.409198519115042,1.3213941430250429,-0.013420329943943795,7.7171723321961405,0.17,0.015,0.08,-22.013033184340348,-1.7115012864279515,-0.3301954977651052,-0.051991240765184965,-2.0936880249582415,0.002,8e-05,0,20.66691029481958,0.018832442113598954,0.0016533528235855666,0.0,0.020485794937184523,0.2,0.02,0.0,0.06261407024685746,0.02281341540156141,0.0012522814049371492,0.0,0.02406569680649856,-10.067654626046773,-10.0,0.06765462604677265,40.05749074446901,40.0,-0.05749074446900866,9.416221056799477,10.0,0.5837789432005228,0.11406707700780704,0,-0.11406707700780704,4.004160280872467,2.08572049683961,-0.02406569680649856,0.5204857949371845,0.033483266830444336,2.202584743499756,STABILIZE
0.16,0.015,0.11,89.43152253190937,6.408823802742248,1.3414728379786405,-0.005910463361665924,7.744386177359223,0.17,0.015,0.08,-22.34983906397358,-1.7133366783106005,-0.3352475859596037,-0.04799791339041521,-2.0965821776606197,0.002,8e-05,0,20.982481762233068,0.018886081146892816,0.0016785985409786455,0.0,0.020564679687871464,0.2,0.02,0.0,0.06673816286213097,0.024681555790752614,0.0013347632572426194,0.0,0.026016319047995232,-10.078451048885885,-10.0,0.07845104888588472,40.055148767139045,40.0,-0.05514876713904304,9.443040573446408,10.0,0.5569594265535917,0.12340777895376306,0,-0.12340777895376306,4.004506487967377,2.0879618328674803,-0.026016319047995232,0.5205646796878715,0.03341841697692871,2.2360031604766846,STABILIZE
0.16,0.015,0.11,90.77136415326876,6.408876045941272,1.3615704622990314,0.002905565430569492,7.773352073670873,0.17,0.015,0.08,-22.68684035504575,-1.7127300227755096,-0.34030260532568624,-0.0372719926991121,-2.090304620800308,0.002,8e-05,0,21.298301276258627,0.018883277751007947,0.0017038641021006903,0.0,0.02058714185310864,0.2,0.02,0.0,0.06962820162214632,0.017279934327342428,0.0013925640324429264,-0.0,0.018672498359785353,-10.074882486914762,-10.0,0.07488248691476158,40.05547528713295,40.0,-0.055475287132947936,9.441638875503973,10.0,0.5583611244960276,0.08639967163671214,0,-0.08639967163671214,4.003147544054959,2.0842704115027577,-0.018672498359785353,0.5205871418531086,0.033449649810791016,2.2694506645202637,STABILIZE
0.16,0.015,0.11,92.20162649454724,6.405547165397305,1.3830243974182086,0.0034955517671635323,7.792067114582677,0.17,0.015,0.08,-23.04574084632403,-1.707825606957747,-0.34568611269486044,-0.00857903370236053,-2.062090753354968,0.002,8e-05,0,21.635323723662342,0.018867283297765595,0.0017308258978929875,0.0,0.020598109195658583,0.2,0.02,0.0,0.07322178110461552,0.020117675445981864,0.0014644356220923104,-0.0,0.021582111068074176,-10.046032982104395,-10.0,0.04603298210439457,40.03466978373316,40.0,-0.03466978373315898,9.433641648882798,10.0,0.5663583511172019,0.1005883772299093,0,-0.1005883772299093,4.003614037059943,2.0550651856641053,-0.021582111068074176,0.5205981091956586,0.03572559356689453,2.3051693439483643,STABILIZE
0.16,0.015,0.11,93.53849072899058,6.405226114526162,1.4030773609348586,-0.005401354625889098,7.802902120835131,0.17,0.015,0.08,-23.381853616160996,-1.7110437432803445,-0.3507278042424149,0.025263131366366928,-2.0365084161563924,0.002,8e-05,0,21.950684939502988,0.018887107635618763,0.0017560547951602393,0.0,0.020643162430779002,0.2,0.02,0.0,0.0763426627806632,0.01869108348546184,0.0015268532556132642,-0.0,0.020217936741075106,-10.064963195766731,-10.0,0.06496319576673065,40.03266321578851,40.0,-0.03266321578850781,9.44355381780938,10.0,0.5564461821906189,0.0934554174273092,0,-0.0934554174273092,4.003316436049355,2.0299812910302673,-0.020217936741075106,0.520643162430779,0.03339433670043945,2.3385682106018066,STABILIZE
0.16,0.015,0.11,94.87437476875259,6.390947870210072,1.4231156215312888,-0.07416321908700609,7.739900272654355,0.17,0.015,0.08,-23.71687327451777,-1.7029258735005135,-0.35575309911776654,0.023233369732030332,-2.03544560288625,0.002,8e-05,0,22.266393858844282,0.018879625641291014,0.0017813115087075427,0.0,0.020660937149998556,0.2,0.02,0.0,0.08036216410154949,0.024036913610594318,0.0016072432820309899,0.0,0.02564415689262531,-10.017211020591255,-10.0,0.01721102059125522,39.94342418881295,40.0,0.056575811187055514,9.439812820645507,10.0,0.5601871793544922,0.12018456805297159,0,-0.12018456805297159,4.0042607810068365,2.0270506653755573,-0.02564415689262531,0.5206609371499985,0.03344440460205078,2.3720219135284424,STABILIZE
0.16,0.015,0.11,96.22211803833099,6.387169929384693,1.4433317705749649,-0.08800792549716581,7.742493774462492,0.17,0.015,0.08,-24.0529348410434,-1.6921898475562365,-0.36079402261565097,0.05833171515794303,-1.9946521550139447,0.002,8e-05,0,22.582982349483824,0.018754540766828823,0.0018066385879587062,-0.0,0.020561179354787528,0.2,0.02,0.0,0.08330352147411889,0.01742445110440635,0.0016660704294823778,-0.0,0.019090521533888728,-9.95405792680139,-10.0,-0.04594207319860977,39.91981205865433,40.0,0.0801879413456677,9.37727038341441,10.0,0.6227296165855886,0.08712225552203173,0,-0.08712225552203173,4.003028383212043,1.9885675705644377,-0.019090521533888728,0.5205611793547875,0.03376126289367676,2.4057776927948,STABILIZE
0.16,0.015,0.11,97.55940975415524,6.395083685631751,1.4633911463123286,-0.055700063968969725,7.80277476797511,0.17,0.015,0.08,-24.385686429249873,-1.6907101249280667,-0.3657852964387481,0.060787235218836735,-1.995708186147978,0.002,8e-05,0,22.897387363798195,0.018794014368093293,0.0018317909891038557,-0.0,0.020625805357197147,0.2,0.02,0.0,0.08626108511362968,0.01767926432621644,0.0017252217022725935,0.0,0.019404486028489033,-9.94535367604745,-10.0,-0.05464632395255085,39.96927303519844,40.0,0.030726964801560668,9.397007184046647,10.0,0.6029928159533533,0.0883963216310822,0,-0.0883963216310822,4.003074230551851,1.9895345860149691,-0.019404486028489033,0.5206258053571972,0.03345799446105957,2.4392426013946533,STABILIZE
0.16,0.015,0.11,98.89569480351594,6.392456188671651,1.483435422052739,-0.053689667192694704,7.822201943531695,0.17,0.015,0.08,-24.719016644960327,-1.694229630415134,-0.3707852496744049,0.03796295901803974,-2.0270519210714992,0.002,8e-05,0,23.211978811346548,0.018811593068650857,0.001856958304907724,-0.0,0.02066855137355858,0.2,0.02,0.0,0.0900839788278946,0.022859718996779722,0.001801679576557892,0.0,0.024661398573337615,-9.966056649500787,-10.0,-0.033943350499212696,39.952851179197815,40.0,0.04714882080218714,9.405796534325429,10.0,0.5942034656745712,0.1142985949838986,0,-0.1142985949838986,4.004035777320142,2.0190683457129293,-0.024661398573337615,0.5206685513735586,0.033446550369262695,2.4727067947387695,STABILIZE
0.16,0.015,0.11,100.23060034863488,6.3923730701883255,1.5034590052295231,-0.05270980340521389,7.843122272012635,0.17,0.015,0.08,-25.05161623049185,-1.6922410215270567,-0.3757742434573777,0.05263446192986995,-2.0153808030545646,0.002,8e-05,0,23.526879107709895,0.01884927534412198,0.0018821503286167917,-0.0,0.020731425672738772,0.2,0.02,0.0,0.09217388528042796,0.012509744392810846,0.001843477705608559,-0.0,0.014353222098419405,-9.954358950159156,-10.0,-0.04564104984084362,39.952331688677035,40.0,0.04766831132296293,9.424637672060989,10.0,0.5753623279390113,0.06254872196405423,0,-0.06254872196405423,4.002197769242802,2.011012878424402,-0.014353222098419405,0.5207314256727388,0.03341245651245117,2.5060946941375732,STABILIZE
0.16,0.015,0.11,101.84641438968158,6.391451265193508,1.5276962158452236,0.002858849435587924,7.92200633047432,0.17,0.015,0.08,-25.454572902378782,-1.6935397462100004,-0.3818185935356817,0.02676766679887437,-2.0485906729468075,0.002,8e-05,0,23.909002201135383,0.0188938908414849,0.0019127201760908309,0.0,0.020806611017575728,0.2,0.02,0.0,0.09643876615724292,0.0210874964441768,0.0019287753231448585,-0.0,0.02301627176732166,-9.961998507117649,-10.0,-0.038001492882350746,39.946570407459426,40.0,0.05342959254057744,9.44694542074245,10.0,0.5530545792575492,0.10543748222088399,0,-0.10543748222088399,4.003763105485156,2.0412262834973776,-0.02301627176732166,0.5208066110175757,0.04044938087463379,2.5465586185455322,STABILIZE
0.16,0.015,0.11,103.18862178687212,6.3911288583366295,1.5478293268030818,0.016926021344230137,7.955884206483941,0.17,0.015,0.08,-25.788232336419387,-1.6880693846981678,-0.38682348504629077,0.012160748685344181,-2.0627321210591143,0.002,8e-05,0,24.226537169598544,0.018899900499019563,0.0019381229735678837,0.0,0.020838023472587446,0.2,0.02,0.0,0.09900462092708355,0.015272144696261609,0.001980092418541671,-0.0,0.01725223711480328,-9.929819909989222,-10.0,-0.0701800900107782,39.944555364603936,40.0,0.05544463539606408,9.449950249509781,10.0,0.5500497504902183,0.07636072348130804,0,-0.07636072348130804,4.002745544836738,2.0573993065369387,-0.01725223711480328,0.5208380234725875,0.03360176086425781,2.5801665782928467,STABILIZE
0.16,0.015,0.11,104.52053119433468,6.390839997263417,1.56780796791502,-0.01678771256393098,7.941860252614506,0.17,0.015,0.08,-26.118275873258508,-1.6826098593999679,-0.3917741380988776,0.023407799139040494,-2.050976198359805,0.002,8e-05,0,24.541745930033905,0.018905647245895246,0.0019633396744027126,0.0,0.02086898692029796,0.2,0.02,0.0,0.10057744164970138,0.00943349217889023,0.0020115488329940276,-0.0,0.011445041011884259,-9.897705055293928,-10.0,-0.10229494470607173,39.94274998289636,40.0,0.05725001710364286,9.452823622947623,10.0,0.5471763770523768,0.047167460894451146,0,-0.047167460894451146,4.001687064395136,2.0476825937852463,-0.011445041011884259,0.5208689869202979,0.03334546089172363,2.613511800765991,STABILIZE
0.16,0.015,0.11,105.85981621122174,6.387229226131661,1.587897243168326,-0.020784628223249692,7.954341841076738,0.17,0.015,0.08,-26.44873371355275,-1.6744974525400524,-0.39673100570329123,0.0560699130373572,-2.0151585452059866,0.002,8e-05,0,24.859009186694983,0.018913385871677957,0.0019887207349355987,0.0,0.020902106606613555,0.2,0.02,0.0,0.1023830047160153,0.0107637144459265,0.002047660094320306,-0.0,0.012811374540246806,-9.849985014941485,-10.0,-0.1500149850585158,39.92018266332288,40.0,0.0798173366771163,9.456692935838978,10.0,0.5433070641610215,0.053818572229632496,0,-0.053818572229632496,4.001891096271228,2.0114004116291166,-0.012811374540246806,0.5209021066066135,0.03354907035827637,2.647059679031372,STABILIZE
0.16,0.015,0.11,107.2318164817623,6.39425111905141,1.6084772472264344,0.007681120515882179,8.010409486793726,0.17,0.015,0.08,-26.78792783982064,-1.679626635130129,-0.4018189175973096,0.03640671418250676,-2.0450388385449316,0.002,8e-05,0,25.183529343630166,0.018905457065070297,0.0020146823474904135,0.0,0.020920139412560712,0.2,0.02,0.0,0.10226004622081378,-0.0007163149968161781,0.002045200924416276,-0.0,0.0013288859276000976,-9.880156677236052,-10.0,-0.11984332276394818,39.96406949407131,40.0,0.035930505928691715,9.452728532535149,10.0,0.5472714674648516,-0.0035815749840808903,0,0.0035815749840808903,3.999872156243033,2.045288875652756,-0.0013288859276000976,0.5209201394125607,0.03433084487915039,2.681391477584839,STABILIZE
0.16,0.015,0.11,108.57155281516567,6.3910620988517115,1.6285732922274851,-0.002258932879057594,8.01737645820014,0.17,0.015,0.08,-27.114057230060936,-1.6529989552056021,-0.40671085845091404,0.11414880189742393,-1.9455610117590922,0.002,8e-05,0,25.502118528582017,0.01899742522356418,0.0020401694822865615,0.0,0.021037594705850742,0.2,0.02,0.0,0.10757337578990478,0.03168330437588914,0.0021514675157980954,0.0,0.03383477189168724,-9.723523265915306,-10.0,-0.27647673408469453,39.944138117823194,40.0,0.05586188217680726,9.49871261178209,10.0,0.5012873882179099,0.15841652187944572,0,-0.15841652187944572,4.005363965907885,1.9344940297358681,-0.03383477189168724,0.5210375947058508,0.03354024887084961,2.7149429321289062,STABILIZE
0.16,0.015,0.11,109.90541682883088,6.378692017383806,1.6485812524324632,-0.051776094840388726,7.975497174975881,0.17,0.015,0.08,-27.437027857610783,-1.6410130842533175,-0.4115554178641617,0.1325428289553056,-1.9200256731621734,0.002,8e-05,0,25.82127002882833,0.019077742428211693,0.0020657016023062666,0.0,0.02114344403051796,0.2,0.02,0.0,0.1213298672777379,0.08223141709132478,0.002426597345554758,0.0,0.08465801443687954,-9.653018142666573,-10.0,-0.3469818573334262,39.86682510864879,40.0,0.1331748913512076,9.538871214105846,10.0,0.4611287858941529,0.4111570854566239,0,-0.4111570854566239,4.013675081358447,1.8912723037373866,-0.08465801443687954,0.5211434440305179,0.03345799446105957,2.7484006881713867,STABILIZE
