Mode,Time,Freq,time2delay,actualDelay,North-Desired,East-Desired,Down-Desired,Roll-UAV,Pitch-UAV,Yaw-UAV,Roll-Control,Pitch-Control,Yaw-Control,Thrust-Control,North-Pos,East-Pos,Down-Pos,Yaw-Ang,North-Vel,East-Vel,Down-Vel,Yaw-Vel,North-Acc,East-Acc,Down-Acc,North-Avg,East-Avg,Down-Avg,Yaw-Avg,North-Dif,East-Dif,Down-Dif,Yaw-Dif,North-One,East-One,Down-One,Yaw-One,North-Two,East-Two,Down-Two,Yaw-Two,Landing-State,Q-Size,Kalman-Time,Kalman-Dt
STABILIZE,0.03434920310974121,29.122257401544186,0.0327489693959554,0.032900333404541016,0.0,0.0,0.0,-0.7849543677218379,-1.2957323489980817,0.46948564576210866,-0.057797199389897636,0.057114193819032905,0.017752378681648487,0.4,0.08998781564852414,0.09078314091772217,0.12063288379710382,0.08846967987196983,-0.07494947640225291,0.05127810873091221,1.5098962932825089,0.003443269115332678,-1.6278091818094254,1.3396834023296833,21.143972873687744,0.0,0.0,0.0,0.0,0.0,0.0,0.0,0.0,0.0,0.0,0.0,0.0,0.0,0.0,0.0,0.0,False,0,0.14459538459777832,0.02981494140625
STABILIZE,0.06772804260253906,29.95910029214077,0.03233364423116048,0.03245115280151367,0.0,0.0,0.0,-0.7855985399379347,-1.2955221072376923,0.46959722330550313,-0.03436008522872498,0.0337131065677549,0.020171422425189888,0.4,0.10152011403148153,0.1031137044220319,0.14494510448821893,0.10022998646592045,-0.07494947640225291,0.05127810873091221,1.5098962932825089,0.003443269115332678,-1.6278091818094254,1.3396834023296833,21.143972873687744,0.0,0.0,0.0,0.0,0.0,0.0,0.0,0.0,0.0,0.0,0.0,0.0,0.0,0.0,0.0,0.0,False,0,0.17327523231506348,0.02981494140625
STABILIZE,0.1037147045135498,27.788809752542484,0.03243378003438314,0.035140037536621094,0.0,0.0,0.0,-0.7842338894861073,-1.295619010546542,0.46911297356551984,-0.026300623464856406,0.02568844237239822,0.02233860450734054,0.4,0.11164577418771805,0.11390589346223345,0.16917877152650512,0.11066727028226747,0.02051077171927318,0.09518329752609134,1.550108753144741,0.08842326880922806,-0.35468265414237976,1.4790136367082596,20.69724351167679,0.0,0.0,0.0,0.0,0.0,0.0,0.0,0.0,0.0,0.0,0.0,0.0,0.0,0.0,0.0,0.0,False,0,0.2019491195678711,0.0349208984375
STABILIZE,0.13714814186096191,29.908683157797157,0.03247550328572591,0.03259873390197754,0.0,0.0,0.0,-0.7837311235301709,-1.2966679781926678,0.46913180994659026,-0.012941587998671176,0.012465221625135204,0.02617474750658024,0.4,0.132989936821845,0.13554352160648425,0.2244017841850148,0.12941526237482107,0.0016636431610095315,-0.019937239994760603,1.329713687300682,-0.16599867643216848,-0.13644322752952576,-0.8489941246807575,15.97120612859726,0.0,0.0,0.0,0.0,0.0,0.0,0.0,0.0,0.0,0.0,0.0,0.0,0.0,0.0,0.0,0.0,False,0,0.2593865394592285,0.0349208984375
STABILIZE,0.1707162857055664,29.791629968463223,0.0324893315633138,0.03263425827026367,0.0,0.0,0.0,-0.7831692871100845,-1.2967756603938012,0.46982091200082104,-0.01258849394739674,0.011818599294680179,0.02779561293498462,0.4,0.14011048807197868,0.14463238136738865,0.25074085313824684,0.1370607698530143,-0.09320733952336013,0.1176798832602799,1.3205409049987793,0.004417104680588402,-4.122735559940338,1.5408406965434551,23.38079810142517,0.0,0.0,0.0,0.0,0.0,0.0,0.0,0.0,0.0,0.0,0.0,0.0,0.0,0.0,0.0,0.0,False,0,0.2879166603088379,0.02993212890625
STABILIZE,0.204115629196167,29.938998536707235,0.03238108952840169,0.032508134841918945,0.0,0.0,0.0,-0.7819131726330368,-1.2977695596397438,0.4720603069140861,-0.01167984154266166,0.010459200819931406,0.02885658624171103,0.4,0.14224579737929974,0.14928147020295415,0.2722675842703374,0.14189107996901487,-0.1673172926530242,0.08777289185672998,1.472529862076044,0.14447108076683868,-5.512385442852974,1.3601820915937424,18.621842563152313,0.0,0.0,0.0,0.0,0.0,0.0,0.0,0.0,0.0,0.0,0.0,0.0,0.0,0.0,0.0,0.0,False,0,0.3166337013244629,0.034921875
STABILIZE,0.23755669593811035,29.903139102970847,0.032428773244222005,0.03255009651184082,0.0,0.0,0.0,-0.7819341434482229,-1.2981980472884564,0.47180011939539096,-0.008556066412217499,0.0073842895446953015,0.030397877404581986,0.4,0.14725676744132166,0.1543874803984706,0.29773108649323765,0.14909900744819077,-0.0010060481145046651,-0.0419826916186139,1.345102395862341,0.21305763927692498,-2.5768008083105087,1.1353076435625553,20.785322785377502,0.0,0.0,0.0,0.0,0.0,0.0,0.0,0.0,0.0,0.0,0.0,0.0,0.0,0.0,0.0,0.0,False,0,0.34708619117736816,0.034921142578125
STABILIZE,0.2709927558898926,29.907830092483653,0.03243115743001302,0.032546281814575195,0.0,0.0,0.0,-0.7821995069696485,-1.297721214707025,0.4720025704712583,-0.008108490878101286,0.007156725757602932,0.031505525405091946,0.4,0.1523331604870913,0.1602096092772767,0.32393509089664824,0.15412198671938349,0.12531456304714084,0.1617202186025679,1.4917872846126556,0.09456072738701343,1.6702750697731972,1.352290716022253,22.607500851154327,0.0,0.0,0.0,0.0,0.0,0.0,0.0,0.0,0.0,0.0,0.0,0.0,0.0,0.0,0.0,0.0,False,0,0.37584352493286133,0.029931884765625
STABILIZE,0.3044910430908203,29.854822407288776,0.0324285348256429,0.03255939483642578,0.0,0.0,0.0,-0.7820826467018178,-1.2973232494661657,0.4721075312688944,-0.0077626672129442326,0.0073344590291812145,0.031195247859723402,0.4,0.15484677176237638,0.1626238303459654,0.34260483635786343,0.15206182699058535,0.17386020626872778,0.14912451151758432,1.360495388507843,-0.26060293293492753,1.8335144966840744,-0.614690687507391,21.662190556526184,0.0,0.0,0.0,0.0,0.0,0.0,0.0,0.0,0.0,0.0,0.0,0.0,0.0,0.0,0.0,0.0,False,0,0.404421329498291,0.0349208984375
STABILIZE,0.3378450870513916,29.97944334052864,0.032370599110921223,0.032485008239746094,0.0,0.0,0.0,-0.7812422132687888,-1.2978512017446666,0.4728195784898682,-0.007204844082542351,0.00619112040840135,0.03119117284135904,0.4,0.15409930201910096,0.1645232071466999,0.36781059022951457,0.15153498094901033,-0.25009282398968935,-0.04043072694912553,1.4926676638424397,-0.2199420297332615,-4.128415137529373,0.8423865772783756,18.398791551589966,0.0,0.0,0.0,0.0,0.0,0.0,0.0,0.0,0.0,0.0,0.0,0.0,0.0,0.0,0.0,0.0,False,1,0.433133602142334,0.034921142578125
STABILIZE,0.371396541595459,29.805602535495517,0.03246906598409017,0.03257918357849121,0.0,0.0,0.0,-0.781236236853265,-1.2977934653018388,0.4742707802450844,-0.00629618760859482,0.005335227906247937,0.03134384502183882,0.4,0.1546590773492578,0.1655144939193531,0.4081498044510244,0.15178937403305343,0.020239883451722562,0.09745630086399615,1.3420880772173405,-0.03739750018121478,2.001890167593956,1.0953978635370731,23.22029024362564,0.0,0.0,0.0,0.0,0.0,0.0,0.0,0.0,0.0,0.0,0.0,0.0,0.0,0.0,0.0,0.0,False,0,0.4905858039855957,0.0349208984375
STABILIZE,0.4047560691833496,29.975586747091278,0.03233388264973958,0.03246307373046875,0.0,0.0,0.0,-0.7794964596056159,-1.297844691720614,0.4750277573041922,-0.005783118133912096,0.004439182494309293,0.03211535713608226,0.4,0.15282439942785495,0.16526444028872062,0.4322165626334697,0.15512945964399807,-0.1256465446203947,-0.0164792945724912,1.5528950840234756,0.27975929235971253,0.3655634354799986,-1.004956942051649,20.921263098716736,0.0,0.0,0.0,0.0,0.0,0.0,0.0,0.0,0.0,0.0,0.0,0.0,0.0,0.0,0.0,0.0,False,0,0.5194578170776367,0.034921142578125
STABILIZE,0.43828678131103516,29.82319271325877,0.03243401845296224,0.032556772232055664,0.0,0.0,0.0,-0.7789615170553864,-1.2975035024272308,0.4754339401163964,-0.005062489796413742,0.003975813991125606,0.03170760768224659,0.4,0.1500353776619405,0.1636613758281784,0.4529928728127717,0.15258050689917665,-0.139066600240767,-0.06280860397964716,1.3601158745586872,-0.13498588234060824,2.3352762684226036,-1.1497586034238338,14.35249149799347,0.0,0.0,0.0,0.0,0.0,0.0,0.0,0.0,0.0,0.0,0.0,0.0,0.0,0.0,0.0,0.0,False,0,0.5479791164398193,0.0349208984375
STABILIZE,0.4716529846191406,29.97066032140739,0.03233984311421712,0.032460689544677734,0.0,0.0,0.0,-0.7775832062252189,-1.2966109888017805,0.47622570845158896,-0.004364438554904112,0.003094502436234532,0.03115475363554612,0.4,0.14656189602546765,0.16137042097427814,0.47283182030684473,0.14931688017018444,-0.139066600240767,-0.06280860397964716,1.3601158745586872,-0.13498588234060824,2.3352762684226036,-1.1497586034238338,14.35249149799347,0.0,0.0,0.0,0.0,0.0,0.0,0.0,0.0,0.0,0.0,0.0,0.0,0.0,0.0,0.0,0.0,False,0,0.5767884254455566,0.0349208984375
STABILIZE,0.5052640438079834,29.75443375613632,0.03241542180379232,0.032549142837524414,0.0,0.0,0.0,-0.7775832595860719,-1.2975040360357597,0.4755153154170548,-0.0038888693777385163,0.0031618538126675162,0.03149828382952651,0.4,0.14514539146599229,0.15896108479851315,0.4916703378375719,0.15053091002725136,0.04672397626563907,-0.029232969973236322,1.355508528649807,0.22284176520104923,3.0433177947998047,-0.8837300352752209,22.44551032781601,0.0,0.0,0.0,0.0,0.0,0.0,0.0,0.0,0.0,0.0,0.0,0.0,0.0,0.0,0.0,0.0,False,0,0.6053881645202637,0.029932861328125
STABILIZE,0.5385360717773438,30.051830993988638,0.03224614461263021,0.03238701820373535,0.0,0.0,0.0,-0.7770801734650181,-1.2983780868061097,0.4763415015023618,-0.0030994531199646544,0.00310852895104181,0.031227357757450943,0.4,0.14237514465402848,0.15401436341038233,0.502257262062958,0.14867906682804014,0.04864729708060622,-0.09107658988796175,1.2177546508610249,0.10756639474249619,6.096192821860313,0.7810625713318586,13.106921315193176,0.0,0.0,0.0,0.0,0.0,0.0,0.0,0.0,0.0,0.0,0.0,0.0,0.0,0.0,0.0,0.0,False,1,0.6340277194976807,0.034921142578125
STABILIZE,0.5720024108886719,29.88204784770807,0.03239944775899251,0.032518863677978516,0.0,0.0,0.0,-0.7764916566184863,-1.2986793621815307,0.4777634615101939,-0.0024713953170119878,0.001713859311746929,0.030576586603254175,0.4,0.13316890447278384,0.14919149663105147,0.5357634574304229,0.14494042152355757,-0.0481540453620255,-0.007058519986458123,1.2696650810539722,-0.006471043949631729,-0.8676134049892426,1.0572202503681183,23.389112949371338,0.0,0.0,0.0,0.0,0.0,0.0,0.0,0.0,0.0,0.0,0.0,0.0,0.0,0.0,0.0,0.0,False,0,0.6914699077606201,0.02993212890625
STABILIZE,0.6078996658325195,27.85839344305849,0.03242305119832357,0.0342104434967041,0.0,0.0,0.0,-0.7756752355692582,-1.298718742490964,0.4780350148905548,-0.0019315548401899964,0.0009450362182468293,0.030912276157701535,0.4,0.12827447752850418,0.14444074768264498,0.5441906512760547,0.14610521466706072,-0.06351758493110538,-0.037060744944028556,1.2257386930286884,0.3386451012783163,-0.9599227458238602,-1.0047493502497673,15.687273442745209,0.0,0.0,0.0,0.0,0.0,0.0,0.0,0.0,0.0,0.0,0.0,0.0,0.0,0.0,0.0,0.0,False,0,0.720043420791626,0.0349208984375
STABILIZE,0.640596866607666,30.582319829673054,0.03162506421407064,0.03178286552429199,0.0,0.0,0.0,-0.7767933055198776,-1.2990404017121893,0.47909764291502066,-0.0020243665658052083,0.0005366500880500122,0.03144460847350599,0.4,0.12399886354152645,0.14044961472019252,0.5572292163136859,0.1482712781245194,-0.06351758493110538,-0.037060744944028556,1.2257386930286884,0.3386451012783163,-0.9599227458238602,-1.0047493502497673,15.687273442745209,0.0,0.0,0.0,0.0,0.0,0.0,0.0,0.0,0.0,0.0,0.0,0.0,0.0,0.0,0.0,0.0,False,0,0.7488243579864502,0.0349208984375
STABILIZE,0.6740689277648926,29.876513662136365,0.032405885060628255,0.03255057334899902,0.0,0.0,0.0,-0.7771423922194887,-1.2992809524370208,0.4797565427265153,-0.0019783096669745066,0.0020240290757099,0.0306759133977687,0.4,0.1223919705351464,0.13593967324195505,0.575367510797906,0.1439461089993921,0.1196748809888959,-0.0555840611923486,1.612323522567749,-0.07312250448016896,2.0242344588041306,1.122200582176447,23.317769169807434,0.0,0.0,0.0,0.0,0.0,0.0,0.0,0.0,0.0,0.0,0.0,0.0,0.0,0.0,0.0,0.0,False,0,0.7776167392730713,0.034922119140625
STABILIZE,0.7075104713439941,29.90228635388224,0.03240397771199544,0.03252673149108887,0.0,0.0,0.0,-0.7778851752917276,-1.2993450921821954,0.480997982969018,-0.002582174351155482,0.001954990850932585,0.029465188917239604,0.4,0.11796227790185632,0.13454786406481217,0.5906351561028618,0.13743273631006253,-0.055406964384019375,0.15362967969849706,1.4743215404450893,-0.19278254289085947,-1.8758639693260193,1.3496254570782185,24.861840903759003,0.0,0.0,0.0,0.0,0.0,0.0,0.0,0.0,0.0,0.0,0.0,0.0,0.0,0.0,0.0,0.0,False,0,0.806166410446167,0.029931884765625
STABILIZE,0.7414393424987793,29.473009626870915,0.03240707715352376,0.03303408622741699,0.0,0.0,0.0,-0.7781058224184307,-1.2997172307702554,0.4817301472315317,-0.0027106926760292987,0.0013222617126086218,0.02901552015949666,0.4,0.11132141220484025,0.13150935609145314,0.6030753520057351,0.13472731969220614,-0.15997379086911678,0.09161674533970654,1.6602110117673874,0.10612614530233586,-3.369434177875519,-0.6602884270250797,23.267927765846252,0.0,0.0,0.0,0.0,0.0,0.0,0.0,0.0,0.0,0.0,0.0,0.0,0.0,0.0,0.0,0.0,False,1,0.8352100849151611,0.034921142578125
STABILIZE,0.7755541801452637,29.31378290922052,0.03242519696553548,0.03325247764587402,0.0,0.0,0.0,-0.7773833698311432,-1.2996697396111825,0.4826580924633014,-0.0023785183171437375,0.00021066314235150362,0.028152851097193857,0.4,0.10488119902171125,0.12596187773026404,0.6258472014784615,0.12997018347363,0.05529590416699648,0.02606908674351871,1.316255610436201,0.05404775380977369,3.2274264842271805,1.033597532659769,19.596654176712036,0.0,0.0,0.0,0.0,0.0,0.0,0.0,0.0,0.0,0.0,0.0,0.0,0.0,0.0,0.0,0.0,False,0,0.8924386501312256,0.029931884765625
STABILIZE,0.8090226650238037,29.87821627012395,0.03246811230977376,0.032595157623291016,0.0,0.0,0.0,-0.7768352471502497,-1.3004843463914124,0.4833147511189746,-0.0018948532943462086,0.0010883547900634428,0.02748975768096544,0.4,0.10477723476741392,0.12254457938181668,0.6388281986223577,0.12623238020318137,0.24191795382648706,0.06559371831826866,1.8014350906014442,0.043687930984024625,4.075540602207184,1.207051333039999,27.430233359336853,0.0,0.0,0.0,0.0,0.0,0.0,0.0,0.0,0.0,0.0,0.0,0.0,0.0,0.0,0.0,0.0,False,0,0.9217760562896729,0.034922119140625
STABILIZE,0.8425102233886719,29.86098632360584,0.03244736989339193,0.0325779914855957,0.0,0.0,0.0,-0.7766837556888929,-1.3009899938334049,0.48369489383496816,-0.0017157756716970941,0.00196845843007302,0.025953797880751663,0.4,0.10284643786760167,0.11906542027908326,0.6473615972779975,0.11815732373813928,0.10215985821560025,0.02945848391391337,1.2393943965435028,-0.25818712704200575,6.042659655213356,0.9617224335670471,16.55425727367401,0.0,0.0,0.0,0.0,0.0,0.0,0.0,0.0,0.0,0.0,0.0,0.0,0.0,0.0,0.0,0.0,False,0,0.9504377841949463,0.0349208984375
STABILIZE,0.880115270614624,26.595378801329037,0.03238061269124349,0.036611080169677734,0.0,0.0,0.0,-0.7762132196881025,-1.3019009703139552,0.4844886365217177,-0.0020918187656833328,0.00284772320388501,0.024386849214625906,0.4,0.10093533198087208,0.11554713040235483,0.6550538725219271,0.10990984826551004,0.10215985821560025,0.02945848391391337,1.2393943965435028,-0.25818712704200575,6.042659655213356,0.9617224335670471,16.55425727367401,0.0,0.0,0.0,0.0,0.0,0.0,0.0,0.0,0.0,0.0,0.0,0.0,0.0,0.0,0.0,0.0,False,0,0.9801986217498779,0.0349208984375
STABILIZE,0.9137477874755859,29.728915192968778,0.032349379857381184,0.0328068733215332,0.0,0.0,0.0,-0.7762551613184746,-1.3021714031164056,0.48488478749357844,-0.0006821160149025581,0.001922699874007403,0.02360523195656153,0.4,0.09669460871830168,0.10628756520367182,0.6797218434810234,0.10564517364674281,-0.011302233906462789,-0.04240980779286474,1.4347746036946774,0.03682256367174366,0.6749005522578955,-1.0681902058422565,16.264082491397858,0.0,0.0,0.0,0.0,0.0,0.0,0.0,0.0,0.0,0.0,0.0,0.0,0.0,0.0,0.0,0.0,False,0,1.0363476276397705,0.02494384765625
STABILIZE,0.9473023414611816,29.803908192993674,0.03251174290974935,0.032639503479003906,0.0,0.0,0.0,-0.7761389947417315,-1.3033281596853705,0.48642099308744946,-0.00021156130646373295,0.0013420074500989393,0.023125664258000358,0.4,0.09240763119317044,0.10113655500050282,0.6807210860795694,0.10290265097882782,-0.0113835689262487,-0.03539313329383731,1.5489938668906689,0.10845851483165637,-0.22892584092915058,-0.9839311242103577,19.38241720199585,0.0,0.0,0.0,0.0,0.0,0.0,0.0,0.0,0.0,0.0,0.0,0.0,0.0,0.0,0.0,0.0,False,0,1.0649054050445557,0.0349208984375
STABILIZE,0.980708122253418,29.934511404835995,0.03240469296773275,0.03253674507141113,0.0,0.0,0.0,-0.7762472105513939,-1.302608641944992,0.48657824752091844,0.00012698303744359065,0.00022177555515324972,0.02212942248494349,0.4,0.08598119166808374,0.09687699114868616,0.68962081785062,0.09759521060261539,-0.17739468021318316,-0.018383249698672444,1.4481281861662865,-0.08521508760141208,-6.269723176956177,0.9309588000178337,19.300934672355652,0.0,0.0,0.0,0.0,0.0,0.0,0.0,0.0,0.0,0.0,0.0,0.0,0.0,0.0,0.0,0.0,False,0,1.0939326286315918,0.02993212890625
STABILIZE,1.0141725540161133,29.883112349223765,0.032453091939290364,0.03258156776428223,0.0,0.0,0.0,-0.7755617903960126,-1.302414835327293,0.48681655708992844,-0.0009454993311371943,0.0007794438029729863,0.02169252694258428,0.4,0.08470666913871805,0.09350674648638818,0.6897889063407262,0.09509271005259641,0.14157447731122375,0.041718294960446656,1.2347766198217869,0.0932317620055567,8.479978144168854,-1.0494601912796497,15.86378961801529,0.0,0.0,0.0,0.0,0.0,0.0,0.0,0.0,0.0,0.0,0.0,0.0,0.0,0.0,0.0,0.0,False,0,1.1225666999816895,0.0349208984375
STABILIZE,1.0476148128509521,29.90228635388224,0.03241899808247884,0.0325319766998291,0.0,0.0,0.0,-0.7748999557376088,-1.3034712734928235,0.48861188298543684,-0.0009680018323774281,0.0008144948458872171,0.021549014844255854,0.4,0.08108118505166295,0.08907085022462721,0.6959251037948212,0.09406068134163083,-0.015657246694900095,-0.03814303199760616,1.3312369585037231,0.16424477189871647,1.2813162989914417,-1.040071528404951,18.395064771175385,0.0,0.0,0.0,0.0,0.0,0.0,0.0,0.0,0.0,0.0,0.0,0.0,0.0,0.0,0.0,0.0,False,0,1.1515812873840332,0.03493896484375
STABILIZE,1.081075668334961,29.884176926584587,0.03242925008138021,0.0325617790222168,0.0,0.0,0.0,-0.7747218372106597,-1.3039582446363043,0.48853061440648426,-0.0009563707443845305,0.0022101860154863373,0.021167453280466278,0.4,0.0815187136437182,0.08524288965132554,0.7013949371675914,0.09184559410296282,0.22534513846039772,-0.004287081173970364,1.326470635831356,0.08814894066451685,4.581985250115395,1.1084976606070995,27.109402418136597,0.0,0.0,0.0,0.0,0.0,0.0,0.0,0.0,0.0,0.0,0.0,0.0,0.0,0.0,0.0,0.0,False,0,1.1815943717956543,0.02993212890625
STABILIZE,1.1144869327545166,29.930666362196185,0.03242615063985189,0.03253769874572754,0.0,0.0,0.0,-0.7749481939486221,-1.3039063778872946,0.48908433997693135,-0.0007495772380237194,0.0018789410998797367,0.021366113595683828,0.4,0.07890870312360093,0.08135628972445928,0.701568387212837,0.09252958600111487,0.04623297427315265,-0.008212517423089594,1.304174493998289,0.27012861890828876,-1.0435471311211586,0.9317505173385143,21.12567126750946,0.0,0.0,0.0,0.0,0.0,0.0,0.0,0.0,0.0,0.0,0.0,0.0,0.0,0.0,0.0,0.0,False,0,1.2104427814483643,0.0349208984375
STABILIZE,1.1480145454406738,29.82828290011734,0.032407315572102864,0.032524824142456055,0.0,0.0,0.0,-0.7743387062869043,-1.304156213400529,0.48897089480368566,-0.000317747321931767,0.0018228076717180645,0.021059100321235827,0.4,0.07545431477901476,0.07556326501682016,0.7088339262700012,0.09069129017408491,0.12053133687004447,0.08483394049108028,1.2409678660333157,0.034105509083827305,-1.3997768983244896,-0.9630986489355564,20.018592476844788,0.0,0.0,0.0,0.0,0.0,0.0,0.0,0.0,0.0,0.0,0.0,0.0,0.0,0.0,0.0,0.0,False,0,1.267591953277588,0.034921142578125
STABILIZE,1.1814687252044678,29.890352971358936,0.032349618275960286,0.032475948333740234,0.0,0.0,0.0,-0.7734194055133028,-1.3048137258298484,0.4892047220610528,-0.00024027031878980968,-2.0695131547896139e-07,0.019985956255212885,0.4,0.06783361552667999,0.07185874958895597,0.7135120756526431,0.08504108403792358,-0.2720656106248498,-0.017814768943935633,1.3797146268188953,-0.13319946770753258,-8.63431915640831,0.917353481054306,19.21602040529251,0.0,0.0,0.0,0.0,0.0,0.0,0.0,0.0,0.0,0.0,0.0,0.0,0.0,0.0,0.0,0.0,False,0,1.2961792945861816,0.029932861328125
STABILIZE,1.2149128913879395,29.901220485913083,0.03234365781148275,0.03249406814575195,0.0,0.0,0.0,-0.7736783123715286,-1.306589468292346,0.49016708504293705,-0.00028156460342353167,-0.00015594401058026882,0.019692840574946028,0.4,0.06483551674228648,0.06860747038890541,0.7117469706067507,0.0832966845349559,0.003918457514373586,0.004200598414172418,1.2657219544053078,0.10803721088776427,1.3796634040772915,-1.13879619166255,14.921329915523529,0.0,0.0,0.0,0.0,0.0,0.0,0.0,0.0,0.0,0.0,0.0,0.0,0.0,0.0,0.0,0.0,False,0,1.3248610496520996,0.0349208984375
STABILIZE,1.248427391052246,29.836558160710222,0.032369407018025716,0.03251385688781738,0.0,0.0,0.0,-0.77334219235917,-1.3061559647234617,0.4902898150045857,-0.0007286676892399617,-0.00011551995962343732,0.01945103960128493,0.4,0.06196376586441543,0.06546995855947031,0.7140806293205824,0.08181381441136205,0.003918457514373586,0.004200598414172418,1.2657219544053078,0.10803721088776427,1.3796634040772915,-1.13879619166255,14.921329915523529,0.0,0.0,0.0,0.0,0.0,0.0,0.0,0.0,0.0,0.0,0.0,0.0,0.0,0.0,0.0,0.0,False,0,1.3535642623901367,0.0349208984375
STABILIZE,1.2818994522094727,29.87715211739146,0.03231838544209798,0.0324406623840332,0.0,0.0,0.0,-0.7738991195807905,-1.306568337394601,0.4911273669515585,-0.000969209936242936,0.0006917061681180728,0.019374916744534718,0.4,0.058821228619344273,0.06324947052315529,0.7177228608115461,0.0811618790286605,-0.016430958930868655,0.05344340461306274,1.368179265409708,0.15360765940092078,3.0955590307712555,0.9466074407100677,20.723046362400055,0.0,0.0,0.0,0.0,0.0,0.0,0.0,0.0,0.0,0.0,0.0,0.0,0.0,0.0,0.0,0.0,False,0,1.3877573013305664,0.034921142578125
STABILIZE,1.3153469562530518,29.897170880526904,0.03226974805196126,0.03241539001464844,0.0,0.0,0.0,-0.7725238503192378,-1.3072664040721176,0.4928589799887154,-0.0010789056558497838,0.0008045194094372181,0.01890563926998657,0.4,0.05666785745216817,0.06085849451283884,0.7216970708176231,0.07855267204215262,0.03783324791584164,0.037367281038314104,1.4090287499129772,0.03364866681190998,1.9293690100312233,0.9411238133907318,20.36190629005432,0.0,0.0,0.0,0.0,0.0,0.0,0.0,0.0,0.0,0.0,0.0,0.0,0.0,0.0,0.0,0.0,False,0,1.41627836227417,0.034921142578125
STABILIZE,1.3488805294036865,29.820436254017007,0.032292874654134114,0.03243756294250488,0.0,0.0,0.0,-0.7730724532478074,-1.306545498949564,0.493880253352191,-0.0011875800655860393,0.0009120101296984418,0.018442840934434424,0.4,0.05460204304938579,0.05856314255663895,0.7253438366744608,0.07598438121107917,0.03783324791584164,0.037367281038314104,1.4090287499129772,0.03364866681190998,1.9293690100312233,0.9411238133907318,20.36190629005432,0.0,0.0,0.0,0.0,0.0,0.0,0.0,0.0,0.0,0.0,0.0,0.0,0.0,0.0,0.0,0.0,False,0,1.4459245204925537,0.034921142578125
STABILIZE,1.382166862487793,30.041714416685767,0.03224185307820638,0.03239250183105469,0.0,0.0,0.0,-0.772690282819404,-1.3060423061068045,0.49488327730397796,0.0002812370743298403,0.0006285552146157706,0.01747029009982358,0.4,0.05058594446366207,0.05018837020005472,0.7535705384382685,0.07088441131343304,0.021480879513546824,-0.08409001166000962,1.318982057273388,0.03943635833920986,1.1424727737903595,0.9825536049902439,23.775026202201843,0.0,0.0,0.0,0.0,0.0,0.0,0.0,0.0,0.0,0.0,0.0,0.0,0.0,0.0,0.0,0.0,False,0,1.5031354427337646,0.0349208984375
STABILIZE,1.4156193733215332,29.89312237189081,0.03243568738301595,0.03255724906921387,0.0,0.0,0.0,-0.7731678090919231,-1.3067880773868052,0.4951987466662679,0.00040909850365213236,-0.00019976791572158165,0.016975158689827387,0.4,0.04507025712140772,0.04752350753811943,0.7474879641485374,0.06818075380072715,-0.158782082144171,0.006572331767529249,1.0667381808161736,0.029625545318533626,-6.3803017139434814,-1.067807525396347,19.46558952331543,0.0,0.0,0.0,0.0,0.0,0.0,0.0,0.0,0.0,0.0,0.0,0.0,0.0,0.0,0.0,0.0,False,0,1.5332694053649902,0.02993212890625
STABILIZE,1.4500441551208496,29.04964539007092,0.032416375478108723,0.033545494079589844,0.0,0.0,0.0,-0.772717603576084,-1.30518405014891,0.4962136167273966,0.0005017290396255832,0.00018245165873471812,0.01652896451389535,0.4,0.044904310937229186,0.0450279400843078,0.7447911387505409,0.06572348737470919,0.12433896772563457,0.003923680560546927,1.4564844779670238,0.041999273433444756,3.0443405732512474,0.9105545468628407,20.862291753292084,0.0,0.0,0.0,0.0,0.0,0.0,0.0,0.0,0.0,0.0,0.0,0.0,0.0,0.0,0.0,0.0,False,0,1.5620505809783936,0.034921875
STABILIZE,1.4852571487426758,28.39706977562931,0.03244951566060384,0.03433036804199219,0.0,0.0,0.0,-0.7719220999811891,-1.3055827624417096,0.4960878985579861,-0.0006970632690093786,0.00016779514713389574,0.016076940680695942,0.4,0.04116239430105656,0.04285247547201654,0.7461253871215555,0.06324065480688137,-0.07543246611021459,0.019798128050751984,1.4511718414723873,0.02989593143023754,1.2373453006148338,-1.0221805423498154,20.88133692741394,0.0,0.0,0.0,0.0,0.0,0.0,0.0,0.0,0.0,0.0,0.0,0.0,0.0,0.0,0.0,0.0,False,0,1.590670108795166,0.0349208984375
STABILIZE,1.518862009048462,29.757600266763156,0.03243735631306966,0.03267669677734375,0.0,0.0,0.0,-0.7716099389917783,-1.3058070914672621,0.49631516243044765,-0.0007638019576488828,0.00043849813449908586,0.015638417949965237,0.4,0.037509947752108294,0.04078976091620894,0.7474103984481782,0.06084385475035634,-0.07543246611021459,0.019798128050751984,1.4511718414723873,0.02989593143023754,1.2373453006148338,-1.0221805423498154,20.88133692741394,0.0,0.0,0.0,0.0,0.0,0.0,0.0,0.0,0.0,0.0,0.0,0.0,0.0,0.0,0.0,0.0,False,0,1.619422435760498,0.0349208984375
STABILIZE,1.5522723197937012,29.931307134038864,0.0323977788289388,0.03251218795776367,0.0,0.0,0.0,-0.772281538686261,-1.305899939351292,0.4967745460129839,-0.0010158766900792596,-0.0006713451349366779,0.014569222836913254,0.4,0.03250743986534392,0.03975783212989247,0.7473232966901288,0.05531288589401784,-0.15537479193881154,0.07084489916451275,1.3785136863589287,-0.1481991634344756,-7.118070870637894,1.0107197798788548,21.627941727638245,0.0,0.0,0.0,0.0,0.0,0.0,0.0,0.0,0.0,0.0,0.0,0.0,0.0,0.0,0.0,0.0,True,0,1.6481943130493164,0.034921142578125
STABILIZE,1.5886318683624268,27.503993494996656,0.03241756757100423,0.03541159629821777,0.0,0.0,0.0,-0.7719503278723683,-1.3068417584048133,0.49774918199103296,-0.0005146260592167904,-0.0011129294986432588,0.0133329598194982,0.4,0.02709980075360483,0.03545566412749088,0.7469828976478141,0.04895387435331062,0.0840407854411751,0.02043581916950643,1.5480395406484604,-0.15459962431594612,3.450305759906769,-1.0329149663448334,20.372916758060455,0.0,0.0,0.0,0.0,0.0,0.0,0.0,0.0,0.0,0.0,0.0,0.0,0.0,0.0,0.0,0.0,True,0,1.7054932117462158,0.034921142578125
STABILIZE,1.6279771327972412,25.41524925620035,0.03236583073933919,0.038428306579589844,0.0,0.0,0.0,-0.7719561975661863,-1.3066863716011954,0.49922252850019877,2.7226750007826478e-05,-0.0011476999472570357,0.013172221757352451,0.4,0.023258339241295892,0.03064926669503442,0.7469248155426138,0.04796126078800586,-0.11038098018616438,-0.15752471517771482,1.3670947402715683,0.08880726017673633,0.22612093016505241,-1.0530400089919567,22.70486205816269,0.0,0.0,0.0,0.0,0.0,0.0,0.0,0.0,0.0,0.0,0.0,0.0,0.0,0.0,0.0,0.0,True,0,1.7340221405029297,0.029931884765625
STABILIZE,1.6686780452728271,24.569329810852132,0.03241113026936849,0.039789438247680664,0.0,0.0,0.0,-0.7715277099174738,-1.3073700308484315,0.49868310363832646,0.00047792329713381977,-0.00040861424653107096,0.012157413750596525,0.4,0.021901992406698767,0.027230448325661016,0.7423834636781139,0.04271338458351019,0.013466215750668198,-0.09249008144252002,1.3287982903420925,-0.1616545160374817,-1.0799994692206383,0.7241313811391592,13.43400627374649,0.0,0.0,0.0,0.0,0.0,0.0,0.0,0.0,0.0,0.0,0.0,0.0,0.0,0.0,0.0,0.0,True,1,1.7628788948059082,0.0349208984375
STABILIZE,1.7021300792694092,29.894400729843767,0.03240636189778646,0.03256535530090332,0.0,0.0,0.0,-0.7690950419950385,-1.3076327796880653,0.49926575079104024,-7.865452384876384e-06,-0.0002566480448657868,0.011405897447414996,0.4,0.018220508393079864,0.025883250337059342,0.7418538020391526,0.03882588094302606,-0.11431125458329916,0.028357631526887417,1.3275695964694023,-0.08675071289600797,-1.2312619015574455,-1.068209484219551,18.01367700099945,0.0,0.0,0.0,0.0,0.0,0.0,0.0,0.0,0.0,0.0,0.0,0.0,0.0,0.0,0.0,0.0,True,0,1.7914810180664062,0.034921142578125
STABILIZE,1.7366676330566406,28.954390131092993,0.03243997891743978,0.03361177444458008,0.0,0.0,0.0,-0.7688199667983868,-1.307241858079788,0.5002931072917454,0.00012580154652415382,-0.0007727489867942471,0.010358975748579273,0.4,0.01298782274786115,0.02162670068683605,0.7419516986424115,0.03347583070620846,-0.008772497676545754,-0.0782867893576622,1.4110401272773743,0.035804525309974584,-0.16165595734491944,-0.9878210723400116,20.93232125043869,0.0,0.0,0.0,0.0,0.0,0.0,0.0,0.0,0.0,0.0,0.0,0.0,0.0,0.0,0.0,0.0,True,0,1.856698989868164,0.0349208984375
STABILIZE,1.7700912952423096,29.918496907790086,0.032381327946980794,0.03251838684082031,0.0,0.0,0.0,-0.7690671876298296,-1.3083257237237043,0.5001948699615736,0.00023428480317262424,-0.0009005531069065268,0.01009165554201025,0.4,0.01145218173805522,0.01869646993872141,0.7426127971122635,0.03203202334447,-0.008772497676545754,-0.0782867893576622,1.4110401272773743,0.035804525309974584,-0.16165595734491944,-0.9878210723400116,20.93232125043869,0.0,0.0,0.0,0.0,0.0,0.0,0.0,0.0,0.0,0.0,0.0,0.0,0.0,0.0,0.0,0.0,True,0,1.885307788848877,0.0349208984375
STABILIZE,1.80350923538208,29.9229792394949,0.032412322362264,0.03252553939819336,0.0,0.0,0.0,-0.7679427677377162,-1.308913867044266,0.5010607031605785,-7.61129470875791e-05,-0.00029039942149024055,0.008758104096912512,0.4,0.010907477825851632,0.018864175650330706,0.7399776676509353,0.025279746033033693,0.04200219118501991,0.09410662460140884,1.2262474745512009,-0.27388578324075114,-3.7284716963768005,1.0295226238667965,21.10835313796997,0.0,0.0,0.0,0.0,0.0,0.0,0.0,0.0,0.0,0.0,0.0,0.0,0.0,0.0,0.0,0.0,True,0,1.9139552116394043,0.0349208984375
STABILIZE,1.8369598388671875,29.895466111661523,0.032448561986287434,0.03257489204406738,0.0,0.0,0.0,-0.7673291712903257,-1.3098877026095217,0.501622486219812,-0.0007317007616617003,-0.00018767808791862015,0.008480042560332681,0.4,0.006940944596418679,0.018121362974295188,0.7383856111666658,0.023809816352030628,-0.1596186077222228,0.036270657437853515,1.2902608141303062,0.024131143381514345,-5.741939693689346,0.9556807577610016,18.392416834831238,0.0,0.0,0.0,0.0,0.0,0.0,0.0,0.0,0.0,0.0,0.0,0.0,0.0,0.0,0.0,0.0,True,0,1.942723274230957,0.0349208984375
STABILIZE,1.870398998260498,29.90335229784261,0.03244164784749349,0.03257179260253906,0.0,0.0,0.0,-0.7663530945692486,-1.3102216348269118,0.5015404705889189,-0.0011669640856817446,-0.0007734286581351259,0.008224196293460372,0.4,0.003050964990375841,0.01746236701580033,0.7367420570381848,0.022455472782956707,-0.1596186077222228,0.036270657437853515,1.2902608141303062,0.024131143381514345,-5.741939693689346,0.9556807577610016,18.392416834831238,0.0,0.0,0.0,0.0,0.0,0.0,0.0,0.0,0.0,0.0,0.0,0.0,0.0,0.0,0.0,0.0,True,0,1.9714195728302002,0.0349208984375
STABILIZE,1.9042108058929443,29.575675523213178,0.03246048291524251,0.03303027153015137,0.0,0.0,0.0,-0.7662129689695576,-1.3100127804486974,0.5012663025267664,-0.0011019143237452455,-0.0013516874259597396,0.007384065023221094,0.4,2.228085311885286e-05,0.01731064229707877,0.7354194105356736,0.018193194380529173,-0.11509127216413617,0.06087900837883353,1.3108700513839722,-0.14851432597186143,-2.055837959051132,-0.9881844744086266,19.927415251731873,0.0,0.0,0.0,0.0,0.0,0.0,0.0,0.0,0.0,0.0,0.0,0.0,0.0,0.0,0.0,0.0,True,0,2.000053882598877,0.0349208984375
STABILIZE,1.9377532005310059,29.814077138510967,0.03254535992940267,0.03266143798828125,0.0,0.0,0.0,-0.7660505918942111,-1.3112985635599523,0.5018177335805392,-0.0008981370667622527,-0.00047222514977439113,0.008235661419555508,0.4,0.0004089358108982904,0.015763186139145482,0.7292102896277193,0.02237630546383289,0.018543287296779454,0.06698099314235151,1.119894813746214,0.21605497174464985,-1.707911305129528,-1.0456785559654236,16.484013199806213,0.0,0.0,0.0,0.0,0.0,0.0,0.0,0.0,0.0,0.0,0.0,0.0,0.0,0.0,0.0,0.0,True,0,2.057405948638916,0.0299326171875
STABILIZE,1.971214771270752,29.885028643087182,0.03243521054585775,0.03256678581237793,0.0,0.0,0.0,-0.7658612675881549,-1.311418945644074,0.5016910549157766,-0.0010807646343694035,0.00025609599552510904,0.008741633906310359,0.4,0.00020444175001233097,0.015973903552611895,0.7211586144764244,0.024823135968900293,0.018543287296779454,0.06698099314235151,1.119894813746214,0.21605497174464985,-1.707911305129528,-1.0456785559654236,16.484013199806213,0.0,0.0,0.0,0.0,0.0,0.0,0.0,0.0,0.0,0.0,0.0,0.0,0.0,0.0,0.0,0.0,True,0,2.086132049560547,0.0299326171875
STABILIZE,2.00467848777771,29.88332525862806,0.032427342732747395,0.032572269439697266,0.0,0.0,0.0,-0.7643200994349649,-1.3110001696705875,0.5028721973945127,-0.0009779754024215946,0.00011669373590477885,0.00881154980337764,0.4,-0.003002425889340907,0.015384209285051229,0.7140830108930005,0.02508875675722283,-0.16034281579777598,0.018411199562251568,1.1499211192131042,0.08869470879777656,-2.841389738023281,-1.1013478972017765,13.630194962024689,0.0,0.0,0.0,0.0,0.0,0.0,0.0,0.0,0.0,0.0,0.0,0.0,0.0,0.0,0.0,0.0,True,0,2.1148123741149902,0.034921142578125
STABILIZE,2.0380890369415283,29.930666362196185,0.03242090543111165,0.03254246711730957,0.0,0.0,0.0,-0.7645008860045587,-1.3112257793566093,0.5019777627783585,-0.0013293885173002687,-0.00021615842302715225,0.008276149264382648,0.4,-0.004114254417296837,0.015561320024022553,0.7130007913663876,0.02233706717795976,-0.02832808531820774,0.06384527077898383,1.2872852385044098,-0.09093390360784327,-0.34861103631556034,1.0141823440790176,21.01331800222397,0.0,0.0,0.0,0.0,0.0,0.0,0.0,0.0,0.0,0.0,0.0,0.0,0.0,0.0,0.0,0.0,True,0,2.1436290740966797,0.034921142578125
STABILIZE,2.0716028213500977,29.840166762711743,0.03246191342671712,0.03258919715881348,0.0,0.0,0.0,-0.7631152647375452,-1.3117819061654366,0.5027902351244726,-0.0014380113248093943,-0.00035347082126882876,0.008589042598375837,0.4,-0.004886981347734357,0.016206691176148435,0.7106622463847085,0.023821841534895288,-0.012980052269995213,0.0882964872289449,1.2140130624175072,0.15594775958380383,-0.6580556742846966,-0.9863651357591152,18.396782875061035,0.0,0.0,0.0,0.0,0.0,0.0,0.0,0.0,0.0,0.0,0.0,0.0,0.0,0.0,0.0,0.0,True,0,2.172576427459717,0.0298466796875
STABILIZE,2.1050190925598145,29.924687147729056,0.03238657315572103,0.03252124786376953,0.0,0.0,0.0,-0.759539447263632,-1.317225887099054,0.4814898099501118,-0.001000763195315474,0.0005792366449438725,0.008853764649287832,0.4,-0.0036037066776143786,0.013776011008978156,0.7122623669661862,0.02506163226245443,0.09245461551472545,-0.09666430996730924,1.6418242827057838,0.13983110114393893,-2.1597053855657578,0.9785303846001625,22.362639009952545,0.0,0.0,0.0,0.0,0.0,0.0,0.0,0.0,0.0,0.0,0.0,0.0,0.0,0.0,0.0,0.0,True,0,2.200937032699585,0.03991015625
STABILIZE,2.1384692192077637,29.893548479060353,0.03243544896443685,0.03256368637084961,0.0,0.0,0.0,-0.7625154353902006,-1.3134923349439958,0.48090673591057487,0.0030200877688908888,-0.002419561130445779,0.005613545167720802,0.4,-0.01763820045802437,-0.0035982156671614945,0.6966190895464003,0.00883099821196853,-0.7525511085987091,-1.0320553556084633,0.8703693747520447,-1.1593939824801052,-18.81718635559082,-34.88719165325165,-1.6204321756958961,0.0,0.0,0.0,0.0,0.0,0.0,0.0,0.0,0.0,0.0,0.0,0.0,0.0,0.0,0.0,0.0,True,0,2.258270740509033,0.02993310546875
STABILIZE,2.1719112396240234,29.903565495754343,0.03239253362019857,0.03250837326049805,0.0,0.0,0.0,-0.7647612336058125,-1.3130686497720434,0.471288335455316,0.00310241770803774,0.0012740853934258942,0.016785007389197668,0.4,-0.0022156859258031895,-0.003401804466110384,0.7026744565505848,0.064472688861592,0.9250940755009651,0.04568736476358026,1.8819021061062813,3.380764773577422,41.02848768234253,7.083752751350403,30.707502365112305,0.0,0.0,0.0,0.0,0.0,0.0,0.0,0.0,0.0,0.0,0.0,0.0,0.0,0.0,0.0,0.0,True,0,2.2870001792907715,0.0349208984375
STABILIZE,2.2053420543670654,29.91316254920979,0.03242376645406087,0.03255105018615723,0.0,0.0,0.0,-0.7642505168827954,-1.3210773667390008,0.49728275477591516,0.003689479979264537,-0.0013110573626375103,0.00750867915679685,0.4,-0.012352754963701643,-0.008060061257522486,0.7103929484265952,0.01803074965965063,-0.5917858332395554,-0.23178597912192345,1.7684133723378181,-2.730501522844824,-15.612664818763733,-27.613428235054016,45.074087381362915,0.0,0.0,0.0,0.0,0.0,0.0,0.0,0.0,0.0,0.0,0.0,0.0,0.0,0.0,0.0,0.0,True,0,2.3155698776245117,0.0349208984375
STABILIZE,2.2391552925109863,29.572339105420497,0.03244474728902181,0.032828569412231445,0.0,0.0,0.0,-0.7680758497048257,-1.3187489125622611,0.5149435962571582,0.0012768645368618399,-0.0008481675475875386,-0.0019434453826244385,0.4,-0.022575090324699593,-0.012665270745663475,0.7181749427270205,-0.029131699242125855,-0.5917858332395554,-0.23178597912192345,1.7684133723378181,-2.730501522844824,-15.612664818763733,-27.613428235054016,45.074087381362915,0.0,0.0,0.0,0.0,0.0,0.0,0.0,0.0,0.0,0.0,0.0,0.0,0.0,0.0,0.0,0.0,True,0,2.3442623615264893,0.0349208984375
STABILIZE,2.273066759109497,29.48979462697481,0.03234389623006185,0.032945871353149414,0.0,0.0,0.0,-0.7561419083992267,-1.3165940946008279,0.48907222706332515,-0.001621731806756929,-0.0012229758076989013,-0.004035245709774567,0.4,-0.010661843354149861,0.00029708139452054236,0.7158057592659296,-0.03945690425461264,0.7197893690317869,0.8035231381654739,1.1663319543004036,-0.5239862864705791,30.526632070541382,64.11162614822388,26.848408579826355,0.0,0.0,0.0,0.0,0.0,0.0,0.0,0.0,0.0,0.0,0.0,0.0,0.0,0.0,0.0,0.0,True,0,2.3728950023651123,0.02993310546875
STABILIZE,2.306617021560669,29.807932571014348,0.03235033353169759,0.03258919715881348,0.0,0.0,0.0,-0.754498554212751,-1.3167557779850867,0.48777262349117156,-0.0003729414644759501,-0.0024317594618366183,-0.0036499159395560012,0.4,-0.0247707359584176,-0.009226499218270177,0.7123618880251517,-0.03740466278874507,-0.8500880561769009,-0.5521591287106276,1.31160793825984,0.14664341442823328,-18.75307261943817,-90.14480113983154,41.41480326652527,0.0,0.0,0.0,0.0,0.0,0.0,0.0,0.0,0.0,0.0,0.0,0.0,0.0,0.0,0.0,0.0,True,0,2.401585102081299,0.0349208984375
STABILIZE,2.348362922668457,23.952532422662458,0.032347710927327473,0.0408780574798584,0.0,0.0,0.0,-0.7547259248069185,-1.3126262883015793,0.4799340209232299,-0.0010957844795842753,-0.0013374921876957223,-0.012099521252487755,0.4,-0.029646759778815618,-0.010210691818284857,0.7362177436009674,-0.07932073137848526,0.5284651648253202,0.328252580948174,1.5917547047138214,0.13118104008608802,29.083752632141113,9.741686284542084,24.95448887348175,0.0,0.0,0.0,0.0,0.0,0.0,0.0,0.0,0.0,0.0,0.0,0.0,0.0,0.0,0.0,0.0,True,0,2.4612386226654053,0.029932861328125
STABILIZE,2.3818633556365967,29.850572912959933,0.03247025807698568,0.03265023231506348,0.0,0.0,0.0,-0.75474219986705,-1.3145070449225658,0.481719741865218,0.00032282627330105005,-0.003293556372234024,-0.01631341822060551,0.4,-0.02793168404569076,-0.005291525903211663,0.7393586664950257,-0.10005512740121722,0.07570310262963176,0.29817582108080387,1.7106086015701294,-1.2750791376084325,1.4383940026164055,-15.786789357662201,27.436888217926025,0.0,0.0,0.0,0.0,0.0,0.0,0.0,0.0,0.0,0.0,0.0,0.0,0.0,0.0,0.0,0.0,True,0,2.487804412841797,0.034921142578125
STABILIZE,2.4153342247009277,29.876726477522848,0.03247240384419759,0.03258872032165527,0.0,0.0,0.0,-0.7612375496851735,-1.3043733920717941,0.48785143747089116,0.0004425518871187841,-0.0018059625675903356,-0.014051406003634838,0.4,-0.03363678478794117,-0.014038226958519943,0.7441807071744029,-0.08844915006938969,-0.35065615084022284,-0.5125086754560471,1.570158638060093,0.7317371088862422,-11.266067624092102,-9.69482958316803,36.23696565628052,0.0,0.0,0.0,0.0,0.0,0.0,0.0,0.0,0.0,0.0,0.0,0.0,0.0,0.0,0.0,0.0,True,0,2.5163960456848145,0.0349208984375
STABILIZE,2.4488413333892822,29.84589986622264,0.03243878682454427,0.03262662887573242,0.0,0.0,0.0,-0.7559807052626438,-1.3061715460925059,0.45256470586704833,-0.0016393624257007957,-0.0014239099473764016,-0.011285024496578639,0.4,-0.03534628005626716,-0.005625699050923173,0.7405423967840356,-0.07436818391342297,-0.11388850398361683,0.5125084891915321,1.0764993727207184,0.8420536819660867,13.91991376876831,23.192815482616425,26.813238859176636,0.0,0.0,0.0,0.0,0.0,0.0,0.0,0.0,0.0,0.0,0.0,0.0,0.0,0.0,0.0,0.0,True,0,2.5460922718048096,0.02993310546875
STABILIZE,2.482741355895996,29.499127890620603,0.03243854840596517,0.03296852111816406,0.0,0.0,0.0,-0.751446633592519,-1.3049532110993047,0.47766218261140725,-0.003869914855368563,-0.0027558157208989738,-0.010375305954964109,0.4,-0.039691238731961,0.008500606496634238,0.7372835314763541,-0.06958412557085181,-0.16004545614123344,0.4215370398014784,1.3147025369107723,0.0897341315213416,12.760883569717407,-16.056987643241882,15.08261263370514,0.0,0.0,0.0,0.0,0.0,0.0,0.0,0.0,0.0,0.0,0.0,0.0,0.0,0.0,0.0,0.0,True,0,2.6035959720611572,0.0349208984375
STABILIZE,2.516376495361328,29.729758082236447,0.032360108693440755,0.032648324966430664,0.0,0.0,0.0,-0.7360156887927263,-1.278757941528425,0.5042884477910855,0.0016212797787538411,-0.0030480532982536525,-0.00680519087568837,0.4,-0.04589078997348946,-0.02317012594699237,0.7394745688972726,-0.05156018700164916,-0.393878435716033,-1.8922198563814163,1.4360329136252403,1.0274554317263804,1.084752194583416,-29.3448805809021,39.490148425102234,0.0,0.0,0.0,0.0,0.0,0.0,0.0,0.0,0.0,0.0,0.0,0.0,0.0,0.0,0.0,0.0,True,0,2.6323225498199463,0.0349208984375
STABILIZE,2.549933671951294,29.80242580131735,0.032364638646443684,0.0325007438659668,0.0,0.0,0.0,-0.7371664689461677,-1.2751027231054102,0.5129628947587075,-0.003536118046218117,-0.003208193267339085,-0.01252226517114073,0.4,-0.048066791351004966,0.006622960200227245,0.7454760225454425,-0.0798782561470335,-0.15660016797482967,1.7823195084929466,1.6704898327589035,-1.7470935541890327,-11.265933513641357,76.23969912528992,31.850773096084595,0.0,0.0,0.0,0.0,0.0,0.0,0.0,0.0,0.0,0.0,0.0,0.0,0.0,0.0,0.0,0.0,True,0,2.660956382751465,0.02993212890625
STABILIZE,2.583341598510742,29.930452777678667,0.032245906194051106,0.03238821029663086,0.0,0.0,0.0,-0.7465356742184269,-1.2911991311016031,0.48619324896731186,-0.011031750556874928,-0.008383106912323425,-0.01216907503178679,0.4,-0.07438590001786588,0.05142943452361095,0.74516162638717,-0.07785156800339042,-1.6397414728999138,2.6856571435928345,1.524368580430746,0.019090592173597203,-24.4808167219162,56.73023462295532,-2.125702053308487,0.0,0.0,0.0,0.0,0.0,0.0,0.0,0.0,0.0,0.0,0.0,0.0,0.0,0.0,0.0,0.0,True,0,2.689649820327759,0.034921875
STABILIZE,2.6167256832122803,29.95417928355139,0.03231314023335775,0.03244924545288086,0.0,0.0,0.0,-0.7531387062376839,-1.327231473902888,0.49285999384492035,-0.014472149423523172,-0.0022035435591585147,-0.01963761132965967,0.4,-0.0528384033277775,0.039060574258784134,0.7380627553861167,-0.11481058983738393,1.2640796601772308,-0.7698293309658766,0.8812480606138706,-2.2686925828229865,77.39458680152893,-102.27633714675903,64.70618844032288,0.0,0.0,0.0,0.0,0.0,0.0,0.0,0.0,0.0,0.0,0.0,0.0,0.0,0.0,0.0,0.0,True,0,2.7239599227905273,0.0349208984375
STABILIZE,2.6502180099487305,29.858435428872454,0.03238395055135091,0.03252673149108887,0.0,0.0,0.0,-0.7972062329889599,-1.320452724595062,0.5103665691004564,-0.005593494980090789,0.003272197454756214,-0.027192800544537387,0.4,-0.030762591776238826,0.026261597152196652,0.7306695714053146,-0.15207777581257803,1.2640796601772308,-0.7698293309658766,0.8812480606138706,-2.2686925828229865,77.39458680152893,-102.27633714675903,64.70618844032288,0.0,0.0,0.0,0.0,0.0,0.0,0.0,0.0,0.0,0.0,0.0,0.0,0.0,0.0,0.0,0.0,True,0,2.7600953578948975,0.0349208984375
STABILIZE,2.6835837364196777,29.97001786352269,0.03234532674153646,0.032477617263793945,0.0,0.0,0.0,-0.797105541059555,-1.3331263540434322,0.48143869025304253,0.014711336423036209,0.024919569636895008,-0.023667666288729808,0.4,0.04098075951491199,-0.02315987395180797,0.7422119052136288,-0.1340038567407102,4.18303981423378,-2.919169142842293,2.0166190341115,1.0166112257585158,105.0671935081482,-72.16557264328003,36.85433864593506,0.0,0.0,0.0,0.0,0.0,0.0,0.0,0.0,0.0,0.0,0.0,0.0,0.0,0.0,0.0,0.0,True,0,2.796066999435425,0.02993310546875
STABILIZE,2.7170357704162598,29.89312237189081,0.03244498570760091,0.03258013725280762,0.0,0.0,0.0,-0.8523660936740424,-1.3660752933212794,0.5249949133119196,0.011660771332958663,0.02970645137066121,-0.0354710904499658,0.4,0.08056502628338152,-0.02042170862519443,0.7431192591124329,-0.19237747703641847,2.326209284365177,0.173793057911098,1.6029134392738342,-3.663544850499705,-3.5324513912200928,1.5145940706133842,55.27515411376953,0.0,0.0,0.0,0.0,0.0,0.0,0.0,0.0,0.0,0.0,0.0,0.0,0.0,0.0,0.0,0.0,True,0,2.824723720550537,0.0349208984375
STABILIZE,2.750589370727539,29.810474843460153,0.03245046933492025,0.03257632255554199,0.0,0.0,0.0,-0.8239855904555815,-1.3572816382082997,0.5502042344039375,0.016673494719248064,0.032791605997861656,-0.025638534842187387,0.4,0.11312853938757873,-0.05344082874943899,0.775631992113507,-0.1427373191291269,1.8312392756342888,-1.9372686743736267,3.252408280968666,2.8891320259881357,-1.094760000705719,-40.02522826194763,-97.5460410118103,0.0,0.0,0.0,0.0,0.0,0.0,0.0,0.0,0.0,0.0,0.0,0.0,0.0,0.0,0.0,0.0,True,0,2.853426218032837,0.034921142578125
STABILIZE,2.784032106399536,29.8978102189781,0.03231695493062337,0.03244495391845703,0.0,0.0,0.0,-0.8171278670854771,-1.36431908093094,0.5081279212391318,0.0032801600441936785,0.025468640461895505,-0.03347941598380569,0.4,0.14331089489101959,-0.037962902616432925,0.8243608544976173,-0.1813351047349186,1.6974229365587234,0.9579204022884369,4.200404137372971,-2.422445263681851,-0.7840996608138084,127.13686227798462,-52.63018608093262,0.0,0.0,0.0,0.0,0.0,0.0,0.0,0.0,0.0,0.0,0.0,0.0,0.0,0.0,0.0,0.0,True,0,2.881997585296631,0.0349208984375
STABILIZE,2.817981243133545,29.453554675430464,0.03233483632405599,0.033048152923583984,0.0,0.0,0.0,-0.75841043833817,-1.319536198585811,0.4995537393140915,-0.00039208347076610307,0.01973305384347066,-0.04164782566448778,0.4,0.15267758259649053,-0.019294517741424506,0.8454150168364809,-0.22142356515142497,0.2878924598917365,0.5504987202584743,2.084602415561676,-1.3865123932567212,-70.10743618011475,-61.644941568374634,91.7649507522583,0.0,0.0,0.0,0.0,0.0,0.0,0.0,0.0,0.0,0.0,0.0,0.0,0.0,0.0,0.0,0.0,True,0,2.939457654953003,0.02993310546875
STABILIZE,2.8520708084106445,29.43453851336178,0.032428773244222005,0.03256654739379883,0.0,0.0,0.0,-0.7644261808105117,-1.2827446375695968,0.5402408560347401,-0.0022170981612253397,2.4639181368064473e-05,-0.031525506805405876,0.4,0.09494851938850316,-0.04034093209017092,0.8240460820388327,-0.17024254796596874,-3.376254066824913,-1.2917217798531055,0.32640653662383556,2.810319113485593,-91.27451777458191,9.530755877494812,30.447033047676086,0.0,0.0,0.0,0.0,0.0,0.0,0.0,0.0,0.0,0.0,0.0,0.0,0.0,0.0,0.0,0.0,True,0,2.968109607696533,0.0349208984375
STABILIZE,2.8848564624786377,30.3930667671483,0.0317871888478597,0.03190422058105469,0.0,0.0,0.0,-0.7358433332378893,-1.2078366722815974,0.5392898589145216,-0.003601688991259199,-0.022369414548524428,-0.035446634539795914,0.4,0.023523257002048742,-0.021170093462756372,0.8334980186364926,-0.18921571781338925,-4.248609021306038,1.1522448621690273,1.8950195983052254,-1.3323752466781424,-19.10274028778076,6.1800990253686905,81.36229515075684,0.0,0.0,0.0,0.0,0.0,0.0,0.0,0.0,0.0,0.0,0.0,0.0,0.0,0.0,0.0,0.0,True,0,2.99688458442688,0.06485400390625
STABILIZE,2.918309450149536,29.892696276868694,0.03243091901143392,0.032563209533691406,0.0,0.0,0.0,-0.7573866570146086,-1.3179926825550938,0.5098653506092538,-0.00859640395380677,-0.01363443020614351,-0.04862907819062517,0.4,0.06945559622591538,0.016607418249077528,0.8656898507537593,-0.2542773327320682,2.691941522061825,2.1378735080361366,1.6141753643751144,-3.307446534818743,161.96342706680298,8.70690569281578,168.69200468063354,0.0,0.0,0.0,0.0,0.0,0.0,0.0,0.0,0.0,0.0,0.0,0.0,0.0,0.0,0.0,0.0,True,0,3.0254263877868652,0.034921142578125
STABILIZE,2.9518883228302,29.782110726889293,0.032445462544759114,0.03256869316101074,0.0,0.0,0.0,-0.7851862739885009,-1.2561700790563697,0.47733614780024497,-0.010693663929231143,-0.011721503794319868,-0.060313169279835564,0.4,0.02750058561757681,0.00743734953294981,0.8532232741802297,-0.3116550010352406,-2.2587254643440247,-0.5525198765099049,0.865926593542099,-3.4407218816590865,-9.836867451667786,-33.01399648189545,88.18541169166565,0.0,0.0,0.0,0.0,0.0,0.0,0.0,0.0,0.0,0.0,0.0,0.0,0.0,0.0,0.0,0.0,True,0,3.0541646480560303,0.034921142578125
STABILIZE,2.9859681129455566,29.340235320452734,0.03229955037434896,0.033130645751953125,0.0,0.0,0.0,-0.7711499684398603,-1.3048294139205983,0.5071625166886328,-0.0047372244643858015,-0.007033310715874494,-0.07202069834960904,0.4,-0.014877899581314899,-0.0019661537474059392,0.840553706884341,-0.36893012424804394,-2.2587254643440247,-0.5525198765099049,0.865926593542099,-3.4407218816590865,-9.836867451667786,-33.01399648189545,88.18541169166565,0.0,0.0,0.0,0.0,0.0,0.0,0.0,0.0,0.0,0.0,0.0,0.0,0.0,0.0,0.0,0.0,True,0,3.0827410221099854,0.034921142578125
STABILIZE,3.019663095474243,29.68010925790952,0.03238848050435384,0.03282809257507324,0.0,0.0,0.0,-0.7555553125433989,-1.3040864174049478,0.5054552362003941,0.011027458828477056,-0.004650346204975455,-0.05014982816888658,0.4,0.036033476610489924,-0.03794318067060106,0.8019053268278693,-0.25870499252526025,4.027966037392616,0.8172300644218922,-1.0081404820084572,0.989101891824349,60.94517111778259,100.56713819503784,21.015068888664246,0.0,0.0,0.0,0.0,0.0,0.0,0.0,0.0,0.0,0.0,0.0,0.0,0.0,0.0,0.0,0.0,True,0,3.140176296234131,0.03492138671875
STABILIZE,3.054530382156372,28.680962800875275,0.03244641621907552,0.03336691856384277,0.0,0.0,0.0,-0.7454225668271264,-1.3024196378040531,0.505308280411533,0.007780637938717992,0.004928469117376704,-0.054237386331196034,0.4,0.041378584551923364,-0.03139690417533361,0.7908756515903131,-0.278189545810072,0.35444945096969604,0.3492895746603608,0.9427092969417572,-1.4677273979129926,-54.23076152801514,37.881284952163696,-46.48364782333374,0.0,0.0,0.0,0.0,0.0,0.0,0.0,0.0,0.0,0.0,0.0,0.0,0.0,0.0,0.0,0.0,True,0,3.1688239574432373,0.03489111328125
STABILIZE,3.0874626636505127,30.365122457992168,0.031757386525472005,0.0319058895111084,0.0,0.0,0.0,-0.7552438452450758,-1.2988710343651142,0.5166873755687743,0.010720250326907646,0.01580529349669042,-0.02324391129534549,0.4,0.052710549669711684,-0.05213277407706806,0.8301154483807586,-0.1228111812073581,0.6912932731211185,-1.1918562464416027,3.7654127925634384,8.348977354613467,87.06290125846863,-54.04379963874817,125.96924304962158,0.0,0.0,0.0,0.0,0.0,0.0,0.0,0.0,0.0,0.0,0.0,0.0,0.0,0.0,0.0,0.0,True,0,3.1975226402282715,0.02993310546875
STABILIZE,3.1208367347717285,29.961454389599258,0.03234389623006185,0.032471656799316406,0.0,0.0,0.0,-0.7512933278621639,-1.2929472326423033,0.5120408192207557,0.0006021237607509986,0.0033490867768745645,-0.053077004909576744,0.4,0.04224817016031661,-0.03913658558101586,0.8594503445353993,-0.27107020683039906,-0.5151949822902679,0.6810897495597601,3.446684032678604,-8.866213920080192,-26.63152813911438,-29.589489102363586,28.220736980438232,0.0,0.0,0.0,0.0,0.0,0.0,0.0,0.0,0.0,0.0,0.0,0.0,0.0,0.0,0.0,0.0,True,0,3.226174831390381,0.0349208984375
STABILIZE,3.154366970062256,29.824040957087497,0.03243759473164876,0.03254866600036621,0.0,0.0,0.0,-0.7627868820488557,-1.3029229373685185,0.5076426042820906,0.0012691171942051866,0.011156422800022329,-0.050329617844576874,0.4,0.08075550666798413,-0.03631797484542827,0.8788582249058181,-0.25647610780520513,2.2540653124451637,0.1276911236345768,2.6161575689911842,0.45808904824511926,66.89724326133728,-22.893212735652924,-15.366548299789429,0.0,0.0,0.0,0.0,0.0,0.0,0.0,0.0,0.0,0.0,0.0,0.0,0.0,0.0,0.0,0.0,True,0,3.25496506690979,0.034921142578125
STABILIZE,3.1890957355499268,28.79714383796773,0.032341750462849934,0.03375887870788574,0.0,0.0,0.0,-0.7544187797376795,-1.3176432756903653,0.5166374831713214,0.000995444425319241,0.01630808109839507,-0.034132760098678376,0.4,0.11404643119778862,-0.05366048037736222,0.8880783663651721,-0.17488421344863866,1.9476598128676414,-1.0268946178257465,2.0434197038412094,4.255210841125706,9.944887459278107,-17.926514148712158,-34.21952426433563,0.0,0.0,0.0,0.0,0.0,0.0,0.0,0.0,0.0,0.0,0.0,0.0,0.0,0.0,0.0,0.0,True,1,3.2836132049560547,0.029932861328125
STABILIZE,3.223905324935913,28.724174770579374,0.032340081532796223,0.03397798538208008,0.0,0.0,0.0,-0.7570224691936295,-1.3111997392603987,0.5084714050491894,0.004315889518544187,0.014163691578756618,-0.04962649331121941,0.4,0.09488327841381577,-0.05686308872162104,0.8954958935103893,-0.25147415077622914,-0.4562175367027521,-0.14725958462804556,1.8791772425174713,-2.6372382779360617,-35.11245548725128,13.585291802883148,61.49751543998718,0.0,0.0,0.0,0.0,0.0,0.0,0.0,0.0,0.0,0.0,0.0,0.0,0.0,0.0,0.0,0.0,True,0,3.3408937454223633,0.034921142578125
STABILIZE,3.2584822177886963,28.923441874577627,0.03251055081685384,0.033678531646728516,0.0,0.0,0.0,-0.7578929447868358,-1.3121029250564271,0.5088774811396878,0.001227283830426174,0.004631893155422487,-0.039775686908492786,0.4,0.08646256494533756,-0.04068404015430835,0.8910908542848662,-0.20152490343301244,-0.4018643405288458,0.8861837908625603,1.2800591066479683,2.490928582281807,4.914811626076698,13.095055520534515,34.688782691955566,0.0,0.0,0.0,0.0,0.0,0.0,0.0,0.0,0.0,0.0,0.0,0.0,0.0,0.0,0.0,0.0,True,0,3.3697290420532227,0.0349208984375
STABILIZE,3.292194366455078,29.66079952478272,0.032290013631184895,0.03277182579040527,0.0,0.0,0.0,-0.7514140834722556,-1.3164874796167523,0.5152308910891219,-0.0019130103663666776,-5.024806613560044e-05,-0.04345772426237968,0.4,0.09384910591563081,-0.04155072769756416,0.870000419362642,-0.2191941433174882,0.5235658958554268,-0.10934534948319197,0.3390871686860919,-1.4346931879922258,29.3040931224823,-1.8596213310956955,-5.864537879824638,0.0,0.0,0.0,0.0,0.0,0.0,0.0,0.0,0.0,0.0,0.0,0.0,0.0,0.0,0.0,0.0,True,0,3.3983964920043945,0.034921875
STABILIZE,3.32576584815979,29.788667774605475,0.032517226537068684,0.03263545036315918,0.0,0.0,0.0,-0.749068500461738,-1.3156562242504206,0.5134717972127263,-0.0028038604329864414,-0.0008702341694953945,-0.05078122254104958,0.4,0.07425333452173113,-0.040317124588680704,0.8656440460307343,-0.25495885489912645,-1.025312952697277,0.009852778748609126,1.3259797357022762,-2.4663539885349244,-8.766479790210724,-8.214163035154343,36.0112190246582,0.0,0.0,0.0,0.0,0.0,0.0,0.0,0.0,0.0,0.0,0.0,0.0,0.0,0.0,0.0,0.0,True,0,3.427081823348999,0.02993212890625
STABILIZE,3.3591854572296143,29.92105807574601,0.032376797993977864,0.03249335289001465,0.0,0.0,0.0,-0.7487023382892019,-1.3178359083693008,0.5131825813900586,0.0006541121378100735,0.002908763044610112,-0.045855338706738795,0.4,0.083639600080405,-0.041663754228973365,0.8581524752981279,-0.2295617512698327,0.6922158412635326,-0.1566238352097571,1.3981549069285393,0.9931282883400715,4.856556281447411,-2.5297440588474274,39.90468084812164,0.0,0.0,0.0,0.0,0.0,0.0,0.0,0.0,0.0,0.0,0.0,0.0,0.0,0.0,0.0,0.0,True,0,3.455778121948242,0.0349208984375
STABILIZE,3.3925750255584717,29.9507569265924,0.032401116689046223,0.03251910209655762,0.0,0.0,0.0,-0.7479510174805004,-1.3184049485045275,0.5165705153009436,3.3550831639888473e-06,-0.0008708268076826884,-0.04703647021348354,0.4,0.07344953102856909,-0.03960965714121417,0.830804723994959,-0.23468280589590929,-0.19089223351329565,0.002262780435557943,0.6688988301903009,-0.5193296449213642,-2.464931830763817,6.609492003917694,14.751964807510376,0.0,0.0,0.0,0.0,0.0,0.0,0.0,0.0,0.0,0.0,0.0,0.0,0.0,0.0,0.0,0.0,True,0,3.513019561767578,0.039910888671875
STABILIZE,3.4261271953582764,29.80454354885701,0.032451661427815755,0.032578468322753906,0.0,0.0,0.0,-0.7485366528409761,-1.3193547716859824,0.5149988247399002,-0.00039122896145401355,8.280566861613383e-05,-0.04886109879459673,0.4,0.06052150940888254,-0.036772192474602575,0.8329238100844533,-0.24299297779139742,-0.6242729257792234,0.10428872192278504,1.5214609913527966,-0.8196658159706658,-3.6773759871721268,1.0239770635962486,25.56770145893097,0.0,0.0,0.0,0.0,0.0,0.0,0.0,0.0,0.0,0.0,0.0,0.0,0.0,0.0,0.0,0.0,True,0,3.541733980178833,0.024943115234375
STABILIZE,3.4594650268554688,29.994236146370415,0.032343419392903645,0.032454729080200195,0.0,0.0,0.0,-0.7478791937725096,-1.3181362232493699,0.5146124388041184,-0.0006015141943578639,-0.0005172171122823086,-0.04423154391436428,0.4,0.0660108034511573,-0.03700891795024109,0.8233251530339875,-0.21911280114911239,0.4774638917297125,-0.10457126190885901,1.501428335905075,0.811070876673851,19.922570884227753,-6.753935664892197,26.7185777425766,0.0,0.0,0.0,0.0,0.0,0.0,0.0,0.0,0.0,0.0,0.0,0.0,0.0,0.0,0.0,0.0,True,0,3.5704104900360107,0.034922119140625
STABILIZE,3.4929850101470947,29.834223647990214,0.032448800404866536,0.03258943557739258,0.0,0.0,0.0,-0.7478957356369057,-1.316871357592448,0.5159248489809658,-0.0005235915024823472,0.004361790879342353,-0.04597215343330263,0.4,0.07837887706590649,-0.03545150843529952,0.8142452358418879,-0.22705575430605338,0.8493129163980484,0.021589336392935365,1.050459872931242,-0.8840450446530904,-9.784217923879623,4.717998951673508,15.383651852607727,0.0,0.0,0.0,0.0,0.0,0.0,0.0,0.0,0.0,0.0,0.0,0.0,0.0,0.0,0.0,0.0,True,0,3.5992541313171387,0.0349208984375
STABILIZE,3.5264432430267334,29.890352971358936,0.03237512906392415,0.032525062561035156,0.0,0.0,0.0,-0.7484171778913539,-1.3167165043973592,0.515673732807262,-0.0007687883829287215,0.0036689729790678445,-0.04209971412394312,0.4,0.06406950435201185,-0.03190980452116566,0.8094160942667106,-0.20700092974558884,-0.7063057273626328,0.13598493533208966,1.2984946370124817,0.7465607004584326,-10.037297755479813,-0.9316876530647278,24.76631999015808,0.0,0.0,0.0,0.0,0.0,0.0,0.0,0.0,0.0,0.0,0.0,0.0,0.0,0.0,0.0,0.0,True,0,3.627969980239868,0.02993212890625
STABILIZE,3.559835910797119,29.943487014006884,0.03234270413716634,0.03245258331298828,0.0,0.0,0.0,-0.7478930142334083,-1.3172828764899414,0.5170025247659469,-0.0009002555979055511,0.0007004496510325504,-0.042206071025132505,0.4,0.05586455326734519,-0.03156653872417493,0.7945892158859313,-0.2068417039375685,-0.3354068845510483,-0.0563550740480423,0.9119430556893349,-0.4640673313987316,-1.2815410271286964,-1.216532476246357,10.695178806781769,0.0,0.0,0.0,0.0,0.0,0.0,0.0,0.0,0.0,0.0,0.0,0.0,0.0,0.0,0.0,0.0,True,0,3.656532049179077,0.0349189453125
STABILIZE,3.5933260917663574,29.859710821758846,0.03240779240926107,0.032546043395996094,0.0,0.0,0.0,-0.7473490003381873,-1.3175925828801192,0.5184631713921247,-0.0014390867315362105,-0.001688582972686176,-0.03739560259943598,0.4,0.05614094153924191,-0.027874866608639883,0.7817149070800397,-0.18217934413255713,-0.16171818133443594,0.042595286504365504,1.2098124250769615,0.4002639730407037,-7.647497206926346,0.856983195990324,14.50493037700653,0.0,0.0,0.0,0.0,0.0,0.0,0.0,0.0,0.0,0.0,0.0,0.0,0.0,0.0,0.0,0.0,True,0,3.714028835296631,0.02993310546875
STABILIZE,3.626981258392334,29.71733031033017,0.032399924596150716,0.03254103660583496,0.0,0.0,0.0,-0.7468836403401273,-1.3181744296200395,0.5179053903968579,-0.0011647355801498189,1.1615776154481909e-05,-0.03464332172745734,0.4,0.05108810169463333,-0.025950739691666225,0.7727870826402231,-0.16785623443037806,-0.16171818133443594,0.042595286504365504,1.2098124250769615,0.4002639730407037,-7.647497206926346,0.856983195990324,14.50493037700653,0.0,0.0,0.0,0.0,0.0,0.0,0.0,0.0,0.0,0.0,0.0,0.0,0.0,0.0,0.0,0.0,True,0,3.7427968978881836,0.02993310546875
STABILIZE,3.6601638793945312,30.132143652521247,0.03214696248372396,0.032302141189575195,0.0,0.0,0.0,-0.7470409481344491,-1.317219056909884,0.5202262139716343,-0.0009990832872604025,0.0012762754227761525,-0.03355788271297788,0.4,0.049429985033492434,-0.02633948846682164,0.7669728246665323,-0.16188776589221798,0.0335388962412253,-0.09232059819623828,1.364810112863779,-0.07613395756359007,7.638657093048096,-0.9698267094790936,19.319726526737213,0.0,0.0,0.0,0.0,0.0,0.0,0.0,0.0,0.0,0.0,0.0,0.0,0.0,0.0,0.0,0.0,True,0,3.7715816497802734,0.0349208984375
