Mode,Time,Freq,North-Vision,East-Vision,Down-Vision,Yaw-Vision,North-Desired,East-Desired,Down-Desired,Roll-UAV,Pitch-UAV,Yaw-UAV,Roll-Control,Pitch-Control,Yaw-Control,Thrust-Control,northVraw,eastVraw,downVraw,yawVraw,zGyro
GUIDED_NOGPS,0.02792048454284668,35.847832961547994,267.16163723644075,57.65144533146033,12.940233577932128,-0.0002150378205653971,266.8069024664245,57.71760988951898,50,-0.30223250903933213,0.6619152332915225,100.68107281911162,-0.0037052152512845288,-0.024831433901137533,0.0002150378205653971,0.5037354150201067,267.16163723644075,57.65144533146033,12.940233577932128,-0.5378095892340582,-0.11459155902616465
GUIDED_NOGPS,0.0523834228515625,40.888923550858856,265.418370844514,57.26308756499275,13.07543264839521,0.002102152274912319,266.80670253542417,57.71743715977016,50,-0.2845058202656218,0.641755289625995,100.69284123505155,-0.02544357730753467,0.09718321836371048,-0.002102152274912319,0.5037497626894681,263.67510445258733,56.87472979852517,13.210631718858293,4.203833083761168,0.2864788975654116
GUIDED_NOGPS,0.08846664428710938,27.723420428181452,264.79305634573217,57.06898181822397,13.118721462707912,0.010404205176532663,266.80531915255625,57.71624199056233,50,-0.28792694462700485,0.6201182108307467,100.73611731363275,-0.03624656965094835,0.1408583964776858,-0.010404205176532663,0.5037852653398341,263.54242734816853,56.68077032468641,13.205299091333316,1.9438341564823531,0.6302535746439055
GUIDED_NOGPS,0.12852191925048828,24.968621824827512,265.23972467614874,56.867147310345835,13.355192147189134,0.02446496691483582,266.80161294008593,57.713040020142635,50,-0.27447184548805,0.5416906704077811,100.7800627507526,-0.04736999174862081,0.10933217847560343,-0.02446496691483582,0.5038058250094093,266.57972966739845,57.04594180782593,13.64964563137579,1.9115702681074112,0.5156620156177409
GUIDED_NOGPS,0.16949152946472168,24.41828269361759,264.88325663195394,56.66869465832886,13.454013855253171,0.04715389206559676,266.79449200572174,57.70688791165521,50,-0.2813877855486581,0.5012335389630915,100.82269679155183,-0.0581388221862755,0.13378647616374567,-0.04715389206559676,0.5038406882992297,263.4573844551745,56.27937184247427,13.507096843050405,6.441970734346228,0.6875493541569879
GUIDED_NOGPS,0.20621156692504883,27.30826676042216,264.13446962436797,56.45012513135119,13.553155587165014,0.08243815904422894,266.7829112876438,57.69688278728054,50,-0.26022022889799523,0.48176002930915046,100.87008464401337,-0.06981842873204364,0.1853909164293083,-0.08243815904422894,0.5038707926239775,263.417702198511,56.02506174375338,13.502724287068848,3.198086373862381,1.2032113697747289
GUIDED_NOGPS,0.23481392860412598,34.86276172189944,264.70253228673516,56.185220569789614,13.508367887689703,0.11353457971541862,266.7658718995324,57.682161662374845,50,-0.27574338125158304,0.4530138975266824,100.91156438284287,-0.08382870118477298,0.14443377289580556,-0.11353457971541862,0.5039067907794575,266.5154177644233,56.25122812314121,13.51528253294986,3.201128452662388,0.9740282517223995
GUIDED_NOGPS,0.27566075325012207,24.485851892933244,265.2971303699861,56.17583933001193,13.511096450989522,0.14056385125886245,266.74242047559613,57.66190087960938,50,-0.26825151750572535,0.4029155271816967,100.98173774637557,-0.08321944677745689,0.10117030739270093,-0.14056385125886245,0.5039513190297783,266.5154177644233,56.25122812314121,13.51528253294986,3.201128452662388,0.9740282517223995
GUIDED_NOGPS,0.3122231960296631,27.36046132369633,264.9416667475366,55.98453881909014,13.406902395018804,0.18975519233259422,266.7116485156005,57.63531554310981,50,-0.28199449844602564,0.39322034045912807,101.04045688267018,-0.0924434965451016,0.12389872376447103,-0.18975519233259422,0.5040016337988633,264.8024115551507,55.45116021098799,13.190142119156697,2.3683621577268212,1.4896902673401404
GUIDED_NOGPS,0.35387206077575684,24.016307459746685,265.6729592435396,55.790621517474,13.366927558246259,0.230191560085894,266.6726917298961,57.60165895259559,50,-0.2835297435445447,0.3582996643061156,101.12345734146417,-0.10141809636680911,0.0699812740449545,-0.230191560085894,0.5040514955520352,267.1138469351892,55.669476218292786,13.39535802263222,4.718036024431768,1.1459155902616465
GUIDED_NOGPS,0.39673781394958496,23.33513591703664,266.3057104268845,55.5263691193361,13.265345895757592,0.27719271122172623,266.6247293844471,57.56022203751928,50,-0.2421545919867231,0.3532336382935231,101.19108987462563,-0.11389576341825804,0.022331327029382352,-0.27719271122172623,0.5041081078640608,266.58145811523576,55.458470928727515,13.210537545483865,1.9032792885003715,1.2032113697747289
GUIDED_NOGPS,0.423520565032959,37.34211768057621,266.3165912646346,55.43175259869181,13.27190036088662,0.32922074927848255,266.56698364585947,57.51033279120588,50,-0.24549866327653191,0.31720113540967954,101.22519300915151,-0.1164004907807882,0.01752746668573991,-0.32922074927848255,0.5041379166671786,266.56982195317374,55.16731064905508,13.209805514543783,1.898684458575758,1.3750987083139758
GUIDED_NOGPS,0.4667973518371582,23.111404987822485,266.37870692793115,55.191863912941415,13.270007033551133,0.36641233921582145,266.49871892640954,57.45135570499226,50,-0.19372632295572448,0.24601087410342998,101.31257844939266,-0.12653154035484734,0.008400839893487274,-0.36641233921582145,0.5041857159698524,266.8259960809061,54.94981016104162,13.389678040625759,3.772327796932757,1.3750987083139758
GUIDED_NOGPS,0.5026431083679199,27.901944479554025,266.48603735124686,54.848822644408436,13.271771596278825,0.4186045457909728,266.41924122907227,57.38269120236641,50,-0.12439646110508362,0.21047468051232301,101.37603773697124,-0.14189663924564652,-0.004675728552221586,-0.4186045457909728,0.5042251153832044,265.3390636717291,54.42934712312857,13.215831233666941,3.86321747344185,1.2032113697747289
GUIDED_NOGPS,0.5507721900939941,20.783532944516846,266.1310806985548,54.60283480243293,13.273780169319878,0.4618875939027747,266.32789749254954,57.30377507310688,50,-0.07902012603453035,0.1521459322174719,101.45942068635875,-0.15125265515774103,0.013777175579631946,-0.4618875939027747,0.5042777142284951,265.3390636717291,54.42934712312857,13.215831233666941,3.86321747344185,1.2032113697747289
GUIDED_NOGPS,0.5882749557495117,26.670804135773423,266.1343018453291,54.424094315008176,13.218224475966737,0.5201935650165661,266.2240749362987,57.214077907422066,50,-0.021508439119142048,0.0708056896394661,101.50907616162475,-0.15623908117517785,0.0062841163678700705,-0.5201935650165661,0.5043247378492884,266.59756384910725,54.41358869876736,13.22301096056634,5.417466348523249,1.2032113697747289
GUIDED_NOGPS,0.6305141448974609,23.681781481669688,266.48099156468027,54.49261225806276,13.117302067355409,0.5637975563675152,266.1072004055607,57.113104530089615,50,-0.023682040100792823,0.04777877406982591,101.57726877029816,-0.14674756723350368,-0.02616538113836839,-0.5637975563675152,0.5043814944012339,268.3032705499294,54.63490095229232,12.913064007832952,-0.04668343391408314,1.2032113697747289
GUIDED_NOGPS,0.6704425811767578,25.051987767584098,267.96137862262253,54.953935104114386,13.125101554839368,0.6010376218513704,265.97673971638875,57.000393434595736,50,0.0006016035957032521,-0.018834806925265513,101.62446537746295,-0.11460166650695562,-0.13892472343636486,-0.6010376218513704,0.5044248561509908,274.22793137061774,55.81331566128344,13.239229696118816,-2.988464479052311,0.8021409131831525
GUIDED_NOGPS,0.7062520980834961,27.93390653408902,268.57784634003673,55.016081000866286,12.879429277102135,0.6221264349721839,265.8321970006765,56.87551621727456,50,0.07891084300781015,-0.09282123028384191,101.64805685085618,-0.10412837211886325,-0.19219545375521593,-0.6221264349721839,0.5044893304101755,268.42140225879996,54.600026389023064,12.485994127354642,1.3718295920008927,0.34377467707849396
GUIDED_NOGPS,0.7452361583709717,25.657943353520523,269.1943140574509,55.004456146443204,12.737072650276033,0.6400289436687415,265.67311405118625,56.738077011447515,50,0.10007647866776896,-0.12963811102475273,101.69645557131489,-0.09708276844024148,-0.24648400043852747,-0.6400289436687415,0.504546876955094,268.42140225879996,54.600026389023064,12.485994127354642,1.3718295920008927,0.40107045659157625
GUIDED_NOGPS,0.7837603092193604,25.961277543946522,269.77565511595975,54.659522242494226,12.536620704670602,0.6553655683427183,265.4990696665778,56.58771192156265,50,0.12855926130100806,-0.17973133204743447,101.7179296860654,-0.10797862202783177,-0.29936098145673784,-0.6553655683427183,0.5046106533214846,269.5042691416516,54.778513949436515,12.637873859302516,4.537854684550851,0.2291831180523293
GUIDED_NOGPS,0.8234052658081055,25.230565631410197,270.6073619728228,55.01969930688778,12.467178380510859,0.662505069066992,265.3096789964363,56.424088457334015,50,0.14054701702674735,-0.22335012070632596,101.72570244134087,-0.07864579242498917,-0.3708378083470558,-0.662505069066992,0.5046616575706433,272.4618048342443,55.680557582203726,12.277667154875415,-2.35888583647791,0.057295779513082325
GUIDED_NOGPS,0.8550395965576172,31.621474506374348,269.9598293470197,55.32257191684684,12.42176537993427,0.657969407853431,265.10459288630096,56.246904967880965,50,0.15414121456897512,-0.27567385206026646,101.74094742356834,-0.05176265085791102,-0.33986655225031204,-0.657969407853431,0.5047022732427031,270.9902682416022,55.50864421890026,12.349755125624874,3.3118607522276875,-0.40107045659157625
GUIDED_NOGPS,0.8937609195709229,25.831926044996273,269.9392705450231,55.465774407681714,12.182636600061457,0.6424241556365207,264.8834972226933,56.055890075867566,50,0.17836102534520068,-0.3573629412140454,101.71700078033828,-0.03304647741840774,-0.35390413256308595,-0.6424241556365207,0.5047700018533676,268.3186082488169,55.208121421941144,11.920487519684078,6.285730469392078,-0.7448451336700702
GUIDED_NOGPS,0.9340791702270508,24.80970548743338,270.4758805606002,55.58447805676375,12.099343372892996,0.62475405114287,264.6461122781454,55.85080211164192,50,0.21936760015189283,-0.44226835577581275,101.71543666701835,-0.014914147073177448,-0.4080837797718386,-0.62475405114287,0.5048242928283287,271.1044523366854,56.03666852944985,12.027787473370035,2.356903815736729,-0.6875493541569879
GUIDED_NOGPS,0.9707057476043701,27.312712449370302,270.90092862971767,56.01867930301281,11.853288683371252,0.5959760265869477,264.3921920562285,55.63142854737551,50,0.21356836934015533,-0.4576710193235733,101.6944679862664,0.021686042315688613,-0.4556115601442412,-0.5959760265869477,0.5048908009777053,271.6295094872388,56.811247957647424,11.611591057059641,2.81423026724336,-1.0313240312354819
GUIDED_NOGPS,1.0104169845581055,25.1857207193683,271.41146576033555,56.95829400010782,11.74278767795,0.563913629296468,264.1215236365813,55.39758543120257,50,0.2380393496509375,-0.5033780582799169,101.65785134212597,0.08739967985869392,-0.5102959486627981,-0.563913629296468,0.5049473796075895,275.01449048733355,58.026965513226166,11.58898450342033,1.428739198167122,-1.088619810748564
GUIDED_NOGPS,1.0465517044067383,27.67859782493929,271.4386554277827,57.476289178058046,11.555277379907027,0.5226682186418695,263.83392651993813,55.14911682135942,50,0.22587979865931654,-0.5249609758094811,101.62645296251142,0.13032165197512305,-0.5323310235491192,-0.5226682186418695,0.5050079575537862,271.12621657883784,57.59065406330055,11.465256579241114,3.2744791806212845,-1.3178029288008934
GUIDED_NOGPS,1.0879607200622559,24.155310730884192,272.01036925618024,57.93645155377542,11.40063393622278,0.48788674385980135,263.5292519731576,54.88589422032383,50,0.2852830744488281,-0.585537069784678,101.58773262010662,0.17083121067328924,-0.5936782098115839,-0.48788674385980135,0.5050712780538896,271.1771773908047,58.19173508479955,11.1476607260069,3.6068794578320365,-1.088619810748564
GUIDED_NOGPS,1.1235673427581787,28.09331609722771,272.80223910080724,58.43617128143509,11.301349085020307,0.44092474846893753,263.20738237425087,54.607816008954366,50,0.3575408729780095,-0.6302855877405454,101.56049382569661,0.2143878952589204,-0.6716399708589461,-0.44092474846893753,0.5051225524139044,275.0638015598203,59.52612469620515,11.29112994981291,1.4783803321964086,-1.3178029288008934
GUIDED_NOGPS,1.1592066287994385,28.066058189020637,273.0119378806397,59.16170504787204,11.148078545458404,0.3890533261550322,262.8682305574098,54.314806880629746,50,0.3692980030975551,-0.6441889714046353,101.5136182374228,0.2714262973655685,-0.7100595126260953,-0.3890533261550322,0.5051793832622326,272.6780033864015,59.767255362611415,11.0054449605554,3.60928414020988,-1.7188733853924698
GUIDED_NOGPS,1.1887273788452148,33.887067454129735,272.5788768140413,59.867133767664654,11.101218678617935,0.33528420049207697,262.51173915803565,54.00681727538818,50,0.41273934024015846,-0.6508714577338465,101.48790257519771,0.32817772356748265,-0.704699635920394,-0.33528420049207697,0.5052184963486439,272.8491851543413,60.308021244177375,11.007081125485493,2.2392346084208157,-1.7188733853924698
GUIDED_NOGPS,1.2302424907684326,24.090381202364064,273.6234055397014,60.605275809738686,11.048310342226225,0.29383083707090946,262.13787995776727,53.683822814066744,50,0.47855186811165434,-0.722303923951367,101.42608253301992,0.38760136775762877,-0.8039867907353909,-0.29383083707090946,0.5052724598923675,276.3488602071386,61.74055082242726,11.132404940637787,0.7941082503247969,-1.4896902673401404
GUIDED_NOGPS,1.2682344913482666,26.330583700578803,274.7378533210806,61.4691469425476,11.05086245816532,0.22668677037366833,261.74665322950955,53.34582373244069,50,0.504249654451034,-0.7545512213745542,101.37224015179272,0.45490609976598706,-0.9093840064099732,-0.22668677037366833,0.5053164059619143,276.7494162977006,62.35886876103817,11.013101308372685,1.3673432305220956,-1.8334649444186344
GUIDED_NOGPS,1.309333086013794,24.33342615798756,274.75728487337926,62.484325268744875,10.952555645231662,0.16455178208063098,261.33808708246164,52.992844315362866,50,0.5395526077541556,-0.7952024262412073,101.30615124138367,0.5315229333893926,-0.9393438453642337,-0.16455178208063098,0.5053745665023868,275.1609593213136,63.35355622276921,10.712160686684522,2.8637701932631643,-1.8334649444186344
GUIDED_NOGPS,1.3508148193359375,24.115035445497874,275.51376459682916,63.389010303941376,10.806773997462093,0.09886843479496474,260.9122368071455,52.624932330902986,50,0.5952835896477274,-0.8565453156724439,101.24153765183536,0.6027883664901499,-1.022106945277855,-0.09886843479496474,0.5054378195181796,276.460402003651,64.45460592801673,10.695059997329079,0.8563827655500518,-1.6615776058793874
GUIDED_NOGPS,1.3895726203918457,25.808242779261374,275.27218395948705,63.94699164410605,10.568140785256366,0.03156718545036409,260.4691842204342,52.24215846448705,50,0.6402327977713169,-0.9590642139585138,101.18734010077131,0.6554706580586641,-1.0362099817336987,-0.03156718545036409,0.5055074537613781,271.64128196763096,64.03281278153219,10.297201671755502,5.258234842687557,-1.776169164905552
GUIDED_NOGPS,1.4224119186401367,30.458175691867517,275.32125143473274,64.82224532601852,10.41010756634185,-0.042365518937066096,260.0090370105802,51.84461575303665,50,0.7092157873977416,-1.0468976719205276,101.13571070083518,0.7267472560869848,-1.0718550096906792,0.042365518937066096,0.5055624088755398,276.5941975833669,65.97931726850665,10.23806102994097,0.9024987316954309,-2.119943841984046
GUIDED_NOGPS,1.4621243476867676,25.189502132004083,274.60665399218914,65.29025404945143,10.22635176692882,-0.10579148504102606,259.53192808224384,51.432419019108366,50,0.8059944452949448,-1.115796778286208,101.06346778998395,0.7760387616992119,-1.0552308136961712,0.10579148504102606,0.5056275594843022,273.17642908498254,65.85863209831547,10.143792599089988,4.171682085152938,-2.119943841984046
GUIDED_NOGPS,1.49818754196167,27.735336516207532,273.9634802465304,66.11744115415463,10.028821916657924,-0.17586888266542414,259.0380149015216,51.00570430503305,50,0.8369665250557494,-1.2189056341618378,101.00040465337722,0.8462572635508089,-1.0447825741506183,0.17586888266542414,0.5056910188424211,271.94509059302004,66.5143740956418,9.704612120942807,4.056841457676683,-2.0053522829578814
GUIDED_NOGPS,1.5382051467895508,24.996894983700155,273.6703352499736,67.06050200100901,9.692085303657997,-0.2453936177121031,258.5274788409746,50.56462830705526,50,0.919007182188799,-1.3169535333058997,100.92538868572298,0.9237689268614104,-1.0599999486299316,0.2453936177121031,0.5057725750086361,274.9946770208666,68.80849980906977,9.227851190941193,3.178093099792477,-2.0626480624709638
GUIDED_NOGPS,1.5682084560394287,33.33945916728932,273.7542600090734,68.07043094659072,9.151236388738043,-0.3159259883887301,258.0005245246569,50.109367809472545,50,0.932752724450038,-1.3391866528279375,100.90913966568752,1.005819535678618,-1.1027614839091548,0.3159259883887301,0.5058639067144938,272.06090576312994,68.88841893506061,8.521245854330129,4.022268329142307,-2.0053522829578814
GUIDED_NOGPS,1.6024634838104248,29.199501542017362,272.84760164502603,68.86177922639699,8.756780966533817,-0.3754110991519713,257.45737917314375,49.640119118774834,50,0.981779608868978,-1.3702624127259089,100.85674528456434,1.076412966026841,-1.0773155730317598,0.3754110991519713,0.5059453574071837,272.06090576312994,68.88841893506061,8.521245854330129,4.022268329142307,-2.119943841984046
GUIDED_NOGPS,1.6407041549682617,26.159628278292324,273.3026404767296,69.4430771232541,8.454362063215235,-0.42872262633829766,256.89829194856026,49.15709749778377,50,1.0960833582376703,-1.3849034568203602,100.77373799558119,1.1360148590263388,-1.1483043969718547,0.42872262633829766,0.5060224444037374,275.4516232435004,70.55239349964111,8.32059448098545,2.917500059300693,-1.6615776058793874
GUIDED_NOGPS,1.6788914203643799,26.19197312301342,274.2702685135706,70.36327396546187,8.336783739928412,-0.4798642506677155,256.32353329960944,48.66053659979207,50,1.1823076663199112,-1.3747473924113742,100.72039421816338,1.2153532924775092,-1.2562714649772824,0.4798642506677155,0.5060831416430577,276.7832307772254,71.64900946168395,8.168510884469658,4.032191103256096,-1.260507149287811
GUIDED_NOGPS,1.7138614654541016,28.605263696317866,274.3656480880812,71.77368382995502,8.018399557597894,-0.5353710669532156,255.7333943066007,48.15068790270287,50,1.1977823136582213,-1.3193304391370642,100.68704923463538,1.3228877719261205,-1.304257764703633,0.5353710669532156,0.5061590752630932,275.47157489341936,73.11964852854003,7.566093307338571,-0.5240751647847617,-1.3178029288008934
GUIDED_NOGPS,1.75697922706604,23.19973892505711,274.37365736509946,72.5687887947954,7.793924474829294,-0.5856046020300436,255.12818602647832,47.6278201431691,50,1.220171780479229,-1.2445028352935186,100.6305362494427,1.3966942444910726,-1.3471829937034803,0.5856046020300436,0.5062357904770499,272.1009521482216,72.93770839416226,7.647169232679647,5.013007213261446,-1.5469860468532228
GUIDED_NOGPS,1.7911572456359863,29.266737839553983,274.76177785452614,73.40310124187317,7.611266169124915,-0.6371371320008112,254.50823883784963,47.09221875073279,50,1.269135592370052,-1.2169747183391342,100.60160356811852,1.4734094195038616,-1.417747731167356,0.6371371320008112,0.5062977562884804,274.00150821026347,74.15194680291727,7.6205359673565205,1.6325385290486736,-1.088619810748564
GUIDED_NOGPS,1.83357572555542,23.577148574737066,274.4203864060879,73.9991954780324,7.672699723170179,-0.660796940293659,253.87390178601356,46.54418528196446,50,1.3324470703861333,-1.1438999117913429,100.59641262434931,1.5374805709798052,-1.4382539234052047,0.660796940293659,0.5063456638237191,273.74466600130916,74.90793123701776,7.7503939694743575,3.1945109136114382,-0.5729577951308232
GUIDED_NOGPS,1.865652084350586,31.18974992006068,274.53492055225536,75.4460087619501,8.000169714704311,-0.6940524882184906,253.22554192798884,45.984036854602465,50,1.3833231218011484,-1.1219322091515835,100.5834557554938,1.6498704268114677,-1.4916565036986562,0.6940524882184906,0.5063532009950128,277.3559015080628,77.27814824591533,8.629579207282049,-0.6373319194406548,-0.5729577951308232
GUIDED_NOGPS,1.904029369354248,26.06307129230903,274.911785875184,76.48807590961611,8.336517461346157,-0.7139190458128417,252.56354367754253,45.41210558169233,50,1.4543298751343068,-1.13650911350086,100.58818907658862,1.7402543383637321,-1.5643769538349048,0.7139190458128417,0.5063674578725426,277.3559015080628,77.27814824591533,8.629579207282049,-0.6373319194406548,-0.5729577951308232
GUIDED_NOGPS,1.9467930793762207,23.388225322582443,275.3229961310711,77.20582358218503,8.693886090202,-0.7209902843950315,251.8883081502182,44.82873800572612,50,1.5052667579216172,-1.1410806444897144,100.60150794547013,1.8131167922816993,-1.640428158659702,0.7209902843950315,0.5063848770615922,274.1570034276568,77.06117425472452,8.822499856041889,0.49358126449357087,0.11459155902616465
GUIDED_NOGPS,1.9863107204437256,25.312026263699128,275.5769485342586,77.61032307580815,8.901864744768135,-0.7311005903541833,251.20025250836449,44.23429453278179,50,1.5883331707297852,-1.1972066567772364,100.60818787047842,1.8690575984094766,-1.7063687218125865,0.7311005903541833,0.5064126928849438,275.2712702262011,78.49164672678464,9.253515170980457,1.1198329331561467,-0.057295779513082325
GUIDED_NOGPS,2.021611213684082,28.334914136705713,275.3993023551542,77.97933296502912,9.06251710664938,-0.7282731227553728,250.49980930616337,43.62914886666252,50,1.6624825581330898,-1.1944109749725855,100.64201779743749,1.9236103095085297,-1.7429645134293577,0.7282731227553728,0.5064399511825154,272.85643510578745,78.38517791357826,9.111536292925784,0.6715519944965394,0.2864788975654116
GUIDED_NOGPS,2.064523696899414,23.30829290521203,274.35702255172214,78.47166670392892,9.120426126793843,-0.7165254568056445,249.78742583465853,43.01368744303608,50,1.7547053731321887,-1.2551587841723846,100.65456485494279,1.985646838609999,-1.7198717701944524,0.7165254568056445,0.506486145505211,272.1445024909023,78.53817547142391,8.996226916475273,-0.08700133337468685,0.5156620156177409
GUIDED_NOGPS,2.0996875762939453,28.450811610128678,272.1178195316005,78.0514303527029,9.00986201416846,-0.6825541469436586,249.0635634667837,42.38830886357418,50,1.825364000261088,-1.2854418152398113,100.70170682059423,1.9971348033912082,-1.613797924537176,0.6825541469436586,0.5065410109825441,266.15988640745456,77.23093767310654,8.921822833104311,6.3796772910325075,1.2032113697747289
GUIDED_NOGPS,2.1300392150878906,32.9546572382636,271.6292519430584,78.50094558744668,8.769393549649136,-0.6581812484930802,248.32869700239118,41.75342333009185,50,1.8824054713408032,-1.3704212146241117,100.72042153892006,2.057861246411871,-1.6310388458467069,0.6581812484930802,0.506602695577305,271.714165484946,79.73372361780964,8.390130899367811,0.5880391215854246,0.8021409131831525
GUIDED_NOGPS,2.1702914237976074,24.849833516997855,270.9178309948074,78.89946163624192,8.567361543946648,-0.625617027270407,247.58331401327996,41.1094520786867,50,1.9719155273006435,-1.4099949037883424,100.78952256275308,2.116240535223093,-1.6334161887069203,0.625617027270407,0.5066728013368379,271.714165484946,79.73372361780964,8.390130899367811,0.5880391215854246,1.2032113697747289
GUIDED_NOGPS,2.2040529251098633,29.63732590922902,271.00652841418497,79.93374641966172,8.333932468172991,-0.5890963212164994,246.8279141882243,40.4568268138784,50,2.0351970165174,-1.4491598488194302,100.836323018946,2.210707497923866,-1.6925029958172473,0.5890963212164994,0.5067383839586679,273.2999222026755,80.33379202336593,8.22153560578334,-0.6313532224978644,1.1459155902616465
GUIDED_NOGPS,2.2435784339904785,25.305459525662606,271.5627505527867,80.36606094963919,8.322956364660806,-0.5343465888283596,246.06300867800203,39.795989142747935,50,2.0961839890598553,-1.4480146181946896,100.94270321526895,2.2719240211859106,-1.7849819312349284,0.5343465888283596,0.5067889371276573,274.9256131839113,81.03066720774207,8.357202588831258,-0.9674496518778568,1.948056503444799
GUIDED_NOGPS,2.278329849243164,28.784495655873837,271.82726663458664,80.1514532962827,8.056128476930661,-0.46634276405317154,245.28911944042287,39.12739000907696,50,2.101037478795384,-1.4158635303892644,101.0198160509984,2.2973475440835216,-1.8576703035914641,0.46634276405317154,0.5068593016824066,267.48246681645395,79.08990065774016,7.589647236177376,3.1514174873214102,2.0626480624709638
GUIDED_NOGPS,2.317202091217041,25.731610655083987,271.2068158514383,79.87329864836018,7.786557775614942,-0.39890030870098003,244.50677858535684,38.45148912748725,50,2.145771802764383,-1.4162538116673071,101.10237937768551,2.319621333168884,-1.8690026086257028,0.39890030870098003,0.5069351608999003,268.61191156920455,79.49932807959833,7.412823501836181,3.514412272383595,2.177239621497128
GUIDED_NOGPS,2.3549697399139404,26.48337174427782,270.58636506829,79.36285227231225,7.471764746616583,-0.31508438417806045,243.7165277197626,37.76875441757991,50,2.1890895028108384,-1.376980117218028,101.2549658037436,2.3292694798650113,-1.8808886143969161,0.31508438417806045,0.5070152286880534,268.61191156920455,79.49932807959833,7.412823501836181,3.514412272383595,2.521014298575622
GUIDED_NOGPS,2.393862724304199,25.715361270347323,269.96618324954136,79.68634867033434,7.403856894614681,-0.22016826197664222,242.91891729271595,37.079661438074865,50,2.2079711338845156,-1.3423650386695207,101.35796505642739,2.385974485006531,-1.893308616977779,0.22016826197664222,0.5070718755895124,270.19901310893243,80.0603898518064,7.385923680171674,-1.8655846703015868,2.9220847551671985
GUIDED_NOGPS,2.4336886405944824,25.11589360351621,268.7569867279886,79.67719454747493,7.456275495172989,-0.12719427814044806,242.11450594043794,36.38469282095008,50,2.2533071548307095,-1.3743359802355868,101.49370823599223,2.424380096685392,-1.8649736551285458,0.12719427814044806,0.5071173465553586,268.8796305761474,79.4718657110201,7.570079303511102,0.008596675080596583,2.5783100780887045
GUIDED_NOGPS,2.4728806018829346,25.5202492211838,268.9323858349368,79.55055759056614,7.554115984934117,-0.029464494259156707,241.30385983132354,35.68433770558101,50,2.2865225782078933,-1.359251294010202,101.58689933702787,2.456508313559168,-1.9339968202529274,0.029464494259156707,0.5071574482887041,268.3594623511949,79.11941720887198,7.706344971119563,1.7229674054800057,2.635605857601787
GUIDED_NOGPS,2.512247085571289,25.406628020377134,268.67551642781467,78.96613191836259,7.667310775155059,0.0694779962786376,240.4875520109697,34.979091172879905,50,2.350778223155023,-1.418903391456743,101.71928206352106,2.463274281747031,-1.9731575091791487,-0.0694779962786376,0.5071962000883857,267.32756453359417,78.30711283519577,7.725508050834501,1.2434069235132768,2.6929016371148693
GUIDED_NOGPS,2.553487777709961,24.254065181689914,268.7428676683191,78.64273348963222,7.7641025907524055,0.16731038272733295,239.66616174720397,34.2694536794352,50,2.423303733083157,-1.4733045675354253,101.84447260081824,2.4849036693710334,-2.0353694144780587,-0.16731038272733295,0.5072386310306475,268.9486677717265,78.50167042482892,7.860454750303146,2.0325124354348816,2.5783100780887045
GUIDED_NOGPS,2.59779691696167,22.574780942539128,267.89155634189444,77.98023798316883,7.7330417603662305,0.2732953790533827,238.8402738751128,33.55593049165082,50,2.4407108970697577,-1.5063615091795235,101.94573015526366,2.487761219525009,-2.033589772674714,-0.2732953790533827,0.5072973371113786,265.9424564768089,77.13193068948188,7.613162479961036,2.92500707185917,2.6929016371148693
GUIDED_NOGPS,2.623530387878418,38.86457686641154,267.5629646684594,77.65641391791733,7.631832760984878,0.3751044727245932,238.0104781420698,32.83903111988555,50,2.518689032389678,-1.524888824190006,102.01638163203828,2.5097734366897804,-2.068674056847274,-0.3751044727245932,0.5073409385591233,267.23667220897244,77.33564063944124,7.421881052690441,0.19991895607526544,2.521014298575622
GUIDED_NOGPS,2.6592166423797607,28.031170219875694,266.74292991316287,76.85117432838943,7.4093954295526805,0.4329132931560208,237.17736855276422,32.1192687525924,50,2.5609941568916788,-1.59223833138774,102.12369073408836,2.5049867122446345,-2.0695892952279054,-0.4329132931560208,0.5074086537586106,264.2592885747121,76.08595165624523,7.1931427560065515,4.0731291370103975,2.2345354010102105
GUIDED_NOGPS,2.698601484298706,25.396321009482058,266.7980134358149,76.64394689251002,7.253473225555233,0.5204263926764842,236.3415427142293,31.397159690457926,50,2.606494315821365,-1.6434549317659037,102.250547837543,2.5338200833149176,-2.1319529505109913,-0.5204263926764842,0.5074746783327337,267.6029821468543,76.51024838184357,7.145395867968695,0.5833598619821316,2.5783100780887045
GUIDED_NOGPS,2.733229875564575,28.887584886427813,265.5781741519046,75.83197143301862,7.043450906967801,0.6028977897547833,235.5036011808706,30.673222780541614,50,2.6858506552497468,-1.7279062721499974,102.33682678713859,2.5288899245387126,-2.1052201079723805,-0.6028977897547833,0.5075403678073608,262.849471352175,74.89971426096704,6.791814096928145,3.8391980018071905,1.948056503444799
GUIDED_NOGPS,2.772993803024292,25.156415500602776,266.1544594271347,75.85359126956091,6.918689426637609,0.6620868011397074,234.6641467994944,29.947978850415268,50,2.7141442869997014,-1.7184614011883392,102.4183655854502,2.5707142954721562,-2.204321883934823,-0.6620868011397074,0.5076029770441522,268.8238828529597,76.15081116587206,6.8188583150159765,1.9979583860020824,1.5469860468532228
GUIDED_NOGPS,2.812072277069092,25.5943762356904,265.2633513547009,75.04818285189242,6.708104844099982,0.7227554026886301,233.82378405433607,29.221950142302205,50,2.7291832963350116,-1.7297463678010812,102.47147030624706,2.5662690317370522,-2.2007697110255373,-0.7227554026886301,0.5076760306259752,262.7811318468031,74.09402312883813,6.513642120355815,2.9323714491660127,1.3178029288008934
GUIDED_NOGPS,2.8493902683258057,26.802719697356984,265.48352358876866,74.73060184440926,6.547071006676924,0.7714819542621559,232.98311841208846,28.495659747216827,50,2.700667896880443,-1.6947216913457848,102.51965046065233,2.589156757442777,-2.2750283623676144,-0.7714819542621559,0.5077403331174685,265.36014974505076,73.94697123851753,6.308712584658972,1.116230513920172,0.9167324722093172
GUIDED_NOGPS,2.886244297027588,27.14145015692238,264.4592312171855,73.60633475902416,6.2566729679024276,0.7930832855938608,232.14275566693016,27.76963103910377,50,2.696461994455596,-1.7009589347184757,102.54664336825222,2.5668554083155426,-2.2621532885178746,-0.7930832855938608,0.5078181569624706,262.4815202889386,72.77800990971674,5.947664198692486,-0.08490825528666335,0.2291831180523293
GUIDED_NOGPS,2.9267382621765137,24.70230985782772,264.06920168311984,72.95890308339446,6.070547919987631,0.7929556740049379,231.30330128555394,27.04438710897739,50,2.6290873009352977,-1.6524397254539382,102.53283272575045,2.5712128945673562,-2.2936130278296134,-0.7929556740049379,0.5078900519047919,260.8993236818466,72.15172810194903,5.955266976611425,2.2658680698944664,-0.5156620156177409
GUIDED_NOGPS,2.9618868827819824,28.456988554253652,261.83742907960556,71.91026610690052,6.083990666867739,0.7845223351997214,230.46535975219524,26.320450199061113,50,2.6323514910283294,-1.6196804306472645,102.52481408366486,2.5530296908390073,-2.1960448529187224,-0.7845223351997214,0.507935068015399,257.6650198353882,70.80106030903568,6.349040825299293,4.902290411043367,-0.7448451336700702
GUIDED_NOGPS,3.001391887664795,25.319666292392576,260.84711286419923,71.23422540393464,6.210564555792068,0.7523458277468809,229.6295339136603,25.59834113692662,50,2.559409979891059,-1.6115529324217723,102.49460415696589,2.5556095189524495,-2.1852305265377248,-0.7523458277468809,0.507974206829861,257.8295507697715,70.74988780081908,6.327385865465472,2.319467831957752,-1.3750987083139758
GUIDED_NOGPS,3.036992073059082,28.09783285881762,258.9744345432763,70.51237450280586,6.532059089014777,0.7023350486998692,228.79642432435472,24.878578769633464,50,2.484494544083655,-1.5683213567918826,102.43821411517827,2.555492561057654,-2.1124607153245103,-0.7023350486998692,0.5079872458350084,255.99675814043596,69.9861753985627,6.919750576279553,3.6197957205879447,-1.8907607239317168
GUIDED_NOGPS,3.078437566757202,24.13376756389749,257.49500756676355,70.10693956057821,6.774071751523768,0.6408915030321805,227.96662859131175,24.1616793978682,50,2.4992296100008997,-1.5568189980644638,102.37546516727336,2.5729345691117613,-2.0669865282816264,-0.6408915030321805,0.508017986986894,255.08438540637468,69.58475548235275,7.075078812826267,2.2537873886840742,-2.2345354010102105
GUIDED_NOGPS,3.113887071609497,28.21691950620606,256.84146894865927,69.94403021466327,7.1488117455371984,0.5593548478126477,227.14074071922056,23.448156210083823,50,2.462702612093318,-1.559379145064455,102.27818278292487,2.6037689442564496,-2.0790509760607097,-0.5593548478126477,0.5080261933956031,257.63163059132535,70.26115976307423,7.451605847505764,0.33414324802453166,-2.521014298575622
GUIDED_NOGPS,3.160674810409546,21.38510798849754,256.2824011206187,69.79147518706249,7.344851959180488,0.46798065878090905,226.31935045545487,22.738518716639106,50,2.467664317638509,-1.5242352604638005,102.15794413277597,2.6349655623437096,-2.0974135465614694,-0.46798065878090905,0.5080663608311692,254.8696806951854,69.52851031576034,7.507871217209423,2.3416628280821072,-3.0939720937064457
GUIDED_NOGPS,3.1899850368499756,34.116952309682034,255.15553223832066,69.5549430946154,7.50416428612742,0.3373231868622912,225.50304263510102,22.03327218393804,50,2.476208457403372,-1.5015481468053684,102.06483499401035,2.6612135709979325,-2.0756742722253745,-0.3373231868622912,0.5080879086344912,252.1952063582812,68.87515920501146,7.553015793667062,3.1933839975415026,-3.552338329811104
GUIDED_NOGPS,3.2268893718719482,27.104266964787687,255.2308078632494,69.46241635165786,7.654382030685596,0.23568157679146112,224.69239652598657,21.332917068568946,50,2.451243262213329,-1.4186502475706295,101.93721973955783,2.69525195985298,-2.1376887936083984,-0.23568157679146112,0.5081197114191052,256.37313626507967,69.98357953420161,7.9022590811802935,-0.020202224677262848,-3.7815214478634336
GUIDED_NOGPS,3.2692906856536865,23.5896132236239,254.22245672552663,69.03982002458828,7.821836373169076,0.10112856100261353,223.88798517370856,20.637948451444146,50,2.4745687851157454,-1.3711373172699053,101.78994037048484,2.710504808096072,-2.123413008627265,-0.10112856100261353,0.5081562291019387,250.04262971776078,68.26072133455163,8.010234244659861,0.5191231600027066,-4.18259190445501
GUIDED_NOGPS,3.3037772178649902,29.00524878116248,252.54430469721487,68.83554276043701,8.024207572398838,-0.06200517692276057,223.0903747466619,19.948855471939098,50,2.4585046070746985,-1.3396477973186192,101.70916655336028,2.7376544881558833,-2.0617750965387085,0.06200517692276057,0.5081797838514728,249.24087044976662,68.26232741255762,8.160129391356346,2.3664039413665705,-4.5263665815335035
GUIDED_NOGPS,3.343090534210205,25.44655034338826,251.27618762502328,68.29928231768679,8.33630987967099,-0.22199832056838398,222.3001238810677,19.266120762031747,50,2.410210260444243,-1.2561358213888139,101.48200129175483,2.7458570471166825,-2.0283244620768914,0.22199832056838398,0.5081977081796166,248.52909533422758,68.37479820595097,8.838566002996753,-0.2890329538222858,-5.156620156177409
GUIDED_NOGPS,3.388195753097534,22.17565824257164,250.54296542021257,68.33730794148657,8.612420465783288,-0.4071641966694809,221.5177830260017,18.590219880442064,50,2.325243134056107,-1.2322777571745476,101.24436535015174,2.7858369314184928,-2.031762767594761,0.4071641966694809,0.5082258777916426,248.52909533422758,68.37479820595097,8.838566002996753,-0.2890329538222858,-5.213915935690491
GUIDED_NOGPS,3.42404842376709,27.89656273278706,248.88784070937353,68.46200801345856,9.107897561212743,-0.6281734458787955,220.74389378842253,17.921620746771097,50,2.1741205029145205,-1.198116992927552,101.05197258161083,2.8302616869344983,-1.970076284466571,0.6281734458787955,0.5082206810507853,248.09751271088456,68.63642762847363,9.646560677644711,-2.2421993511694893,-5.500394833255903
GUIDED_NOGPS,3.4568047523498535,30.537342555515107,247.48091207591477,68.13764208717008,9.359854092760013,-0.819840931198844,219.97898827820023,17.260783075640603,50,2.086759181778884,-1.1783837226417389,100.89575932510346,2.849104104645651,-1.925134665840018,0.819840931198844,0.5082353915353178,243.0079865504669,67.40170042708552,9.594435597638565,1.9461993084827327,-5.7868737308213145
GUIDED_NOGPS,3.4978842735290527,24.348823573804562,246.0737617012479,67.86606425273784,9.744066521194737,-1.0002032235395983,219.22358845314457,16.60815781083231,50,2.0090132728907446,-1.091189634419062,100.65364960959401,2.8704427607467102,-1.8795121273672324,1.0002032235395983,0.5082464155652299,242.20511857643223,67.56006470265427,9.991203288300925,0.9188085260169743,-5.958761069360562
GUIDED_NOGPS,3.5342037677764893,27.54101633036318,243.94287230634723,67.21848397383897,10.010218185071691,-1.2352838308265714,218.47820546403335,15.96418655942719,50,1.940059951898527,-1.0464908487780886,100.44381253791289,2.87024065520706,-1.7825266789619714,1.2352838308265714,0.5082634044076019,237.87464835972412,66.69368679177701,10.445015669275572,2.9002449893281153,-6.359831525952138
GUIDED_NOGPS,3.5692667961120605,28.52802263576015,241.8119829114465,66.98247942873614,10.293744875617362,-1.4379233631872812,217.7433389996408,15.329301025944815,50,1.9368457075638015,-1.0173218855973145,100.42204472502806,2.8925779905563145,-1.6848050738263998,1.4379233631872812,0.5082767632887571,237.87464835972412,66.69368679177701,10.445015669275572,2.9002449893281153,-5.958761069360562
GUIDED_NOGPS,3.60648775100708,26.878466103161227,239.7135804027047,66.76561678135958,10.531465797132524,-1.6281339186550647,217.01947663176597,14.703922446482906,50,1.9025769409505549,-0.8034594312566652,100.05866500080504,2.915454882753094,-1.588587263965712,1.6281339186550647,0.5082959966418374,237.60550016717536,66.90947676052463,10.704366052846412,0.3353387781000805,-5.844169510334397
GUIDED_NOGPS,3.647757053375244,24.23514592614421,238.8834039150769,67.04517485488088,10.830971443303715,-1.8197697559118045,216.30709316026116,14.088461022856478,50,1.9008412191277255,-0.6347698737349232,99.8188775496134,2.965575974593367,-1.5803417528371027,1.8197697559118045,0.5083156568642248,238.85710411232802,67.53236101234089,11.343532607789143,1.4384359409287413,-5.729577951308232
GUIDED_NOGPS,3.6860146522521973,26.147723305570793,237.50689095350745,67.05372282715699,11.180724502623626,-2.059528671251951,215.60664995806005,13.483315356737236,50,1.9669625729353264,-0.4356640697765129,99.63887474422688,2.9999428183435066,-1.5330168696813185,2.059528671251951,0.5083252038735041,235.32255376858484,66.7193307086053,11.494274847235305,1.1626022726135403,-5.958761069360562
GUIDED_NOGPS,3.7263951301574707,24.76926801901556,237.11805605778954,67.18332573789569,11.91051767069082,-2.273181116079068,214.91859431620634,12.888871883792902,50,2.047933184885358,-0.17760885076285302,99.40086997240861,3.0404894158297564,-1.5539623219108247,2.273181116079068,0.508298366701686,235.9304738811347,67.29828549274075,12.893745557047994,-2.259522069784623,-5.7868737308213145
GUIDED_NOGPS,3.7691426277160645,23.40036040861187,235.9480573900615,66.7621980096051,12.55975810169815,-2.502026390604784,214.24335878888203,12.305504307826695,50,2.069373575576851,0.04531734464768257,99.17117071062108,3.049574847299591,-1.5193289020825633,2.502026390604784,0.5082799913243531,232.02465502108413,66.26897782746916,13.291253900811137,-0.17310803628882354,-5.958761069360562
GUIDED_NOGPS,3.7976186275482178,35.126114884387015,234.3330998690514,66.50023646011464,13.647651903358977,-2.724837162008118,213.5813605384357,11.733573034916546,50,2.0899642480469125,0.15816450281501676,99.09022613876726,3.0669331518110936,-1.4526217531431005,2.724837162008118,0.5082037385777672,229.5307125621251,65.9334460601339,14.757956252217783,0.37483379979431675,-5.500394833255903
GUIDED_NOGPS,3.8349721431732178,26.77824951637926,232.46782155901082,66.04528998257902,14.269055468415573,-2.8976701463695047,212.93300068041094,11.173424607554509,50,1.993550151496659,0.39626777876771735,98.82388974227179,3.0728244610013733,-1.3674374615019913,2.8976701463695047,0.5081816500136507,229.5307125621251,65.9334460601339,14.757956252217783,0.37483379979431675,-6.130648407899809
GUIDED_NOGPS,3.8709964752197266,27.767836927089885,231.30667396630784,65.96396939164106,15.101487137546385,-3.136373341345513,212.29866362857487,10.625391138786242,50,1.8608043577604032,0.4723572066995701,98.59975025446865,3.0989603821598704,-1.330560723641308,3.136373341345513,0.5081360545706791,229.5168158050698,66.02501605465525,15.788548908203575,-2.0722298090542637,-6.990085100596044
GUIDED_NOGPS,3.9067912101745605,27.943025409388284,229.36650532958987,65.70023609911222,15.665070162778468,-3.3686595270869275,211.67871643994624,10.089789746349922,50,1.6750002671693134,0.6198352915887201,98.34124125476201,3.114184995754689,-1.238145222275054,3.3686595270869275,0.5081166316389296,226.22963069754488,65.1422461825474,16.44870532791403,-1.8535165962650808,-7.16197243913529
GUIDED_NOGPS,3.9444806575775146,26.540012781816916,227.89680262743133,65.28508941413223,16.67122762461642,-3.6056574825299816,211.07350815982386,9.566921986816155,50,1.5044833138794758,0.7211003165535639,98.12287327680752,3.1202173759297005,-1.177630612732523,3.6056574825299816,0.5080535960084862,224.67614151029122,64.68800600519393,17.776428637731644,-2.3006389168746466,-7.104676659622208
GUIDED_NOGPS,3.984281539916992,25.131092829709342,226.82193622738927,64.80724950736455,17.65467296128325,-3.869175287777905,210.48336916681512,9.057073289726944,50,1.2643340761052388,0.8875715566989326,97.80483234829505,3.122009868187706,-1.1436996942401905,3.869175287777905,0.5079933798721408,224.1563805619149,64.59149633435219,18.73888491820406,-2.931150504437568,-7.563042895726867
GUIDED_NOGPS,4.015509605407715,32.041313033314744,225.18180153325835,64.3775583798709,18.56011471065133,-4.1384846011268355,209.90861051786428,8.560512391735259,50,1.1136913724745516,0.9984783541726013,97.58932621960281,3.1257545753355966,-1.0691233710775854,4.1384846011268355,0.5079328284781311,221.33003909147035,63.85317280006651,19.16503057601826,-1.4383839312105096,-7.505747116213785
GUIDED_NOGPS,4.0576066970825195,23.759185199451665,223.23431718779557,63.94792565638892,19.127473685894074,-4.35341212967685,209.34952329328075,8.077490770744205,50,0.9365181863951249,1.117241683460783,97.30478053878008,3.128744353596104,-0.9719355726160371,4.35341212967685,0.5079148785147892,219.7793940777561,63.399107834747944,19.478505563459873,-1.8496517333664713,-7.16197243913529
GUIDED_NOGPS,4.086352109909058,34.80345851934215,221.9320260254679,63.54462940014795,19.65620633657224,-4.628912878317493,208.80637794176766,7.60824208004648,50,0.8924304892414562,1.178540390105826,97.1864270208421,3.1324376899256827,-0.918795365859017,4.628912878317493,0.5078883353727827,219.71817488590668,63.381607565629274,20.325082870238557,-1.8673908734219253,-6.875493541569879
GUIDED_NOGPS,4.119828701019287,29.880557672990474,220.76367968635617,63.34452979689906,20.234622304506257,-4.816465214232904,208.27942362544994,7.152981582463738,50,0.8042635793097284,1.245970899078248,96.98917115761213,3.1467267000083785,-0.8738979242634364,4.816465214232904,0.507860200578191,218.83440981473268,63.25287399031986,20.90027847982031,-1.1295045195303288,-6.818197762056797
GUIDED_NOGPS,4.156039714813232,27.621545087554082,219.21821484908924,63.08174017540595,20.86763614134284,-5.020440823647979,207.7688875649029,6.711905584485905,50,0.6446675648942122,1.399414727320581,96.70482355227533,3.156710737091523,-0.8014529098930427,5.020440823647979,0.5078288216169866,216.4290563755801,62.61073897026861,21.377547073969623,-1.422704704794441,-6.302535746439056
GUIDED_NOGPS,4.193296432495117,26.848184966362187,218.08943690831742,62.707805345590856,21.368186726266902,-5.217265537871052,207.27497438418072,6.285190870410659,50,0.5296311176544773,1.5086892163043226,96.45035119436817,3.1596664106100913,-0.7570123766895691,5.217265537871052,0.5078095916527218,215.6861493876114,62.259803076184006,21.82673462501075,-2.9257534359714867,-5.557690612768986
GUIDED_NOGPS,4.222834348678589,33.901858243277104,216.95940423764085,62.214254993399095,21.83596007288069,-5.42242461088946,206.79786545584432,5.8729941364823475,50,0.44916081706114896,1.6037014165274313,96.3018150704879,3.1551106079873383,-0.7113077147257577,5.42242461088946,0.5077888464396304,214.12923072437312,61.77222293374457,22.303598519661673,-5.824103807880974,-5.729577951308232
GUIDED_NOGPS,4.262201547622681,25.40986029830492,215.9506038932281,61.9308197598257,22.284564924856827,-5.582579143950784,206.3377182459903,5.47545142503192,50,0.3863725422076614,1.6664911321239468,96.1343798131742,3.1615006267484524,-0.6729019953066473,5.582579143950784,0.5077762748713578,214.67417316384282,61.76043326954843,22.723361629898033,-5.459246030247883,-5.271211715203574
GUIDED_NOGPS,4.295693874359131,29.866940106670086,215.3410062305326,61.810035209453865,22.8822139862291,-5.7607035499822405,205.89466565927893,5.092677558615989,50,0.3013614464767439,1.7722948177922642,96.01208527608513,3.1761720284469215,-0.661243839987757,5.7607035499822405,0.5077439485377274,215.786421501255,61.897449425068494,23.619681809127567,-6.181854780311809,-4.354479242994256
GUIDED_NOGPS,4.320502042770386,40.32403018795366,214.6954160308266,61.47673074607682,23.439555545025808,-5.8932115351738625,205.46881538396286,4.724765574156194,50,0.26525055650000384,1.860905103050661,95.9619380271989,3.178110049627555,-0.6458620452804622,5.8932115351738625,0.5077082170503985,213.20110537705017,60.77230954361343,23.975623196051792,-4.546006534855877,-3.896113006889598
GUIDED_NOGPS,4.358165740966797,26.558330378400285,214.02659240601452,61.01058372518725,23.905879358381608,-5.970162424696528,205.06024923691493,4.37178615707829,50,0.08596810261719276,2.0160652297653714,95.80060212881402,3.171772663814102,-0.6276440218369712,5.970162424696528,0.5076910595562543,212.342031263551,60.36199220687974,24.122333069965432,-4.0358323661117055,-3.151267873219528
GUIDED_NOGPS,4.3916919231414795,29.838256217631326,213.13399878686118,60.17405244876202,24.100171500803327,-6.080350758229652,204.6690225086573,4.0337870754523095,50,-0.01768190567792174,2.0745666537801766,95.7378805016658,3.143854860905344,-0.5925483394742725,6.080350758229652,0.5076976538928175,209.66626262860652,59.3878555957928,24.202558236392733,-2.9154523005791617,-2.177239621497128
GUIDED_NOGPS,4.421411991119385,33.652157866444156,212.1606871687862,59.588404861016166,24.329412299150345,-6.151206363541004,204.2951633083889,3.710792614130881,50,-0.11145106483294094,2.100246030625309,95.69674910248398,3.1291462858255765,-0.5505866702278113,6.151206363541004,0.5076977334358492,209.8076150734681,59.01536678037587,24.663345591092835,-4.1673329974317,-1.5469860468532228
GUIDED_NOGPS,4.460447788238525,25.624085138619062,210.87237981235043,58.8707983563784,24.65807016678494,-6.165204056008475,203.93867190901472,3.4028030088892507,50,-0.23182435775390192,2.0857075460901138,95.72161099106283,3.1062077394593928,-0.48535955323350016,6.165204056008475,0.5076943928452228,209.34488471907625,58.20917269296644,25.108306672869215,-4.045293018581248,0.17188733853924698
GUIDED_NOGPS,4.49563193321228,28.425745325408496,209.98497134522472,58.237112785955595,25.108363926293745,-6.156419454812725,203.5995200921737,3.1097938805645953,50,-0.28391378160279923,2.119347935299719,95.77668963652981,3.0871298587018963,-0.44698158771357216,6.156419454812725,0.5076757960078981,208.76406304142168,57.486798884524404,25.55343951491915,-3.8674545652904015,1.7188733853924698
GUIDED_NOGPS,4.532655954360962,27.015580818653184,209.38242559412706,57.514497710283514,25.485918270720873,-6.108793524528475,203.2776504932669,2.831715669195134,50,-0.31543883988211047,2.079753755567978,95.89673021119279,3.0622357943009497,-0.4273342570602117,6.108793524528475,0.507665225035273,209.32930250806265,56.847521553359634,25.796008624374227,-4.289883820023192,2.521014298575622
GUIDED_NOGPS,4.574484586715698,23.913475298611704,209.33768149644442,56.79242598461004,25.793285673305963,-5.9993284940618,202.97297594648637,2.5684930681595546,50,-0.2850006354544775,2.045299293186672,96.07269637477982,3.0365402433212276,-0.44552938849706325,5.9993284940618,0.5076647825855981,209.44254214019338,56.04295751594599,26.030408880624492,-3.4995091786826578,4.640958140559668
GUIDED_NOGPS,4.611300468444824,27.165533232295754,208.88768557276276,55.42809571256647,25.836832403009677,-5.8258204542071965,202.68537882984322,2.3200244583164107,50,-0.21516836783365725,2.041338637241711,96.32931341208638,2.9740519902380034,-0.4341614720043683,5.8258204542071965,0.5076872365421511,207.55763545505974,53.39380806839371,25.684079704030278,-0.550029969650538,6.245239966925974
GUIDED_NOGPS,4.649210691452026,26.38657238481089,208.3150241213237,53.75849186162623,25.69279195647672,-5.615478126714164,202.41471041019594,2.0861813421434334,50,-0.1620056437897159,1.9989124903253535,96.59776716722456,2.893649389091037,-0.4130219597789426,5.615478126714164,0.5077291302551723,206.48157746188085,51.83871000053892,25.363887284775355,-0.24562871781277806,7.16197243913529
GUIDED_NOGPS,4.687121868133545,26.381427412304152,207.96448902657977,51.952723143676316,25.431467987560694,-5.349620989593285,202.16079018827912,1.8668077778770424,50,-0.02099203946529206,2.0032530755428968,96.98214289295619,2.80481126048476,-0.40625891868104536,5.349620989593285,0.5077833093416799,207.01138756770206,50.62565136209625,25.246436973876406,-0.665337620114471,8.708958485988513
GUIDED_NOGPS,4.719347953796387,31.048449540673186,207.37624903694194,50.46829093258564,25.166792089308554,-5.024228664602771,201.92340524373128,1.661719813651402,50,0.07321082336180972,1.9898902373185898,97.29647502874934,2.7331679826603175,-0.3816990655247463,5.024228664602771,0.5078336959007326,206.38810255987363,48.9405114351217,24.890052009273862,1.5134846060146572,10.313240312354818
GUIDED_NOGPS,4.7516374588012695,30.976676858539754,207.11196706518496,49.06875236622648,25.044584214081524,-4.701254483467534,201.70230958012354,1.4707049216380454,50,0.174875881300562,1.9484455032085988,97.64776531814144,2.6654906568969525,-0.37867602395429917,4.701254483467534,0.5078701422140103,208.1211322814083,47.64009430146144,24.997263659094273,-0.40894833863222857,11.401860123103383
GUIDED_NOGPS,4.786606550216675,28.605068608996916,208.04290526867393,47.72889420973596,25.051411134931033,-4.342979082006359,201.49722346998828,1.2935214321849884,50,0.2999708359699852,1.8660110963420686,98.12808471114425,2.600380875542855,-0.4581977259079955,4.342979082006359,0.5078956077808892,212.2123264725046,46.606076892624706,25.26691773642494,-6.445789023777024,12.547775713365029
GUIDED_NOGPS,4.820540428161621,29.479638454293706,208.99334736088926,46.22425278457063,25.126817629266213,-3.9465552029354587,201.30783279984666,1.129897967956353,50,0.3574059233810489,1.8561961145047603,98.30778015801812,2.5252838697304,-0.5379860192729817,3.9465552029354587,0.5079133711805299,211.2337879229574,44.42658715962569,25.116271492279402,0.7842387203260301,13.407212406061264
GUIDED_NOGPS,4.850384712219238,33.511269484903444,209.7122812171386,44.428715570132816,25.01300625614608,-3.501624483826625,201.1337884152383,0.9795328780714812,50,0.44795742310675735,1.8190185410787345,98.64653022009406,2.4331542307554352,-0.6004944961330207,3.501624483826625,0.5079472391609977,210.60605684894884,42.25348265814798,24.655829539733872,2.014130242945555,14.78231111437524
GUIDED_NOGPS,4.881752252578735,31.89318003817171,210.59359800646826,42.21096460573818,24.73821746544331,-3.0726806825787607,200.97470546574806,0.8420936722444452,50,0.5097076692889617,1.690028390890634,99.03988764458427,2.3166567722756493,-0.6733224778504138,3.0726806825787607,0.5079982462936794,210.79468650652194,39.95282399944081,24.442551364316625,2.308691180973071,15.469860468532227
GUIDED_NOGPS,4.920205116271973,26.013768808067777,210.9451800341322,39.862305359081084,24.31300112154018,-2.603779730301525,200.8301627500357,0.7172164549232747,50,0.7441055676169304,1.3973959795340192,100.05747654788945,2.1921249786328376,-0.7080512098867547,2.603779730301525,0.5080700835251822,209.87904241972797,37.38060941965442,23.840622460569996,6.202906309654381,16.78766339733312
GUIDED_NOGPS,4.955995559692383,27.946749110486266,210.2832266310125,37.33065938524198,23.80582186795345,-1.9944481143983335,200.69970206086373,0.6045053594294103,50,0.9187506232081003,1.0968358529851352,100.89759664599019,2.0566646254455043,-0.6708467199104138,1.9944481143983335,0.5081489637717693,208.90255945690615,34.658544736630674,23.134291778973694,6.871988003867813,18.27735366467326
GUIDED_NOGPS,4.995830059051514,25.111382522690807,210.33134028718433,34.77685389020799,23.25111864568125,-1.3912253923349664,200.58282753012583,0.5035319820969306,50,1.0851431027346023,0.7013062148954553,101.73706787611978,1.9193060268542195,-0.6823958929940955,1.3912253923349664,0.5082364584877216,211.47435620381663,32.291407514338815,22.778441697500025,4.124535951582388,19.136790357369495
GUIDED_NOGPS,5.0248918533325195,34.419038240603975,211.12525259159844,32.32437144788221,22.804098323423812,-0.6861219542300769,200.47900497387502,0.4138348164120629,50,1.1661062441652295,0.4928039115885322,102.17210994511457,1.7869900513623282,-0.7452373332406393,0.6861219542300769,0.5083052376525669,214.57561837101943,30.02316209267708,22.49956149379767,4.279942489861725,19.652452372987238
GUIDED_NOGPS,5.0620033740997314,26.949446143565755,212.33082270711074,29.826306461652976,22.351193510949386,-0.14810110522174308,200.38766123735223,0.3349186871525234,50,1.2847830221500225,0.003791555402150438,103.01771468511883,1.6515177153720255,-0.8360213028830956,0.14810110522174308,0.5083814031652686,216.82253708408342,27.164349777942967,21.775577341550424,5.759162957533647,19.48056503444799
GUIDED_NOGPS,5.098137140274048,27.70565698734378,213.3418127736987,26.867210003911467,21.627783110974786,0.5417955639247277,200.30818354001497,0.2662541845267441,50,1.3498843298937642,-0.35560824960801324,103.73582711407563,1.4896535258855448,-0.9123540463578619,-0.5417955639247277,0.5084843417683443,214.93399275266788,23.414118141114287,20.60821049757623,-18.619603167518477,20.168114388604977
GUIDED_NOGPS,5.133474826812744,28.29496407730968,214.44323250961892,23.736708259200608,20.498106147696458,1.2178029337966432,200.23991882056498,0.20727709831304253,50,1.4339190287384873,-0.701519765028724,104.33059315681118,1.317648145009704,-0.9942319582337761,-1.2178029337966432,0.5086285530398496,214.40965813650726,20.6316568585445,19.110530603962683,8.066136532223723,19.881635491039567
GUIDED_NOGPS,5.171680212020874,26.183307322554466,214.52237454680335,20.26633441971298,19.11453896490122,1.8553056488475228,200.18217308197745,0.1573878519997578,50,1.514440875915708,-1.187469688506854,105.14897959297292,1.1261010077919407,-1.003814102537813,-1.8553056488475228,0.5088023291472072,211.87006638973858,16.753228259480085,17.624875793164712,-20.23759760980269,19.308677695908745
GUIDED_NOGPS,5.207316160202026,28.06286589812727,215.01942949333906,16.151766076322307,17.24484272209921,2.546679111608557,200.13421073652836,0.11595093692345415,50,1.6231462180425171,-1.5499343808245023,105.84579549209762,0.8980056478063358,-1.0419653129767492,-2.546679111608557,0.5090245084820031,217.06089310369802,11.070413110942273,14.999121769170188,12.408305749040352,18.334649444186343
GUIDED_NOGPS,5.237389802932739,33.267532797157315,214.43090638315113,11.831263808758285,15.313655467989742,3.148999687664139,200.0952539508241,0.08229434640922761,50,1.7083583774671267,-1.7520285793077783,106.23985642607235,0.6579422898915473,-1.0034956702628928,-3.148999687664139,0.5092487066982107,213.8799215331436,7.670150055852432,13.316968841634292,16.028934621372215,17.303325412950862
GUIDED_NOGPS,5.2745726108551025,26.901739442762583,214.22009213924625,8.803571074215734,13.877686484146269,3.6220789513786933,200.06448199082837,0.055709009909648444,50,1.8056076780868262,-2.0868718799001895,106.95066055261724,0.48988027560114084,-0.9908927103892515,-3.6220789513786933,0.5094324682844902,213.8799215331436,7.670150055852432,13.316968841634292,16.028934621372215,15.928226704636886
GUIDED_NOGPS,5.314316034317017,25.164565771711416,215.4365477094073,5.645091506350731,12.701171042360846,4.165069562256788,200.041030566892,0.03544822714410145,50,1.8610649721659216,-2.3736896658390076,107.497587950406,0.3141400236355713,-1.0776861999760712,-4.165069562256788,0.509594862907376,220.49193598731253,1.594974407347265,11.469575443813913,9.337777231412971,14.725015334862157
GUIDED_NOGPS,5.350649833679199,27.530712175910732,216.3500235829862,2.6565823254815975,11.66883616248235,4.714598738300967,200.02399117878076,0.020727102238410566,50,1.8103506041351654,-2.7049453028481634,108.06469855719216,0.1476078925016185,-1.1428222682943816,-4.714598738300967,0.5097397484935691,216.43744575763324,-1.2953774867549688,10.219964201998806,13.742901328773868,12.605071492878112
GUIDED_NOGPS,5.389350414276123,25.84465983523221,215.97491364692019,-1.306017620508297,10.431173546077673,5.13072066002539,200.01241046070288,0.010721977863838106,50,1.7198628706286612,-2.9951237553020396,108.5483374221316,-0.07373741750883957,-1.1173752230352114,-5.13072066002539,0.509909470134917,215.1853434233678,-4.217649782117252,9.603980992420265,-14.796611515797096,10.714310768946394
GUIDED_NOGPS,5.4261181354522705,27.202355550655366,216.83166715997004,-4.065812178333601,9.508713490958511,5.536319055321978,200.00528952633863,0.004569869376481961,50,1.5784882000931524,-3.1882456465368576,108.87066770944284,-0.2279413946717647,-1.1778464343541988,-5.536319055321978,0.5100465168781204,218.16368909839278,-6.684409266128647,8.70219527845643,15.208040788770433,8.938141604040842
GUIDED_NOGPS,5.460534572601318,29.064743016721064,217.05256063060932,-6.73639180816814,8.750141332933113,5.837115048483131,200.0015833138683,0.0013678989565590882,50,1.5089611432106538,-3.331477274752964,109.09929463153067,-0.3773145435989832,-1.193568412171871,-5.837115048483131,0.5101648622044443,214.9843888863401,-9.307116376258586,7.944247727922612,-10.653243954051277,6.990085100596044
GUIDED_NOGPS,5.502782821655273,23.67790448233036,217.04881563712405,-9.084417277703706,8.031767246058163,6.0427370091776265,200.00019993100022,0.0001727297488827162,50,1.288176025341932,-3.450350740841512,109.32490261000537,-0.508737040417345,-1.193403099428668,-6.0427370091776265,0.5102898402124507,220.47321101988615,-11.261726190723953,7.448858731795414,7.6939325230176365,4.583662361046586
GUIDED_NOGPS,5.538860559463501,27.724519945797667,217.44588157313592,-11.809289033622285,7.228931900137482,6.255243206941019,200.0,4.263256414560601e-14,50,1.0498376414713948,-3.5092764903585043,109.46621922393292,-0.6613201858828505,-1.2212117101195146,-6.255243206941019,0.5104159671542062,218.42277543769242,-14.85902453388438,6.2936892406943885,9.227252497098107,2.864788975654116
GUIDED_NOGPS,5.573681831359863,28.722011079839213,217.61475503488447,-14.228443441044739,6.552881785319781,6.35444669822278,200.0,0.0,50,0.8774776576835644,-3.533877551088421,109.54447953144293,-0.7967928326985055,-1.2330328524419127,-6.35444669822278,0.5105295783346454,216.02971073211054,-16.564579598525942,5.91609738346951,-3.0786271465137105,1.776169164905552
GUIDED_NOGPS,5.614010572433472,24.802663402461164,217.187959361628,-15.996061243645402,6.041961335877812,6.406295286172349,200.0,0.0,50,0.7261622871413367,-3.549898186673509,109.59033742153039,-0.8957794296441426,-1.2031571553139604,-6.406295286172349,0.510633712693619,216.02971073211054,-16.564579598525942,5.91609738346951,-3.0786271465137105,0.34377467707849396
