Mode,Time,Freq,time2delay,actualDelay,North-Desired,East-Desired,Down-Desired,Roll-UAV,Pitch-UAV,Yaw-UAV,Roll-Control,Pitch-Control,Yaw-Control,Thrust-Control,North-Pos,East-Pos,Down-Pos,Yaw-Ang,North-Vel,East-Vel,Down-Vel,Yaw-Vel,North-Acc,East-Acc,Down-Acc,North-Avg,East-Avg,Down-Avg,Yaw-Avg,North-Dif,East-Dif,Down-Dif,Yaw-Dif,North-One,East-One,Down-One,Yaw-One,North-Two,East-Two,Down-Two,Yaw-Two,Landing-State,Q-Size,Kalman-Time,Kalman-Dt
STABILIZE,0.03432869911193848,29.138037875314353,0.032755406697591145,0.03290224075317383,0.0,0.0,0.0,0.07752755627811067,-0.9933765230277192,-6.664640325570451,-0.016777881801213347,-0.021272128207041257,-0.0015049131395618262,0.4,-0.01622589978519683,0.012602112840129924,0.7405293470291153,-0.007499793497436081,-0.10445532388985157,-0.027594651328399777,1.3401994481682777,-0.15676630172693432,-2.1074432879686356,0.535964872688055,18.97870898246765,0.0,0.0,0.0,0.0,0.0,0.0,0.0,0.0,0.0,0.0,0.0,0.0,0.0,0.0,0.0,0.0,False,0,3.5058488845825195,0.029937255859375
STABILIZE,0.06841707229614258,29.335310327462967,0.032347710927327473,0.033179521560668945,0.0,0.0,0.0,0.07739207307262112,-0.9933875153634146,-6.664478108577663,-0.009988120470066688,-0.007874581897402743,-0.0014360369809585944,0.4,-0.011016071904423908,0.013792567690398407,0.7375022455593157,-0.007131084614976678,0.11042063124477863,0.05919942632317543,1.4546734280884266,0.01009698060462258,-3.026289865374565,0.7019457872956991,25.722724199295044,0.0,0.0,0.0,0.0,0.0,0.0,0.0,0.0,0.0,0.0,0.0,0.0,0.0,0.0,0.0,0.0,False,0,3.563898801803589,0.03492578125
STABILIZE,0.10184335708618164,29.916362936070357,0.032451899846394856,0.03255867958068848,0.0,0.0,0.0,0.07646909040017026,-0.993408326096042,-6.664402976496794,-0.007111309719052234,-0.0052187420362175135,-0.0009725023481182582,0.4,-0.01021195114950512,0.013596058712101587,0.7387057621060504,-0.004797367170663263,0.009591097477823496,0.011547317262738943,1.4869539067149162,0.1350398034824543,3.508683294057846,0.5485460627824068,19.78331059217453,0.0,0.0,0.0,0.0,0.0,0.0,0.0,0.0,0.0,0.0,0.0,0.0,0.0,0.0,0.0,0.0,False,0,3.591775894165039,0.029936767578125
STABILIZE,0.13532042503356934,29.87183249056335,0.032457621892293294,0.03258776664733887,0.0,0.0,0.0,0.07710349758018809,-0.9936760908558477,-6.664490061408711,-0.005626678938461395,-0.003876003428271138,-0.0004947401037376478,0.4,-0.009469859830151242,0.01331527822758444,0.7362990766324663,-0.0024005270139915874,0.009591097477823496,0.011547317262738943,1.4869539067149162,0.1350398034824543,3.508683294057846,0.5485460627824068,19.78331059217453,0.0,0.0,0.0,0.0,0.0,0.0,0.0,0.0,0.0,0.0,0.0,0.0,0.0,0.0,0.0,0.0,False,0,3.6204092502593994,0.029936767578125
STABILIZE,0.16878294944763184,29.88438985115888,0.0324285348256429,0.032578229904174805,0.0,0.0,0.0,0.07835139448589057,-0.9938484464106847,-6.665322490713806,-0.004773459136315251,-0.0034052348977230257,-0.0010738213579494003,0.4,-0.009802387916169313,0.013173684640288794,0.7338742227586712,-0.005278263332870084,-0.05194083205424249,0.01914602908072993,1.4614048413932323,-0.1741006148091259,-5.183006078004837,0.499801617115736,17.36171990633011,0.0,0.0,0.0,0.0,0.0,0.0,0.0,0.0,0.0,0.0,0.0,0.0,0.0,0.0,0.0,0.0,False,0,3.649034023284912,0.034926025390625
STABILIZE,0.20234465599060059,29.797767815912305,0.032433303197224934,0.03256344795227051,0.0,0.0,0.0,0.0787067777661428,-0.9940626368741882,-6.666292377575948,-0.001563113088190771,0.0017328868906282009,-0.001013226784405233,0.4,-0.00623701459669449,0.01273004962585979,0.7324194775556608,-0.004958705542130631,0.17861258238554,-0.0034364940802333876,1.2766704894602299,0.01737337989661418,0.9964634664356709,-1.3222796842455864,22.832371294498444,0.0,0.0,0.0,0.0,0.0,0.0,0.0,0.0,0.0,0.0,0.0,0.0,0.0,0.0,0.0,0.0,False,0,3.677835702896118,0.064864013671875
STABILIZE,0.23620367050170898,29.531944855167364,0.03229645093282064,0.03289794921875,0.0,0.0,0.0,0.0773433546139319,-0.9945980596720937,-6.666627910618925,-0.001251710448712372,0.001921586642545524,-0.0010082559552704686,0.4,-0.0020379154915995063,0.012634691256750444,0.7524432081169858,-0.004917179567492731,0.17861258238554,-0.0034364940802333876,1.2766704894602299,0.01737337989661418,0.9964634664356709,-1.3222796842455864,22.832371294498444,0.0,0.0,0.0,0.0,0.0,0.0,0.0,0.0,0.0,0.0,0.0,0.0,0.0,0.0,0.0,0.0,False,0,3.7066588401794434,0.064864013671875
STABILIZE,0.2695777416229248,29.963380744529616,0.032381327946980794,0.032505035400390625,0.0,0.0,0.0,0.07794003567095598,-0.9944823733430266,-6.666771771478318,-0.002026736174483471,0.0021593248649836036,-0.0013828517635698994,0.4,-0.0007698631900876043,0.014656543741894667,0.7652831554324362,-0.006767520039297422,0.08944539586082101,0.08114303927868605,1.3475263491272926,-0.04866449752674583,3.5101205110549927,0.5029115825891495,13.499045372009277,0.0,0.0,0.0,0.0,0.0,0.0,0.0,0.0,0.0,0.0,0.0,0.0,0.0,0.0,0.0,0.0,False,0,3.764502763748169,0.0349267578125
STABILIZE,0.30310821533203125,29.822980659840727,0.032457621892293294,0.032584428787231445,0.0,0.0,0.0,0.07755162202276439,-0.9941224010294257,-6.666308599275227,-0.002312544518322222,0.002324419365306194,-0.0013437595310000143,0.4,0.00024012664290071293,0.015259687045092382,0.7581690406250224,-0.0065501473014270015,0.03478829166851938,0.05834649200551212,1.2238365598022938,0.0025561916267706607,7.375906407833099,0.5793472286313772,16.467957198619843,0.0,0.0,0.0,0.0,0.0,0.0,0.0,0.0,0.0,0.0,0.0,0.0,0.0,0.0,0.0,0.0,False,0,3.7932376861572266,0.02993701171875
STABILIZE,0.3365042209625244,29.94455589745054,0.0323672612508138,0.03247714042663574,0.0,0.0,0.0,0.07841051831089349,-0.9944861086027289,-6.666423431830648,-0.0024519267044829547,0.0021046639367891307,-0.0005129462774596953,0.4,-0.0006407113241048591,0.015547066678999702,0.7468454864750945,-0.0023881013449975176,-0.0564783054869622,0.04758872964885086,1.1615009978413582,0.20645707519711423,-8.021613210439682,0.5662159994244576,16.039416193962097,0.0,0.0,0.0,0.0,0.0,0.0,0.0,0.0,0.0,0.0,0.0,0.0,0.0,0.0,0.0,0.0,False,0,3.8218204975128174,0.034926025390625
STABILIZE,0.36996889114379883,29.882686539516527,0.03241160710652669,0.03253889083862305,0.0,0.0,0.0,0.0767139099932329,-0.9943941144923453,-6.666627056845279,-0.0021114456909601884,0.00247168145648523,-0.0006963341342593513,0.4,0.002955529299145611,0.014298164612559703,0.7428384261419283,-0.0032940182479979426,0.17560948617756367,-0.03896457783412188,1.3216531835496426,-0.056501165763770206,2.1116403862833977,0.5285038147121668,17.871636152267456,0.0,0.0,0.0,0.0,0.0,0.0,0.0,0.0,0.0,0.0,0.0,0.0,0.0,0.0,0.0,0.0,False,0,3.8506617546081543,0.034927001953125
STABILIZE,0.4089052677154541,25.682294951474145,0.032384665807088216,0.03795623779296875,0.0,0.0,0.0,0.07792098584647399,-0.99379316456709,-6.66643325022758,-0.0029614562824260963,0.0011139354436172332,7.71228123772899e-05,0.4,0.0017541861680447145,0.01683144047010969,0.7370911272230061,0.0005710441082920092,-0.0765316653996706,0.1618096954189241,1.2127985246479511,0.19720392977989235,-3.502289205789566,0.6162525154650211,16.857363283634186,0.0,0.0,0.0,0.0,0.0,0.0,0.0,0.0,0.0,0.0,0.0,0.0,0.0,0.0,0.0,0.0,False,0,3.879295587539673,0.02993701171875
STABILIZE,0.4423353672027588,29.915936178255816,0.03233054478963216,0.032457590103149414,0.0,0.0,0.0,0.07705259132653033,-0.99353436443057,-6.667230247926356,-0.002122147939345497,0.002595912105374176,0.0006592966281942851,0.4,0.0070101852928157685,0.015835480842960513,0.7269686373896682,0.0034703211360510603,0.13490901328623295,0.003235329859307967,1.3062285259366035,0.07274737101424056,0.7439376786351204,-1.362788025289774,19.115473330020905,0.0,0.0,0.0,0.0,0.0,0.0,0.0,0.0,0.0,0.0,0.0,0.0,0.0,0.0,0.0,0.0,False,0,3.9369499683380127,0.034926025390625
STABILIZE,0.47809386253356934,27.963704488936003,0.03233364423116048,0.03483438491821289,0.0,0.0,0.0,0.07713946279503643,-0.9942609258035301,-6.668214648940483,-0.0017201456258012832,0.0013439859304530703,0.0009583946621510603,0.4,0.0038837668081288636,0.015078581731382374,0.7282936778142529,0.004948088076522037,-0.17930245958268642,-0.014058685337658972,1.5346033498644829,0.07486534330675275,0.4098487086594105,0.672667846083641,21.577565371990204,0.0,0.0,0.0,0.0,0.0,0.0,0.0,0.0,0.0,0.0,0.0,0.0,0.0,0.0,0.0,0.0,False,0,3.965595006942749,0.034927001953125
STABILIZE,0.51171875,29.741141767179336,0.0324127991994222,0.032517433166503906,0.0,0.0,0.0,0.0772005609715963,-0.993992413991784,-6.668396075840312,-0.0014991088257582112,0.001344930221180187,0.0012605464927214368,0.4,0.003263707610853944,0.014649289287111554,0.7272883961916615,0.006437323050473972,-0.03977447631768882,0.004068565249326639,1.3966916128993034,0.07718586672673153,-1.00968349725008,-1.3590557500720024,19.57199275493622,0.0,0.0,0.0,0.0,0.0,0.0,0.0,0.0,0.0,0.0,0.0,0.0,0.0,0.0,0.0,0.0,False,0,3.994616746902466,0.034927001953125
STABILIZE,0.5454890727996826,29.612634938117328,0.03221109708150228,0.032721519470214844,0.0,0.0,0.0,0.07682351318507046,-0.9941758686040222,-6.668912608896294,-0.0012061509971412465,0.0008705259024315253,0.0011460182229790826,0.4,0.0044075722774073465,0.012984517897369319,0.7234228186680268,0.005844897724968583,0.05896430229768157,-0.06417618715204298,1.230032555758953,-0.03598844015956908,2.070682868361473,-1.4180682599544525,18.45909208059311,0.0,0.0,0.0,0.0,0.0,0.0,0.0,0.0,0.0,0.0,0.0,0.0,0.0,0.0,0.0,0.0,False,0,4.023237466812134,0.02993701171875
STABILIZE,0.5788924694061279,29.936861639484672,0.032147916158040364,0.03229022026062012,0.0,0.0,0.0,0.07511991459568118,-0.9933621155974387,-6.668595431986712,4.8992780581936974e-06,0.0018914544816342686,0.0007632954308455621,0.4,0.006686431159480975,0.011058432149230725,0.7148306657884381,0.0039181788078158425,0.1295684021897614,-0.07760861772112548,1.1443243362009525,-0.10457985450726844,2.041105553507805,-1.4434140175580978,16.385991871356964,0.0,0.0,0.0,0.0,0.0,0.0,0.0,0.0,0.0,0.0,0.0,0.0,0.0,0.0,0.0,0.0,False,0,4.051842927932739,0.03492578125
STABILIZE,0.6125671863555908,29.692295712131617,0.03231838544209798,0.032675981521606445,0.0,0.0,0.0,0.07440818753982469,-0.9944581475158142,-6.6690103659787905,-0.000665265059881699,0.0010249187538866852,0.0006658608615743141,0.4,0.007845320214861952,0.012261037105764884,0.713806646485061,0.0034194925476354688,0.06249893922358751,0.09526827489025891,1.3513212092220783,-0.02877091789863578,2.5007683783769608,2.465427666902542,15.945696830749512,0.0,0.0,0.0,0.0,0.0,0.0,0.0,0.0,0.0,0.0,0.0,0.0,0.0,0.0,0.0,0.0,False,1,4.080600023269653,0.03492724609375
STABILIZE,0.6460649967193604,29.853122464376717,0.03234532674153646,0.03266024589538574,0.0,0.0,0.0,0.07606808359069646,-0.9946327442264726,-6.669200330615081,-0.000868064751628959,0.0029125168690646635,0.00022984748452145414,0.4,0.011359807386100616,0.012350667477266215,0.711640044131706,0.0012352728370886106,0.13545001856982708,-0.03779586113523692,1.3249649666249752,-0.09344913410991368,7.326681911945343,-1.3875962235033512,20.263226330280304,0.0,0.0,0.0,0.0,0.0,0.0,0.0,0.0,0.0,0.0,0.0,0.0,0.0,0.0,0.0,0.0,False,0,4.13797926902771,0.029936767578125
STABILIZE,0.6796085834503174,29.813653293906913,0.03246930440266927,0.03260064125061035,0.0,0.0,0.0,0.07626808006733089,-0.9945335997618017,-6.668716667844479,-0.0005677061550038414,0.0027707365826795285,0.00048471299483422687,0.4,0.01049983149723467,0.01122357109926154,0.7077266973156482,0.002501228202681713,-0.03889567160513252,-0.0359262601705268,1.3583394698798656,0.0751701605087844,2.560191974043846,0.5995545536279678,23.768572509288788,0.0,0.0,0.0,0.0,0.0,0.0,0.0,0.0,0.0,0.0,0.0,0.0,0.0,0.0,0.0,0.0,False,0,4.1671435832977295,0.03492626953125
STABILIZE,0.713071346282959,29.88332525862806,0.03238848050435384,0.0325169563293457,0.0,0.0,0.0,0.07564952106062162,-0.9942340319336731,-6.668887849460553,-0.000983074081038628,0.0034475480246749838,0.0007744179809856156,0.4,0.013287258620051241,0.011280023108960329,0.7062945227887013,0.003936585954409287,0.16347465571016073,0.029039266519248486,1.2830453924834728,0.08416741395596881,3.751754015684128,0.5994706880301237,21.906806528568268,0.0,0.0,0.0,0.0,0.0,0.0,0.0,0.0,0.0,0.0,0.0,0.0,0.0,0.0,0.0,0.0,False,0,4.195736885070801,0.02993701171875
STABILIZE,0.7464964389801025,29.917003095621904,0.03237965901692708,0.03249025344848633,0.0,0.0,0.0,0.0749581778505694,-0.9943714894907196,-6.6682761206430134,-0.0014554869659611168,0.003774539267539463,0.0010515791702476673,0.4,0.01585121980876148,0.011308110458669222,0.701600763872874,0.005304659761564393,0.16347465571016073,0.029039266519248486,1.2830453924834728,0.08416741395596881,3.751754015684128,0.5994706880301237,21.906806528568268,0.0,0.0,0.0,0.0,0.0,0.0,0.0,0.0,0.0,0.0,0.0,0.0,0.0,0.0,0.0,0.0,False,0,4.231417655944824,0.02993701171875
STABILIZE,0.7800071239471436,29.841865230414584,0.03238514264424642,0.032529354095458984,0.0,0.0,0.0,0.07540523507608787,-0.9939949753127226,-6.667921804579819,-0.000984205853167711,0.0028954195577484258,0.000498181249933758,0.4,0.014064733527678246,0.010787975991852994,0.698474747871881,0.002529206615280689,-0.08976496756076813,-0.0038304438930936158,1.3504736125469208,-0.15892905711523506,2.420029044151306,-1.4995254576206207,13.938777148723602,0.0,0.0,0.0,0.0,0.0,0.0,0.0,0.0,0.0,0.0,0.0,0.0,0.0,0.0,0.0,0.0,False,0,4.260072469711304,0.06985302734375
STABILIZE,0.8134386539459229,29.9110293383538,0.0323362668355306,0.032469987869262695,0.0,0.0,0.0,0.07736469895508818,-0.9946866386878922,-6.668273132435252,-0.0008632055684136775,0.0018264120341728344,-7.072630168643306e-05,0.4,0.013373063251638787,0.010506864655546382,0.7220873208790903,-0.0003142794917965655,-0.08976496756076813,-0.0038304438930936158,1.3504736125469208,-0.15892905711523506,2.420029044151306,-1.4995254576206207,13.938777148723602,0.0,0.0,0.0,0.0,0.0,0.0,0.0,0.0,0.0,0.0,0.0,0.0,0.0,0.0,0.0,0.0,False,0,4.288898944854736,0.06985302734375
STABILIZE,0.8468706607818604,29.91145595618439,0.03236058553059896,0.03250384330749512,0.0,0.0,0.0,0.07708471455997054,-0.9952894028821458,-6.668538229152413,-0.0012388826023616148,0.0010941518643029086,-0.0008169918526500086,0.4,0.010603426907885065,0.010799002622119837,0.7457382106799701,-0.004032118605215655,-0.1583061646670103,0.02977931872010231,1.4808506704866886,-0.16836711122793652,-1.2108054012060165,0.6248701363801956,22.6077601313591,0.0,0.0,0.0,0.0,0.0,0.0,0.0,0.0,0.0,0.0,0.0,0.0,0.0,0.0,0.0,0.0,False,0,4.3175554275512695,0.0349267578125
STABILIZE,0.8803896903991699,29.834860297046607,0.03239420255025228,0.03251338005065918,0.0,0.0,0.0,0.07686070569953528,-0.9952215278772689,-6.6689441985212055,-0.0026302224031308726,-0.0010131331213080444,0.00031327777800184545,0.4,0.006356090357080088,0.014702908889467382,0.7577991347688431,0.0016138352502829219,-0.08097086101770401,0.10927830589935184,1.362468022853136,0.14153312558816794,0.8112767711281776,0.7519853767007589,21.583737432956696,0.0,0.0,0.0,0.0,0.0,0.0,0.0,0.0,0.0,0.0,0.0,0.0,0.0,0.0,0.0,0.0,False,0,4.375783920288086,0.064864013671875
STABILIZE,0.9137356281280518,29.98694511371192,0.032317193349202473,0.032436370849609375,0.0,0.0,0.0,0.07664651523603191,-0.9960285574163882,-6.669070983907674,-0.002644492832327618,-0.0003778830458192289,0.0007035388423808156,0.4,0.010034280276671175,0.014755842080574386,0.7691663554607191,0.0035532564093793545,0.18467805348336697,0.005366127879824489,1.2483075261116028,0.07910398261484812,9.660636633634567,0.6170223001390696,18.698181211948395,0.0,0.0,0.0,0.0,0.0,0.0,0.0,0.0,0.0,0.0,0.0,0.0,0.0,0.0,0.0,0.0,False,0,4.407735347747803,0.034926025390625
STABILIZE,0.9472074508666992,29.87715211739146,0.032410653432210286,0.0325467586517334,0.0,0.0,0.0,0.07699042593291264,-0.9963693198229484,-6.6685979933076505,-0.002428483340044267,-0.001545442448659691,0.0010625357891747033,0.4,0.005330076112090567,0.013803287724059157,0.761201404668959,0.005330407938289632,-0.18678283086046576,-0.011424016702221707,1.3677333481609821,0.08281204829254442,-2.6720859110355377,-1.2937366031110287,18.962758779525757,0.0,0.0,0.0,0.0,0.0,0.0,0.0,0.0,0.0,0.0,0.0,0.0,0.0,0.0,0.0,0.0,False,0,4.434058666229248,0.02993701171875
STABILIZE,0.9810523986816406,29.547964409752797,0.03239610989888509,0.03280019760131836,0.0,0.0,0.0,0.07716865118156765,-0.9962501116775905,-6.66803108760654,-0.0030322989218045386,-0.003398963266946542,0.0010869842219974573,0.4,-0.0006584725643886541,0.015300695966496644,0.7491296960079636,0.005434314055244868,-0.25950681883841753,0.10195090435445309,1.2944696471095085,0.013994337237842103,-7.776129990816116,0.6290119141340256,16.316500306129456,0.0,0.0,0.0,0.0,0.0,0.0,0.0,0.0,0.0,0.0,0.0,0.0,0.0,0.0,0.0,0.0,False,0,4.462614297866821,0.034927001953125
STABILIZE,1.0143563747406006,30.024940226495055,0.03226426442464193,0.03239917755126953,0.0,0.0,0.0,0.07719896014600959,-0.9955919589180363,-6.667910278635595,-0.0033222872340166057,-0.0017410050200547345,0.0009444502563412167,0.4,0.0022749597525224376,0.016295673245485635,0.7440135076596293,0.004705911756156587,0.15085486229509115,0.07689852500334382,1.4069241471588612,-0.028718604252483036,8.715803921222687,0.8090153336524963,22.693434357643127,0.0,0.0,0.0,0.0,0.0,0.0,0.0,0.0,0.0,0.0,0.0,0.0,0.0,0.0,0.0,0.0,False,0,4.491302490234375,0.034926025390625
STABILIZE,1.047844409942627,29.861411515104052,0.03242996533711751,0.03256392478942871,0.0,0.0,0.0,0.0773973557970573,-0.994685784914246,-6.667267813966791,-0.002819442524098417,-0.0013011072589254713,0.0002842810851106546,0.4,0.0005736424823192413,0.017490457630146096,0.7399410788375359,0.0014003806407822152,-0.06763693527318537,0.08786921971477568,1.4286266639828682,-0.1529958772225286,-3.425408899784088,0.5499126855283976,14.771461486816406,0.0,0.0,0.0,0.0,0.0,0.0,0.0,0.0,0.0,0.0,0.0,0.0,0.0,0.0,0.0,0.0,False,0,4.519908905029297,0.034927001953125
STABILIZE,1.0812575817108154,29.92789000121301,0.03226736386617025,0.0323939323425293,0.0,0.0,0.0,0.07747648994189425,-0.9942674358275827,-6.6668895922415015,-0.002322771632144079,-0.003610598976678743,-0.001286949196343049,0.4,-0.0036401262572880017,0.016135970388218592,0.7346039087509051,-0.006434256381252302,-0.11752578429877758,-0.09254407486878335,1.493611466139555,-0.22747726251230616,-2.7744606137275696,-1.218377985060215,22.761520743370056,0.0,0.0,0.0,0.0,0.0,0.0,0.0,0.0,0.0,0.0,0.0,0.0,0.0,0.0,0.0,0.0,False,0,4.577272653579712,0.02993701171875
STABILIZE,1.1148154735565186,29.800943557096573,0.03242305119832357,0.03255867958068848,0.0,0.0,0.0,0.07779825588482532,-0.9941009499665636,-6.6672827550055995,-0.002280173015447284,-0.0010265063254460186,-0.0019306350130406374,0.4,0.0006627098993867491,0.015377915291176651,0.7268752337058608,-0.00962049355281293,0.22148636635392904,-0.0026599982447805814,1.3483894057571888,-0.1694083815710329,10.078085213899612,0.5922092124819756,14.61799293756485,0.0,0.0,0.0,0.0,0.0,0.0,0.0,0.0,0.0,0.0,0.0,0.0,0.0,0.0,0.0,0.0,False,0,4.606130599975586,0.034926025390625
STABILIZE,1.1482226848602295,29.93258876003568,0.0323055108388265,0.03242802619934082,0.0,0.0,0.0,0.07802872140846036,-0.9961377337214026,-6.668971092391063,-0.0016990926953503694,0.0017870018148559927,-0.002584882579689298,0.4,0.00476861907227758,0.014744830626062555,0.7234253488773079,-0.012848770771750272,0.22148636635392904,-0.0026599982447805814,1.3483894057571888,-0.1694083815710329,10.078085213899612,0.5922092124819756,14.61799293756485,0.0,0.0,0.0,0.0,0.0,0.0,0.0,0.0,0.0,0.0,0.0,0.0,0.0,0.0,0.0,0.0,False,0,4.635120630264282,0.034926025390625
STABILIZE,1.1816298961639404,29.93258876003568,0.03235963185628255,0.03249645233154297,0.0,0.0,0.0,0.0784375722633091,-0.9962995238273673,-6.668083594685784,-0.001660276439080136,-9.558721909867874e-05,-0.0022513012194803495,0.4,0.0012864103999488262,0.015292934559289177,0.7216579821322091,-0.011143575550863094,-0.17206139164045453,0.05838642246089876,1.418432965874672,0.08405611655705199,-2.292255498468876,0.7233296986669302,21.511727571487427,0.0,0.0,0.0,0.0,0.0,0.0,0.0,0.0,0.0,0.0,0.0,0.0,0.0,0.0,0.0,0.0,False,0,4.663660764694214,0.06486376953125
STABILIZE,1.2150897979736328,29.88694518273609,0.032413514455159505,0.03253579139709473,0.0,0.0,0.0,0.07797877565015464,-0.9957192779130335,-6.6681967196939125,-0.0014957561794475332,0.00023311200188679958,-0.0018082826182351352,0.4,0.001055937346864824,0.01562466708033987,0.7349485570019507,-0.008898710939798004,0.006143341306596994,0.021126728097442538,1.1343265883624554,0.1477894588059806,1.813843846321106,0.5769471637904644,15.381519496440887,0.0,0.0,0.0,0.0,0.0,0.0,0.0,0.0,0.0,0.0,0.0,0.0,0.0,0.0,0.0,0.0,False,0,4.692228555679321,0.034876220703125
STABILIZE,1.2487478256225586,29.71080462701263,0.03239634831746419,0.03281092643737793,0.0,0.0,0.0,0.07873991485578793,-0.9961583310106185,-6.668061396570981,-0.0017341937373038204,0.0034969872484210914,-0.0019057347309967795,0.4,0.007738859428383915,0.015380752480522324,0.7221149419999068,-0.009354444582055598,0.3397423541173339,0.02048927271971479,0.9620828554034233,-0.0351833182709406,3.8551177829504013,0.6397023797035217,18.653911352157593,0.0,0.0,0.0,0.0,0.0,0.0,0.0,0.0,0.0,0.0,0.0,0.0,0.0,0.0,0.0,0.0,False,0,4.720919370651245,0.034926025390625
STABILIZE,1.2822175025939941,29.877577769388033,0.03247836430867513,0.03259778022766113,0.0,0.0,0.0,0.07938339338079718,-0.9957943032721979,-6.666921181866412,-0.0011397030006089592,0.0012250476421350042,-0.0024261070229272858,0.4,0.0040717770591952055,0.013215108205598543,0.710633334739438,-0.011916444814663382,-0.06245960830710828,0.030380114912986755,1.3427439145743847,-0.07923849198477242,-3.065263479948044,-1.2389135546982288,16.901393234729767,0.0,0.0,0.0,0.0,0.0,0.0,0.0,0.0,0.0,0.0,0.0,0.0,0.0,0.0,0.0,0.0,False,0,4.778272390365601,0.034927001953125
STABILIZE,1.317322015762329,28.485978769500342,0.032451661427815755,0.034215688705444336,0.0,0.0,0.0,0.07989496387746056,-0.9957802160070348,-6.668349118289768,-0.0017702861129840074,0.0007100250592799496,-0.0015788767206137918,0.4,0.005494583873786914,0.014585702163544495,0.7048652098207946,-0.007653433414099897,0.08289582910947502,0.10201348923146725,1.2068623676896095,0.20936776297995782,2.847681939601898,0.7545866072177887,18.592366576194763,0.0,0.0,0.0,0.0,0.0,0.0,0.0,0.0,0.0,0.0,0.0,0.0,0.0,0.0,0.0,0.0,False,0,4.807469367980957,0.02993701171875
STABILIZE,1.3507893085479736,29.879919072179636,0.032424004872639973,0.03255891799926758,0.0,0.0,0.0,0.08017361425125592,-0.995617465405718,-6.668117318744811,-0.0020969019763844,0.0019980324406808298,-0.0007399164138053695,0.4,0.006835738098640926,0.015854588516432733,0.6963013532033404,-0.00344709456589673,0.08289582910947502,0.10201348923146725,1.2068623676896095,0.20936776297995782,2.847681939601898,0.7545866072177887,18.592366576194763,0.0,0.0,0.0,0.0,0.0,0.0,0.0,0.0,0.0,0.0,0.0,0.0,0.0,0.0,0.0,0.0,False,0,4.835699796676636,0.02993701171875
STABILIZE,1.3843629360198975,29.786552282475924,0.03242090543111165,0.03258681297302246,0.0,0.0,0.0,0.08009229231145046,-0.9961284489329997,-6.667880823444799,-0.0022459925293084435,0.003333496832088502,-0.0012567085517285212,0.4,0.0106084373290902,0.01648538649821055,0.6905040480633738,-0.006010932273386365,0.21907868795096874,0.06923817563802004,1.314404048025608,-0.15276598532806215,0.8979720063507557,2.5800801813602448,12.922556698322296,0.0,0.0,0.0,0.0,0.0,0.0,0.0,0.0,0.0,0.0,0.0,0.0,0.0,0.0,0.0,0.0,False,0,4.8643622398376465,0.039916015625
STABILIZE,1.4177193641662598,29.97794343627826,0.03232696851094564,0.03246259689331055,0.0,0.0,0.0,0.08047270183170843,-0.9966281199594683,-6.667850087593534,-0.003017273232238864,-5.714605590445395e-05,-0.000838287195391274,0.4,0.005287989758718186,0.01846325170912028,0.6927860314354343,-0.0039057657773483743,-0.2871673787012696,0.13104764511808753,1.366366446018219,0.10355073709841793,-4.110344126820564,0.7031046785414219,16.743402183055878,0.0,0.0,0.0,0.0,0.0,0.0,0.0,0.0,0.0,0.0,0.0,0.0,0.0,0.0,0.0,0.0,False,0,4.893014192581177,0.02993701171875
STABILIZE,1.4511771202087402,29.889287953936492,0.0324437936147054,0.03256940841674805,0.0,0.0,0.0,0.08025093412709458,-0.997130779193699,-6.668363205554932,-0.0030994188142655084,-0.00010756240573597369,-0.00040992032961522187,0.4,0.002552928132517459,0.017243526917897413,0.6893716468897942,-0.0017580510388841121,-0.13998904032632709,-0.03061730822082609,1.41737200319767,0.10716746900628513,-3.6282580345869064,-1.3158251531422138,18.366986513137817,0.0,0.0,0.0,0.0,0.0,0.0,0.0,0.0,0.0,0.0,0.0,0.0,0.0,0.0,0.0,0.0,False,0,4.921737194061279,0.02993701171875
STABILIZE,1.4847557544708252,29.780419054110663,0.032425912221272786,0.032723426818847656,0.0,0.0,0.0,0.08010968794949283,-0.9977082503436824,-6.668728193788704,-0.0029503826483712643,0.002100668135125916,-0.0009349946168660042,0.4,0.010041520659610746,0.017693752333808037,0.6824728296105086,-0.004368737124548508,0.2718513598665595,0.08246018551290035,1.0194817557930946,-0.013314066404764699,8.471281826496124,0.5699222907423973,13.337387144565582,0.0,0.0,0.0,0.0,0.0,0.0,0.0,0.0,0.0,0.0,0.0,0.0,0.0,0.0,0.0,0.0,False,0,4.9791858196258545,0.03492626953125
STABILIZE,1.5184235572814941,29.7061752353162,0.03247526486714681,0.032593488693237305,0.0,0.0,0.0,0.07949107558193066,-0.9985007657308155,-6.668066092326036,-0.0029846796320191766,0.003348021470772414,-0.0009468914911245404,0.4,0.014659083807377054,0.018627103916724834,0.6765960268145589,-0.004413456428915924,0.2718513598665595,0.08246018551290035,1.0194817557930946,-0.013314066404764699,8.471281826496124,0.5699222907423973,13.337387144565582,0.0,0.0,0.0,0.0,0.0,0.0,0.0,0.0,0.0,0.0,0.0,0.0,0.0,0.0,0.0,0.0,False,0,5.007835626602173,0.03492626953125
STABILIZE,1.551713228225708,30.03590584562062,0.032228740056355794,0.03236556053161621,0.0,0.0,0.0,0.08001769383910923,-0.9981577621684339,-6.667167068676533,-0.0026436111673152495,0.0015957312663912133,-0.0012178978295407446,0.4,0.012146561771710713,0.018090317942347306,0.6762203362617257,-0.005749264571361975,-0.13391782995313406,-0.0010063403351523448,1.3248681090772152,-0.0866748604436238,-4.2389944195747375,-1.1960296891629696,23.475147783756256,0.0,0.0,0.0,0.0,0.0,0.0,0.0,0.0,0.0,0.0,0.0,0.0,0.0,0.0,0.0,0.0,False,0,5.03669548034668,0.02993701171875
STABILIZE,1.5851378440856934,29.91721648822728,0.03240707715352376,0.03252291679382324,0.0,0.0,0.0,0.07848655752626277,-0.999396054120616,-6.6663931228662054,-0.0019381475318099107,0.0019770536525099717,-0.0014804486838570746,0.4,0.00951477621430228,0.017437602759829657,0.6727764617278829,-0.007038485089810922,-0.13391782995313406,-0.0010063403351523448,1.3248681090772152,-0.0866748604436238,-4.2389944195747375,-1.1960296891629696,23.475147783756256,0.0,0.0,0.0,0.0,0.0,0.0,0.0,0.0,0.0,0.0,0.0,0.0,0.0,0.0,0.0,0.0,False,0,5.065253019332886,0.02993701171875
STABILIZE,1.619797945022583,28.85340450999546,0.03241685231526693,0.03377866744995117,0.0,0.0,0.0,0.07860016278206712,-0.9995925287809597,-6.6667892738380665,-0.0030433659173700234,0.0037077796802074256,-0.0019449532634703516,0.4,0.012763169207995433,0.01974983818319348,0.6698679131015675,-0.009328671825801082,0.2080815378576517,0.1720127766020596,1.329432800412178,-0.14729278932748696,3.94522063434124,0.6415973417460918,19.490860402584076,0.0,0.0,0.0,0.0,0.0,0.0,0.0,0.0,0.0,0.0,0.0,0.0,0.0,0.0,0.0,0.0,False,0,5.093871831893921,0.039915771484375
STABILIZE,1.653904676437378,29.318085864869776,0.03237202962239583,0.03308248519897461,0.0,0.0,0.0,0.07901152159700173,-1.0006932564543896,-6.667228967265886,-0.002719225897221362,0.001407646328228504,-0.0020501086609617525,0.4,0.011212961329680176,0.01913034126310459,0.6754284057861031,-0.009821023693565844,-0.0848720723297447,-0.014848473074380308,1.4188118278980255,-0.032366712341849985,-1.2221348471939564,0.5941212642937899,15.618038177490234,0.0,0.0,0.0,0.0,0.0,0.0,0.0,0.0,0.0,0.0,0.0,0.0,0.0,0.0,0.0,0.0,False,1,5.1226842403411865,0.029937255859375
STABILIZE,1.6873443126678467,29.906337345274085,0.03237179120381673,0.03249311447143555,0.0,0.0,0.0,0.07874194256819778,-0.9998681909469932,-6.66812671025492,-0.001758594203615963,-0.0010840948431441741,-0.0022470887108618554,0.4,0.007119866521987147,0.01706971676495188,0.6901140004258864,-0.010769903614567245,-0.06400853744708002,-0.08431027526967227,1.3100781477987766,-0.022185148115288995,-5.461923778057098,-1.3539647683501244,16.265593469142914,0.0,0.0,0.0,0.0,0.0,0.0,0.0,0.0,0.0,0.0,0.0,0.0,0.0,0.0,0.0,0.0,False,0,5.1801159381866455,0.0349267578125
STABILIZE,1.7207913398742676,29.896744670083326,0.03235796292622884,0.03249835968017578,0.0,0.0,0.0,0.07753796164442436,-0.9999735252705995,-6.668527130095011,-0.0010974614360446903,-0.0009886147097365326,-0.0022800270954961748,0.4,0.0056261000148014,0.014864498268773535,0.6886228168567745,-0.010898107193277896,-0.06400853744708002,-0.08431027526967227,1.3100781477987766,-0.022185148115288995,-5.461923778057098,-1.3539647683501244,16.265593469142914,0.0,0.0,0.0,0.0,0.0,0.0,0.0,0.0,0.0,0.0,0.0,0.0,0.0,0.0,0.0,0.0,False,0,5.208946704864502,0.0349267578125
STABILIZE,1.754415512084961,29.741985349907463,0.032385857899983723,0.0326838493347168,0.0,0.0,0.0,0.07818816363689784,-1.0006347729596212,-6.667975592319533,-0.0018752703284565754,-0.0020051015189225586,-0.0026539734221004588,0.4,0.0007563650534039845,0.016593453784230022,0.6889411752327738,-0.012725084548955377,-0.2490874845534563,0.13038958422839642,1.3950899243354797,-0.11564785589215676,-11.724041402339935,0.46457606367766857,11.22172325849533,0.0,0.0,0.0,0.0,0.0,0.0,0.0,0.0,0.0,0.0,0.0,0.0,0.0,0.0,0.0,0.0,False,0,5.237710952758789,0.039916015625
STABILIZE,1.7879347801208496,29.837619423636454,0.03234222730000814,0.032488107681274414,0.0,0.0,0.0,0.07771170458143656,-1.000341501712134,-6.667551693704169,-0.001576142488078304,-0.0019143624180591706,-0.0029220470969704396,0.4,0.0032343359111553765,0.01724020765520474,0.6901922048843594,-0.014018529680796487,0.15517447609454393,0.06575506995432079,1.2541945092380047,-0.08002983343314186,0.24315323680639267,0.5578240845352411,15.532355010509491,0.0,0.0,0.0,0.0,0.0,0.0,0.0,0.0,0.0,0.0,0.0,0.0,0.0,0.0,0.0,0.0,False,0,5.2662107944488525,0.024947021484375
STABILIZE,1.8213348388671875,29.93707531547993,0.03231981595357259,0.03243255615234375,0.0,0.0,0.0,0.07772856661095003,-1.0007299687211784,-6.667909851748772,-0.0017746739018975827,-0.003160200327494632,-0.002509990757897154,0.4,-0.0015098155244538795,0.01738045888244668,0.688089451822064,-0.011918414835718665,-0.25367895141243935,0.05156200495548546,1.629856787621975,0.08605224601209482,-5.762478709220886,0.6740505807101727,22.23600000143051,0.0,0.0,0.0,0.0,0.0,0.0,0.0,0.0,0.0,0.0,0.0,0.0,0.0,0.0,0.0,0.0,False,0,5.295748710632324,0.034927001953125
STABILIZE,1.8548190593719482,29.863325026699894,0.032338889439900716,0.032479047775268555,0.0,0.0,0.0,0.07835240834209549,-0.9998761950749268,-6.667921377692996,-0.0023259203170346034,-0.003283999231092074,-0.0023589579900662352,0.4,-0.004760886971870975,0.01753649358953108,0.6847142683810724,-0.011126017879422549,-0.16687159659340978,0.042014618520624936,1.137730199843645,0.02710197718319903,0.5101523827761412,0.7283383049070835,21.967287361621857,0.0,0.0,0.0,0.0,0.0,0.0,0.0,0.0,0.0,0.0,0.0,0.0,0.0,0.0,0.0,0.0,False,0,5.331207990646362,0.03492626953125
STABILIZE,1.888275146484375,29.8905659839512,0.032325061162312825,0.032463788986206055,0.0,0.0,0.0,0.0789207547862346,-0.9994148371408336,-6.668192450825681,-0.003330258318881429,-0.00270974742789135,-0.0022399856860651577,0.4,-0.004118929118933802,0.01885914976837055,0.6879561144887543,-0.010496046450619068,0.049529067473486066,0.10726432083174586,1.5040512196719646,0.01731858497080202,0.17597810365259647,0.7194023579359055,19.360719621181488,0.0,0.0,0.0,0.0,0.0,0.0,0.0,0.0,0.0,0.0,0.0,0.0,0.0,0.0,0.0,0.0,False,0,5.359671354293823,0.029936767578125
STABILIZE,1.9247851371765137,27.388690087501633,0.032321961720784505,0.03558683395385742,0.0,0.0,0.0,0.0793285917848784,-1.0005879221307832,-6.668172814031817,-0.0026792403500340055,-0.0030988675031124384,-0.0020797357579487564,0.4,-0.008974063355892837,0.018144509704708496,0.6819291515381806,-0.009659457136112768,-0.1567863509990275,-0.012663420056924224,1.275544986128807,-0.027752904549766495,-1.696666143834591,0.7345749530941248,18.067462742328644,0.0,0.0,0.0,0.0,0.0,0.0,0.0,0.0,0.0,0.0,0.0,0.0,0.0,0.0,0.0,0.0,False,0,5.417181015014648,0.0349267578125
STABILIZE,1.9583675861358643,29.77682488747533,0.032410653432210286,0.032556772232055664,0.0,0.0,0.0,0.07945799185313841,-1.0007723372383737,-6.668637693782201,-0.003409853683328483,-0.002837206443739136,-0.0014580776862970295,0.4,-0.006452182909349345,0.02060332084722382,0.681799978445393,-0.0065293082568959005,0.15200013294816017,0.17304576467722654,1.2849576771259308,0.16000872059198631,4.1190121322870255,0.7373448461294174,17.022255063056946,0.0,0.0,0.0,0.0,0.0,0.0,0.0,0.0,0.0,0.0,0.0,0.0,0.0,0.0,0.0,0.0,False,0,5.445782661437988,0.02993701171875
STABILIZE,1.9917404651641846,29.965521429438954,0.0322907288869222,0.03243565559387207,0.0,0.0,0.0,0.07836868340222716,-1.0014091456567715,-6.668075910722968,-0.004204818587099573,-0.000799896287947925,-0.0008407345162253158,0.4,-0.00379182010662265,0.02290225272292506,0.678335925405466,-0.003431116505435147,0.15200013294816017,0.17304576467722654,1.2849576771259308,0.16000872059198631,4.1190121322870255,0.7373448461294174,17.022255063056946,0.0,0.0,0.0,0.0,0.0,0.0,0.0,0.0,0.0,0.0,0.0,0.0,0.0,0.0,0.0,0.0,False,0,5.4751880168914795,0.02993701171875
STABILIZE,2.0251498222351074,29.931093540376217,0.03238418896993001,0.03251147270202637,0.0,0.0,0.0,0.07815806811586747,-1.001139886793085,-6.668274839982544,-0.004175215773267659,-0.00037347117491473455,-0.00047740667010383396,0.4,-0.004823672109006759,0.0229152541568745,0.676027123339362,-0.0016090952528301837,-0.06137086311355233,0.04203561693429947,1.3304488733410835,0.08993971754731635,1.303825993090868,0.7335306610912085,16.112609207630157,0.0,0.0,0.0,0.0,0.0,0.0,0.0,0.0,0.0,0.0,0.0,0.0,0.0,0.0,0.0,0.0,False,0,5.503880977630615,0.039916259765625
STABILIZE,2.0586352348327637,29.863325026699894,0.032427342732747395,0.03256869316101074,0.0,0.0,0.0,0.07744425998674825,-1.0002757611413726,-6.668279535737598,-0.004075891834566704,-0.0003933038866454545,-0.0013571665855446086,0.4,-0.004428627068639941,0.02351061018507105,0.6815687110562365,-0.005987864633191864,0.029856269247829914,0.05671840044669807,1.3754676096141338,-0.27535800917200626,1.746903546154499,-1.090326253324747,20.122045278549194,0.0,0.0,0.0,0.0,0.0,0.0,0.0,0.0,0.0,0.0,0.0,0.0,0.0,0.0,0.0,0.0,False,0,5.532379388809204,0.029936767578125
STABILIZE,2.0920724868774414,29.90804335424986,0.0323973019917806,0.03253984451293945,0.0,0.0,0.0,0.07651450048598027,-0.9996840960045201,-6.667892349389024,-0.004236066573130683,0.0006198524724022324,-0.001176146840461685,0.4,-0.0045696802191299655,0.023512995772453766,0.6805616458280714,-0.005065816099186176,-0.011429232108639553,0.043664927943609655,1.4099100604653358,0.038232837652792624,-1.0787932202219963,0.7504365406930447,18.792232871055603,0.0,0.0,0.0,0.0,0.0,0.0,0.0,0.0,0.0,0.0,0.0,0.0,0.0,0.0,0.0,0.0,False,1,5.561275005340576,0.034927001953125
STABILIZE,2.125603199005127,29.821496370345617,0.032424243291219075,0.03257107734680176,0.0,0.0,0.0,0.07653696540504726,-0.9989320281438783,-6.6681595805403004,-0.003466972500028892,-0.0011464098556986293,-0.0008362511683715732,0.4,-0.007999374857045275,0.022998323279053098,0.6807699424078546,-0.003355103276957636,-0.18945783376693726,-0.004406664083944634,1.1058800853788853,0.032123153398936885,-2.512054145336151,-1.2923289090394974,16.116610169410706,0.0,0.0,0.0,0.0,0.0,0.0,0.0,0.0,0.0,0.0,0.0,0.0,0.0,0.0,0.0,0.0,False,0,5.618689298629761,0.064863037109375
STABILIZE,2.159018039703369,29.928317100146277,0.032357247670491536,0.03248238563537598,0.0,0.0,0.0,0.07772632545512861,-0.9989509178858016,-6.667759160700208,-0.0029481931136381883,-0.0031808680223561103,-0.0006431522033970296,0.4,-0.012115308401114855,0.023076106056955255,0.6978933343055012,-0.0023816455651747962,-0.18945783376693726,-0.004406664083944634,1.1058800853788853,0.032123153398936885,-2.512054145336151,-1.2923289090394974,16.116610169410706,0.0,0.0,0.0,0.0,0.0,0.0,0.0,0.0,0.0,0.0,0.0,0.0,0.0,0.0,0.0,0.0,False,0,5.647324800491333,0.064863037109375
STABILIZE,2.1926281452178955,29.7542226793885,0.0323977788289388,0.03255295753479004,0.0,0.0,0.0,0.07773891861641083,-0.9986604214026645,-6.667511993229619,-0.002742132905883027,-0.004233832810550279,0.0003068706881040478,0.4,-0.015942867610261424,0.02250318224364006,0.7144260387051042,0.002360566127664168,-0.1523036975413561,-0.022354193788487464,1.229794416576624,0.21604165821185364,-2.837308868765831,0.6844349205493927,17.683881521224976,0.0,0.0,0.0,0.0,0.0,0.0,0.0,0.0,0.0,0.0,0.0,0.0,0.0,0.0,0.0,0.0,False,0,5.676413536071777,0.02993701171875
STABILIZE,2.225933074951172,30.023435766386783,0.03224328358968099,0.03236794471740723,0.0,0.0,0.0,0.07786767835443614,-0.9993450411452525,-6.6676951276767396,-0.0029288788496355223,-0.002570772033178941,0.0002046586018474111,0.4,-0.010758715646565754,0.023410250479218114,0.7061280619340671,0.0018433431183052182,0.24002054706215858,0.09880030993372202,1.2323512695729733,-0.030323465253704638,3.023952804505825,0.6895725149661303,19.65559273958206,0.0,0.0,0.0,0.0,0.0,0.0,0.0,0.0,0.0,0.0,0.0,0.0,0.0,0.0,0.0,0.0,False,0,5.705374240875244,0.034927001953125
STABILIZE,2.259375810623169,29.90207317420937,0.032401116689046223,0.032536983489990234,0.0,0.0,0.0,0.07835763770567879,-0.9997038395200898,-6.667646462578904,-0.003298586169992375,-0.000856795162471304,0.00012005138066912961,0.4,-0.005801042447265778,0.024432174976811785,0.7018686154334066,0.0014155701573189006,0.24002054706215858,0.09880030993372202,1.2323512695729733,-0.030323465253704638,3.023952804505825,0.6895725149661303,19.65559273958206,0.0,0.0,0.0,0.0,0.0,0.0,0.0,0.0,0.0,0.0,0.0,0.0,0.0,0.0,0.0,0.0,False,0,5.734101295471191,0.034927001953125
STABILIZE,2.292816400527954,29.903778696706116,0.032418282826741536,0.032503604888916016,0.0,0.0,0.0,0.07880848355175252,-1.000096788840777,-6.666857148842944,-0.0030608014191978233,0.0001663511518220771,-0.00019081446259849004,0.4,-0.005199160291638355,0.02341997625326047,0.6984069826081452,-0.00013829712930855942,0.016170913295354694,-0.006381074490491301,1.2569734826683998,-0.08758789798711715,0.4606503061950207,-1.284722238779068,18.687112629413605,0.0,0.0,0.0,0.0,0.0,0.0,0.0,0.0,0.0,0.0,0.0,0.0,0.0,0.0,0.0,0.0,False,0,5.762720823287964,0.064864013671875
STABILIZE,2.3263514041900635,29.822132476323198,0.03237274487813314,0.032506465911865234,0.0,0.0,0.0,0.07915356818739683,-0.9999226190169417,-6.666940391773453,-0.0033417415930061764,-0.001471659425574245,-0.0008216604841506616,0.4,-0.012927885090454793,0.0242447337736879,0.7045671857154213,-0.00328155048736727,-0.10401221225038171,0.08641913300380111,1.079840399324894,0.03488237640085014,-2.7814414352178574,0.7404908072203398,18.834288418293,0.0,0.0,0.0,0.0,0.0,0.0,0.0,0.0,0.0,0.0,0.0,0.0,0.0,0.0,0.0,0.0,False,0,5.820143699645996,0.03492724609375
STABILIZE,2.3598506450653076,29.851210259987045,0.03228476842244466,0.03243875503540039,0.0,0.0,0.0,0.07948499244470113,-1.0005771432384993,-6.667521811626551,-0.0030283907605854147,-0.0007294511496476484,-0.00017016068773402162,0.4,-0.013430829346946923,0.02298178739800484,0.7010062533990599,-2.3971228065067934e-05,-0.04223139840178192,-0.013153055624570698,1.3222944922745228,0.15572681897240978,0.6237126886844635,-1.2247842736542225,20.0544610619545,0.0,0.0,0.0,0.0,0.0,0.0,0.0,0.0,0.0,0.0,0.0,0.0,0.0,0.0,0.0,0.0,False,0,5.848898649215698,0.029936767578125
STABILIZE,2.393148899078369,30.02794959908362,0.0322146733601888,0.032332658767700195,0.0,0.0,0.0,0.0794539897891716,-1.0004094834387167,-6.667079129990969,-0.002340505655156829,-0.002089316121292661,0.00045582227554306334,0.4,-0.013776607073268225,0.021663971159922184,0.6946860620994747,0.003095598661439061,-0.04223139840178192,-0.013153055624570698,1.3222944922745228,0.15572681897240978,0.6237126886844635,-1.2247842736542225,20.0544610619545,0.0,0.0,0.0,0.0,0.0,0.0,0.0,0.0,0.0,0.0,0.0,0.0,0.0,0.0,0.0,0.0,False,0,5.877484321594238,0.029936767578125
STABILIZE,2.4265758991241455,29.915722803914296,0.032404216130574544,0.03252387046813965,0.0,0.0,0.0,0.07906466900648089,-1.000335098409787,-6.666735486098353,-0.001918637329356128,-0.003375710096195477,0.0008400465895265338,0.4,-0.01406907363689836,0.021162385143259414,0.6869767563776892,0.005000002312856586,-0.04004015354439616,0.02557100378908217,1.212987769395113,0.09983799567598708,3.1293965876102448,0.5280910991132259,13.113348186016083,0.0,0.0,0.0,0.0,0.0,0.0,0.0,0.0,0.0,0.0,0.0,0.0,0.0,0.0,0.0,0.0,False,0,5.906661510467529,0.03492724609375
STABILIZE,2.460101366043091,29.82955571833951,0.03242948849995931,0.032564401626586914,0.0,0.0,0.0,0.07980227607598937,-1.000634025907681,-6.667411247939361,-0.0011793881418996654,-0.0036246279218208085,0.0016870402013415976,0.4,-0.014372252714727396,0.018422750574659977,0.688669143493408,0.009204177016570128,-0.03402470319997519,-0.09815148077905178,1.503663882613182,0.21855148592756887,2.002975717186928,-1.1564545333385468,23.96697700023651,0.0,0.0,0.0,0.0,0.0,0.0,0.0,0.0,0.0,0.0,0.0,0.0,0.0,0.0,0.0,0.0,False,0,5.9349589347839355,0.034926025390625
STABILIZE,2.4934511184692383,29.984372654289658,0.03235033353169759,0.032462358474731445,0.0,0.0,0.0,0.07772157633922135,-1.0001687192704738,-6.6682048305435515,-0.0013821292845437759,-0.0017301076863597174,0.0011166599731846705,0.4,-0.014230938529363262,0.019527489721836176,0.6815550420109026,0.006331115121423337,-0.011491650366224349,0.10346422204747796,1.0257406160235405,-0.15302054327677736,3.7461694329977036,0.6778245326131582,17.75313913822174,0.0,0.0,0.0,0.0,0.0,0.0,0.0,0.0,0.0,0.0,0.0,0.0,0.0,0.0,0.0,0.0,False,0,5.963711500167847,0.0349267578125
STABILIZE,2.526893377304077,29.902925911138993,0.032434733708699544,0.0325472354888916,0.0,0.0,0.0,0.07730274700488204,-1.0004124716464786,-6.668593724439419,-0.001795405664536825,-0.0014454040284825726,0.0014980992299622074,0.4,-0.013740235028664331,0.019830689441889288,0.6669260736003629,0.008210862800804719,-0.10110960574820638,0.028032608679495752,1.125326007604599,0.027569831801131685,-2.8499508276581764,-1.3485041446983814,16.862978041172028,0.0,0.0,0.0,0.0,0.0,0.0,0.0,0.0,0.0,0.0,0.0,0.0,0.0,0.0,0.0,0.0,False,0,6.023292064666748,0.0349267578125
STABILIZE,2.5604496002197266,29.800943557096573,0.03243115743001302,0.032570838928222656,0.0,0.0,0.0,0.0780658072012194,-1.001561330809216,-6.667171337544764,-0.00201947862955306,-0.0018650538501502575,0.0015949886326405043,0.4,-0.01521609799222258,0.019569015705375965,0.6628064592028188,0.008666303151013036,-0.10110960574820638,0.028032608679495752,1.125326007604599,0.027569831801131685,-2.8499508276581764,-1.3485041446983814,16.862978041172028,0.0,0.0,0.0,0.0,0.0,0.0,0.0,0.0,0.0,0.0,0.0,0.0,0.0,0.0,0.0,0.0,False,0,6.05194878578186,0.0349267578125
STABILIZE,2.594000816345215,29.805602535495517,0.03232911427815755,0.03246641159057617,0.0,0.0,0.0,0.07797477358618783,-1.001930481189514,-6.668131406009974,-0.0026110230468249025,-0.0015465312705331123,0.001670116018339141,0.4,-0.014476994468737138,0.02087442373307195,0.6582839466682605,0.009011780733645712,0.020037355716340244,0.11389828287065029,1.0923308320343494,0.02300733213662928,0.004657357931137085,0.6820819806307554,15.372718870639801,0.0,0.0,0.0,0.0,0.0,0.0,0.0,0.0,0.0,0.0,0.0,0.0,0.0,0.0,0.0,0.0,False,0,6.080665826797485,0.064863037109375
STABILIZE,2.6274755001068115,29.875662430907745,0.03223923047383626,0.03244423866271973,0.0,0.0,0.0,0.077866771219937,-1.001697507705793,-6.667932049863574,-0.003987567308690691,-0.0014151237465646169,0.0018741735043088469,0.4,-0.014296580522067517,0.022876952574844112,0.6714483553980697,0.009998563009134974,0.020037355716340244,0.11389828287065029,1.0923308320343494,0.02300733213662928,0.004657357931137085,0.6820819806307554,15.372718870639801,0.0,0.0,0.0,0.0,0.0,0.0,0.0,0.0,0.0,0.0,0.0,0.0,0.0,0.0,0.0,0.0,False,0,6.10939884185791,0.064863037109375
STABILIZE,2.660994052886963,29.832738239185172,0.03226974805196126,0.03237605094909668,0.0,0.0,0.0,0.07676209484339322,-1.0023771115282092,-6.668384549896087,-0.00367182990790211,-0.0018986591999227422,0.0015578519646492494,0.4,-0.015616334138990032,0.022725758763756876,0.683966184294421,0.008388909502852444,-0.0644225045107305,0.0024967333956738003,1.17924427613616,-0.09577243229424277,0.20461385138332844,-1.2599160894751549,14.417645335197449,0.0,0.0,0.0,0.0,0.0,0.0,0.0,0.0,0.0,0.0,0.0,0.0,0.0,0.0,0.0,0.0,False,0,6.137971639633179,0.034927001953125
STABILIZE,2.6943392753601074,29.988445918892637,0.03219464619954427,0.032331228256225586,0.0,0.0,0.0,0.07591226990025554,-1.0026815885548037,-6.667482538038823,-0.0032617434841607173,-0.0022593017699446376,0.0011057762044009221,0.4,-0.016327569974151183,0.02177775413787244,0.677303055980587,0.0061080983072731064,-0.0644225045107305,0.0024967333956738003,1.17924427613616,-0.09577243229424277,0.20461385138332844,-1.2599160894751549,14.417645335197449,0.0,0.0,0.0,0.0,0.0,0.0,0.0,0.0,0.0,0.0,0.0,0.0,0.0,0.0,0.0,0.0,False,0,6.166879415512085,0.034927001953125
STABILIZE,2.7276771068573,29.994665141059105,0.032306702931722005,0.03241705894470215,0.0,0.0,0.0,0.07557636333130843,-1.002533031940356,-6.666753415344924,-0.003618216879844456,-0.0007652805886055137,0.0015409037531420174,0.4,-0.012959803341051335,0.02258672325832583,0.6850571037783227,0.00825615179443539,0.07484133820980787,0.006347789167193696,1.1612744070589542,0.033142058874565436,1.656312309205532,-1.1619824916124344,16.908471286296844,0.0,0.0,0.0,0.0,0.0,0.0,0.0,0.0,0.0,0.0,0.0,0.0,0.0,0.0,0.0,0.0,False,0,6.224057674407959,0.03492626953125
STABILIZE,2.7611401081085205,29.88438985115888,0.03241113026936849,0.032535552978515625,0.0,0.0,0.0,0.07689032097288964,-1.0029415626300873,-6.667527361155251,-0.002880299537661474,-0.0019663313005214393,0.001322623002314533,0.4,-0.015975053341823225,0.021393113888880377,0.6842896883945495,0.007140853113384787,-0.1724315108731389,-0.006067901631467976,1.4938642270863056,-0.03612288949853387,-4.0433332324028015,0.8285847492516041,19.510389864444733,0.0,0.0,0.0,0.0,0.0,0.0,0.0,0.0,0.0,0.0,0.0,0.0,0.0,0.0,0.0,0.0,False,0,6.2532265186309814,0.0349267578125
STABILIZE,2.794576644897461,29.906124107836774,0.03237965901692708,0.032514095306396484,0.0,0.0,0.0,0.07874567782790014,-1.0024600342936014,-6.667606762104352,-0.002565672133632925,-0.002559483205467049,0.0008762868355537867,0.4,-0.01759106966530072,0.02184014944885846,0.68339725163383,0.004892796248588324,-0.10935836471617222,0.07007081294432282,1.4645944349467754,-0.09219968306937075,0.8929652161896229,0.8859490975737572,22.84770905971527,0.0,0.0,0.0,0.0,0.0,0.0,0.0,0.0,0.0,0.0,0.0,0.0,0.0,0.0,0.0,0.0,False,0,6.281947374343872,0.02993701171875
STABILIZE,2.8282196521759033,29.728072351494447,0.03241089185078939,0.032547712326049805,0.0,0.0,0.0,0.0794627409690457,-1.0020977141024734,-6.668305575833809,-0.002729022099645467,-0.002731041870976535,0.00044882628649221747,0.4,-0.019020422591346942,0.022185633937192348,0.6797605867900868,0.002746310464805726,-0.10935836471617222,0.07007081294432282,1.4645944349467754,-0.09219968306937075,0.8929652161896229,0.8859490975737572,22.84770905971527,0.0,0.0,0.0,0.0,0.0,0.0,0.0,0.0,0.0,0.0,0.0,0.0,0.0,0.0,0.0,0.0,False,0,6.310734033584595,0.02993701171875
STABILIZE,2.8617117404937744,29.8582228739838,0.032196791966756184,0.03236532211303711,0.0,0.0,0.0,0.07945505700622943,-1.0013741409372752,-6.667201219622383,-0.002990771546307478,-0.0010079304674783809,0.0007763631644115949,0.4,-0.014430246137676767,0.022274802304830626,0.6686218859782854,0.00436935576082129,0.19382103346288204,0.05721203051507473,1.0495509952306747,0.09372374906920919,5.324581637978554,0.7821083068847656,17.28428304195404,0.0,0.0,0.0,0.0,0.0,0.0,0.0,0.0,0.0,0.0,0.0,0.0,0.0,0.0,0.0,0.0,False,0,6.339535236358643,0.034927001953125
STABILIZE,2.8950154781341553,30.02300594833325,0.03215149243672689,0.03230166435241699,0.0,0.0,0.0,0.07908099742746545,-1.0012441538996335,-6.667513700776911,-0.0033390742614049867,-0.0009884371796489517,0.0003703491562536888,0.4,-0.011990785926594836,0.02377488050809004,0.666491469280696,0.002331487254745742,0.09539969032630324,0.12348021846264601,1.3039309531450272,-0.09216731304198592,0.5750356707721949,0.838886946439743,21.84438705444336,0.0,0.0,0.0,0.0,0.0,0.0,0.0,0.0,0.0,0.0,0.0,0.0,0.0,0.0,0.0,0.0,False,0,6.368160247802734,0.034926025390625
STABILIZE,2.928455114364624,29.903565495754343,0.03237751324971517,0.03249788284301758,0.0,0.0,0.0,0.08000243263518247,-1.0028049588466872,-6.667972177224948,-0.0033495555182594576,0.00024402129501518768,-2.8963126463042187e-05,0.4,-0.010479532308864174,0.023001307851197215,0.6618073851154178,0.0003338102047967164,0.049564591608941555,0.005930814950261265,1.1535558849573135,-0.0923685701687699,0.9753982536494732,0.6339970976114273,14.275282621383667,0.0,0.0,0.0,0.0,0.0,0.0,0.0,0.0,0.0,0.0,0.0,0.0,0.0,0.0,0.0,0.0,False,1,6.398005247116089,0.02993701171875
STABILIZE,2.9619052410125732,29.895892285651154,0.032377036412556966,0.03249835968017578,0.0,0.0,0.0,0.07935868730590878,-1.003429067382097,-6.66793418429769,-0.0033577896619221585,0.000851807116521598,0.0003105233714881583,0.4,-0.009822167265862578,0.02331299391778343,0.6558321140875468,0.0020244700443408665,0.014752573042642325,0.06209372659213841,1.1574750766158104,0.08139082866654625,0.11861561797559261,0.7865148596465588,19.737812876701355,0.0,0.0,0.0,0.0,0.0,0.0,0.0,0.0,0.0,0.0,0.0,0.0,0.0,0.0,0.0,0.0,False,0,6.455389499664307,0.034926025390625
STABILIZE,2.997131586074829,28.388420746275727,0.032366307576497395,0.0343782901763916,0.0,0.0,0.0,0.07913275745476944,-1.0047910497912798,-6.669313455623209,-0.003389251602050123,0.0014405685085663081,0.000578409754665266,0.4,-0.009062366738721052,0.023632466844759104,0.6524915970808031,0.0033520673985816276,0.014752573042642325,0.06209372659213841,1.1574750766158104,0.08139082866654625,0.11861561797559261,0.7865148596465588,19.737812876701355,0.0,0.0,0.0,0.0,0.0,0.0,0.0,0.0,0.0,0.0,0.0,0.0,0.0,0.0,0.0,0.0,False,0,6.484062671661377,0.034926025390625
STABILIZE,3.0337347984313965,27.320184466272373,0.032479079564412434,0.0356752872467041,0.0,0.0,0.0,0.07966151014606364,-1.0037310898094585,-6.669268632506781,-0.004220928322258451,0.0008812740046692417,0.0004296352392595693,0.4,-0.007375971647617789,0.026138126423013656,0.6546584049885635,0.0025986979319854173,0.06657103076577187,0.18160308245569468,1.4458483085036278,-0.03222288483298965,1.6114568337798119,0.8379291743040085,19.85337883234024,0.0,0.0,0.0,0.0,0.0,0.0,0.0,0.0,0.0,0.0,0.0,0.0,0.0,0.0,0.0,0.0,False,0,6.512768983840942,0.034927001953125
STABILIZE,3.0671613216400146,29.915296064362437,0.03239038785298665,0.03252291679382324,0.0,0.0,0.0,0.07997020268003648,-1.003242624562097,-6.668986887203518,-0.003829534012896864,0.0005417965212379903,0.00011612776358554516,0.4,-0.006654448249535626,0.02603771721090415,0.6508230591829159,0.0010277234427571115,0.015112324035726488,0.03933757834602147,1.1062202043831348,-0.07776978786980812,0.8284476585686207,0.7714117877185345,19.761845469474792,0.0,0.0,0.0,0.0,0.0,0.0,0.0,0.0,0.0,0.0,0.0,0.0,0.0,0.0,0.0,0.0,False,0,6.541363000869751,0.02993701171875
STABILIZE,3.1006252765655518,29.882899442853276,0.032431634267171223,0.032547712326049805,0.0,0.0,0.0,0.08063193061673436,-1.0033913946199562,-6.669837672642008,-0.003420268405650942,-0.0017522584367703612,0.0004045767384970457,0.4,-0.01234407757185149,0.024374530767799312,0.6476080333527383,0.0024617390513294378,-0.34132604487240314,-0.03882280143443495,1.3051602989435196,0.08707706120218103,-5.658765137195587,-1.265244372189045,18.11741590499878,0.0,0.0,0.0,0.0,0.0,0.0,0.0,0.0,0.0,0.0,0.0,0.0,0.0,0.0,0.0,0.0,False,1,6.570302724838257,0.034927001953125
STABILIZE,3.134028196334839,29.939639665362762,0.032404216130574544,0.03251242637634277,0.0,0.0,0.0,0.0797744217107804,-1.003089158749183,-6.670371281170915,-0.0031314957238636884,-0.002181262392335351,0.0002937211299161573,0.4,-0.013139982465853397,0.023769500477190623,0.6469582651405602,0.0019011068132345531,-0.06704278057441115,0.010635705257300287,1.2435371987521648,-0.023895990440458186,-3.053687885403633,2.552958019077778,16.562671959400177,0.0,0.0,0.0,0.0,0.0,0.0,0.0,0.0,0.0,0.0,0.0,0.0,0.0,0.0,0.0,0.0,False,1,6.598904848098755,0.02993701171875
STABILIZE,3.1675186157226562,29.85758522747496,0.03241566022237142,0.032556772232055664,0.0,0.0,0.0,0.07964822329369385,-1.0030246988388911,-6.6716246208836125,-0.0032582166938645847,-0.002376159826683948,0.0006771001373747374,0.4,-0.013201494498557231,0.02431536214276201,0.6373391490510222,0.003805262312954947,0.009892908565234393,0.12479047290980816,1.088108867406845,0.14835996636466178,4.072778671979904,0.5978622008115053,15.086181461811066,0.0,0.0,0.0,0.0,0.0,0.0,0.0,0.0,0.0,0.0,0.0,0.0,0.0,0.0,0.0,0.0,False,0,6.6601338386535645,0.0349267578125
STABILIZE,3.200993299484253,29.874385675009616,0.03239634831746419,0.03250908851623535,0.0,0.0,0.0,0.07886691368566785,-1.0027588550697895,-6.671530705782525,-0.0026063355537896135,-0.0030764815047765815,0.0009736938733040891,0.4,-0.014171962011574932,0.02401903692581627,0.6334813231513158,0.005270607529362917,-0.0783496187068522,0.025731351342983544,0.9997490793466568,0.09149365895466696,4.330978915095329,0.8699311874806881,27.379897236824036,0.0,0.0,0.0,0.0,0.0,0.0,0.0,0.0,0.0,0.0,0.0,0.0,0.0,0.0,0.0,0.0,False,0,6.688807249069214,0.069853271484375
STABILIZE,3.2344067096710205,29.92789000121301,0.03235748608907064,0.03249669075012207,0.0,0.0,0.0,0.0781889106888383,-1.003595659964822,-6.671171267077453,-0.002751442712695272,-0.0030704074425991963,0.0006594189627709158,0.4,-0.01364002504996394,0.024346844281670593,0.6588219504843112,0.003686901825643029,0.04129090812057257,0.01271048531634733,1.4421520754694939,-0.0956625222775011,4.179049655795097,0.5743006244301796,15.72793424129486,0.0,0.0,0.0,0.0,0.0,0.0,0.0,0.0,0.0,0.0,0.0,0.0,0.0,0.0,0.0,0.0,False,0,6.717649698257446,0.0348994140625
STABILIZE,3.269691228866577,28.33931744626798,0.03240183194478353,0.034407615661621094,0.0,0.0,0.0,0.07737622489931258,-1.002895352131484,-6.670440009949439,-0.002916506762356826,-0.001295544203660351,0.0002715762666148945,0.4,-0.012369090952554389,0.02366432348509458,0.6605730251359322,0.0017415360692786762,0.04129090812057257,0.01271048531634733,1.4421520754694939,-0.0956625222775011,4.179049655795097,0.5743006244301796,15.72793424129486,0.0,0.0,0.0,0.0,0.0,0.0,0.0,0.0,0.0,0.0,0.0,0.0,0.0,0.0,0.0,0.0,False,0,6.746168613433838,0.0348994140625
STABILIZE,3.3031671047210693,29.87268350355398,0.03245285352071126,0.03257250785827637,0.0,0.0,0.0,0.07807706634117935,-1.0025137153116095,-6.671113210469508,-0.002715429083146847,-0.002071630176165716,0.00082822518642082,0.4,-0.015211707222733715,0.022693467670442675,0.6589382046723259,0.004509702751788796,-0.17993951914831996,-0.00343703395628836,1.2439844198524952,0.15778958946260652,-6.031490862369537,-1.4149285852909088,16.29544496536255,0.0,0.0,0.0,0.0,0.0,0.0,0.0,0.0,0.0,0.0,0.0,0.0,0.0,0.0,0.0,0.0,False,0,6.774972438812256,0.03492724609375
STABILIZE,3.336704969406128,29.82022423979581,0.03241780598958333,0.032527923583984375,0.0,0.0,0.0,0.07855928836875282,-1.0014005011986031,-6.670751210443497,-0.0016890581588201027,-0.001957528065440119,0.0003427288752585637,0.4,-0.014913402962596039,0.020192837795550755,0.6539314810915868,0.0020752862148421826,-0.03289819578640163,-0.027635920559987426,1.3974431902170181,0.03587911711220921,2.209913358092308,0.6818313151597977,21.511206030845642,0.0,0.0,0.0,0.0,0.0,0.0,0.0,0.0,0.0,0.0,0.0,0.0,0.0,0.0,0.0,0.0,False,0,6.8323986530303955,0.03492724609375
STABILIZE,3.370039463043213,29.997882992418823,0.03229573567708333,0.03242373466491699,0.0,0.0,0.0,0.0783822904197143,-1.0015030607578592,-6.671164010001459,-0.0018844709358434,-0.001712014508874225,-4.31251428598743e-05,0.4,-0.014868401835337925,0.020531763877125853,0.6571806732823634,0.00014552915736093432,-0.023505999706685543,0.0652946881018579,1.4588944613933563,-0.09897830564517124,0.24100723676383495,0.6577389314770699,19.252024590969086,0.0,0.0,0.0,0.0,0.0,0.0,0.0,0.0,0.0,0.0,0.0,0.0,0.0,0.0,0.0,0.0,False,0,6.861138343811035,0.029936767578125
STABILIZE,3.404913902282715,28.676648753606543,0.03241899808247884,0.033896684646606445,0.0,0.0,0.0,0.0792314750326173,-1.001958228833017,-6.672185977056023,-0.0022643165256649362,-0.0017668535163382001,0.00046601047128233845,0.4,-0.014642521618180597,0.02183269605846898,0.6570778965870157,0.0026818779871339354,-0.01845836522988975,0.12277713976800442,1.4524273574352264,0.14793351976857233,5.180615559220314,0.6761976052075624,19.131432473659515,0.0,0.0,0.0,0.0,0.0,0.0,0.0,0.0,0.0,0.0,0.0,0.0,0.0,0.0,0.0,0.0,False,0,6.889815807342529,0.03492724609375
STABILIZE,3.4384264945983887,29.837619423636454,0.032327922185262044,0.032457590103149414,0.0,0.0,0.0,0.07859792162624571,-1.0015628249130968,-6.671689934567551,-0.0027201183309920373,-0.0023338149203049868,0.0009899994479517897,0.4,-0.01545939938445063,0.02266368554266427,0.6505072875659758,0.005284136532265872,-0.07183393463492393,0.09086595964618027,0.8772911503911018,0.15291544907700907,-0.6441839039325714,0.559255899861455,14.418551325798035,0.0,0.0,0.0,0.0,0.0,0.0,0.0,0.0,0.0,0.0,0.0,0.0,0.0,0.0,0.0,0.0,False,0,6.9185850620269775,0.029936767578125
STABILIZE,3.471825361251831,29.939853381016626,0.03227403958638509,0.032395124435424805,0.0,0.0,0.0,0.07830539743069877,-1.0017457459168062,-6.671772750611237,-0.003212345834163698,-0.0018962815203793768,0.0015002906505126325,0.4,-0.016167597663051998,0.02337855220055469,0.6408079865807466,0.007809483502102152,-0.07183393463492393,0.09086595964618027,0.8772911503911018,0.15291544907700907,-0.6441839039325714,0.559255899861455,14.418551325798035,0.0,0.0,0.0,0.0,0.0,0.0,0.0,0.0,0.0,0.0,0.0,0.0,0.0,0.0,0.0,0.0,False,0,6.947242259979248,0.029936767578125
STABILIZE,3.5053210258483887,29.85439740341087,0.03229502042134603,0.03241610527038574,0.0,0.0,0.0,0.07728567153195702,-1.0012889770160616,-6.671698472304013,-0.003391394426907288,-0.0014444607185542227,0.0009361513504583789,0.4,-0.014618814532890993,0.022201121801398008,0.6344466732330469,0.004972144328471527,0.05831649759784341,-0.018503563478589058,1.0384905152022839,-0.15442614818319836,-0.3496771678328514,0.515870563685894,13.610993325710297,0.0,0.0,0.0,0.0,0.0,0.0,0.0,0.0,0.0,0.0,0.0,0.0,0.0,0.0,0.0,0.0,False,0,6.975937843322754,0.034926025390625
STABILIZE,3.5388238430023193,29.847174188406417,0.03227117856343587,0.03251528739929199,0.0,0.0,0.0,0.07702756508652459,-1.0015106379989698,-6.671955458171535,-0.0028132995220976477,0.00020124062667848614,0.0015296859510234915,0.4,-0.0097208439967817,0.020806310986067233,0.643412367397809,0.007913271493758495,0.11572709772735834,0.0019045704902964644,1.4625495299696922,0.09178342839618343,6.206981837749481,0.7111858576536179,22.943978011608124,0.0,0.0,0.0,0.0,0.0,0.0,0.0,0.0,0.0,0.0,0.0,0.0,0.0,0.0,0.0,0.0,False,0,7.034082412719727,0.034927001953125
STABILIZE,3.5721843242645264,29.975158297957492,0.032337220509847005,0.032447099685668945,0.0,0.0,0.0,0.07620895624232797,-1.0028190461118502,-6.672665370958393,-0.0024558154388851466,-0.0014799164025094153,0.0018195935927059431,0.4,-0.014514262240719427,0.020637205716082237,0.6413001575396636,0.009331636419620534,-0.30460755806416273,0.032585213193669915,1.0770090855658054,0.08880128376121256,-7.7954404056072235,0.5512278061360121,15.147556364536285,0.0,0.0,0.0,0.0,0.0,0.0,0.0,0.0,0.0,0.0,0.0,0.0,0.0,0.0,0.0,0.0,False,0,7.062834024429321,0.02993701171875
