Mode,Time,Freq,North-Vision,East-Vision,Down-Vision,Yaw-Vision,North-Desired,East-Desired,Down-Desired,Roll-UAV,Pitch-UAV,Yaw-UAV,Roll-Control,Pitch-Control,Yaw-Control,Thrust-Control,northVraw,eastVraw,downVraw,N-Velocity,E-Velocity,D-Velocity,N-Acceleration,E-Acceleration,D-Acceleration,yawVraw,yawRate,Landing-State,Q-Size
GUIDED_NOGPS,0.01830768585205078,54.671706770249486,-16.31646555085648,34.33099206828302,52.654084247189424,-0.6031445813164151,-16.197224346298718,34.4984235005592,51.94209097709268,-0.14519285300325183,0.1570182049732182,70.57870793919459,0.3908763908016852,-0.4270667264998679,-0.30157229065820756,0.49857502765995093,-15.057415003105074,33.77948370051956,53.59445107301775,-8.212891221046448,-6.221907213330269,25.16019642353058,-53.21139693260193,0.20617395639419556,50.94404220581055,-0.8839705735976748,-3.413453418614868,False,0
GUIDED_NOGPS,0.0518956184387207,29.7772476855796,-16.397015786434086,34.134729738676135,53.311179027320044,-0.6459318169851812,-16.197224346298718,34.4984235005592,51.94209097709268,-0.23002348232969286,0.10798566430387183,70.56091529640669,0.2482141359566102,-0.16149657249726232,-0.3229659084925906,0.49725712826402624,-15.437381433677047,33.47818573853189,54.216320150066466,-4.586248099803925,-7.474852353334427,20.742112398147583,-138.53203058242798,44.290339946746826,4.262150079011917,-0.8926479363146004,-0.7162285774063465,False,0
GUIDED_NOGPS,0.08660101890563965,28.816730905318412,-16.49973509303149,33.94964763195212,53.95073418826634,-0.6310874582697685,-16.197224346298718,34.4984235005592,51.94209097709268,-0.13131513590940241,0.016464704602844642,70.57694575038872,0.2382621551147987,-0.20413002183719842,-0.31554372913488427,0.49597243065995306,-15.4634861674874,33.64875300738548,54.40295406081147,-6.2621138989925385,-7.589356601238251,21.163593232631683,-57.22730755805969,10.407943278551102,89.74432945251465,-0.8644775545812026,2.8720463077793488,False,0
GUIDED_NOGPS,0.12276792526245117,27.652138369340918,-16.663240668015966,33.7843111840924,54.60328889428256,-0.6300870932294765,-16.197224346298718,34.4984235005592,51.94209097709268,-0.17148123726242598,-0.09724012255300216,70.58374861880205,0.215378422804908,-0.31096230486762566,-0.31504354661473827,0.4946596206013597,-15.622691671292063,33.41419962790526,55.10491961739917,-10.066977143287659,-5.947336554527283,21.86637669801712,-168.66695880889893,47.81084656715393,-48.107752203941345,-0.8578949619556222,1.7679436671258486,False,0
GUIDED_NOGPS,0.1554853916168213,30.573180065457144,-16.86686148626195,33.63775496300642,55.25331202837931,-0.6827272017684032,-16.197224346298718,34.4984235005592,51.94209097709268,-0.2019822474139113,-0.15494284132173924,70.61385609266347,0.21847312286954568,-0.4319052315184822,-0.3413636008842016,0.49335095757207054,-15.70459108265145,33.32518986432676,55.448320918986596,-12.844447791576385,-4.953550919890404,23.232942819595337,28.64546775817871,-31.187543272972107,110.07084846496582,-0.839865379087289,-2.016586885463231,False,0
GUIDED_NOGPS,0.18656682968139648,32.17576482862316,-16.990759987943708,33.42903990773337,55.93774318554365,-0.7008741978581327,-16.197224346298718,34.4984235005592,51.94209097709268,-0.3082295218523091,-0.12929259950228528,70.63090424483181,0.31755137809750505,-0.3055787641939133,-0.3504370989290663,0.4919721119192581,-16.0442581906538,32.77235333866039,56.90058267857356,-7.155609875917435,-8.24844315648079,24.82862025499344,2.5268465280532837,-2.8569329530000687,-32.35329985618591,-0.8668935290115436,0.17066700400816642,False,0
GUIDED_NOGPS,0.22121739387512207,28.86273646254103,-17.12376604717042,33.19939127275802,56.80778278103325,-0.7121200148649651,-16.197224346298718,34.4984235005592,51.94209097709268,-0.45475634281697613,-0.08738672090161251,70.70196553295663,0.3270559631697296,-0.30888152137062863,-0.35606000743248256,0.4902185524210509,-15.859788585673641,32.02325835784781,58.95581115024106,-8.694203943014145,-8.093749731779099,33.87385904788971,-116.43847227096558,31.072834134101868,309.622859954834,-0.8596232612297898,0.48812757988460065,False,0
GUIDED_NOGPS,0.2654531002044678,22.626904320055242,-17.286393529943968,32.97554570842517,57.772345948735214,-0.7690535795200237,-16.197224346298718,34.4984235005592,51.94209097709268,-0.5477818117652573,0.05555024868483105,70.7716471228691,0.2755440552899915,-0.31200474320461896,-0.38452678976001187,0.488268815668158,-15.859788585673641,32.02325835784781,58.95581115024106,-10.044775158166885,-7.273032516241074,37.916016578674316,-69.94098424911499,-6.736955046653748,166.10045433044434,-0.8596232612297898,-2.4778999964400077,False,0
GUIDED_NOGPS,0.29050755500793457,39.86564142532625,-17.47999306564973,32.75487597076205,58.706951900121865,-0.7854458047449424,-16.197224346298718,34.4984235005592,51.94209097709268,-0.5716300042217386,0.08064713845980821,70.77250772670452,0.4322109755762969,-0.5718530284486558,-0.3927229023724712,0.48638602212207493,-15.964442638148828,31.552047493820552,59.51303664382534,-12.45257779955864,-6.569217890501022,37.977004051208496,-22.112005949020386,-8.195934444665909,110.17802953720093,-0.8875231950633045,0.14932266285187656,False,0
GUIDED_NOGPS,0.3234577178955078,30.353915183094514,-17.564592029763347,32.51913351642007,59.55069513956562,-0.7907663297112247,-16.197224346298718,34.4984235005592,51.94209097709268,-0.5716300042217386,0.08064713845980821,70.77250772670452,0.3827939554596879,-0.26920403152961886,-0.39538316485561237,0.4846784762158926,-16.215060637156917,30.983533420355602,60.86007085068107,-7.372327893972397,-9.189034253358841,42.57223904132843,4.106961935758591,-22.748474776744843,128.29718589782715,-0.9263568422953279,0.4212260904077373,False,0
GUIDED_NOGPS,0.36327314376831055,25.11799932927706,-17.69938890598387,32.22651543390157,60.61067114650285,-0.8393497469508893,-16.197224346298718,34.4984235005592,51.94209097709268,-0.689302104068305,0.1526069699864478,70.85878667630013,0.40434374618816005,-0.32974541169512545,-0.41967487347544463,0.4825308965418011,-16.547400781479574,30.718254679886932,61.221656781901714,-7.347247749567032,-10.153446346521378,45.56615948677063,-5.798037350177765,-24.640780687332153,108.3540678024292,-0.9706193307976112,-1.9747617951938348,False,0
GUIDED_NOGPS,0.39162158966064453,35.28004979560251,-17.895913298749374,31.904083569065744,61.867318220533505,-0.9026596747789386,-16.197224346298718,34.4984235005592,51.94209097709268,-0.8213080495792308,0.216668968398437,70.96883468420737,0.5779034284459189,-0.561695395124016,-0.4513298373894693,0.479995092265798,-16.943266511732897,30.885593832470917,62.05646633918025,-8.719576895236969,-10.957657545804977,48.46200942993164,-40.26833474636078,-19.5626363158226,91.86106324195862,-0.9899659748031845,-2.603720191801282,False,0
GUIDED_NOGPS,0.42723846435546875,28.080526488447916,-18.00540707344567,31.618405081719224,62.87193703304057,-0.9211079270746221,-16.197224346298718,34.4984235005592,51.94209097709268,-0.7939574108215609,0.1995769002481561,71.05434865261593,0.4621134423182501,-0.33752347281131007,-0.46055396353731104,0.47795473169733704,-16.843738454780528,30.625307291905507,62.71212168045079,-7.717801630496979,-12.936083972454071,52.762943506240845,-23.514021933078766,-21.473608911037445,130.8502197265625,-0.9997794986229932,-0.44136063430728867,False,0
GUIDED_NOGPS,0.4553976058959961,35.51816003184039,-18.173624264126477,31.26577880837175,64.0655068070306,-0.971664935618064,-16.197224346298718,34.4984235005592,51.94209097709268,-0.6184720285190679,0.04050867802858203,71.08932605135557,0.6582109213779054,-0.5299783252222144,-0.485832467809032,0.4755403773136317,-16.961768931250475,30.22274864343308,64.56269177928243,-8.646086603403091,-13.459236919879913,47.02350199222565,-24.554553627967834,-16.942626237869263,1.099461317062378,-1.0736229438314573,-1.9164153310958238,False,0
GUIDED_NOGPS,0.4985837936401367,23.15785289148511,-18.373509243928105,30.96406862180617,65.16693790255225,-1.0175391544970516,-16.197224346298718,34.4984235005592,51.94209097709268,-0.45246038539964695,0.024021028258994374,71.17267484979723,0.45096676994900586,-0.46051165939209504,-0.5087695772485258,0.4732917416765563,-17.04935275956693,29.869398294226798,65.9986703056747,-13.46205323934555,-12.624973058700562,52.20608115196228,-60.30935049057007,-5.3607650101184845,29.814916849136353,-1.1115828396588494,-2.079737747312111,False,0
GUIDED_NOGPS,0.5249366760253906,37.949259889254826,-18.60476240209639,30.542237551979955,66.73526893666977,-1.1014822166613414,-16.197224346298718,34.4984235005592,51.94209097709268,-0.2990495341644004,-0.16036953333902018,71.19073386996274,0.8265003175388191,-0.7352102077268781,-0.5507411083306707,0.47012382192079955,-16.56957171576684,29.46835201437036,67.6395311744636,-11.521586775779724,-13.313055038452148,51.984649896621704,-20.904111862182617,-19.736534357070923,22.338256239891052,-1.2191912481916232,-3.3067080206147357,False,0
GUIDED_NOGPS,0.5564522743225098,31.73848295901689,-18.65042284892743,30.17312056687004,67.84656605668525,-1.1073652351326977,-16.197224346298718,34.4984235005592,51.94209097709268,0.043831031451264324,-0.33417116728939933,71.2439956851105,0.6839796955505052,-0.2979549408842575,-0.5536826175663488,0.4678611698130649,-16.815867913921657,28.76159572552322,70.09401345298758,-5.658942833542824,-17.104023694992065,53.41491103172302,65.57106375694275,-31.655988097190857,74.70024824142456,-1.256709549651109,0.5610829648436224,False,0
GUIDED_NOGPS,0.5906684398651123,29.230432570683874,-18.852074155893376,29.79042277677779,69.15161809335919,-1.1895552954670279,-16.197224346298718,34.4984235005592,51.94209097709268,0.25597702723697774,-0.5693067260477294,71.2537218744886,0.6789802732215243,-0.5843019369884346,-0.5947776477335139,0.4652042887608194,-17.193974263579175,28.304517892335316,71.71376150079325,-13.03098052740097,-14.42577838897705,51.852262020111084,-69.09440755844116,15.375757217407227,-7.83064067363739,-1.3164884052066512,-4.081001743702653,False,0
GUIDED_NOGPS,0.6229524612426758,30.978735976010576,-19.101862337836053,29.368126419540246,70.61791253851253,-1.1959225647274088,-16.197224346298718,34.4984235005592,51.94209097709268,0.39713697370045437,-0.7999437514639598,71.243654175652,0.7674874206531849,-0.7116697755573792,-0.5979612823637044,0.46222316406448904,-18.154618021957482,27.427076398702333,74.22091853029303,-12.991014122962952,-14.156074821949005,53.56228947639465,75.38505792617798,-32.207587361335754,90.74124097824097,-1.3688640432424255,1.342686271003923,False,0
GUIDED_NOGPS,0.6582996845245361,28.294009713977335,-19.36986073249225,28.96820753532947,72.02089482946042,-1.236880669099945,-16.197224346298718,34.4984235005592,51.94209097709268,0.5871020368782571,-0.8995840451799867,71.25634466712988,0.7197888510721984,-0.7261906330278727,-0.6184403345499725,0.45936039121367545,-18.127862237811698,27.166732647223558,75.13979332017234,-15.015937387943268,-13.105948269367218,51.203662157058716,-70.74029445648193,17.361335456371307,-22.870372235774994,-1.3935657119310796,-1.1456660493003201,False,0
GUIDED_NOGPS,0.6907293796539307,30.839110039262973,-19.616512873867276,28.530239341097626,73.58994738789696,-1.2821261420366994,-16.197224346298718,34.4984235005592,51.94209097709268,0.8041776149757215,-1.0538968015507924,71.21741258886081,0.8292134189685392,-0.7508112065337746,-0.6410630710183497,0.45616611847131266,-17.35143822693818,26.482605004705093,78.12742315493108,-15.015937387943268,-13.105948269367218,51.203662157058716,-70.74029445648193,17.361335456371307,-22.870372235774994,-1.467558357362906,-1.1456660493003201,False,0
GUIDED_NOGPS,0.725862979888916,28.46722502002199,-19.86441807247983,28.068614055847004,75.0455192080225,-1.3038166181435158,-16.197224346298718,34.4984235005592,51.94209097709268,0.9056019754472969,-1.1925645827408606,71.17326224606585,0.8393001091485199,-0.7390739918854932,-0.6519083090717579,0.45319012511273543,-19.500486805957152,25.559333983309216,80.23070916145379,-10.832405090332031,-14.864349365234375,48.22796583175659,-15.057927370071411,-2.607213333249092,-39.35325741767883,-1.504276022458447,0.19274665771729046,False,0
GUIDED_NOGPS,0.7625241279602051,27.280026016260162,-20.116527992159817,27.600143970114274,76.52689681176011,-1.3020119164421424,-16.197224346298718,34.4984235005592,51.94209097709268,1.1555378070851041,-1.1979354593060179,71.16339945290436,0.848284487625781,-0.7482770687474771,-0.6510059582210712,0.4501552465719812,-19.500486805957152,25.559333983309216,80.23070916145379,-10.225874930620193,-14.363938570022583,46.05490565299988,-1.2703409418463707,5.347299575805664,-77.63457894325256,-1.504276022458447,1.86605634634532,False,0
GUIDED_NOGPS,0.7910771369934082,35.02813572627588,-20.253855037648346,27.15458372531996,77.87225176480611,-1.2389644475190784,-16.197224346298718,34.4984235005592,51.94209097709268,1.1315653372022403,-1.244615319971412,71.08660763606589,0.988313859596877,-0.6378536327230426,-0.6194822237595392,0.44740535391079395,-19.113278788160677,25.51895661909714,81.23323940248213,-5.4938387125730515,-15.417981147766113,44.20600235462189,78.00219655036926,-20.820458233356476,-4.279956221580505,-1.5066802372034958,5.673117985458979,False,0
GUIDED_NOGPS,0.8271071910858154,27.756627622261927,-20.345401446876856,26.746647622007295,79.06068959175133,-1.2243214000661113,-16.197224346298718,34.4984235005592,51.94209097709268,1.3239228875802516,-1.208608910544632,71.04892548241494,0.8400227670708397,-0.5053443031667162,-0.6121607000330557,0.4449501464893596,-18.26662337539377,24.698181767502298,83.04636910505288,-7.05949142575264,-14.111626148223877,41.335928440093994,-50.04234313964844,29.9066424369812,-27.270719408988953,-1.5162249484668329,2.2017148940481954,False,0
GUIDED_NOGPS,0.8621125221252441,28.570190794716872,-20.485954282363732,26.260248723923084,80.52200107607807,-1.2111170363703434,-16.197224346298718,34.4984235005592,51.94209097709268,1.4133245142870179,-1.3185134844793072,70.93156234190661,0.9672728859595574,-0.6081611991839735,-0.6055585181851717,0.4419474788616824,-18.428820243237148,24.157365065754497,84.60881300146025,-7.05949142575264,-14.111626148223877,41.335928440093994,-50.04234313964844,29.9066424369812,-27.270719408988953,-1.4920298280969813,2.2017148940481954,False,0
GUIDED_NOGPS,0.892444372177124,32.97797696269214,-20.596517681217335,25.738756127738522,82.04422722426496,-1.1680419394461747,-16.197224346298718,34.4984235005592,51.94209097709268,1.4161257456203693,-1.3114220405735415,70.86565784660516,1.1313013140848525,-0.5990539186288042,-0.5840209697230874,0.43883043184822906,-18.51408873332329,23.10126427270282,87.79605467677035,-5.416402220726013,-14.618527889251709,40.529561042785645,-14.880073070526123,30.521869659423828,-52.07248330116272,-1.4200846745889817,3.8786108588773045,False,0
GUIDED_NOGPS,0.9257462024688721,30.031174596355566,-20.768944478451996,25.32015507780376,83.24179129340666,-1.1462625788733878,-16.197224346298718,34.4984235005592,51.94209097709268,1.4868553426836133,-1.210402475531995,70.7899588600339,0.9609854378966827,-0.6990180557918927,-0.5731312894366939,0.43635167076360104,-19.928605217520023,22.95332352557828,88.20345684547766,-8.385106176137924,-12.18564659357071,34.591805934906006,-46.256256103515625,24.221807718276978,-75.92412829399109,-1.354393151604743,2.123726086557697,False,0
GUIDED_NOGPS,0.9588477611541748,30.212451468374308,-20.85010523650706,24.855269229894827,84.51346147146513,-1.0929636793153774,-16.197224346298718,34.4984235005592,51.94209097709268,1.5641545145113516,-1.147310737508118,70.68219896549861,1.0492116213520952,-0.5438382078363839,-0.5464818396576887,0.43372202268696974,-18.860141095886515,22.477432663132447,89.85454357454431,-4.321546480059624,-12.772190570831299,30.53191900253296,-9.631004184484482,14.15032297372818,-67.18325018882751,-1.3367939794815782,4.186436812599201,False,0
GUIDED_NOGPS,0.9942231178283691,28.272839414631516,-20.94201439673948,24.39341740796333,85.75846533914157,-1.0365581265014356,-16.197224346298718,34.4984235005592,51.94209097709268,1.482631511012195,-1.1583423467913347,70.52328095407992,1.0346489958839695,-0.5590487511516254,-0.5182790632507178,0.43113628784741187,-19.240904302154185,22.208777894582962,90.35491151571719,-4.321546480059624,-12.772190570831299,30.53191900253296,-9.631004184484482,14.15032297372818,-67.18325018882751,-1.2818417980262526,4.186436812599201,False,0
GUIDED_NOGPS,1.0338807106018066,25.21736830080685,-20.967573520798016,23.90069781635505,87.02345643333544,-1.017464499467808,-16.197224346298718,34.4984235005592,51.94209097709268,1.500888606663639,-1.0950036547402793,70.46803155388369,1.0384551878723134,-0.44402766885128525,-0.508732249733904,0.42849509190647306,-19.15381789639199,21.68059965157806,92.34522827990969,-0.4663353320211172,-14.267756044864655,29.271620512008667,90.13395309448242,-22.040489315986633,-86.67276501655579,-1.1349594986712082,1.2323151097715712,False,0
GUIDED_NOGPS,1.0712039470672607,26.79621276976349,-21.132265396238918,23.35958472277398,88.50673363469886,-0.9160099858257307,-16.197224346298718,34.4984235005592,51.94209097709268,1.4778239116101524,-1.0897030010575264,70.37835117008143,1.1453904789205196,-0.6829219998565506,-0.45800499291286534,0.4254191151492569,-20.99208225809548,20.961526358558608,93.42495479903187,-2.7261313050985336,-11.943314224481583,29.69639003276825,-3.9791911840438843,27.49227285385132,71.96270823478699,-0.9688452857969418,6.032959244805108,False,0
GUIDED_NOGPS,1.0944857597351074,42.964741554157875,-21.22158446927096,23.023496879397708,89.36213322409021,-0.8212378231703247,-16.197224346298718,34.4984235005592,51.94209097709268,1.4982880121371567,-0.9615458137830499,70.27688870996089,1.1665791875212843,-0.6559206934958206,-0.41061891158516234,0.42363898274629286,-20.929974042129075,21.202323083504957,93.8477968613295,-3.869723528623581,-11.090565472841263,25.188913941383362,-78.49217057228088,46.86689078807831,-37.180402874946594,-0.8675781605009447,5.913783542845787,False,0
GUIDED_NOGPS,1.1276438236236572,30.160094342336123,-21.304162658442394,22.735388788555557,89.98339464675045,-0.7589118075967216,-16.197224346298718,34.4984235005592,51.94209097709268,1.4972651913089474,-0.8102374868734037,70.05444993926108,0.9503897978855591,-0.5763233491580086,-0.3794559037983608,0.4222952595906596,-21.183233485022015,20.73713211999585,94.74240783098864,-4.267208278179169,-10.234078019857407,17.673595249652863,-95.30394077301025,55.424338579177856,-118.66955757141113,-0.7316779615593354,3.801408376915004,False,0
GUIDED_NOGPS,1.1634719371795654,27.915500831946755,-21.35610545176123,22.310125128579188,90.9664209311956,-0.6509084765344664,-16.197224346298718,34.4984235005592,51.94209097709268,1.4626448833968568,-0.7117749739023808,69.87767781335198,1.1044639238094798,-0.5189836124262045,-0.3254542382672332,0.42021761706459465,-20.409080057751268,19.94794518194485,95.8451308658652,-0.6265072152018547,-9.992564469575882,16.0476416349411,-17.896969616413116,23.260797560214996,-30.911624431610107,-0.6481551168167918,6.092443362286748,False,0
GUIDED_NOGPS,1.1993625164031982,27.873018826547227,-21.414005342965517,21.859153626253793,91.99788636186568,-0.5374643856702555,-16.197224346298718,34.4984235005592,51.94209097709268,1.4824846619450398,-0.6454660033360161,69.72953784044357,1.163301521302756,-0.5332751919860871,-0.2687321928351277,0.41804123853494085,-20.38931762656662,19.646879814516687,96.1003368837628,-0.6265072152018547,-9.992564469575882,16.0476416349411,-17.896969616413116,23.260797560214996,-30.911624431610107,-0.5913907904217814,6.092443362286748,False,0
GUIDED_NOGPS,1.229759693145752,32.89934033524461,-21.29672307350914,21.39956420836323,92.98045973187395,-0.44081819812752165,-16.197224346298718,34.4984235005592,51.94209097709268,1.3841149968580468,-0.6504892873054431,69.5646707342578,1.2791218205930857,-0.19636202868870908,-0.22040909906376083,0.41597504257669377,-17.87974060881121,19.43219313737601,97.4649697098302,3.5543978214263916,-11.341436952352524,13.143430650234222,51.26168131828308,-5.590265616774559,-69.00779008865356,-0.526840140016892,4.805818857103468,False,0
GUIDED_NOGPS,1.261739730834961,31.273003824961414,-21.193809654367087,21.02604267829769,93.74143362892812,-0.36879561889369544,-16.197224346298718,34.4984235005592,51.94209097709268,1.4131322017731998,-0.5548998293757627,69.46366589681166,1.168918763948601,-0.22191907730354388,-0.18439780944684772,0.41434602048151103,-17.86213366182107,19.279377239248042,97.81153318075484,0.794479064643383,-10.2609321475029,12.039995193481445,-1.1056373827159405,23.82531613111496,-38.79096508026123,-0.4678724659733501,3.6498165971548024,False,0
GUIDED_NOGPS,1.2961804866790771,29.036975499664237,-21.081168284259935,20.648349066473045,94.38501695826469,-0.31624291560595547,-16.197224346298718,34.4984235005592,51.94209097709268,1.417229034614738,-0.46145227608111583,69.38906657069678,1.1605184804800417,-0.20941015530533502,-0.15812145780297773,0.41294150612040237,-17.5232190258332,18.74739266531982,98.21324432504088,0.9747898206114769,-8.68958830833435,1.8532957881689072,-34.784483909606934,27.33442187309265,-84.03469920158386,-0.350263619600948,1.9070645886786648,False,0
GUIDED_NOGPS,1.329573631286621,29.950543055248104,-20.957361905217514,20.255717976892885,95.06727498912382,-0.25067331045253866,-16.197224346298718,34.4984235005592,51.94209097709268,1.287719469884599,-0.395843613348089,69.19662599083166,1.2157581553195311,-0.17177506734835282,-0.12533665522626933,0.4114618161201131,-17.162578227460113,18.370280280812732,99.23019066516697,0.9747898206114769,-8.68958830833435,1.8532957881689072,-34.784483909606934,27.33442187309265,-84.03469920158386,-0.04538288209246007,1.9070645886786648,False,0
GUIDED_NOGPS,1.3662865161895752,27.240870033967436,-20.933586616850633,19.902174151843337,95.6179399005361,-0.19949931336061652,-16.197224346298718,34.4984235005592,51.94209097709268,1.3592206648806429,-0.2899503881686211,69.07832711440705,1.1494536968638256,-0.35260486635088967,-0.09974965668030826,0.4102320765290609,-19.866304215837356,18.277055960825052,98.88694745693704,1.6507588326931,-7.3917485773563385,-1.7290253192186356,30.987566709518433,11.572109162807465,4.495929926633835,0.28492520999717175,0.23821074471042253,False,0
GUIDED_NOGPS,1.3966870307922363,32.901146828571875,-20.815051759555107,19.485751658334244,96.18142027644558,-0.14177783679481873,-16.197224346298718,34.4984235005592,51.94209097709268,1.26653094241875,-0.21921556174179394,69.00057224089562,1.340970668667064,-0.1454885882803777,-0.07088891839740936,0.40899847908674236,-19.39122342129653,17.926781542301732,98.95532710268,7.043129950761795,-9.227266907691956,-4.162450879812241,-20.896050333976746,33.47087204456329,-106.60542249679565,0.3353769454512222,0.35288492511988223,False,0
GUIDED_NOGPS,1.429861068725586,30.14687088960605,-20.736990871182844,19.181150641465198,96.51359325074722,-0.08834808108458551,-16.197224346298718,34.4984235005592,51.94209097709268,1.2596322379136256,-0.054061587610885614,68.95115582225058,1.1703855814210027,-0.2337790969226191,-0.04417404054229276,0.4082150948335648,-20.828099160152554,18.33820182166764,98.8354349749705,7.043129950761795,-9.227266907691956,-4.162450879812241,-20.896050333976746,33.47087204456329,-106.60542249679565,0.583185272339532,0.35288492511988223,False,0
GUIDED_NOGPS,1.4626753330230713,30.477209146859852,-20.5752983199514,18.856991928888522,96.93110771605633,0.013665734720335082,-16.197224346298718,34.4984235005592,51.94209097709268,1.1372446394971059,-0.04113139918181678,68.83258373825916,1.2190191734329867,-0.06381621021185348,0.006832867360167541,0.4072619093239501,-17.131924015195125,17.73398387339803,99.77320000846296,2.6044264435768127,-6.987559795379639,-5.213640630245209,-173.64420890808105,78.97350192070007,-107.42224454879761,0.6490235658840251,3.2163038502038583,False,0
GUIDED_NOGPS,1.4971427917480469,29.01628502248357,-20.32465939847951,18.52273607951835,97.29470139526127,0.05981167520181274,-16.197224346298718,34.4984235005592,51.94209097709268,1.1104709382808906,0.04616258055747165,68.75738335549732,1.230508293564862,0.09744459468984334,0.02990583760090637,0.4064095837842177,-15.522149523076319,17.164678950142388,99.98607971764807,4.123402386903763,-7.220940291881561,-6.696945428848267,30.191832780838013,-8.813514560461044,-29.087811708450317,0.5955084574832108,-0.1992951149242534,False,0
GUIDED_NOGPS,1.5377192497253418,24.648742676139936,-20.260451683409464,18.201784158834094,97.58943382640003,0.1102010796798227,-16.197224346298718,34.4984235005592,51.94209097709268,1.104333586424811,0.11104900414662254,68.72883316476667,1.1792559200498232,-0.23760894246864947,0.05510053983991135,0.40567229754964784,-19.878337525365133,17.318052555247668,98.777326134907,4.123402386903763,-7.220940291881561,-6.696945428848267,30.191832780838013,-8.813514560461044,-29.087811708450317,0.7360760185477087,-0.1992951149242534,False,0
GUIDED_NOGPS,1.5648958683013916,36.80311671902146,-19.97406933255033,17.833846029821373,98.00306897821562,0.1830623360235087,-16.197224346298718,34.4984235005592,51.94209097709268,0.9879204825413483,0.1563394549244482,68.66535338662057,1.4207047417360579,0.3225036650607576,0.09153116801175434,0.4047445728326674,-14.272510574231303,16.766313093768513,99.84978678371604,3.1400714069604874,-5.396409332752228,-7.757920026779175,1.7899304628372192,13.994374871253967,33.833709359169006,0.8198053098383276,0.5970855856498473,False,0
GUIDED_NOGPS,1.6020355224609375,26.930585251532953,-19.6687306004482,17.624175162486964,98.01407175149622,0.2550381300845231,-16.197224346298718,34.4984235005592,51.94209097709268,1.0279902141940513,0.238864842045157,68.6441866303827,1.1219369259671785,0.21499950128047365,0.12751906504226154,0.40458702398405566,-14.272510574231303,16.766313093768513,99.84978678371604,4.55198660492897,-6.060323119163513,-13.650336861610413,-8.766864985227585,7.557401061058044,-115.56040048599243,0.8198053098383276,2.2790849290885724,False,0
GUIDED_NOGPS,1.6317250728607178,33.68513030558567,-19.405887834752285,17.355136714179835,98.12898370697171,0.31114268870296424,-16.197224346298718,34.4984235005592,51.94209097709268,0.9148445020547935,0.29234132790409584,68.59575375897813,1.2682240037745598,0.26612351269720835,0.15557134435148212,0.4042465375156755,-14.289318725954612,16.600573826720556,99.65270548042227,2.278754487633705,-5.0179000943899155,-14.297482371330261,-75.11120438575745,50.289225578308105,29.654163122177124,0.8365365275627703,0.5116424270930736,False,0
GUIDED_NOGPS,1.664597988128662,30.42282779780513,-19.109046418746253,17.150599440387538,98.0817193956839,0.3496068036528633,-16.197224346298718,34.4984235005592,51.94209097709268,0.8572041087622327,0.40281109999258957,68.60820519383508,1.1691497478865225,0.30353066307178306,0.17480340182643164,0.4042193613925289,-13.322078239042465,16.408615078747818,98.70892131231861,2.482985332608223,-3.812440112233162,-16.541406512260437,-123.61277341842651,64.69746232032776,-48.29604923725128,1.0446546199773326,-0.6384781862065642,False,0
GUIDED_NOGPS,1.6983246803283691,29.65346002658296,-18.8286983605152,16.922978275859144,98.05360054440672,0.39181789485884627,-16.197224346298718,34.4984235005592,51.94209097709268,0.833874743878408,0.44115359419807265,68.62841572358914,1.2046342201523257,0.2854582145000392,0.19590894742942314,0.4041511848793873,-13.57900160179863,16.35645279605226,98.39422521241016,2.482985332608223,-3.812440112233162,-16.541406512260437,-123.61277341842651,64.69746232032776,-48.29604923725128,1.0737613027734192,-0.6384781862065642,False,0
GUIDED_NOGPS,1.7327744960784912,29.035769419811288,-18.538900998965296,16.755358761293696,98.02466828193661,0.40704570107442745,-16.197224346298718,34.4984235005592,51.94209097709268,0.9264541160965227,0.6145122263477529,68.68014757636281,1.14022732614751,0.31535902922815556,0.20352285053721372,0.4040823049134221,-13.085896265527776,17.490023442467468,99.7475752859246,2.1478449925780296,-3.5520002245903015,-19.4008931517601,-107.25454092025757,47.65040576457977,17.716573178768158,1.206411158655426,-2.6748243820518187,False,0
GUIDED_NOGPS,1.7850706577301025,19.122821255157636,-18.228264656937185,16.59826479797635,97.95997487165506,0.3940210822906323,-16.197224346298718,34.4984235005592,51.94209097709268,0.786431929738382,0.605440774634624,68.69070021863048,1.0778069392626017,0.18967395788137897,0.19701054114531616,0.40401902133661843,-13.085896265527776,17.490023442467468,99.7475752859246,3.9864011108875275,-3.4207064658403397,-20.532187819480896,-15.560275316238403,22.67622798681259,-34.51324105262756,1.206411158655426,-4.369829526248159,False,0
GUIDED_NOGPS,1.799290657043457,70.33174592528003,-17.968424070355805,16.486053352985678,97.84232162880296,0.4296485767479324,-16.197224346298718,34.4984235005592,51.94209097709268,0.8274421997841369,0.6615782595055175,68.75093565692083,1.2728139064990613,0.9478892541099326,0.2148242883739662,0.40420187621902814,-13.366119174214411,17.66946792696434,99.21746966117314,2.0468443632125854,-2.4301381781697273,-20.3804612159729,15.693725645542145,7.2642117738723755,-3.2588768750429153,1.266738262723862,-0.9979866872740663,False,0
GUIDED_NOGPS,1.8330934047698975,29.587150203511545,-17.70424287997239,16.508522344464577,97.47709703162133,0.43991063866060626,-16.197224346298718,34.4984235005592,51.94209097709268,0.7935099267092194,0.7080304294116271,68.81407392560843,0.9377098780824419,0.34484041949767374,0.21995531933030313,0.4048094006643618,-11.47565319120243,16.89679719647799,97.05709913389484,0.3947577904909849,-1.5274014323949814,-21.513795852661133,-97.58191108703613,50.757020711898804,-162.7577304840088,1.2639461828504552,-1.4576528688872237,False,0
GUIDED_NOGPS,1.8668599128723145,29.620372593607435,-17.489164477968917,16.374379230741724,97.13117008763689,0.4619062710655556,-16.197224346298718,34.4984235005592,51.94209097709268,0.6805410524364414,0.7124509491868005,68.9160076687817,1.1328663565470287,0.27641351197278224,0.2309531355327778,0.40537920935534166,-13.446053027788267,16.605212863849978,94.79510600109785,0.6149688735604286,-1.1598648503422737,-23.73708188533783,-17.957909405231476,19.790537655353546,-52.23896503448486,1.1945041234540845,-1.517331219873387,False,0
GUIDED_NOGPS,1.9004361629486084,29.786763818167614,-17.198938429771975,16.207676625006634,96.75668573387568,0.4791606036495544,-16.197224346298718,34.4984235005592,51.94209097709268,0.6560606939557637,0.7371644412337578,69.01037356235459,1.1820236004749498,0.4370437619562425,0.2395803018247772,0.40600788192804704,-11.434921535136116,15.515496956857605,94.4170408262106,0.6149688735604286,-1.1598648503422737,-23.73708188533783,-17.957909405231476,19.790537655353546,-52.23896503448486,1.137197362450486,-1.517331219873387,False,0
GUIDED_NOGPS,1.9338710308074951,29.91145595618439,-16.96773678052283,16.08685419030076,96.33550465017305,0.45458211751622374,-16.197224346298718,34.4984235005592,51.94209097709268,0.5921568037508896,0.8080011868896063,69.09319643623017,1.1373233271958825,0.3508765246479683,0.22729105875811187,0.40673159504968087,-12.805897769825862,16.621029373143415,93.77262422531672,1.128227822482586,-2.114618383347988,-24.400825798511505,-14.648157358169556,-1.6387663781642914,-120.89974880218506,1.1621484332013943,-4.322735371920921,False,0
GUIDED_NOGPS,1.9678175449371338,29.470938729623384,-16.7199113179297,15.984288901808444,95.89824285248119,0.4186143439666722,-16.197224346298718,34.4984235005592,51.94209097709268,0.6638322752924746,0.8668027123410692,69.27800769479238,1.1211878823346288,0.3930877200217613,0.2093071719833361,0.40748686923897487,-12.102162617254551,16.781514765050158,93.65425136885835,0.7200985215604305,-1.7553593963384628,-24.771922826766968,-6.817819178104401,12.336669117212296,-82.90528059005737,1.129355827231986,-4.858598290141095,False,0
GUIDED_NOGPS,2.0020456314086914,29.216179881722752,-16.359882585088872,15.826077238905828,95.43973693402728,0.4052315359883802,-16.197224346298718,34.4984235005592,51.94209097709268,0.5448839972881736,0.7764022771898943,69.36032513466937,1.1938362033383243,0.6138659982241188,0.2026157679941901,0.408284603702303,-10.437106348469879,15.696593144800651,92.88688359385336,4.283354431390762,-3.177599608898163,-23.679104447364807,50.24580359458923,-20.398157835006714,-12.586145102977753,1.0304650448998949,-2.87222133137683,False,0
GUIDED_NOGPS,2.034724712371826,30.603964947355365,-15.920789549041631,15.650856197677884,94.89153552589991,0.4128665383716859,-16.197224346298718,84.4984235005592,51.94209097709268,0.5893553589741266,0.7292158619480084,69.46233400992351,3.99401130622799,0.8454816899462965,0.20643326918584295,0.40926874312839023,-9.69123082387054,15.911612949293144,92.21361418459537,8.067592978477478,-5.341283977031708,-27.656465768814087,-5.912484228610992,6.2886931002140045,-121.39983177185059,0.8843394997887222,-0.9288419075416768,False,0
GUIDED_NOGPS,2.0694448947906494,28.830794610943084,-15.544787032627786,15.539492715302941,94.35635578933912,0.41715855812518293,-16.197224346298718,84.4984235005592,51.94209097709268,0.5560683253323637,0.6761306712233173,69.59264035890901,3.6695422513448936,0.716643476926971,0.20857927906259147,0.4102212322554919,-10.847111338069098,17.014457907537604,92.46337139699965,8.067592978477478,-5.341283977031708,-27.656465768814087,-5.912484228610992,6.2886931002140045,-121.39983177185059,0.8254720172776642,-0.9288419075416768,False,0
GUIDED_NOGPS,2.1050190925598145,28.089365121885884,-15.343573617907548,15.433373240037156,93.6805764219773,0.40085642348772793,-16.197224346298718,84.4984235005592,51.94209097709268,0.6985744593925676,0.6616980012594043,69.76119576724659,3.6781309443706967,0.4220747432964825,0.20042821174386397,0.41145412376191925,-10.711882001052615,15.128503107798718,89.49403881461126,-3.9805427193641663,0.605000602081418,-28.470179438591003,-51.184260845184326,24.7456356883049,-81.39357566833496,0.5790153053129959,-1.5854980018939953,False,0
GUIDED_NOGPS,2.136199951171875,32.08027901854005,-15.023549420221011,15.302349859021252,93.08392058549883,0.3201677164887675,-16.197224346298718,84.4984235005592,51.94209097709268,0.6630090240540765,0.5977334397647935,69.84565788652296,3.7411873889894234,0.7203278781915302,0.16008385824438376,0.4125450250113137,-10.711882001052615,15.128503107798718,89.49403881461126,5.199959501624107,-2.383093908429146,-24.011820554733276,33.74529480934143,-9.302794933319092,14.265723526477814,0.5790153053129959,-5.902140631631854,False,0
GUIDED_NOGPS,2.171144723892212,28.618145345624008,-14.722695651487106,15.183306095610051,92.48950152006333,0.2374282712945668,-16.197224346298718,84.4984235005592,51.94209097709268,0.7777210906690886,0.5507595607999713,69.97722099031574,3.726119546846584,0.6389401485300028,0.1187141356472834,0.4136206100779814,-10.739260913135247,14.954749274925266,88.99994629936339,5.199959501624107,-2.383093908429146,-24.011820554733276,33.74529480934143,-9.302794933319092,14.265723526477814,0.5193527497771749,-5.902140631631854,False,0
GUIDED_NOGPS,2.2047505378723145,29.761189793659355,-14.543184000881741,15.084216155792655,91.86797371647918,0.17736933152888856,-16.197224346298718,84.4984235005592,51.94209097709268,0.9848082641573498,0.4993891210829236,70.06980420451526,3.7229366283614445,0.4522049129286155,0.08868466576444428,0.41475606894637,-11.988813194459453,15.29632701348092,87.74935115997417,0.4350174218416214,-1.4817733317613602,-21.857047080993652,21.182814240455627,-7.721301168203354,55.753421783447266,0.4391552217766065,-4.041662842291141,False,0
GUIDED_NOGPS,2.23779296875,30.266956277015666,-14.322184891840646,15.01686953503691,91.23034176396504,0.10025785966749914,-16.197224346298718,84.4984235005592,51.94209097709268,1.340251522008225,0.4792435314868239,70.17496179697679,3.6996354404320613,0.5456875518049942,0.05012892983374957,0.4159272619403527,-9.656257401498072,15.328811351733087,87.02414445608429,-2.3333489894866943,-0.47004157677292824,-22.589927911758423,-13.539592921733856,2.951636165380478,20.315168797969818,0.21066819641163992,-4.644044972838069,False,0
GUIDED_NOGPS,2.2698662281036377,31.183025292552006,-14.157206442089283,14.932537180054076,90.5653300412946,0.031614562057730104,-16.197224346298718,84.4984235005592,51.94209097709268,1.7851314112853627,0.5502675737363188,70.30897010849243,3.737399014952214,0.4631228145067174,0.015807281028865052,0.4171582977179793,-10.145408490854482,14.747678476785701,85.89455876442766,-4.294563457369804,-0.038482516538351774,-21.581707894802094,5.079614371061325,-3.3850420266389847,55.31601309776306,0.05981461667026942,-3.623186543354569,False,0
GUIDED_NOGPS,2.303624391555786,29.626649337439606,-13.979907099582052,14.864224006906877,89.94203571610382,-0.030389048098542773,-16.197224346298718,84.4984235005592,51.94209097709268,2.4902481246857446,0.6305789657097386,70.45455559065125,3.7267972221353887,0.48140664355797,-0.015194524049271387,0.41830286110321674,-9.769513242145985,15.127590296549613,85.70886742928103,-3.6061346530914307,-0.793211255222559,-19.91420090198517,-36.1144483089447,33.50423872470856,-97.42003083229065,0.011142166029178967,-3.1718544731892964,False,0
GUIDED_NOGPS,2.3422529697418213,25.889646743659224,-13.775047488347328,14.781407728151542,89.27815533007308,-0.11374740448465878,-16.197224346298718,84.4984235005592,51.94209097709268,2.8734501250971975,0.5691294079335735,70.56262967388837,3.7468343967710815,0.4939804616412409,-0.05687370224232939,0.41951532749213744,-9.193481571378133,14.793706750766743,85.06566787972753,-3.0658960342407227,-0.748126208782196,-20.849038660526276,-7.437501847743988,34.81369912624359,57.790303230285645,-0.10422093731456913,-4.239723814069525,False,0
GUIDED_NOGPS,2.3751327991485596,30.417753281601275,-13.56292225159167,14.752565961201864,88.51750841150115,-0.16321475932468132,-16.197224346298718,84.4984235005592,51.94209097709268,3.176775837929702,0.6318566379713542,70.70276466508952,3.707209578861973,0.5741145323507587,-0.08160737966234066,0.42093977622508133,-9.822651569802822,15.036394511343705,83.83156203067196,-1.060009840875864,2.8958629816770554,-21.707691252231598,46.03012204170227,35.437050461769104,-20.41322886943817,-0.251323948453184,-1.2543110936633626,False,0
GUIDED_NOGPS,2.409372329711914,29.211093003496163,-13.357249545273346,14.768032791326357,87.79220412833972,-0.29013581982131903,-16.197224346298718,84.4984235005592,51.94209097709268,3.3756705196736503,0.6279237296698962,70.85977022354061,3.664315362087185,0.5582363352942306,-0.14506790991065951,0.4222920747343727,-9.822651569802822,15.036394511343705,83.83156203067196,0.2623950131237507,3.9082810282707214,-24.467816948890686,14.682607352733612,33.574119210243225,-172.94812202453613,-0.251323948453184,-6.977086902265861,False,0
GUIDED_NOGPS,2.4485580921173096,25.531589551920817,-13.118389469568662,14.81517685211232,87.08035844731361,-0.3294934626574092,-16.197224346298718,84.4984235005592,51.94209097709268,3.3826057230021522,0.5825211143792942,70.94177347471577,3.6406905708225414,0.5980419062847157,-0.1647467313287046,0.42361053721006414,-8.850971444429767,15.040687384910704,83.34021217617325,0.00111311674118042,5.955841019749641,-22.268080711364746,71.55095338821411,28.9095401763916,10.247073322534561,-0.4021142239056912,-0.6948212170827927,False,0
GUIDED_NOGPS,2.4759669303894043,36.48172566756545,-13.000247326871547,14.867912388791833,86.25646920396063,-0.37927182900850254,-16.197224346298718,84.4984235005592,51.94209097709268,3.491230490241096,0.5281827973853173,71.06503106847782,3.6238941995421805,0.4647901119792107,-0.18963591450425127,0.4251782415275317,-11.640461814517252,15.173971911877121,80.99386088101983,0.00111311674118042,5.955841019749641,-22.268080711364746,71.55095338821411,28.9095401763916,10.247073322534561,-0.6206315687514529,-0.6948212170827927,False,0
GUIDED_NOGPS,2.5098886489868164,29.48274674370708,-12.954621474368299,14.999012000379304,85.53682323100564,-0.41169567013157105,-16.197224346298718,84.4984235005592,51.94209097709268,3.425257693047943,0.4533983624717601,71.1443705458767,3.5431326553331624,0.3051168738312718,-0.20584783506578552,0.42652663787504635,-11.313674915754117,15.09497651506339,80.3028841134536,-3.749684989452362,9.780251234769821,-21.895766258239746,-42.51609444618225,65.99065065383911,-84.65930223464966,-0.7379604914392212,-0.13759127934385076,False,0
GUIDED_NOGPS,2.5431535243988037,30.069066377993963,-12.864323255807214,15.151277435358788,84.82095241319483,-0.49605626689036464,-16.197224346298718,84.4984235005592,51.94209097709268,3.3726409038899265,0.3963786092591714,71.28391131062006,3.5181165082397174,0.3893341381804694,-0.24802813344518232,0.4278707948162872,-11.313674915754117,15.09497651506339,80.3028841134536,-1.2425152584910393,11.657213419675827,-19.33944672346115,-57.34073519706726,75.91050863265991,-51.409006118774414,-0.7379604914392212,-3.305945600748633,False,0
GUIDED_NOGPS,2.5789408683776855,27.946935321593006,-12.763789994683444,15.350693749716713,84.1794315350418,-0.5411082124030452,-16.197224346298718,84.4984235005592,51.94209097709268,3.376168269709415,0.30544579287870577,71.35353142883,3.4775464149185242,0.40178395027940217,-0.2705541062015226,0.42906192269360643,-10.672974252766863,15.27895352211864,80.17728144916354,-1.9225547090172768,14.01665061712265,-15.974192321300507,-1.9759546965360641,55.61280846595764,68.48969459533691,-0.7685101582986911,-0.7928065239464138,False,0
GUIDED_NOGPS,2.6102821826934814,31.910407790626902,-12.6133192126645,15.571154178138878,83.49172921744002,-0.6409658108125276,-16.197224346298718,84.4984235005592,51.94209097709268,3.2687998303909302,0.28491152283015003,71.41444988603735,3.4207966958561618,0.5264243431903464,-0.3204829054062638,0.4303579405323314,-10.252097833063155,15.215883871003129,79.16626502035723,0.2555195242166519,15.4195636510849,-15.684565901756287,-9.395741671323776,58.84121060371399,74.710214138031,-1.0356125404587826,-3.5971865745052694,False,0
GUIDED_NOGPS,2.6461312770843506,27.90175886751284,-12.535407675660862,15.853834933673495,82.88307500178786,-0.6669549748491123,-16.197224346298718,84.4984235005592,51.94209097709268,3.252683145270639,0.29364893560418304,71.52008559174075,3.3792381371989024,0.3754935726320854,-0.33347748742455613,0.43148670839369657,-10.961351410159772,16.145551791475143,78.21894210890073,-1.4752663671970367,16.86052680015564,-13.364282250404358,-24.844223260879517,72.0527172088623,50.54759979248047,-1.1399150180324193,0.9983235009775124,False,0
GUIDED_NOGPS,2.6808688640594482,28.78923742192326,-12.543631597945238,16.179055119638967,82.16131078864375,-0.7531607231211301,-16.197224346298718,84.4984235005592,51.94209097709268,3.23255713910755,0.0907027777436537,71.58267744529475,3.313454228448633,0.22599853218245006,-0.37658036156056507,0.4328461029264482,-11.19447448733014,15.830579934483065,77.20036592403142,-6.8352170288562775,20.19498497247696,-15.054988861083984,-69.33979988098145,79.42772507667542,18.921223282814026,-1.3179422826618643,-2.184798436464778,False,0
GUIDED_NOGPS,2.712916135787964,31.210173451696196,-12.550574669428165,16.533013994011423,81.57306576624167,-0.7710579360573672,-16.197224346298718,84.4984235005592,51.94209097709268,3.124126605373128,0.0007667954560397127,71.66485828138835,3.2360115878715265,0.2268484202360822,-0.3855289680286836,0.43394671830642323,-11.363284732376368,16.336484176753707,76.86917758238414,-5.291419476270676,21.30088061094284,-11.932891607284546,-24.47277456521988,62.09065318107605,42.29322671890259,-1.3568234075881263,1.7560727983483664,False,0
GUIDED_NOGPS,2.7459542751312256,30.270888213685144,-12.44616205995893,16.862595379179,80.97726433430796,-0.8415556414094111,-16.197224346298718,84.4984235005592,51.94209097709268,3.1479357910461463,-0.0719412085889807,71.73688262618613,3.275958627422298,0.4331665959565105,-0.42077782070470554,0.4350614263188831,-11.98387542172312,16.710908251442476,76.43580269440494,4.036612436175346,18.925684690475464,-12.7061128616333,72.0115065574646,24.21925961971283,108.14318656921387,-1.368299370045211,-1.8417856960165027,False,0
GUIDED_NOGPS,2.7874250411987305,24.114619506473794,-12.356452382816707,17.230809744275152,80.37147277950876,-0.9544060885038831,-16.197224346298718,84.4984235005592,51.94209097709268,3.1023306179579713,-0.1484843638529633,71.77079451541525,3.3124584211362076,0.3739086464304563,-0.47720304425194154,0.43617850980071515,-12.127899983133254,17.126022863966725,75.87924158005723,3.478487953543663,20.256485044956207,-11.955159157514572,116.02860689163208,19.783860445022583,8.054783940315247,-1.4786117762300712,-4.36938983282034,False,0
GUIDED_NOGPS,2.8273873329162598,25.02881625979389,-12.281335821120244,17.687311387642435,79.67711397721811,-1.049516337695199,-16.197224346298718,84.4984235005592,51.94209097709268,3.0837341472821422,-0.2511125451657535,71.83801040703734,3.196956614307241,0.3604193581600558,-0.5247581688475995,0.4374788145076327,-11.800873070657747,17.280120629560884,75.38919084830049,0.7439484354108572,23.033513128757477,-9.653017669916153,78.30157279968262,24.261105060577393,146.5375542640686,-1.5433551358648538,-2.237732615975788,False,0
GUIDED_NOGPS,2.846653461456299,51.911630382316176,-12.29774567959708,18.120832058465144,79.15136169204246,-1.155170911482162,-16.197224346298718,84.4984235005592,51.94209097709268,3.0680545942687316,-0.31421911750673426,71.87538520217565,2.7398398862151288,0.19856349058732473,-0.577585455741081,0.4384882031657934,-13.211106376075705,18.47689795031745,73.807159037253,0.7632101885974407,24.250835180282593,-11.94060891866684,75.37288069725037,20.08611112833023,48.1749027967453,-1.7408443954851256,-4.361959440777012,False,0
GUIDED_NOGPS,2.8813657760620117,28.81455324878746,-12.302187768763478,18.53087847442828,78.76903128252795,-1.232797063998739,-16.197224346298718,84.4984235005592,51.94209097709268,3.114533177797022,-0.46684844569054323,71.96201249141892,3.1517037603880507,0.22910189980858542,-0.6163985319993694,0.4391786182293358,-13.199381791337672,19.216626945089708,73.41962751106368,2.181718312203884,24.930737912654877,-9.263347089290619,40.764570236206055,43.08810532093048,117.46213436126709,-1.8013643090355718,-3.4303846037936836,False,0
GUIDED_NOGPS,2.913560628890991,31.06316608035549,-12.327547444051456,19.084406509714178,78.20454235633125,-1.3118268439804395,-16.197224346298718,84.4984235005592,51.94209097709268,3.0473881493875656,-0.5837396628159068,72.00169589049669,2.9200672811192696,0.18884068373402207,-0.6559134219902197,0.4402397800013015,-13.615584001386761,19.50395515461446,73.09143651402101,0.21745290141552687,27.548658847808838,-6.71946257352829,13.019116222858429,60.087960958480835,158.0255627632141,-1.8174273142486537,-1.7320094015721768,False,0
GUIDED_NOGPS,2.952505350112915,25.67930743139824,-12.355153023343336,19.637682147144005,77.68004496887113,-1.3903617299313533,-16.197224346298718,84.4984235005592,51.94209097709268,2.965186822726462,-0.633952011942667,72.10340423742736,3.0199028856958665,0.1850792657976606,-0.6951808649656767,0.4412086661995188,-13.615584001386761,19.50395515461446,73.09143651402101,0.2986868843436241,29.006853699684143,-7.49996080994606,-33.15291404724121,67.81247854232788,120.56862115859985,-1.8174273142486537,-2.1350714576559113,False,0
GUIDED_NOGPS,2.9822585582733154,33.61844151264007,-12.363051612525371,20.249787848167138,77.06523317284193,-1.5005529131057365,-16.197224346298718,84.4984235005592,51.94209097709268,3.0621422117684394,-0.66869419604276,72.15741054319464,2.7446132559908616,0.21275345806500942,-0.7502764565528682,0.4423784461801221,-13.345914792916723,20.606637038222914,72.37559220130149,0.7903622463345528,29.592078924179077,-11.96620911359787,-9.74724292755127,27.777618169784546,-25.83223581314087,-1.9654843733607628,-3.8994339712225576,False,0
GUIDED_NOGPS,3.0140328407287598,31.47648065319845,-12.456834453647232,20.84429683033866,76.62080695253873,-1.5771803530582056,-16.197224346298718,84.4984235005592,51.94209097709268,2.9294645064804725,-0.8197910005315474,72.16485544938996,2.7913665802985625,0.03903620180614577,-0.7885901765291028,0.4432046594710681,-13.345914792916723,20.606637038222914,72.37559220130149,-4.6227943152189255,33.27784836292267,-7.5553566217422485,-68.39438080787659,83.76389145851135,29.58686649799347,-1.9654843733607628,-2.594712239503093,False,0
GUIDED_NOGPS,3.048044443130493,29.40626643203186,-12.470521864670902,21.49880552070096,76.0776401373036,-1.6005574473614625,-16.197224346298718,84.4984235005592,51.94209097709268,2.956852284391754,-0.8652226441261219,72.21911447215655,2.7495258933217923,0.191438091129492,-0.8002787236807313,0.444225469317097,-14.645673567162614,22.21050786260148,71.32238185067965,4.324192553758621,30.87596595287323,-9.050121903419495,-6.086865067481995,36.61823272705078,29.28486466407776,-2.105416304054431,1.8532873076919811,False,0
GUIDED_NOGPS,3.0817298889160156,29.690614226960296,-12.522422781029865,22.232612717276222,75.52863818722824,-1.6850977714154547,-16.197224346298718,84.4984235005592,51.94209097709268,2.8185533334168666,-1.02559804715896,72.23270654860487,2.622805952187875,0.11927860835244439,-0.8425488857077273,0.4452596760626329,-14.932057446080133,23.254147630260913,70.92779640432997,2.2532662376761436,32.62801170349121,-8.05397480726242,-77.22986340522766,56.089240312576294,25.69737136363983,-2.184579416827572,-2.132390821850093,False,0
GUIDED_NOGPS,3.1158013343811035,29.35276045712526,-12.570665390577636,22.966683709560815,74.99874772214277,-1.7695257623286302,-16.197224346298718,84.4984235005592,51.94209097709268,2.8134605736169758,-1.0908515400551464,72.2454311910286,2.601751616013057,0.11966832799976852,-0.8847628811643151,0.4462565662463478,-14.868737457889644,23.673831993154593,70.69991359374079,2.2532662376761436,32.62801170349121,-8.05397480726242,-77.22986340522766,56.089240312576294,25.69737136363983,-2.2673324538662527,-2.132390821850093,False,0
GUIDED_NOGPS,3.1495349407196045,29.751267919335504,-12.687633123843833,23.741523770361532,74.45481753629264,-1.8181685836246853,-16.197224346298718,84.4984235005592,51.94209097709268,2.8611105345879233,-1.170507127146539,72.27311394773466,2.506863214444981,-0.01246541127254315,-0.9090842918123426,0.4472838474046582,-15.902447050168004,24.41531908756903,70.26391232280474,0.41256844997406006,34.749218821525574,-9.811417013406754,-119.69232559204102,58.34606885910034,-89.28097486495972,-2.261096317524154,0.038047782214967595,False,0
GUIDED_NOGPS,3.184825897216797,28.24675394644685,-12.705728597457831,24.48446707837565,74.0078289079229,-1.8794247427739923,-16.197224346298718,84.4984235005592,51.94209097709268,2.7530492579555053,-1.2498811823780804,72.2559565125396,2.5512850263712377,0.15973389416439077,-0.9397123713869961,0.44811639439581114,-15.902447050168004,24.41531908756903,70.26391232280474,7.020506262779236,33.855703473091125,-4.914849624037743,97.18970060348511,-4.802699387073517,-145.02183198928833,-2.261096317524154,-1.0664947653097634,False,0
GUIDED_NOGPS,3.2260422706604004,24.26360607182525,-12.671071354088168,25.232116375587665,73.53810006962107,-1.9901243889936024,-16.197224346298718,84.4984235005592,51.94209097709268,2.6587653266526496,-1.343016788126728,72.24840915350673,2.665365569249609,0.23492345564551753,-0.9950621944968012,0.4489836465132972,-15.855911785655191,25.1343734122215,70.02570324420446,10.290201753377914,33.712488412857056,-7.680036127567291,47.73163199424744,18.101340532302856,-78.85315418243408,-2.3041703639254925,-4.562001167414699,False,0
GUIDED_NOGPS,3.2622904777526855,27.591563934900734,-12.625855820115746,26.171925408137184,72.95614337773648,-2.11861995117105,-16.197224346298718,84.4984235005592,51.94209097709268,2.6049728911837446,-1.3499863558444913,72.26133870160557,2.3060845720602954,0.2713164025257266,-1.059309975585525,0.45008668468575863,-15.989194583374834,26.44027131404197,69.68255909965984,10.290201753377914,33.712488412857056,-7.680036127567291,47.73163199424744,18.101340532302856,-78.85315418243408,-2.3379361546456003,-4.562001167414699,False,0
GUIDED_NOGPS,3.28438138961792,45.27627971242902,-12.56127178162235,27.09050108664815,72.49982338913144,-2.1615706413247326,-16.197224346298718,84.4984235005592,51.94209097709268,2.608376673267938,-1.3478213993210089,72.2429723229274,1.6490871771925548,0.3998343387407714,-1.0807853206623663,0.4509628990406413,-16.143307132284704,28.08251139565519,69.4698149993169,12.194354087114334,34.92370843887329,-5.197297036647797,124.11905527114868,4.482004791498184,30.55974841117859,-2.3929271360426805,0.37043490942924484,False,0
GUIDED_NOGPS,3.322010040283203,26.578020543561603,-12.53543877866681,27.763899534262293,72.28398456260008,-2.17074784654804,-16.197224346298718,84.4984235005592,51.94209097709268,2.6139575781500732,-1.2330419913096486,72.25491149359658,2.5609340475641527,0.23352213219623225,-1.08537392327402,0.45133338937596806,-15.939945672615341,28.647087184942826,69.46534129661393,10.868284106254578,37.27631866931915,-3.2412271946668625,43.863362073898315,15.155965089797974,24.56004023551941,-2.4120577357681157,0.5268848479996033,False,0
GUIDED_NOGPS,3.3530595302581787,32.21827567135746,-12.508143480959376,28.63587273793915,71.96824800510817,-2.1677102172955784,-16.197224346298718,84.4984235005592,51.94209097709268,2.501319861330335,-1.267122287390485,72.18828299824311,2.0474378602505485,0.27033748250680134,-1.0838551086477892,0.4519180556727838,-15.939945672615341,28.647087184942826,69.46534129661393,9.335476160049438,38.87105584144592,-1.9967295229434967,-30.55841326713562,61.34516000747681,137.90165185928345,-2.4120577357681157,2.6220810209507457,False,0
GUIDED_NOGPS,3.40395450592041,19.64830490609878,-12.50104882795187,29.46197152632095,71.7005596872579,-2.1573123401643715,-16.197224346298718,84.4984235005592,51.94209097709268,2.4108130246384962,-1.1353073203720552,72.1487225425704,2.582787085902352,0.20348100891386534,-1.0786561700821857,0.4523700724999845,-16.235081053632808,30.049580775360834,69.08469068250223,9.335476160049438,38.87105584144592,-1.9967295229434967,-30.55841326713562,61.34516000747681,137.90165185928345,-2.4390629919038878,2.6220810209507457,False,0
GUIDED_NOGPS,3.4223837852478027,54.269906580752014,-12.44790296058124,30.483266776059786,71.33833779822122,-2.2285923740254154,-16.197224346298718,84.4984235005592,51.94209097709268,2.33927191572449,-1.0343797494408924,72.12437291817929,0.9547976057281912,0.4330175663787352,-1.1142961870127077,0.4530659051418044,-16.553001994335794,32.85926176251533,68.66958376725626,12.52058744430542,39.958810806274414,-5.035387724637985,36.93206012248993,21.08531892299652,-31.60078227519989,-2.4064687722499913,-2.769591762681865,False,0
GUIDED_NOGPS,3.451464891433716,34.392790665256285,-12.433646871439102,31.164176630383967,71.17713598766001,-2.184976395032805,-16.197224346298718,84.4984235005592,51.94209097709268,2.279217690890565,-0.9203143096412101,72.07496332972342,2.1991527718944592,0.24398934433436065,-1.0924881975164025,0.45334356525583996,-16.520783820768255,33.4698791336124,68.63996867294713,12.6839280128479,39.68518376350403,-3.5522527992725372,-39.71331715583801,49.01815950870514,-25.59329867362976,-2.4185651404633317,3.693537064918877,False,0
GUIDED_NOGPS,3.4851036071777344,29.73249780247824,-12.357606995667329,32.05613631720553,70.94746950327155,-2.161095380832431,-16.197224346298718,84.4984235005592,51.94209097709268,2.14716302692095,-0.8086968523287427,72.0095984193664,2.0391543822129226,0.3639284291896018,-1.0805476904162155,0.4537518866646163,-16.520783820768255,33.4698791336124,68.63996867294713,14.72410261631012,39.93734121322632,-0.7141521200537682,59.906405210494995,12.992587685585022,67.11493134498596,-2.4185651404633317,3.389201337862857,False,0
GUIDED_NOGPS,3.524937629699707,25.10642220506282,-12.28634295446719,33.19591939038222,70.65278974196809,-2.1292049954248173,-16.197224346298718,84.4984235005592,51.94209097709268,1.990774960259518,-0.8002980675271542,71.87942184397512,1.9091822837463321,0.3471564865820207,-1.0646024977124087,0.45428157293073484,-16.97840103336837,37.03265093219096,68.2334819932664,14.250779151916504,40.45035243034363,-1.2665722519159317,-0.6801925599575043,18.349933624267578,12.823322415351868,-2.3141697757380184,3.9438669130944297,False,0
GUIDED_NOGPS,3.5563619136810303,31.826386517638312,-12.20804045711542,34.52791688627244,70.30526049335906,-2.1085898628904753,-16.197224346298718,84.4984235005592,51.94209097709268,2.034373765279002,-0.7416576918514213,71.82875550071198,1.3013673791799265,0.4188138816865165,-1.0542949314452377,0.4549304047769692,-16.94641341568657,38.52934176795993,68.12239737371502,12.832364439964294,41.09435677528381,-1.701183244585991,-18.898211419582367,19.574083387851715,-6.120413541793823,-2.278059085427506,3.144033405152542,False,0
GUIDED_NOGPS,3.585754156112671,34.032520852942135,-12.19214401989075,35.57544073315038,70.1431844730756,-2.038224267234727,-16.197224346298718,84.4984235005592,51.94209097709268,1.883390512685166,-0.6711043990461283,71.65354748812281,1.5160644335277287,0.2973676526635055,-1.0191121336173634,0.4552118053133867,-16.878939673220554,40.395084120695074,67.73569867981257,11.92348450422287,41.890838742256165,1.9176727160811424,-34.44337844848633,33.27982723712921,67.50952005386353,-2.14337738035666,5.490999955863875,False,0
GUIDED_NOGPS,3.618502140045166,30.540455525135435,-12.101107075941716,36.71899626704383,69.93176721747675,-1.9391709842130365,-16.197224346298718,84.4984235005592,51.94209097709268,1.9036904752286785,-0.5728241667485802,71.51559815745605,1.501318430680681,0.4422272929611673,-0.9695854921065182,0.4555874572760526,-16.57346480178812,42.012301506036565,68.19965428181533,15.3327077627182,40.71586728096008,-1.5324241481721401,-60.583847761154175,37.99218833446503,91.78553819656372,-2.0830727022742614,7.492102802478687,False,0
GUIDED_NOGPS,3.653517961502075,28.56221398997603,-12.05656342106982,38.01642588768857,69.69380509709897,-1.8599787740265168,-16.197224346298718,84.4984235005592,51.94209097709268,1.9402185403533183,-0.3930124999371187,71.38264852526176,1.3512416223811052,0.3627569572022906,-0.9299893870132584,0.45601370469810815,-16.47177983569101,43.930353397354594,67.64859124113462,10.659390687942505,42.48511493206024,-0.692671537399292,133.6901307106018,-19.569112360477448,79.61021661758423,-1.8942452616949903,5.491596316755781,False,0
GUIDED_NOGPS,3.687103271484375,29.77682488747533,-12.010333969843423,39.36049653643814,69.44971137773142,-1.7763755645053196,-16.197224346298718,84.4984235005592,51.94209097709268,1.7829773403758697,-0.3736429372246088,71.20545975781329,1.1746419014126739,0.38026378349595497,-0.8881877822526598,0.45645479813130657,-16.64117352933008,44.6426162720355,67.5295623178327,10.659390687942505,42.48511493206024,-0.692671537399292,133.6901307106018,-19.569112360477448,79.61021661758423,-1.8319671619670306,5.491596316755781,False,0
GUIDED_NOGPS,3.721553087234497,29.032151781326355,-11.913756103242216,40.614976000956126,69.19258868740356,-1.7209639247393147,-16.197224346298718,84.4984235005592,51.94209097709268,1.6193684831012654,-0.25447993514827555,71.02579846188527,1.2581587322943382,0.4731824019695508,-0.8604819623696573,0.4569216501148086,-16.64117352933008,44.6426162720355,67.5295623178327,14.77079689502716,42.36200153827667,-3.691292181611061,28.873032331466675,-4.482963681221008,-20.81277370452881,-1.8319671619670306,3.5082963582126077,False,0
GUIDED_NOGPS,3.756141424179077,28.916263357462945,-11.793582536580967,41.88599484943334,68.94508201783505,-1.6058251856830343,-16.197224346298718,84.4984235005592,51.94209097709268,1.5722026117877423,-0.038512128356822675,70.85438803447464,1.1919404615669473,0.5272502474512182,-0.8029125928415172,0.45736962476848053,-16.789831845888212,45.355240516505546,67.45033362454102,16.445688903331757,42.11233854293823,-3.1697314232587814,7.079461216926575,14.945083856582642,-50.045788288116455,-1.7909592696364314,7.470020800892035,False,0
