Mode,Time,Freq,time2delay,actualDelay,North-Desired,East-Desired,Down-Desired,Roll-UAV,Pitch-UAV,Yaw-UAV,Roll-Control,Pitch-Control,Yaw-Control,Thrust-Control,North-Pos,East-Pos,Down-Pos,Yaw-Ang,North-Vel,East-Vel,Down-Vel,Yaw-Vel,North-Acc,East-Acc,Down-Acc,North-Avg,East-Avg,Down-Avg,Yaw-Avg,North-Dif,East-Dif,Down-Dif,Yaw-Dif,North-One,East-One,Down-One,Yaw-One,North-Two,East-Two,Down-Two,Yaw-Two,Landing-State,Q-Size,Kalman-Time,Kalman-Dt
STABILIZE,0.034381866455078125,29.093169080517175,0.032759698232014973,0.03289294242858887,0.0,0.0,0.0,0.9794077189579853,-0.22476765176336805,-11.857567837847208,-0.027487437342750304,0.23913382113500675,0.029413759727684445,0.4,0.10822300077282342,0.013446587238343397,0.7676916007890033,0.0030373295904102177,0.21124780178070068,-0.0005309688731358619,1.4102823100984097,0.14995233425620036,0.7945478893816471,-1.7680812627077103,16.58322662115097,0.0,0.0,0.0,0.0,0.0,0.0,0.0,0.0,0.0,0.0,0.0,0.0,0.0,0.0,0.0,0.0,False,0,3.4485082626342773,0.034926025390625
STABILIZE,0.06773543357849121,29.98180063619143,0.032306941350301106,0.03243255615234375,0.0,0.0,0.0,0.9795576629546082,-0.22444625934640722,-11.858095469960592,-0.014124033049537254,0.12468554975220125,0.007571845194067438,0.4,0.10843654890372224,0.013330641141794459,0.7664479703452383,0.0014557660802961207,0.20665184129029512,0.010557073983363807,1.3557102531194687,-0.09555055119781654,3.9122190326452255,-1.7921749502420425,16.705752909183502,0.0,0.0,0.0,0.0,0.0,0.0,0.0,0.0,0.0,0.0,0.0,0.0,0.0,0.0,0.0,0.0,False,0,3.477264642715454,0.034927001953125
STABILIZE,0.10131382942199707,29.78084195428823,0.032418282826741536,0.03262805938720703,0.0,0.0,0.0,0.9798314041299376,-0.2247621555955203,-11.858209021855542,-0.008562526126334949,0.08625922331500484,0.014765793091458911,0.4,0.10827976776684517,0.011678759951624786,0.7662878050219453,0.004086809177512596,0.18577167065814137,-0.0790510035585612,1.4217766933143139,0.1549379854841262,2.6036785915493965,0.18740904051810503,18.127956986427307,0.0,0.0,0.0,0.0,0.0,0.0,0.0,0.0,0.0,0.0,0.0,0.0,0.0,0.0,0.0,0.0,False,0,3.5059549808502197,0.02993701171875
STABILIZE,0.13471245765686035,29.941135739015596,0.03237179120381673,0.032543182373046875,0.0,0.0,0.0,0.9797292714575048,-0.22481778428465887,-11.85771980955624,-0.007925375008249488,0.07774813508625707,0.040604667616658506,0.4,0.12559814794386265,0.013943077426821163,0.7852869283349196,0.014267511500733071,0.5777573212981224,0.07113878964446485,1.3585073873400688,0.2658912602606628,10.294950753450394,0.27886538300663233,20.59987187385559,0.0,0.0,0.0,0.0,0.0,0.0,0.0,0.0,0.0,0.0,0.0,0.0,0.0,0.0,0.0,0.0,False,0,3.563262462615967,0.06985205078125
STABILIZE,0.16823482513427734,29.83231386383681,0.03247526486714681,0.03259468078613281,0.0,0.0,0.0,0.9797285244055643,-0.2241224656910663,-11.85695226704826,-0.006642989452836859,0.0662835342946488,0.03257222077183448,0.4,0.12917177940250457,0.0141426036647546,0.8114706981768773,0.013589098765346275,0.14356120955199003,0.0023970067559275776,1.6359040513634682,-0.09510731594338634,9.095833450555801,0.2218108158558607,19.89593803882599,0.0,0.0,0.0,0.0,0.0,0.0,0.0,0.0,0.0,0.0,0.0,0.0,0.0,0.0,0.0,0.0,False,0,3.5920345783233643,0.034927001953125
STABILIZE,0.20165324211120605,29.922552292897297,0.03238395055135091,0.03251028060913086,0.0,0.0,0.0,0.9789688793038119,-0.22470497944164788,-11.85687969628833,-0.0007705711260938258,0.01954454060382039,0.027916993563553576,0.4,0.1274684707113618,0.01291613381782027,0.8076350476801386,0.013949596935524158,0.16775005497038364,-0.03401637950446457,1.5036889351904392,0.03463143364991828,5.49171082675457,0.261838105507195,21.59751206636429,0.0,0.0,0.0,0.0,0.0,0.0,0.0,0.0,0.0,0.0,0.0,0.0,0.0,0.0,0.0,0.0,False,0,3.620643377304077,0.02993701171875
STABILIZE,0.2351841926574707,29.82425302558414,0.03240707715352376,0.032562971115112305,0.0,0.0,0.0,0.9775917424124081,-0.22471282348702282,-11.857641262380785,-0.0007131767425932663,0.019372817592900056,0.030470800320208748,0.4,0.1272981425924722,0.0126941891185362,0.797933810629769,0.013830414825617744,0.2766900695860386,0.018596714653540403,1.3676962815225124,0.018482385172348723,0.9605844505131245,-0.0032532319892197847,14.407207071781158,0.0,0.0,0.0,0.0,0.0,0.0,0.0,0.0,0.0,0.0,0.0,0.0,0.0,0.0,0.0,0.0,False,0,3.651296377182007,0.034926025390625
STABILIZE,0.26911211013793945,29.47259542413851,0.032350810368855794,0.032991886138916016,0.0,0.0,0.0,0.9783165962380758,-0.22491063216868873,-11.858051073730985,-0.0018407466226625351,0.018074691404981174,0.015206326331635446,0.4,0.12457634287425283,0.013760187194084431,0.7946312110817012,0.00937252278858993,0.10567891877144575,0.08121581631712615,1.464216597378254,-0.21191310234327182,1.6803935170173645,0.17171724466606975,18.25067549943924,0.0,0.0,0.0,0.0,0.0,0.0,0.0,0.0,0.0,0.0,0.0,0.0,0.0,0.0,0.0,0.0,False,0,3.6785800457000732,0.03492578125
STABILIZE,0.30709052085876465,26.331410204094446,0.03237655957539876,0.03701066970825195,0.0,0.0,0.0,0.9777033733166556,-0.22440370406622687,-11.858291837899229,-0.0011691299879210356,0.008854000665479516,0.00044174392711357653,0.4,0.12025176962110434,0.014259827237465602,0.7889600434757587,0.01097066122359699,0.2798718400299549,0.02917396486736834,1.5630900859832764,0.09012497975844633,5.960608646273613,0.239043147303164,21.973976492881775,0.0,0.0,0.0,0.0,0.0,0.0,0.0,0.0,0.0,0.0,0.0,0.0,0.0,0.0,0.0,0.0,False,0,3.7359683513641357,0.039916015625
STABILIZE,0.3420860767364502,28.574278200918343,0.03236964543660482,0.03415560722351074,0.0,0.0,0.0,0.9780105183858946,-0.22417988196877672,-11.857833361451192,-0.0012042646935397964,0.008736032882477637,0.00752732436429158,0.4,0.12305825906800971,0.014510616053783202,0.7898405410662557,0.013510176550668959,0.3551037050783634,0.0345952226780355,1.4210401102900505,0.1473235118385388,2.5441762059926987,0.09166990057565272,17.018385231494904,0.0,0.0,0.0,0.0,0.0,0.0,0.0,0.0,0.0,0.0,0.0,0.0,0.0,0.0,0.0,0.0,False,0,3.764559507369995,0.029936767578125
STABILIZE,0.37563323974609375,29.810262970859984,0.03248718579610189,0.032602787017822266,0.0,0.0,0.0,0.9772945224618068,-0.22408324546419162,-11.85746026236778,-0.001362863370404584,0.01074949151082475,-0.006619150634234341,0.4,0.12560756306073237,0.013824553359736966,0.7799404818915447,0.007869466981056134,0.4105802159756422,-0.00590243871556595,1.2540063820779324,-0.2779660208570404,9.045744687318802,-1.8800310790538788,18.06533932685852,0.0,0.0,0.0,0.0,0.0,0.0,0.0,0.0,0.0,0.0,0.0,0.0,0.0,0.0,0.0,0.0,False,0,3.7946507930755615,0.02993701171875
STABILIZE,0.409029483795166,29.941563216093318,0.03235486348470052,0.032486915588378906,0.0,0.0,0.0,0.9779792489261006,-0.2236445925730034,-11.856671375518644,-0.0011442848609806917,0.012106249622547303,-0.019429511441062003,0.4,0.12812643800022588,0.01316844078044271,0.7707951904077859,0.0024292362098277797,0.4105802159756422,-0.00590243871556595,1.2540063820779324,-0.2779660208570404,9.045744687318802,-1.8800310790538788,18.06533932685852,0.0,0.0,0.0,0.0,0.0,0.0,0.0,0.0,0.0,0.0,0.0,0.0,0.0,0.0,0.0,0.0,False,0,3.822247266769409,0.02993701171875
STABILIZE,0.44248032569885254,29.895253029223092,0.03243068059285482,0.03254413604736328,0.0,0.0,0.0,0.9779826640206856,-0.22178927573863258,-11.855324120704859,0.0003057716973475826,0.011868445409113703,-0.013496322997034533,0.4,0.12544423667323032,0.010922492369207443,0.7655491784339121,0.0016160068160530779,0.12227349216118455,-0.09601447964087129,1.4331215061247349,-0.03021517940792283,3.5057369619607925,-1.8745049834251404,19.205860793590546,0.0,0.0,0.0,0.0,0.0,0.0,0.0,0.0,0.0,0.0,0.0,0.0,0.0,0.0,0.0,0.0,False,0,3.850709915161133,0.034926025390625
STABILIZE,0.475919246673584,29.905271188495078,0.0324130376180013,0.032535552978515625,0.0,0.0,0.0,0.9776224782636732,-0.22130523944206082,-11.855484630150354,0.0011631816568746063,0.015853647445774537,-0.0206480385321598,0.4,0.13013867809839127,0.009442220138624679,0.7627076613003735,-0.0003173080177054249,0.49128904938697815,-0.05735415616072714,1.336309127509594,-0.0905275073522275,8.135693520307541,0.00720958923920989,17.70414710044861,0.0,0.0,0.0,0.0,0.0,0.0,0.0,0.0,0.0,0.0,0.0,0.0,0.0,0.0,0.0,0.0,False,0,3.879307270050049,0.034927001953125
STABILIZE,0.5095651149749756,29.721120732415923,0.03241875966389974,0.032816410064697266,0.0,0.0,0.0,0.9773729629155562,-0.22190682969755085,-11.855633186764802,0.0015290541194362185,0.01570983174372596,-0.03089340520533587,0.4,0.13206237713893854,0.008850766694171773,0.7530365508154734,-0.0027958926457942127,0.3084128024056554,0.014934742648620158,1.5727337449789047,-0.0919747337239033,6.103797256946564,0.3323761513456702,24.61886554956436,0.0,0.0,0.0,0.0,0.0,0.0,0.0,0.0,0.0,0.0,0.0,0.0,0.0,0.0,0.0,0.0,False,0,3.936837911605835,0.034926025390625
STABILIZE,0.5431852340698242,29.74514921139226,0.03250268300374349,0.032689809799194336,0.0,0.0,0.0,0.9772278213956934,-0.2228748489298415,-11.856023361321139,0.0016200626207931003,0.014265715359644977,-0.015220426423278487,0.4,0.13130975382883842,0.008075786120272396,0.7538375377635067,-0.0004693805973612166,0.1849732710979879,-0.020654909894801676,1.5040073543787003,0.14631553866764624,5.4616376757621765,-1.7994746565818787,19.32273954153061,0.0,0.0,0.0,0.0,0.0,0.0,0.0,0.0,0.0,0.0,0.0,0.0,0.0,0.0,0.0,0.0,False,0,3.9654953479766846,0.0349267578125
STABILIZE,0.5766689777374268,29.865451438336656,0.032381804784139,0.03252577781677246,0.0,0.0,0.0,0.9780160679145952,-0.22252704289069974,-11.855188370695105,0.0017181469295692144,0.012810081834344221,0.00021301885386697304,0.4,0.13051190031793602,0.007312331904971732,0.7547116916682718,0.001901214642918576,0.1849732710979879,-0.020654909894801676,1.5040073543787003,0.14631553866764624,5.4616376757621765,-1.7994746565818787,19.32273954153061,0.0,0.0,0.0,0.0,0.0,0.0,0.0,0.0,0.0,0.0,0.0,0.0,0.0,0.0,0.0,0.0,False,0,3.9941048622131348,0.0349267578125
STABILIZE,0.6100673675537109,29.940922005054038,0.032360347112019856,0.03247427940368652,0.0,0.0,0.0,0.9786581056965764,-0.22254047648541497,-11.854346549879901,0.0015292265400172938,0.01345415194372298,-0.005012790513261732,0.4,0.12956140860133983,0.005837445024400393,0.7554459654926114,-0.0008906118976105633,0.17839628271758556,-0.06205505924299359,1.492445357143879,-0.1504350231912366,2.122746966779232,-1.7208045348525047,21.781982481479645,0.0,0.0,0.0,0.0,0.0,0.0,0.0,0.0,0.0,0.0,0.0,0.0,0.0,0.0,0.0,0.0,False,0,4.022979736328125,0.029937255859375
STABILIZE,0.6435630321502686,29.857797773285117,0.03240397771199544,0.03251838684082031,0.0,0.0,0.0,0.9794208457277964,-0.22335178823297877,-11.85396405928638,0.002187713605443716,0.01085655644898848,0.001258877192891655,0.4,0.12830945057277818,0.003176843293824125,0.7487375195933506,0.0002800752801964902,0.20148544572293758,-0.13393397675827146,1.267076563090086,0.07375955969251148,1.1403552256524563,-0.06416040123440325,15.102966129779816,0.0,0.0,0.0,0.0,0.0,0.0,0.0,0.0,0.0,0.0,0.0,0.0,0.0,0.0,0.0,0.0,False,0,4.05163311958313,0.0399150390625
STABILIZE,0.6786069869995117,28.53306847712214,0.032285483678181966,0.03407120704650879,0.0,0.0,0.0,0.9786765685516766,-0.2241224656910663,-11.853117969602945,0.0016501104101111985,0.011498771426402956,0.0017124614625340998,0.4,0.13124770111747672,0.0038718971950157657,0.7513680215550455,-0.0014338972021908317,0.3615591209381819,0.06442085723392665,1.3719052076339722,-0.08813010428344642,7.332038879394531,0.049915065756067634,15.95095694065094,0.0,0.0,0.0,0.0,0.0,0.0,0.0,0.0,0.0,0.0,0.0,0.0,0.0,0.0,0.0,0.0,False,1,4.0802600383758545,0.029936767578125
STABILIZE,0.7120456695556641,29.903778696706116,0.032407553990681966,0.032544612884521484,0.0,0.0,0.0,0.9784283338640289,-0.22445399667007637,-11.853126507339407,0.001755018250687994,0.010251632300758042,0.005732950410872121,0.4,0.12816673055147998,0.0029955422879888076,0.7438365379958143,0.001986518329663649,0.2169466344639659,-0.053025042871013284,1.394033059477806,0.07461530769032004,8.37007686495781,0.21967862267047167,21.098485589027405,0.0,0.0,0.0,0.0,0.0,0.0,0.0,0.0,0.0,0.0,0.0,0.0,0.0,0.0,0.0,0.0,False,0,4.137681007385254,0.03492578125
STABILIZE,0.745490550994873,29.901007321437483,0.03242948849995931,0.03254365921020508,0.0,0.0,0.0,0.9781049670955111,-0.22468435547200563,-11.852363233699657,0.0020147506887747287,0.010470501040864838,0.0043191555300352655,0.4,0.12793220749565085,0.00179545178171929,0.7437880890294299,0.0031714198766582356,0.2169466344639659,-0.053025042871013284,1.394033059477806,0.07461530769032004,8.37007686495781,0.21967862267047167,21.098485589027405,0.0,0.0,0.0,0.0,0.0,0.0,0.0,0.0,0.0,0.0,0.0,0.0,0.0,0.0,0.0,0.0,False,0,4.16628623008728,0.03492578125
STABILIZE,0.778972864151001,29.866089420879113,0.032419474919637044,0.032533884048461914,0.0,0.0,0.0,0.9780634523519621,-0.2235192479295631,-11.851730587427786,0.0016172872785918024,0.010457550212809003,0.012883007954555985,0.4,0.12711588913068142,0.0014151801235400285,0.7476675245089242,0.0046554847529572015,0.18421380082145333,-0.0058119399909628555,1.6245698556303978,0.09141889372966044,3.140723705291748,-1.691356860101223,22.84485697746277,0.0,0.0,0.0,0.0,0.0,0.0,0.0,0.0,0.0,0.0,0.0,0.0,0.0,0.0,0.0,0.0,False,0,4.195410251617432,0.03492724609375
STABILIZE,0.8123764991760254,29.93771636176758,0.03237751324971517,0.03250598907470703,0.0,0.0,0.0,0.977648945246707,-0.22396707888744852,-11.851667408177963,0.0004666071721843816,0.012076582664311383,0.0016728697350812554,0.4,0.12925992723376442,0.0016667249986822537,0.744591065452733,0.0008507859371162533,0.35882003139704466,0.02976946998387575,1.2159490026533604,-0.21852700663630525,7.617417722940445,-0.0423495308496058,13.083887100219727,0.0,0.0,0.0,0.0,0.0,0.0,0.0,0.0,0.0,0.0,0.0,0.0,0.0,0.0,0.0,0.0,False,0,4.224210262298584,0.029936767578125
STABILIZE,0.8457775115966797,29.93793004996431,0.032416613896687825,0.03257584571838379,0.0,0.0,0.0,0.9778397636566443,-0.22433190703866238,-11.851970497822382,0.0013915652949654104,0.009963077020378752,-0.0015500932977819074,0.4,0.12740024724194385,0.00022760277821429003,0.743986517180491,-0.0017209940866286097,0.16211882466450334,-0.07407288649119437,1.5724783763289452,-0.14720248942418263,3.047952614724636,-1.7876869067549706,20.154771208763123,0.0,0.0,0.0,0.0,0.0,0.0,0.0,0.0,0.0,0.0,0.0,0.0,0.0,0.0,0.0,0.0,False,0,4.252739191055298,0.034926025390625
STABILIZE,0.8813755512237549,28.09124640010716,0.0325043519337972,0.03476524353027344,0.0,0.0,0.0,0.977927809063914,-0.22341181919248085,-11.8521941865177,0.000571243348002941,0.008951641631148982,-0.009244246892025975,0.4,0.1226344043291499,0.0013177084547688904,0.7421368826852405,-0.002405115702595662,-0.050747336354106665,0.07764605106785893,1.2662324123084545,-0.03358849244511577,-1.016233116388321,0.017203166498802602,17.07925796508789,0.0,0.0,0.0,0.0,0.0,0.0,0.0,0.0,0.0,0.0,0.0,0.0,0.0,0.0,0.0,0.0,False,1,4.281372547149658,0.03492724609375
STABILIZE,0.9149770736694336,29.761612147874832,0.032491477330525716,0.03261542320251465,0.0,0.0,0.0,0.9771785159676224,-0.22280095748880105,-11.852868667698239,0.0005973920954142925,0.01088310179119978,-0.014607641583661535,0.4,0.12623304226198992,0.00025493213198907785,0.7408615045650436,-0.00375801563712066,0.32069231383502483,-0.03055987472180277,1.3760039582848549,-0.21739463597711117,1.5497617423534393,-0.09681397932581604,15.07803350687027,0.0,0.0,0.0,0.0,0.0,0.0,0.0,0.0,0.0,0.0,0.0,0.0,0.0,0.0,0.0,0.0,False,0,4.338671684265137,0.02993701171875
STABILIZE,0.9483964443206787,29.924900649966823,0.032335551579793294,0.032468318939208984,0.0,0.0,0.0,0.976975531283226,-0.22219125638367163,-11.852765361087043,0.00016281446202697988,0.011487916065541922,-0.011248840010402392,0.4,0.12674185693626394,0.0008722918809141669,0.7395378183104676,-0.001242442211369686,0.2989883301779628,0.043927403748966753,1.5132006257772446,0.15014935586528613,6.442587822675705,0.16242556739598513,20.916150510311127,0.0,0.0,0.0,0.0,0.0,0.0,0.0,0.0,0.0,0.0,0.0,0.0,0.0,0.0,0.0,0.0,False,0,4.367568731307983,0.034926025390625
STABILIZE,0.9818992614746094,29.848023796985526,0.03234604199727376,0.03247499465942383,0.0,0.0,0.0,0.9773204558363117,-0.2228180463019393,-11.851976474237906,0.0004423561469037119,0.009509095187032622,-0.01588983768446501,0.4,0.12460748007066204,0.0004818454534598216,0.7410756430325222,-0.00603304265867354,0.10189652675762773,-0.014589546481147408,1.4524981379508972,-0.2812786092436437,6.006428226828575,0.36306686233729124,26.40071213245392,0.0,0.0,0.0,0.0,0.0,0.0,0.0,0.0,0.0,0.0,0.0,0.0,0.0,0.0,0.0,0.0,False,0,4.396111726760864,0.034927001953125
STABILIZE,1.0151917934417725,30.033970154383756,0.032299073537190755,0.03240227699279785,0.0,0.0,0.0,0.9769429811629627,-0.22337170517132024,-11.852686813911587,6.062582895818472e-05,0.00918259555371219,-0.022857759202484937,0.4,0.12242985610558195,0.0001014414284069408,0.7425725245364901,-0.010865437866884084,0.10189652675762773,-0.014589546481147408,1.4524981379508972,-0.2812786092436437,6.006428226828575,0.36306686233729124,26.40071213245392,0.0,0.0,0.0,0.0,0.0,0.0,0.0,0.0,0.0,0.0,0.0,0.0,0.0,0.0,0.0,0.0,False,0,4.424909353256226,0.034927001953125
STABILIZE,1.0487070083618164,29.838680762061948,0.032447131474812825,0.03257608413696289,0.0,0.0,0.0,0.9768798019131401,-0.22262569376748148,-11.852884035623871,0.0001433341192124391,0.010625495999877936,-0.023026841253849826,0.4,0.12157137876569167,0.0007830963175263414,0.7462638619953013,-0.011418189036960315,0.1814471324905753,0.04739289579447359,1.584400236606598,-0.027922800502790605,0.8162809535861015,0.11726048542186618,18.524008989334106,0.0,0.0,0.0,0.0,0.0,0.0,0.0,0.0,0.0,0.0,0.0,0.0,0.0,0.0,0.0,0.0,False,0,4.4535558223724365,0.02993701171875
STABILIZE,1.0821478366851807,29.903565495754343,0.032377036412556966,0.032489776611328125,0.0,0.0,0.0,0.977723650440754,-0.2230103721559707,-11.852632172398227,-0.0016574385215924275,0.00864543558449908,-0.020745893592517356,0.4,0.1206295891852471,0.0037734514238433525,0.7448804897829612,-0.011478380585399113,0.008470860484521836,0.10306494077667594,1.3521750457584858,-0.15685097206025866,-2.7754943817853928,0.13934958260506392,20.702733099460602,0.0,0.0,0.0,0.0,0.0,0.0,0.0,0.0,0.0,0.0,0.0,0.0,0.0,0.0,0.0,0.0,False,0,4.510875701904297,0.034927001953125
STABILIZE,1.116377592086792,29.213331011666376,0.03237179120381673,0.0325009822845459,0.0,0.0,0.0,0.978208060263296,-0.22274450170644267,-11.852950629968278,-0.0021776565321955203,0.006575863414860699,-0.031424100394063015,0.4,0.11689720503961487,0.005445758225591686,0.7448270974896086,-0.01410103854391902,0.008470860484521836,0.10306494077667594,1.3521750457584858,-0.15685097206025866,-2.7754943817853928,0.13934958260506392,20.702733099460602,0.0,0.0,0.0,0.0,0.0,0.0,0.0,0.0,0.0,0.0,0.0,0.0,0.0,0.0,0.0,0.0,False,0,4.539535045623779,0.034927001953125
STABILIZE,1.1490120887756348,30.64152597473755,0.03159836133321126,0.03177285194396973,0.0,0.0,0.0,0.9782286575525119,-0.22314967066244193,-11.852513497861398,-0.0028975612735569057,0.009154344416282168,-0.01695078736450996,0.4,0.12014036365698251,0.006647560240318503,0.7442234131660818,-0.01168697402276396,0.4222472198307514,0.07456470048055053,1.3252226635813713,0.13965601084539125,7.135521620512009,0.07380277966149151,21.982836723327637,0.0,0.0,0.0,0.0,0.0,0.0,0.0,0.0,0.0,0.0,0.0,0.0,0.0,0.0,0.0,0.0,False,0,4.568207502365112,0.02993701171875
STABILIZE,1.182586669921875,29.78697535686386,0.03246596654256185,0.03257465362548828,0.0,0.0,0.0,0.9777613232028949,-0.2228573332298801,-11.852215530858857,-0.0033989562984742773,0.009774310295009917,-0.011468545739090492,0.4,0.11955703960765411,0.007409473947226676,0.7406961230895112,-0.01302186120325238,0.2255480270832777,0.05347102996893227,1.368292048573494,-0.09371131599048566,5.0290171056985855,0.01795837888494134,20.059116184711456,0.0,0.0,0.0,0.0,0.0,0.0,0.0,0.0,0.0,0.0,0.0,0.0,0.0,0.0,0.0,0.0,False,0,4.596941232681274,0.069851806640625
STABILIZE,1.2159349918365479,29.98544445874262,0.03226450284322103,0.0323946475982666,0.0,0.0,0.0,0.978331110390062,-0.22270749595496295,-11.852836224299681,-0.0038519375301491665,0.013323651725633004,-0.02710594310973273,0.4,0.12582206290383124,0.008962525258980456,0.762194456791509,-0.019969744690621904,0.36196447908878326,0.059434823924675584,1.1822396889328957,-0.33467937605233056,10.045159608125687,-0.12854434316977859,16.462744772434235,0.0,0.0,0.0,0.0,0.0,0.0,0.0,0.0,0.0,0.0,0.0,0.0,0.0,0.0,0.0,0.0,False,0,4.625593900680542,0.029937255859375
STABILIZE,1.2493937015533447,29.886732221747184,0.03242019017537435,0.03253984451293945,0.0,0.0,0.0,0.978446369832306,-0.22296672297830608,-11.852539111070787,-0.0030699729103668633,0.014478465182367208,-0.04031253734902412,0.4,0.12730855431799024,0.009787950519653905,0.7527851189301884,-0.025531609695782376,0.36196447908878326,0.059434823924675584,1.1822396889328957,-0.33467937605233056,10.045159608125687,-0.12854434316977859,16.462744772434235,0.0,0.0,0.0,0.0,0.0,0.0,0.0,0.0,0.0,0.0,0.0,0.0,0.0,0.0,0.0,0.0,False,0,4.654213905334473,0.029937255859375
STABILIZE,1.2827835083007812,29.94968760041415,0.03240850766499837,0.03251504898071289,0.0,0.0,0.0,0.9763772494006152,-0.22281168302023208,-11.85297112053579,-0.002456075447324935,0.015054213853019974,-0.02403327223339482,0.4,0.12543680203292548,0.009829282718605925,0.7473441700772896,-0.02065393394318363,0.3021076088771224,0.07099652430042624,1.3902140781283379,0.08712237123639187,5.0915587693452835,0.060060492251068354,22.325430810451508,0.0,0.0,0.0,0.0,0.0,0.0,0.0,0.0,0.0,0.0,0.0,0.0,0.0,0.0,0.0,0.0,False,0,4.71161150932312,0.034926025390625
STABILIZE,1.3165264129638672,29.635441249205115,0.03245070775349935,0.03289222717285156,0.0,0.0,0.0,0.9771731798823333,-0.2232852205689976,-11.852552771449126,-0.0016139702611639864,0.01376897978126873,-0.02659803800582796,0.4,0.12563531782689163,0.009035817243177688,0.7440699752964275,-0.01986834207327003,0.24746069684624672,-0.0342765444656834,1.2584460899233818,0.023777692764652754,3.6741800606250763,-0.08958214311860502,18.7677264213562,0.0,0.0,0.0,0.0,0.0,0.0,0.0,0.0,0.0,0.0,0.0,0.0,0.0,0.0,0.0,0.0,False,0,4.7403364181518555,0.029937255859375
STABILIZE,1.3499784469604492,29.894400729843767,0.03240850766499837,0.032521724700927734,0.0,0.0,0.0,0.9776710366398038,-0.22390384627677298,-11.853280186595732,-0.0017999300481558885,0.014647265562456914,-0.028899734922535412,0.4,0.12687292105534226,0.010076647189774026,0.7377537987884852,-0.021830246465273852,0.3413056256249547,0.07460328051820397,1.2744653970003128,-0.1437858340342292,7.325012981891632,-0.16710245981812477,15.98217636346817,0.0,0.0,0.0,0.0,0.0,0.0,0.0,0.0,0.0,0.0,0.0,0.0,0.0,0.0,0.0,0.0,False,0,4.7691991329193115,0.0349267578125
STABILIZE,1.3834891319274902,29.841440595362602,0.03244951566060384,0.0325617790222168,0.0,0.0,0.0,0.9782215071982244,-0.2228647370482187,-11.853306653578766,-0.0013225939015937224,0.012420194297617308,-0.011613291467127272,0.4,0.127640835239378,0.0103451753847175,0.7405213651750451,-0.01981347576968705,0.27520989533513784,0.026422410155646503,1.5697386115789413,0.09191258834060544,3.119099885225296,0.08499188697896898,22.500908374786377,0.0,0.0,0.0,0.0,0.0,0.0,0.0,0.0,0.0,0.0,0.0,0.0,0.0,0.0,0.0,0.0,False,0,4.797818422317505,0.034926025390625
STABILIZE,1.4188392162322998,28.28809409796926,0.03237655957539876,0.034421682357788086,0.0,0.0,0.0,0.9784860703068566,-0.2241379936992575,-11.853149559227855,-0.0011149978392807674,0.012171143000098101,0.0031173416651733357,0.4,0.1283993419985098,0.010598836208657583,0.7433641678820018,-0.01774488401554992,0.27520989533513784,0.026422410155646503,1.5697386115789413,0.09191258834060544,3.119099885225296,0.08499188697896898,22.500908374786377,0.0,0.0,0.0,0.0,0.0,0.0,0.0,0.0,0.0,0.0,0.0,0.0,0.0,0.0,0.0,0.0,False,0,4.8273022174835205,0.034926025390625
STABILIZE,1.452284336090088,29.900154693927014,0.032396825154622395,0.032515764236450195,0.0,0.0,0.0,0.9773899316667755,-0.22398223336966946,-11.853755738516695,-0.0003639917786672302,0.013924239694774306,-0.003794311183748166,0.4,0.13029625881008505,0.009013709617421931,0.7393099728083816,-0.01697247032624934,0.3404682269319892,-0.07700587157160044,1.176079548895359,0.01636572022073235,6.266407668590546,-2.0091956481337547,17.68975406885147,0.0,0.0,0.0,0.0,0.0,0.0,0.0,0.0,0.0,0.0,0.0,0.0,0.0,0.0,0.0,0.0,False,0,4.855856418609619,0.02993701171875
STABILIZE,1.4857749938964844,29.859073111696446,0.032390626271565755,0.03253626823425293,0.0,0.0,0.0,0.9776562023227001,-0.22417529293542812,-11.853388615848806,-0.0005355269531271,0.01471294311952566,-0.0006390463040800345,0.4,0.13200132759604188,0.008723429814894297,0.7294704432579494,-0.01507010006852872,0.11612831149250269,0.02826850686687976,1.3235089369118214,-0.09741211792208218,-3.134506195783615,-0.08969689952209592,14.924204349517822,0.0,0.0,0.0,0.0,0.0,0.0,0.0,0.0,0.0,0.0,0.0,0.0,0.0,0.0,0.0,0.0,False,0,4.913487672805786,0.034927001953125
STABILIZE,1.5191795825958252,29.934084129091193,0.03236559232076009,0.032547950744628906,0.0,0.0,0.0,0.9784807342215677,-0.22377076430966353,-11.853407398869024,0.0005237530704916018,0.012497487973305002,0.007944872883225165,0.4,0.12865380938582432,0.007307917991302706,0.7316747407963705,-0.012953713195880512,0.04051256109960377,-0.06685833795927465,1.5119428746402264,0.09306919816722511,3.4285180270671844,0.055240519577637315,19.20301467180252,0.0,0.0,0.0,0.0,0.0,0.0,0.0,0.0,0.0,0.0,0.0,0.0,0.0,0.0,0.0,0.0,False,0,4.942126512527466,0.02993701171875
STABILIZE,1.5526514053344727,29.87715211739146,0.032477649052937825,0.03258705139160156,0.0,0.0,0.0,0.9773351834317096,-0.22352946653289169,-11.853700243229689,0.00010066531721423452,0.01179311581255747,0.004327921558275445,0.4,0.12789207353383036,0.008444361142187516,0.7261963128149772,-0.01295385577004043,0.22852381225675344,0.08282626513391733,1.2645439244806767,-0.03135577097351537,1.987730711698532,0.11284493375569582,21.608588099479675,0.0,0.0,0.0,0.0,0.0,0.0,0.0,0.0,0.0,0.0,0.0,0.0,0.0,0.0,0.0,0.0,False,0,4.973492622375488,0.034926025390625
STABILIZE,1.5860891342163086,29.9054844137695,0.032434972127278645,0.03255891799926758,0.0,0.0,0.0,0.977932184653851,-0.22378026254147806,-11.853287870558548,-0.0003531417703625081,0.011461285568198053,0.0006914177862779921,0.4,0.1278218089752628,0.009623517786245322,0.7244921706922041,-0.013005892002763036,0.22852381225675344,0.08282626513391733,1.2645439244806767,-0.03135577097351537,1.987730711698532,0.11284493375569582,21.608588099479675,0.0,0.0,0.0,0.0,0.0,0.0,0.0,0.0,0.0,0.0,0.0,0.0,0.0,0.0,0.0,0.0,False,0,4.999432802200317,0.034926025390625
STABILIZE,1.6201679706573486,29.344546046049548,0.032444270451863606,0.03315544128417969,0.0,0.0,0.0,0.9774427589111372,-0.2241138745937509,-11.853432158304765,-0.001255589887012988,0.01034680125208922,-0.0007284990533976687,0.4,0.12717337617889277,0.010248940521230043,0.719832289527045,-0.013020512758138952,0.19608379807323217,0.05037951050326228,1.0947986505925655,-0.02870074837708448,1.1839652433991432,-0.1679061446338892,14.413394033908844,0.0,0.0,0.0,0.0,0.0,0.0,0.0,0.0,0.0,0.0,0.0,0.0,0.0,0.0,0.0,0.0,False,0,5.0281946659088135,0.034926025390625
STABILIZE,1.6536204814910889,29.89312237189081,0.0323980172475179,0.03254055976867676,0.0,0.0,0.0,0.9774760560833411,-0.22433895067124396,-11.853724148891782,-0.0010012221021889875,0.009371394265624687,-0.012168363905388302,0.4,0.12664891688111748,0.009456693242715843,0.7183286051617583,-0.01637701789604355,0.20446490962058306,-0.03152603458147496,1.2800252065062523,-0.2218897408844126,-0.4580390639603138,-2.0271072164177895,19.857625663280487,0.0,0.0,0.0,0.0,0.0,0.0,0.0,0.0,0.0,0.0,0.0,0.0,0.0,0.0,0.0,0.0,False,0,5.05680513381958,0.02993701171875
STABILIZE,1.6872389316558838,29.74599302147457,0.03240969975789388,0.03278970718383789,0.0,0.0,0.0,0.9716159672188817,-0.209063085850165,-11.857033375544654,-0.0002109750803919407,0.009493654473863612,-0.006444676246284923,0.4,0.12411443519986891,0.006548263893572323,0.7146105353938934,-0.01238089403156787,0.1776640536263585,-0.06808883626945317,1.3437424786388874,0.0878955299741388,-1.9568461924791336,-0.1464233617298305,20.900321006774902,0.0,0.0,0.0,0.0,0.0,0.0,0.0,0.0,0.0,0.0,0.0,0.0,0.0,0.0,0.0,0.0,False,0,5.115007638931274,0.034927001953125
STABILIZE,1.722170352935791,28.62654417887222,0.032500537236531575,0.03407573699951172,0.0,0.0,0.0,0.9693189959453475,-0.21645980719531857,-11.859322342690255,0.0008115106093156972,0.009361309198272135,-0.001617410514288326,0.4,0.12318734054306645,0.005249227459532491,0.7118282661794414,-0.010299505509596747,0.17933539347723126,-0.05966845201328397,1.1834906414151192,0.09414137778435844,4.821346700191498,-2.1671462804079056,16.88441038131714,0.0,0.0,0.0,0.0,0.0,0.0,0.0,0.0,0.0,0.0,0.0,0.0,0.0,0.0,0.0,0.0,False,0,5.143812417984009,0.034926025390625
STABILIZE,1.7557930946350098,29.743883586026918,0.03246906598409017,0.032590389251708984,0.0,0.0,0.0,0.9722380480418817,-0.22261771631997432,-11.862954295781408,0.0013850356175449296,0.007825644655927012,-0.004169130807555507,0.4,0.12010107485245192,0.00499997324437749,0.7139655755229773,-0.011404833638154033,0.053958792705088854,0.0017460013623349369,1.4721870422363281,-0.09227649601710695,0.9989006444811821,-2.07240991294384,20.520098507404327,0.0,0.0,0.0,0.0,0.0,0.0,0.0,0.0,0.0,0.0,0.0,0.0,0.0,0.0,0.0,0.0,False,0,5.172738313674927,0.034927001953125
STABILIZE,1.7891576290130615,29.97066032140739,0.03226474126180013,0.0324101448059082,0.0,0.0,0.0,0.9739854025306414,-0.22340765704595536,-11.86197245608822,0.004517115429929905,0.005636125330260823,-0.1399531183442553,0.4,0.11527181736539749,-0.0012308049156802697,0.7383198837078727,-0.06815656686213126,-0.046205014223232865,-0.3471733536571264,2.764229476451874,-3.3307639468715204,-5.804606154561043,-8.612659573554993,118.41037273406982,0.0,0.0,0.0,0.0,0.0,0.0,0.0,0.0,0.0,0.0,0.0,0.0,0.0,0.0,0.0,0.0,False,0,5.201463222503662,0.02993701171875
STABILIZE,1.8225951194763184,29.906337345274085,0.03238943417867025,0.03250622749328613,0.0,0.0,0.0,0.9801913764435385,-0.23424043045108814,-11.851688752519118,0.0035213426805848543,-0.0001287883020375411,-0.11227690578234417,0.4,0.10349835035092506,0.00023800396750929542,0.7277108646787487,-0.059110940505504514,-0.43166065588593483,0.09817784884944558,0.9282780811190605,0.4766172170292482,28.50002646446228,-3.9512742310762405,25.74717104434967,0.0,0.0,0.0,0.0,0.0,0.0,0.0,0.0,0.0,0.0,0.0,0.0,0.0,0.0,0.0,0.0,False,0,5.23005223274231,0.034926025390625
STABILIZE,1.8580117225646973,28.235344804372996,0.032390864690144856,0.03250241279602051,0.0,0.0,0.0,0.9704169488544271,-0.22542804567874367,-11.855460724488259,0.003034720676525379,-0.004525402032057865,-0.1711690631254395,0.4,0.09278220522473239,-0.0011464435183784077,0.7553710471725198,-0.08072823961521126,-0.39407857693731785,-0.06628151750192046,2.9500899836421013,-1.2868359208824343,-7.574020326137543,2.5345928966999054,93.10656785964966,0.0,0.0,0.0,0.0,0.0,0.0,0.0,0.0,0.0,0.0,0.0,0.0,0.0,0.0,0.0,0.0,False,1,5.259740114212036,0.034823486328125
STABILIZE,1.8896565437316895,31.600033149754015,0.03040006955464681,0.030766010284423828,0.0,0.0,0.0,0.9730380339484195,-0.21962441259664267,-11.873902235247293,-0.006002287327614573,0.0003244425671014869,-0.08660235411715596,0.4,0.10161271746351017,0.017419448425256966,0.7202045371983413,-0.04371766299901725,0.8333159610629082,1.2430527247488499,-0.6199246738106012,-0.16028693073874534,21.13666832447052,25.737616419792175,-19.788996875286102,0.0,0.0,0.0,0.0,0.0,0.0,0.0,0.0,0.0,0.0,0.0,0.0,0.0,0.0,0.0,0.0,False,0,5.316226243972778,0.03492578125
STABILIZE,1.9236056804656982,29.458105659423243,0.03245666821797689,0.03303050994873047,0.0,0.0,0.0,0.9758459887492352,-0.2292984150606137,-11.83618422310319,-0.015713782953661,0.006867423109324225,-0.08901285666924753,0.4,0.11202920799753698,0.03839547930778407,0.6872270028021705,-0.0455708004592755,0.8333159610629082,1.2430527247488499,-0.6199246738106012,-0.16028693073874534,21.13666832447052,25.737616419792175,-19.788996875286102,0.0,0.0,0.0,0.0,0.0,0.0,0.0,0.0,0.0,0.0,0.0,0.0,0.0,0.0,0.0,0.0,False,0,5.344796895980835,0.03492578125
STABILIZE,1.957139492034912,29.819376213057296,0.03240016301472982,0.032526254653930664,0.0,0.0,0.0,0.9729637556411956,-0.23061103868087263,-11.857959719950838,-0.021750706770989222,0.00965379032471606,0.044149250213093724,0.4,0.11353094097419907,0.0462064620800747,0.6650460807205605,-0.03242992611314925,0.2975923474878073,0.4567219875752926,0.04116431518923491,0.7217416072836046,13.016153872013092,40.61322510242462,12.355248630046844,0.0,0.0,0.0,0.0,0.0,0.0,0.0,0.0,0.0,0.0,0.0,0.0,0.0,0.0,0.0,0.0,False,0,5.373547315597534,0.064863037109375
STABILIZE,1.990713119506836,29.786763818167614,0.03231194814046224,0.03245377540588379,0.0,0.0,0.0,0.972158326927663,-0.22465468683779838,-11.883964811442015,-0.026855809289010844,0.008012011620592077,-0.00011632677370880182,0.4,0.10059261555567331,0.058439327659638024,0.6773488941801312,-0.04413483552418759,-0.6735020317137241,0.47609424218535423,1.1927908286452293,-0.6587121947359038,-20.352254807949066,-31.32178485393524,23.214522004127502,0.0,0.0,0.0,0.0,0.0,0.0,0.0,0.0,0.0,0.0,0.0,0.0,0.0,0.0,0.0,0.0,False,0,5.407663583755493,0.03492724609375
STABILIZE,2.024184226989746,29.87821627012395,0.03219202359517415,0.03232169151306152,0.0,0.0,0.0,0.9978597951658921,-0.24600484432705333,-11.866972154560669,-0.014725885481448242,0.007282272801317235,0.12289311607692222,0.4,0.09036728736117626,0.031116683212505346,0.6627214037372435,-0.008972787880038725,-0.32523367553949356,-1.456400565803051,0.6305302493274212,1.8559941970374219,-7.0802271366119385,-22.783634066581726,-5.463059619069099,0.0,0.0,0.0,0.0,0.0,0.0,0.0,0.0,0.0,0.0,0.0,0.0,0.0,0.0,0.0,0.0,False,0,5.434368371963501,0.034926025390625
STABILIZE,2.0573837757110596,30.116998283871986,0.03216532071431478,0.032285213470458984,0.0,0.0,0.0,0.9759478012565507,-0.2430852586219902,-11.871944532276439,0.005228985245106269,-0.0015516744669939683,0.14151077427831865,0.4,0.08021407371454424,0.0035472148201677045,0.6484261874913483,0.026335613606851663,-0.32523367553949356,-1.456400565803051,0.6305302493274212,1.8559941970374219,-7.0802271366119385,-22.783634066581726,-5.463059619069099,0.0,0.0,0.0,0.0,0.0,0.0,0.0,0.0,0.0,0.0,0.0,0.0,0.0,0.0,0.0,0.0,False,0,5.463130235671997,0.034926025390625
STABILIZE,2.0911412239074707,29.62392908853339,0.03242472012837728,0.03285789489746094,0.0,0.0,0.0,0.9693155808507625,-0.22805572083806805,-11.920749648990764,0.008519694271499128,-0.001598933474971796,0.07688956002119841,0.4,0.08864255300225347,0.013875978717784506,0.6446500024241036,-0.002219704532745906,0.6862144451588392,0.6229161750525236,1.1874881573021412,-1.6384347427259442,17.58480966091156,69.97252106666565,8.72536301612854,0.0,0.0,0.0,0.0,0.0,0.0,0.0,0.0,0.0,0.0,0.0,0.0,0.0,0.0,0.0,0.0,False,1,5.4924798011779785,0.029936767578125
STABILIZE,2.124692678451538,29.805602535495517,0.032408746083577473,0.03255796432495117,0.0,0.0,0.0,0.9532003898343522,-0.22252067960899252,-11.84138199706157,0.02172630079069434,-0.008173151111276401,-0.03059367777575643,0.4,0.07696276921690247,-0.008100566758970057,0.6265511933203081,-0.0373167627892276,-0.9013556875288486,-1.7753906548023224,0.7836539298295975,-0.41997880715184305,26.317784190177917,-25.470560789108276,71.05226516723633,0.0,0.0,0.0,0.0,0.0,0.0,0.0,0.0,0.0,0.0,0.0,0.0,0.0,0.0,0.0,0.0,False,0,5.54988694190979,0.06985302734375
STABILIZE,2.1581757068634033,29.866302087783758,0.032328160603841145,0.03248119354248047,0.0,0.0,0.0,0.9608382488737189,-0.21711112976570277,-11.88993354300296,0.008495146986929568,-0.00013898930828290683,0.10047971882766998,0.4,0.08207273551664317,0.030730774759896714,0.6013476883410763,0.00868796772508671,0.44940225780010223,2.2012917324900627,-0.8285424672067165,2.4523593578123912,6.4338549971580505,100.17529726028442,-20.527352392673492,0.0,0.0,0.0,0.0,0.0,0.0,0.0,0.0,0.0,0.0,0.0,0.0,0.0,0.0,0.0,0.0,False,0,5.578472375869751,0.029937255859375
STABILIZE,2.1915743350982666,29.93857113285795,0.03225854237874349,0.03248023986816406,0.0,0.0,0.0,0.9668697327976633,-0.22574431545382698,-11.877582853436284,0.007654139804151276,-0.029962517026092518,0.041860145541135874,0.4,0.014888872550925691,0.009601812930748285,0.6041076896494028,0.01056676557948135,-3.34373377263546,-1.0738569311797619,1.6335850581526756,0.06356323452001961,-67.40275621414185,-100.06985664367676,75.79196095466614,0.0,0.0,0.0,0.0,0.0,0.0,0.0,0.0,0.0,0.0,0.0,0.0,0.0,0.0,0.0,0.0,False,0,5.607245206832886,0.0349267578125
STABILIZE,2.225093126296997,29.835496973275195,0.032480748494466145,0.03260397911071777,0.0,0.0,0.0,0.9627017165783688,-0.22023291308258205,-11.849147068374227,0.006556301427406909,-0.05964449511546883,-0.01603566894819191,0.4,-0.051837321182905245,-0.011136252385446022,0.6093821346326681,0.012854160495142373,-3.34373377263546,-1.0738569311797619,1.6335850581526756,0.06356323452001961,-67.40275621414185,-100.06985664367676,75.79196095466614,0.0,0.0,0.0,0.0,0.0,0.0,0.0,0.0,0.0,0.0,0.0,0.0,0.0,0.0,0.0,0.0,False,0,5.635911464691162,0.0349267578125
STABILIZE,2.2585651874542236,29.875449630679594,0.03240063985188802,0.03251791000366211,0.0,0.0,0.0,0.9753058701962752,-0.22760794324103553,-11.881338603706144,0.014208381729013647,-0.034191204113394824,-0.032485185807660605,0.4,0.005085278541720348,-0.01910394633380579,0.6217808364762836,-0.015219986264597533,3.2136738300323486,-0.3980431240051985,1.9880745559930801,-1.5449087489775482,104.02092933654785,32.91154205799103,63.32685351371765,0.0,0.0,0.0,0.0,0.0,0.0,0.0,0.0,0.0,0.0,0.0,0.0,0.0,0.0,0.0,0.0,False,0,5.664575815200806,0.034926025390625
STABILIZE,2.291942596435547,29.9597422820326,0.032366069157918294,0.032495975494384766,0.0,0.0,0.0,0.9745346991502986,-0.21764919392582638,-11.90167719950715,0.008870067888432996,-0.04902439404209265,-0.06969712711342504,0.4,-0.03367326841194267,-0.026080683670312136,0.6192027129299879,-0.05704225751893857,-1.9269047304987907,-0.3520895726978779,1.168286893516779,-2.278465089421394,-86.3772451877594,-29.85922396183014,20.420654118061066,0.0,0.0,0.0,0.0,0.0,0.0,0.0,0.0,0.0,0.0,0.0,0.0,0.0,0.0,0.0,0.0,False,1,5.694112300872803,0.064864013671875
STABILIZE,2.3254644870758057,29.831677323451803,0.03244736989339193,0.0325779914855957,0.0,0.0,0.0,0.9667122115599298,-0.22236986849851012,-11.869962923643488,0.03492093468697296,-0.11241801322008117,-0.09086021664591008,0.4,-0.15411048378136682,-0.04976822894861342,0.627912587364735,-0.031432514668631506,-2.783641591668129,-0.48231021501123905,0.4608950577676296,3.7493004368501537,18.348100781440735,8.673720061779022,-20.160266757011414,0.0,0.0,0.0,0.0,0.0,0.0,0.0,0.0,0.0,0.0,0.0,0.0,0.0,0.0,0.0,0.0,False,0,5.7525694370269775,0.034925537109375
STABILIZE,2.358901262283325,29.905697642084547,0.03237131436665853,0.032510995864868164,0.0,0.0,0.0,0.9624707708070578,-0.2130285976327392,-11.92970658831359,0.02015892558773046,-0.03636649283482287,-0.36077002629178656,0.4,-0.05965216650996001,-0.035659420569175336,0.6152100544295623,-0.14280729367224704,4.367560893297195,0.6159765180200338,0.816262885928154,-5.3540247809275,-23.223179578781128,-42.96852946281433,23.8581120967865,0.0,0.0,0.0,0.0,0.0,0.0,0.0,0.0,0.0,0.0,0.0,0.0,0.0,0.0,0.0,0.0,False,0,5.7799973487854,0.034927001953125
STABILIZE,2.392411708831787,29.844838014188433,0.03240326245625814,0.03252243995666504,0.0,0.0,0.0,0.9539368763259499,-0.2103009375753108,-11.897967553014187,0.005962655655594293,0.0384804472187923,-0.624331787909662,0.4,0.03254260422888357,-0.0218655475231324,0.6033048838705286,-0.25117757134440977,4.367560893297195,0.6159765180200338,0.816262885928154,-5.3540247809275,-23.223179578781128,-42.96852946281433,23.8581120967865,0.0,0.0,0.0,0.0,0.0,0.0,0.0,0.0,0.0,0.0,0.0,0.0,0.0,0.0,0.0,0.0,False,0,5.808862209320068,0.034927001953125
STABILIZE,2.425877332687378,29.88247363921345,0.03232243855794271,0.03245282173156738,0.0,0.0,0.0,0.9476230067685079,-0.211278695163254,-11.891478873302674,0.024754096585905598,-0.008648128709128912,-0.3373106237903861,0.4,-0.013188820042194904,-0.06948472194778256,0.5991200451562558,-0.15231656278851985,-2.2327033802866936,-2.3571688681840897,1.1564170010387897,4.584547621864911,-66.649729013443,-76.94416046142578,9.493324905633926,0.0,0.0,0.0,0.0,0.0,0.0,0.0,0.0,0.0,0.0,0.0,0.0,0.0,0.0,0.0,0.0,False,0,5.838366985321045,0.02993701171875
STABILIZE,2.4592387676239014,29.971731145760387,0.032299073537190755,0.03241395950317383,0.0,0.0,0.0,0.9404890876238411,-0.2102103041666759,-11.939529254113715,0.04287369341079415,-0.01478022481475852,-0.030030890947181713,0.4,-0.05717801531696077,-0.11437150345713408,0.5931579173366155,-0.055321177537256974,-2.2327033802866936,-2.3571688681840897,1.1564170010387897,4.584547621864911,-66.649729013443,-76.94416046142578,9.493324905633926,0.0,0.0,0.0,0.0,0.0,0.0,0.0,0.0,0.0,0.0,0.0,0.0,0.0,0.0,0.0,0.0,False,0,5.866968631744385,0.02993701171875
STABILIZE,2.4926669597625732,29.91486933698505,0.032389195760091145,0.032514095306396484,0.0,0.0,0.0,0.9349795795628737,-0.20498143417127412,-11.920050408374484,0.03882921489655764,0.05516028649121858,-0.03374436500849388,0.4,-0.018790032178141902,-0.12538254698862344,0.5968271818109959,-0.037685770796653265,1.8963465467095375,-0.726280128583312,1.6182292252779007,0.7490551068876624,58.472830057144165,-70.18317580223083,25.96239149570465,0.0,0.0,0.0,0.0,0.0,0.0,0.0,0.0,0.0,0.0,0.0,0.0,0.0,0.0,0.0,0.0,False,0,5.895653486251831,0.06985205078125
STABILIZE,2.526097297668457,29.915509432616524,0.03240469296773275,0.03251767158508301,0.0,0.0,0.0,0.9409112786919125,-0.20354674760002767,-11.921450597154337,0.05045732279715085,0.020115497557544375,0.24451332536892872,0.4,-0.010030153556678346,-0.13869413600924138,0.606305826831498,-0.004898017047444515,-0.31264235731214285,1.2232636101543903,1.2717563658952713,-0.6329598736048698,2.5923576205968857,38.986340165138245,20.384474098682404,0.0,0.0,0.0,0.0,0.0,0.0,0.0,0.0,0.0,0.0,0.0,0.0,0.0,0.0,0.0,0.0,False,0,5.9531776905059814,0.034926025390625
STABILIZE,2.5596485137939453,29.807297070653952,0.0323975404103597,0.03252768516540527,0.0,0.0,0.0,0.9518054304180829,-0.2020191998045381,-11.93748958887282,0.042783856813074006,-0.021368599420357987,0.4136615932454792,0.4,-0.015695007868582227,-0.11057409671272539,0.6052099564918032,-0.015466586385634876,-0.31264235731214285,1.2232636101543903,1.2717563658952713,-0.6329598736048698,2.5923576205968857,38.986340165138245,20.384474098682404,0.0,0.0,0.0,0.0,0.0,0.0,0.0,0.0,0.0,0.0,0.0,0.0,0.0,0.0,0.0,0.0,False,0,5.981788635253906,0.034926025390625
STABILIZE,2.593036651611328,29.947335351573656,0.03229192097981771,0.03241562843322754,0.0,0.0,0.0,0.9553317290205134,-0.198317944305692,-11.917920243127087,0.017329616849643674,0.010510454032181126,0.3404794828080424,0.4,0.00930390414059962,-0.09558807894234396,0.5979079763480031,0.02802553058164963,1.2309258803725243,0.5818021949380636,0.9384864009916782,2.094860426464754,49.41314458847046,-5.302726849913597,-21.74708843231201,0.0,0.0,0.0,0.0,0.0,0.0,0.0,0.0,0.0,0.0,0.0,0.0,0.0,0.0,0.0,0.0,False,0,6.0103960037231445,0.03492626953125
STABILIZE,2.626461982727051,29.917003095621904,0.032358439763387044,0.032485008239746094,0.0,0.0,0.0,0.9670365388237997,-0.20269143982925547,-11.904657723306213,-0.006941558858496255,0.030902024818484915,0.2738407264258556,0.4,0.013215509879456092,-0.08095068086301777,0.5927008504405739,0.07289545519696682,0.177821796387434,0.5756976548582315,1.0215993039309978,2.21435501288095,22.18548208475113,23.70939999818802,10.237692296504974,0.0,0.0,0.0,0.0,0.0,0.0,0.0,0.0,0.0,0.0,0.0,0.0,0.0,0.0,0.0,0.0,False,0,6.039016246795654,0.064864013671875
STABILIZE,2.6599953174591064,29.8244650970967,0.0323977788289388,0.03251981735229492,0.0,0.0,0.0,0.9619660838604173,-0.2059541758390456,-11.934044612210194,-0.01867634130454081,0.0239904843091033,0.13549440996363457,0.4,0.03122004981058131,-0.0648087600930419,0.6136068328479779,0.028319340969725368,0.749996630474925,0.7171244360506535,1.5185223892331123,-2.63796462586561,53.3991277217865,12.470497190952301,23.552200198173523,0.0,0.0,0.0,0.0,0.0,0.0,0.0,0.0,0.0,0.0,0.0,0.0,0.0,0.0,0.0,0.0,False,0,6.067835569381714,0.03492578125
STABILIZE,2.6965420246124268,27.358855107725024,0.03227213223775228,0.03555583953857422,0.0,0.0,0.0,0.9455390520197134,-0.2118742156217277,-11.87480723531232,-0.031665738555772434,0.027529740317545116,-0.04488857212270524,0.4,0.04642493583210758,-0.04658734826943156,0.6171689766861377,-0.025953611806969062,0.749996630474925,0.7171244360506535,1.5185223892331123,-2.63796462586561,53.3991277217865,12.470497190952301,23.552200198173523,0.0,0.0,0.0,0.0,0.0,0.0,0.0,0.0,0.0,0.0,0.0,0.0,0.0,0.0,0.0,0.0,False,1,6.096436023712158,0.03492578125
STABILIZE,2.73004412651062,29.849510728391987,0.032361539204915364,0.03247976303100586,0.0,0.0,0.0,0.9318984171952576,-0.21636447803162928,-11.888599948567514,-0.00818742900669099,0.05994496279357839,-0.301694016240612,0.4,0.10547983075486678,-0.07336649647624031,0.6217052763736549,-0.14113624986181428,1.5412074513733387,-0.8303020149469376,1.5114469453692436,-2.95381583841886,-48.37031364440918,5.038774386048317,42.35665798187256,0.0,0.0,0.0,0.0,0.0,0.0,0.0,0.0,0.0,0.0,0.0,0.0,0.0,0.0,0.0,0.0,False,0,6.154565811157227,0.029937255859375
STABILIZE,2.7650020122528076,28.604678442337857,0.032286914189656575,0.03357648849487305,0.0,0.0,0.0,0.9363480719961093,-0.22273138827684477,-11.866187536579764,-0.008035922934435395,0.03745615762761228,-0.35723299242773127,0.4,0.08118722608414172,-0.060912247563532695,0.6095961426680442,-0.13149443931635207,-1.1351756751537323,0.4754449240863323,0.8163957856595516,0.3247732538782849,-9.762610495090485,6.311413645744324,17.416298389434814,0.0,0.0,0.0,0.0,0.0,0.0,0.0,0.0,0.0,0.0,0.0,0.0,0.0,0.0,0.0,0.0,False,0,6.183286428451538,0.03492578125
STABILIZE,2.798023223876953,30.285095383193497,0.031955989201863606,0.032125234603881836,0.0,0.0,0.0,0.9347456455838008,-0.22648168239949745,-11.797549258063013,0.00342743943934242,0.08578419738327002,-0.45608897535178455,0.4,0.17958605788336762,-0.07310924786467637,0.6020248516605705,-0.13917148631295545,5.238213017582893,-0.7933879271149635,0.8519544266164303,-0.47749484297674194,112.47328519821167,-23.289692401885986,16.83327853679657,0.0,0.0,0.0,0.0,0.0,0.0,0.0,0.0,0.0,0.0,0.0,0.0,0.0,0.0,0.0,0.0,False,0,6.211953163146973,0.029937255859375
STABILIZE,2.83156681060791,29.81216993268937,0.032421382268269856,0.03254222869873047,0.0,0.0,0.0,0.9312797514668425,-0.23118866991341472,-11.811964372306324,-0.0032842269985241326,0.07237739404539771,-0.45275271196394035,0.4,0.16799260609218486,-0.0450753793219944,0.6140136331431774,-0.17118922328717284,-0.4094120115041733,1.343773864209652,2.044873498380184,-1.914956658821203,-82.3054313659668,57.74385333061218,45.91811001300812,0.0,0.0,0.0,0.0,0.0,0.0,0.0,0.0,0.0,0.0,0.0,0.0,0.0,0.0,0.0,0.0,False,0,6.240633010864258,0.03492578125
STABILIZE,2.864941358566284,29.961668416804176,0.03230336507161458,0.03242945671081543,0.0,0.0,0.0,0.9244149844641565,-0.25223056175551994,-11.785429087380825,0.002550969861029659,0.08424206638935551,-0.39834757041387225,0.4,0.20277064719255364,-0.043579214114306264,0.6143846599418873,-0.18561949012119902,1.9777612760663033,-0.06119696772657335,1.2324283830821514,-0.8838377911004628,92.41504073143005,-79.87227439880371,12.412465363740921,0.0,0.0,0.0,0.0,0.0,0.0,0.0,0.0,0.0,0.0,0.0,0.0,0.0,0.0,0.0,0.0,False,0,6.2692835330963135,0.034927001953125
STABILIZE,2.898399591445923,29.88907495955932,0.032401116689046223,0.03251791000366211,0.0,0.0,0.0,0.9032011639540374,-0.2532789957931169,-11.7304511872041,0.00865410264763693,0.1257146874013713,-0.11293254346655474,0.4,0.3329031471934233,-0.07904311265592821,0.6154004047257543,-0.15272101242181318,3.818844258785248,-1.1211453936994076,1.3204803690314293,0.723072587037258,45.22442817687988,12.266246229410172,25.50644874572754,0.0,0.0,0.0,0.0,0.0,0.0,0.0,0.0,0.0,0.0,0.0,0.0,0.0,0.0,0.0,0.0,False,0,6.326833248138428,0.02993701171875
STABILIZE,2.9319541454315186,29.80581434185374,0.03237727483113607,0.032500267028808594,0.0,0.0,0.0,0.9040698786390984,-0.2523600685454857,-11.72872741821232,0.006979286990495462,0.15754982500722223,-0.25353031650937224,0.4,0.37614779063117126,-0.06483592086853908,0.6113643899052135,-0.20447379757225084,2.8499888256192207,0.6490257102996111,1.1316007934510708,-3.1779566068824683,-1.5638798475265503,-2.3627109825611115,16.556541621685028,0.0,0.0,0.0,0.0,0.0,0.0,0.0,0.0,0.0,0.0,0.0,0.0,0.0,0.0,0.0,0.0,False,0,6.355443716049194,0.034927001953125
STABILIZE,2.965268850326538,30.011834996958964,0.03225901921590169,0.03238201141357422,0.0,0.0,0.0,0.8930937646428879,-0.25487173721062567,-11.771835303385208,0.00773079190918774,0.12347425048372515,-0.21482388449626721,0.4,0.3899922660400461,-0.07696798743802977,0.6098128099230338,-0.19405278286338318,0.9593450464308262,-0.8197573944926262,1.0653524659574032,0.4453648327082086,-50.960952043533325,-19.100412726402283,-0.05612671375274658,0.0,0.0,0.0,0.0,0.0,0.0,0.0,0.0,0.0,0.0,0.0,0.0,0.0,0.0,0.0,0.0,False,0,6.386272192001343,0.034926025390625
STABILIZE,2.9987590312957764,29.85949824871145,0.032398494084676106,0.03252458572387695,0.0,0.0,0.0,0.8951423945070686,-0.26721047394625375,-11.790736998139572,0.011577670701819172,0.12452940734261406,-0.10159868368538048,0.4,0.3825201236961068,-0.06187055963871666,0.6125009481406177,-0.1707404652119626,-0.19896074663847685,0.736522488296032,1.3067354448139668,1.1554981066105534,26.1814147233963,35.38878262042999,38.9107882976532,0.0,0.0,0.0,0.0,0.0,0.0,0.0,0.0,0.0,0.0,0.0,0.0,0.0,0.0,0.0,0.0,False,0,6.415045976638794,0.02993701171875
STABILIZE,3.0321600437164307,29.940067099721606,0.03235009511311849,0.03246450424194336,0.0,0.0,0.0,0.8765702563801577,-0.2570098799055306,-11.664328125849206,0.023634693645365197,0.14042662452147361,-0.05050237782892313,0.4,0.44241019702016965,-0.08655284381280086,0.5996159978074792,-0.16021735146496327,3.9965741336345673,-1.5775758773088455,0.5897190887480974,0.3246420395410266,114.639151096344,-74.32817816734314,36.42555773258209,0.0,0.0,0.0,0.0,0.0,0.0,0.0,0.0,0.0,0.0,0.0,0.0,0.0,0.0,0.0,0.0,False,0,6.446560859680176,0.034927001953125
STABILIZE,3.0656180381774902,29.88737111381888,0.03238633473714193,0.03253531455993652,0.0,0.0,0.0,0.8771061060648864,-0.252481998094341,-11.695343161096588,0.01582850860428256,0.07382485976232679,-0.1590468838931392,0.4,0.41850659637677695,-0.09980190171401004,0.5942682580381008,-0.18091608358113287,-1.0999485850334167,-0.8904904127120972,0.8230533450841904,-1.4080390150864859,-128.11330556869507,55.37378191947937,18.293631076812744,0.0,0.0,0.0,0.0,0.0,0.0,0.0,0.0,0.0,0.0,0.0,0.0,0.0,0.0,0.0,0.0,False,0,6.475232362747192,0.03492578125
STABILIZE,3.0991196632385254,29.84972315925815,0.03240040143330892,0.032526493072509766,0.0,0.0,0.0,0.8979538711241751,-0.2548685622398787,-11.799913357289483,-0.008205563212869192,0.043521101876149514,-0.12843174944679783,0.4,0.3943135569967391,-0.0362010195722719,0.5870515208430435,-0.2069076217210049,-1.0484450496733189,3.5716045647859573,0.7146330550312996,-1.7211870735539974,24.060122668743134,75.39271116256714,10.165774077177048,0.0,0.0,0.0,0.0,0.0,0.0,0.0,0.0,0.0,0.0,0.0,0.0,0.0,0.0,0.0,0.0,False,0,6.503849029541016,0.029937255859375
STABILIZE,3.132678747177124,29.797556123898836,0.03233912785847982,0.03263449668884277,0.0,0.0,0.0,0.8796294340763829,-0.25811452960164794,-11.624264797498851,0.015266438510570558,0.06791012342896964,0.0217292941070812,0.4,0.4539701520891095,-0.09719046581840937,0.5816102699040215,-0.13615023538164167,4.132986068725586,-3.7287678569555283,0.9797179140150547,3.840381436319097,159.0571641921997,-173.4464168548584,46.07684910297394,0.0,0.0,0.0,0.0,0.0,0.0,0.0,0.0,0.0,0.0,0.0,0.0,0.0,0.0,0.0,0.0,False,1,6.533421516418457,0.0349267578125
STABILIZE,3.166141986846924,29.884602778767366,0.03240636189778646,0.03253006935119629,0.0,0.0,0.0,0.8778771703891574,-0.25781317418494754,-11.615915745012156,0.04549270455032855,0.10026989100455931,0.05344343314372209,0.4,0.5115144918428731,-0.14966807335182306,0.5606451475455169,-0.10542931798759031,0.08889994351193309,0.417350884526968,0.012048349890392274,-2.5548493345161947,-114.3986463546753,138.58487606048584,-24.72376674413681,0.0,0.0,0.0,0.0,0.0,0.0,0.0,0.0,0.0,0.0,0.0,0.0,0.0,0.0,0.0,0.0,False,0,6.5908942222595215,0.03492626953125
STABILIZE,3.1995632648468018,29.92020430437357,0.03238728841145833,0.03250288963317871,0.0,0.0,0.0,0.8782155849181903,-0.26378638805753524,-11.74835396679235,-0.003908828901231986,0.06675121383301498,-0.276324605530366,0.4,0.49470619289101214,-0.06365454764979593,0.5563082846646197,-0.2352604692821842,-0.4872698336839676,4.916428029537201,0.860007107257843,-7.861083281821116,16.972798109054565,46.314746141433716,16.299651563167572,0.0,0.0,0.0,0.0,0.0,0.0,0.0,0.0,0.0,0.0,0.0,0.0,0.0,0.0,0.0,0.0,False,0,6.6193201541900635,0.029936767578125
STABILIZE,3.233034133911133,29.877577769388033,0.032406123479207356,0.03253436088562012,0.0,0.0,0.0,0.8564062572898107,-0.25694200490065355,-11.60722091419873,0.03544333947285266,0.08483284680204164,0.1566517306448741,0.4,0.510690102091085,-0.1599709408355247,0.5641623762351284,-0.06989431913432315,1.7531011253595352,-5.904946476221085,1.7201991751790047,9.498923371202446,35.770148038864136,-192.20561981201172,30.399668216705322,0.0,0.0,0.0,0.0,0.0,0.0,0.0,0.0,0.0,0.0,0.0,0.0,0.0,0.0,0.0,0.0,False,0,6.64810848236084,0.03492724609375
STABILIZE,3.2664926052093506,29.88843599464128,0.03236368497212728,0.03248715400695801,0.0,0.0,0.0,0.862916814951008,-0.2668715524891183,-11.582019223708675,0.0416274360583823,0.10014463387641882,0.046232006022117064,0.4,0.520967155221771,-0.11972330815520957,0.5526693562154011,-0.13548492317314562,1.1742163449525833,2.2537337616086006,0.40012234821915627,-4.160303228174263,54.21770215034485,151.85277462005615,6.231800094246864,0.0,0.0,0.0,0.0,0.0,0.0,0.0,0.0,0.0,0.0,0.0,0.0,0.0,0.0,0.0,0.0,False,0,6.67685604095459,0.034926025390625
STABILIZE,3.2999982833862305,29.84589986622264,0.03236869176228841,0.03249096870422363,0.0,0.0,0.0,0.8696768879603223,-0.2644985953610678,-11.768638774853642,0.005170651587429322,0.09438164119254208,-0.1902422096762015,0.4,0.5583440988971704,-0.09186336331842886,0.5653786513206434,-0.18147422287685813,2.817966043949127,1.4777819626033306,1.8346112221479416,-2.946338915711812,27.08147168159485,-70.57767510414124,37.4112606048584,0.0,0.0,0.0,0.0,0.0,0.0,0.0,0.0,0.0,0.0,0.0,0.0,0.0,0.0,0.0,0.0,False,0,6.70589280128479,0.03492578125
STABILIZE,3.3333704471588135,29.965521429438954,0.032301934560139973,0.03241920471191406,0.0,0.0,0.0,0.8625454234148885,-0.26407741814920127,-11.660218913289798,0.017874134174710045,0.05609450004339043,0.0082274692541979,0.4,0.5304170534622271,-0.16366143492516483,0.5621911730394397,-0.07562319304028034,-1.0108011774718761,-4.42306250333786,0.883711501955986,6.033007483016121,-67.40719079971313,-86.68468594551086,53.817760944366455,0.0,0.0,0.0,0.0,0.0,0.0,0.0,0.0,0.0,0.0,0.0,0.0,0.0,0.0,0.0,0.0,False,1,6.7342352867126465,0.03481591796875
STABILIZE,3.3667662143707275,29.942418206868982,0.03236583073933919,0.032495737075805664,0.0,0.0,0.0,1.0708809206956753,-0.42097481415147486,-11.785051719429182,0.023959219907730714,0.06671107793907274,0.10214475601589919,0.4,0.5374819436660586,-0.10447538192651878,0.5308006999904901,-0.13371491127220797,1.1214619502425194,1.0123351588845253,0.9306930005550385,-0.35483270297209946,-66.45220518112183,-83.90113115310669,16.927750408649445,0.0,0.0,0.0,0.0,0.0,0.0,0.0,0.0,0.0,0.0,0.0,0.0,0.0,0.0,0.0,0.0,False,0,6.791806221008301,0.034927001953125
STABILIZE,3.4002249240875244,29.888010033206495,0.032436641057332356,0.032558441162109375,0.0,0.0,0.0,0.987607681221703,-0.3228374288571152,-11.960955557540045,-0.022942952048089434,0.06346473943936723,-0.19962814641978865,0.4,0.5440027240123295,-0.08406717447056572,0.5286401646686746,-0.13584918065987567,1.1214619502425194,1.0123351588845253,0.9306930005550385,-0.35483270297209946,-66.45220518112183,-83.90113115310669,16.927750408649445,0.0,0.0,0.0,0.0,0.0,0.0,0.0,0.0,0.0,0.0,0.0,0.0,0.0,0.0,0.0,0.0,False,0,6.820700645446777,0.034927001953125
STABILIZE,3.4337079524993896,29.866089420879113,0.032416613896687825,0.032541513442993164,0.0,0.0,0.0,0.9623323527546592,-0.21280777708326415,-11.861952819294356,0.005000054464057303,-0.034216739138670293,-0.04117955280736053,0.4,0.36051749983144665,-0.1110572304746476,0.5790609999649178,-0.11881725626070144,-10.095725953578949,-1.8059318885207176,4.036381468176842,0.7782556596933479,-316.7383909225464,17.626361548900604,151.25569105148315,0.0,0.0,0.0,0.0,0.0,0.0,0.0,0.0,0.0,0.0,0.0,0.0,0.0,0.0,0.0,0.0,False,0,6.849475383758545,0.02993603515625
STABILIZE,3.4671478271484375,29.902712722346987,0.032381804784139,0.03252887725830078,0.0,0.0,0.0,0.984937504143051,-0.2811791446138554,-11.85609593208107,-0.0016254853203033022,-0.02926212447603836,0.771920861418563,0.4,0.40099724570122786,-0.07303802286643454,0.4575039910761842,0.18653404827885056,3.350229188799858,2.0492488518357277,-6.072697788476944,18.00438548234278,420.96571922302246,220.81003189086914,-32.803818583488464,0.0,0.0,0.0,0.0,0.0,0.0,0.0,0.0,0.0,0.0,0.0,0.0,0.0,0.0,0.0,0.0,False,0,6.886167526245117,0.034927001953125
STABILIZE,3.5006814002990723,29.824040957087497,0.0324125607808431,0.032550811767578125,0.0,0.0,0.0,0.9593099940469285,-0.19633851012749737,-11.933925937673365,-0.04164087967858078,-0.038959644042214615,-0.2331019663563152,0.4,0.3586469367319088,-0.04739320092480954,0.5470459198747223,-0.1540591931892099,-1.6934625804424286,1.3218878768384457,6.40927255153656,-20.69984792130203,-166.1418318748474,-95.76871395111084,531.6670417785645,0.0,0.0,0.0,0.0,0.0,0.0,0.0,0.0,0.0,0.0,0.0,0.0,0.0,0.0,0.0,0.0,False,0,6.91578221321106,0.034927001953125
STABILIZE,3.5350606441497803,29.086511189242792,0.03232839902242025,0.03339195251464844,0.0,0.0,0.0,0.9615014175534449,-0.23749429521908522,-11.795629121132594,0.008800757288907066,-0.045845614447871295,0.15809660283619065,0.4,0.35095988660238897,-0.10772827474163679,0.7104747715137105,-0.03174675959818546,0.38628459442406893,-3.7961043417453766,10.708922147750854,7.137722706260806,-100.85890293121338,-181.19933605194092,325.40788650512695,0.0,0.0,0.0,0.0,0.0,0.0,0.0,0.0,0.0,0.0,0.0,0.0,0.0,0.0,0.0,0.0,False,0,6.944539308547974,0.02993701171875
STABILIZE,3.568465232849121,29.934297765438885,0.03233292897542318,0.032463788986206055,0.0,0.0,0.0,0.9676745211809612,-0.22985710319037958,-11.852877205434702,-0.011099828914994864,-0.04074509300323533,0.10497784384158165,0.4,0.3663085166065379,-0.047698235072693884,0.7325986631012924,-0.05554685177239728,1.8008271232247353,3.3982668071985245,2.557697519659996,-1.6072337982670915,134.70842838287354,186.89534664154053,157.17737674713135,0.0,0.0,0.0,0.0,0.0,0.0,0.0,0.0,0.0,0.0,0.0,0.0,0.0,0.0,0.0,0.0,False,0,6.973323583602905,0.034926025390625
STABILIZE,3.601844549179077,29.95910029214077,0.032389195760091145,0.03250288963317871,0.0,0.0,0.0,0.9696165360610662,-0.20088581528913912,-11.914622115531616,-0.003073176380159842,0.04678159503496403,0.136960258136217,0.4,0.3873519962855839,-0.0874632571041999,0.8510932244041705,-0.02943963227309844,2.4249695241451263,-4.000797122716904,3.423726186156273,5.975140412820481,-44.383177161216736,-111.77862882614136,190.5648708343506,0.0,0.0,0.0,0.0,0.0,0.0,0.0,0.0,0.0,0.0,0.0,0.0,0.0,0.0,0.0,0.0,False,0,7.030637502670288,0.029937255859375
STABILIZE,3.6354117393493652,29.790783567248138,0.03234556516011556,0.032486915588378906,0.0,0.0,0.0,0.9650055180410729,-0.23320936537110712,-11.814337863042905,-0.009754715848450125,0.006282827865421784,-0.5595088818179152,0.4,0.3409201288087051,-0.041185829672395195,0.8482979183332446,-0.09175806566003344,-1.9389588385820389,2.6096485555171967,1.2158047407865524,-3.919348241521376,-25.74257254600525,134.41225290298462,109.46316719055176,0.0,0.0,0.0,0.0,0.0,0.0,0.0,0.0,0.0,0.0,0.0,0.0,0.0,0.0,0.0,0.0,False,0,7.05930233001709,0.03492578125
