E-kp,E-ki,E-kd,E-I-Tot,E-P,E-I,E-D,E-PID,N-kp,N-ki,N-kd,N-I-Tot,N-P,N-I,N-D,N-PID,D-kp,D-ki,D-kd,D-I-Tot,D-P,D-I,D-D,D-PID,Y-kp,Y-ki,Y-kd,Y-I-Tot,Y-P,Y-I,Y-D,Y-PID,errorN,desiredN,actualN,errorE,desiredE,actualE,errorD,desiredD,actualD,errorY,desiredY,actualY,roll,pitch,yaw-rate,thrust,dt,Time,Mode
0.17,0.015,0.13,-0.0016942148640794973,-0.008725191009335845,-2.541322296119246e-05,-0.20212819987155453,-0.21087880410385157,0.17,0.015,0.13,-0.0005960744127300473,-0.003069777757895597,-8.94111619095071e-06,-0.07111462104901299,-0.07419333992309954,0.002,8e-05,0,-0.020631168375611818,-0.001250003857518467,-1.6504934700489455e-06,-0.0,-0.0012516543509885159,0.2,0.02,0.0,-0.0038670329247853146,-0.023429628342554867,-7.734065849570629e-05,-0.0,-0.023506969001050575,-0.018057516222915276,0.0,0.018057516222915276,-0.0513246529960932,0.0,0.0513246529960932,-0.6250019287592334,0.0,0.6250019287592334,-0.11714814171277432,0,0.11714814171277432,-0.21103006045656642,0.07376201795580925,0.023506969001050575,0.4,0.03300976753234863,0.03333711624145508,STABILIZE
0.17,0.015,0.13,-0.0033734000884524436,-0.008542467619619142,-5.0601001326786654e-05,-0.09897338705785409,-0.10756645567880002,0.17,0.015,0.13,-0.0009266510993648912,-0.001681732664384106,-1.3899766490473368e-05,-0.019675360454283586,-0.021370992885158164,0.002,8e-05,0,-0.041830813682709064,-0.0012688036117314387,-3.3464650946167254e-06,-0.0,-0.0012721500768260554,0.2,0.02,0.0,-0.00863806614607614,-0.028554742757124715,-0.0001727613229215228,-0.0,-0.028727504080046238,-0.009892545084612387,0.0,0.009892545084612387,-0.050249809527171424,0.0,0.050249809527171424,-0.6344018058657194,0.0,0.6344018058657194,-0.14277371378562356,0,0.14277371378562356,-0.10761937542681162,0.02110288503830007,0.028727504080046238,0.4,0.033416748046875,0.06665921211242676,STABILIZE
0.17,0.015,0.13,-0.005901285208768106,-0.012848024279431174,-8.85192781315216e-05,-0.09879424865669649,-0.11173079221425919,0.17,0.015,0.13,-0.0008023337095263914,0.0006318455020618601,-1.203500564289587e-05,0.004514519368516532,0.0051343298649354965,0.002,8e-05,0,-0.0642232222789284,-0.0013389393324554988,-5.137857782314273e-06,-0.0,-0.001344077190237813,0.2,0.02,0.0,-0.013619443403633389,-0.02978581741791191,-0.00027238886807266777,-0.0,-0.030058206285984577,0.0037167382474227063,0.0,-0.0037167382474227063,-0.07557661340841866,0.0,0.07557661340841866,-0.6694696662277494,0.0,0.6694696662277494,-0.14892908708955954,0,0.14892908708955954,-0.11171706910327732,-0.005424734367827731,0.030058206285984577,0.4,0.033447980880737305,0.10011625289916992,STABILIZE
0.17,0.015,0.13,-0.008349022391740265,-0.012441823776879525,-0.00012523533587610396,-0.07177377727690315,-0.08434083638965878,0.17,0.015,0.13,0.00020963649973618746,0.005143834517318812,3.1445474960428116e-06,0.029177164548174785,0.03432414361298964,0.002,8e-05,0,-0.08631804152179082,-0.0013212676076022588,-6.905443321743266e-06,-0.0,-0.001328173050924002,0.2,0.02,0.0,-0.019079600016622962,-0.032651672710601265,-0.00038159200033245925,-0.0,-0.03303326471093372,0.03025785010187536,0.0,-0.03025785010187536,-0.07318719868752661,0.0,0.07318719868752661,-0.6606338038011293,0.0,0.6606338038011293,-0.16325836355300632,0,0.16325836355300632,-0.0842426910615177,-0.034564324387813684,0.03303326471093372,0.4,0.033444881439208984,0.13356757164001465,STABILIZE
0.17,0.015,0.13,-0.01060920040293896,-0.011482405127280444,-0.0001591380060440844,-0.0530339785659144,-0.06467552169923893,0.17,0.015,0.13,0.000740710815862974,0.0026980222001306265,1.1110662237944609e-05,0.012163094647846533,0.014872227510215105,0.002,8e-05,0,-0.10711427683039194,-0.0012429567507382432,-8.569142146431357e-06,-0.0,-0.0012515258928846745,0.2,0.02,0.0,-0.025726854235678345,-0.039729544231647394,-0.0005145370847135669,-0.0,-0.04024408131636096,0.015870718824297803,0.0,-0.015870718824297803,-0.0675435595722379,0.0,0.0675435595722379,-0.6214783753691215,0.0,0.6214783753691215,-0.19864772115823695,0,0.19864772115823695,-0.06462357023012415,-0.015096371381777015,0.04024408131636096,0.4,0.0334625244140625,0.1670377254486084,STABILIZE
0.17,0.015,0.13,-0.012667290352898448,-0.010462369510211029,-0.0001900093552934767,-0.007943285999677053,-0.018595664865181556,0.17,0.015,0.13,0.0007891919755647163,0.00024645560661387293,1.1837879633470744e-05,0.015173972042829574,0.015432265529076918,0.002,8e-05,0,-0.12655175415305256,-0.001162483176380723,-1.0124140332244206e-05,0.0,-0.001172607316712967,0.2,0.02,0.0,-0.03344410030537795,-0.046153976542816486,-0.000668882006107559,-0.0,-0.04682285854892405,0.0014497388624345464,0.0,-0.0014497388624345464,-0.06154335006006487,0.0,0.06154335006006487,-0.5812415881903614,0.0,0.5812415881903614,-0.2307698827140824,0,0.2307698827140824,-0.01853335775360491,-0.015507037805943988,0.04682285854892405,0.4,0.03344130516052246,0.20052218437194824,STABILIZE
0.17,0.015,0.13,-0.014329738241350599,-0.008443284286363924,-0.000214946073620259,0.0004460056228738764,-0.008212224737110307,0.17,0.015,0.13,0.00030977875810601473,-0.002434856523179812,4.646681371590221e-06,-0.0034302229406849884,-0.00586043278249321,0.002,8e-05,0,-0.14582421608891583,-0.0011515469316481465,-1.1665937287113267e-05,0.0,-0.0011632128689352597,0.2,0.02,0.0,-0.04063692972407727,-0.04297780260008439,-0.0008127385944815455,-0.0,-0.043790541194565935,-0.014322685430469481,0.0,0.014322685430469481,-0.04966637815508191,0.0,0.04966637815508191,-0.5757734658240732,0.0,0.5757734658240732,-0.21488901300042193,0,0.21488901300042193,-0.008234146602470608,0.005829591517417778,0.043790541194565935,0.4,0.033472299575805664,0.23396778106689453,STABILIZE
0.17,0.015,0.13,-0.016051250532190326,-0.008747000355426738,-0.00024076875798285488,0.018744871324811205,0.009757102211401613,0.17,0.015,0.13,-0.00043385933703822327,-0.0037784236087926282,-6.507890055573349e-06,-0.020150711977979147,-0.023935643476827348,0.002,8e-05,0,-0.1657313213171712,-0.001189976001187068,-1.3258505705373696e-05,0.0,-0.0012032345068924417,0.2,0.02,0.0,-0.0482906537861502,-0.04575124232853103,-0.0009658130757230041,-0.0,-0.04671705540425404,-0.02222602122819193,0.0,0.02222602122819193,-0.0514529432672161,0.0,0.0514529432672161,-0.594988000593534,0.0,0.594988000593534,-0.22875621164265517,0,0.22875621164265517,0.009661460467819225,0.023974408310577597,0.04671705540425404,0.4,0.03345799446105957,0.26743650436401367,STABILIZE
0.17,0.015,0.13,-0.018005667726740993,-0.009932371445432084,-0.0002700850159011149,0.011467765415991042,0.001265308954657842,0.17,0.015,0.13,-0.0016398322047503427,-0.0061287684679746995,-2.459748307125514e-05,-0.051529631451862824,-0.057682997402908776,0.002,8e-05,0,-0.18569815296834596,-0.001193784424815208,-1.4855852237467679e-05,0.0,-0.0012086402770526757,0.2,0.02,0.0,-0.054536365942610736,-0.037342098258352927,-0.0010907273188522147,-0.0,-0.03843282557720514,-0.036051579223380585,0.0,0.036051579223380585,-0.058425714384894606,0.0,0.058425714384894606,-0.596892212407604,0.0,0.596892212407604,-0.18671049129176462,0,0.18671049129176462,0.0010773302458656868,0.0576868144004855,0.03843282557720514,0.4,0.03345131874084473,0.3008854389190674,STABILIZE
0.17,0.015,0.13,-0.0194905149168612,-0.007544129161427171,-0.000292357723752918,0.017999167443856025,0.010162680558675936,0.17,0.015,0.13,-0.0025001970565911285,-0.004371293969794689,-3.750295584886692e-05,-0.03231773321084576,-0.03672653013648931,0.002,8e-05,0,-0.20516710407801728,-0.0011637266569060683,-1.6413368326241384e-05,0.0,-0.0011801400252323096,0.2,0.02,0.0,-0.06122617482205421,-0.039987305318918726,-0.0012245234964410841,-0.0,-0.041211828815359806,-0.02571349393996876,0.0,0.02571349393996876,-0.0443772303613363,0.0,0.0443772303613363,-0.5818633284530341,0.0,0.5818633284530341,-0.19993652659459363,0,0.19993652659459363,0.010034459855177575,0.036761769644822286,0.041211828815359806,0.4,0.03345966339111328,0.3343539237976074,STABILIZE
0.17,0.015,0.13,-0.020696103156061036,-0.006129172751601786,-0.00031044154734091554,0.0198058602801246,0.013366245981181898,0.17,0.015,0.13,-0.0033132870035328162,-0.004133723758539635,-4.969930505299224e-05,-0.02001908477502293,-0.024202507838615557,0.002,8e-05,0,-0.2246599241052735,-0.0011658927638533898,-1.7972793928421883e-05,-0.0,-0.0011838655577818117,0.2,0.02,0.0,-0.067848464419902,-0.039608838082311554,-0.00135696928839804,0.0,-0.040965807370709595,-0.024316022109056677,0.0,0.024316022109056677,-0.03605395736236344,0.0,0.03605395736236344,-0.5829463819266949,0.0,0.5829463819266949,-0.19804419041155777,0,0.19804419041155777,0.013282509771349182,0.02424856390555371,0.040965807370709595,0.4,0.03343844413757324,0.367816686630249,STABILIZE
0.17,0.015,0.13,-0.021637588889235622,-0.004786040281337385,-0.0003245638333385343,0.01672295032655851,0.01161234621188259,0.17,0.015,0.13,-0.004074650783444157,-0.0038703907993593036,-6.111976175166235e-05,-0.006563345847970523,-0.010494856409081488,0.002,8e-05,0,-0.24412833926901586,-0.001164325152497366,-1.953026714152127e-05,-0.0,-0.0011838554196388872,0.2,0.02,0.0,-0.07437789055155625,-0.039049789171422385,-0.0014875578110311249,0.0,-0.04053734698245351,-0.022767004702113548,0.0,0.022767004702113548,-0.028153178125514027,0.0,0.028153178125514027,-0.582162576248683,0.0,0.582162576248683,-0.19524894585711192,0,0.19524894585711192,0.011576515145846348,0.010534367217344041,0.04053734698245351,0.4,0.03344154357910156,0.40121936798095703,STABILIZE
0.17,0.015,0.13,-0.022048791877386707,-0.001997797505228787,-0.0003307318781608006,0.03029840483224185,0.027969875448852263,0.17,0.015,0.13,-0.0047359857312094696,-0.0032130440362478944,-7.103978596814205e-05,0.0024514832893320054,-0.0008326005328840309,0.002,8e-05,0,-0.26460359128569433,-0.0011703224463357343,-2.116828730285555e-05,0.0,-0.00119149073363859,0.2,0.02,0.0,-0.08153173818176326,-0.040889892112083236,-0.0016306347636352652,0.0,-0.0425205268757185,-0.01890025903675232,0.0,0.01890025903675232,-0.01175175003075757,0.0,0.01175175003075757,-0.5851612231678671,0.0,0.5851612231678671,-0.20444946056041616,0,0.20444946056041616,0.0279667264047976,0.0009324003812011473,0.0425205268757185,0.4,0.034990787506103516,0.43621182441711426,STABILIZE
0.17,0.015,0.13,-0.02216053546057716,-0.0005680036703012396,-0.0003324080319086574,0.04225647352031942,0.041356061818109524,0.17,0.015,0.13,-0.005200441925607078,-0.0023608767105880108,-7.800662888410617e-05,0.017094369521333735,0.014655486181861618,0.002,8e-05,0,-0.2839097974110561,-0.0011545335601700838,-2.271278379288449e-05,0.0,-0.0011772463439629684,0.2,0.02,0.0,-0.08856730832505688,-0.042073526992403465,-0.0017713461665011376,-0.0,-0.043844873158904604,-0.013887510062282414,0.0,0.013887510062282414,-0.003341198060595527,0.0,0.003341198060595527,-0.577266780085042,0.0,0.577266780085042,-0.21036763496201732,0,0.21036763496201732,0.04140959214150381,-0.014503544497961153,0.043844873158904604,0.4,0.03344416618347168,0.46969127655029297,STABILIZE
0.17,0.015,0.13,-0.022410780333271606,-0.001272028472765512,-0.00033616170499907406,0.028120478717713903,0.026512288539949316,0.17,0.015,0.13,-0.00580707878490642,-0.003083617056162462,-8.710618177359629e-05,0.005755971400963521,0.002585248163027463,0.002,8e-05,0,-0.30275643732090357,-0.0011270590011040246,-2.422051498567229e-05,0.0,-0.0011512795160896969,0.2,0.02,0.0,-0.0950795483983609,-0.03894422999047486,-0.001901590967967218,0.0,-0.040845820958442074,-0.018138923859779187,0.0,0.018138923859779187,-0.007482520428032423,0.0,0.007482520428032423,-0.5635295005520122,0.0,0.5635295005520122,-0.19472114995237427,0,0.19472114995237427,0.026520921446073323,-0.002495130726269214,0.040845820958442074,0.4,0.03344392776489258,0.5031116008758545,STABILIZE
0.17,0.015,0.13,-0.022526790938323323,-0.0005899667400174168,-0.00033790186407484985,0.024769268058865656,0.02384139945477339,0.17,0.015,0.13,-0.0065345158877709655,-0.003699348830681408,-9.801773831656448e-05,0.001852304522191878,-0.0019450620468060944,0.002,8e-05,0,-0.321427849350978,-0.0011170897676826112,-2.5714227948078244e-05,0.0,-0.0011428039956306894,0.2,0.02,0.0,-0.10080677178008177,-0.03426533904692301,-0.0020161354356016356,0.0,-0.036281474482524646,-0.021760875474596517,0.0,0.021760875474596517,-0.003470392588337746,0.0,0.003470392588337746,-0.5585448838413056,0.0,0.5585448838413056,-0.17132669523461505,0,0.17132669523461505,0.02383547672238166,0.0020163441533618213,0.036281474482524646,0.4,0.03342866897583008,0.5365390777587891,STABILIZE
0.17,0.015,0.13,-0.0229074044383096,-0.0019349994889656138,-0.000343611066574644,0.012474761256462876,0.010196150700922618,0.17,0.015,0.13,-0.007538054677240312,-0.00510188694003333,-0.00011307082015860467,-0.005766874421915,-0.010981832182106934,0.002,8e-05,0,-0.34009556351984194,-0.001116526109378376,-2.720764508158736e-05,0.0,-0.0011437337544599633,0.2,0.02,0.0,-0.1060400270648774,-0.031300383698087735,-0.002120800541297548,0.0,-0.03342118423938528,-0.030011099647254878,0.0,0.030011099647254878,-0.011382349935091846,0.0,0.011382349935091846,-0.558263054689188,0.0,0.558263054689188,-0.15650191849043868,0,0.15650191849043868,0.01016611611528808,0.011009641698182748,0.03342118423938528,0.4,0.033438920974731445,0.5699858665466309,STABILIZE
0.17,0.015,0.13,-0.023591501906526917,-0.0032752952235089467,-0.00035387252859790376,-0.005485458320605684,-0.009114626072712535,0.17,0.015,0.13,-0.008775650479724891,-0.005925312998271159,-0.00013163475719587335,-0.012186836683778884,-0.018243784439245916,0.002,8e-05,0,-0.35978208671270073,-0.0011088749325029613,-2.878256693701606e-05,0.0,-0.0011376574994399773,0.2,0.02,0.0,-0.11018273868591971,-0.023334486359830594,-0.0022036547737183942,0.0,-0.025538141133548988,-0.03485478234277152,0.0,0.03485478234277152,-0.019266442491229097,0.0,0.019266442491229097,-0.5544374662514806,0.0,0.5544374662514806,-0.11667243179915296,0,0.11667243179915296,-0.00915175729785316,0.018225186349451517,0.025538141133548988,0.4,0.0355072021484375,0.6054830551147461,STABILIZE
0.17,0.015,0.13,-0.02424350933853233,-0.0032752952235089467,-0.0003636526400779849,-0.012023948472358468,-0.0156628963359454,0.17,0.015,0.13,-0.0099551924288296,-0.005925312998271159,-0.000149327886432444,-0.016083823459326848,-0.022158464344030453,0.002,8e-05,0,-0.37854514318992977,-0.0011088749325029613,-3.0283611455194384e-05,0.0,-0.0011391585439581556,0.2,0.02,0.0,-0.11413112161534862,-0.023334486359830594,-0.0022826224323069725,0.0,-0.025617108792137567,-0.03485478234277152,0.0,0.03485478234277152,-0.019266442491229097,0.0,0.019266442491229097,-0.5544374662514806,0.0,0.5544374662514806,-0.11667243179915296,0,0.11667243179915296,-0.015707985512553497,0.02212652378602771,0.025617108792137567,0.4,0.033841609954833984,0.6393280029296875,STABILIZE
0.17,0.015,0.13,-0.02469399341180439,-0.002239501185802165,-0.00037040990117706584,-0.004171841997857175,-0.006781753084836406,0.17,0.015,0.13,-0.010951945095648258,-0.004955178022339884,-0.00016427917643472385,-0.008439787766936269,-0.013559244965710876,0.002,8e-05,0,-0.3971876561339595,-0.0010903285473815702,-3.177501249071676e-05,0.0,-0.001122103559872287,0.2,0.02,0.0,-0.11824634402787665,-0.024068345767949265,-0.002364926880557533,0.0,-0.026433272648506798,-0.029148106013764018,0.0,0.029148106013764018,-0.013173536387071557,0.0,0.013173536387071557,-0.5451642736907851,0.0,0.5451642736907851,-0.12034172883974631,0,0.12034172883974631,-0.0068102173925817045,0.013544970949013566,0.026433272648506798,0.4,0.03419613838195801,0.67352294921875,STABILIZE
0.17,0.015,0.13,-0.025254191777993238,-0.00284585974562825,-0.00037881287666989853,-0.01006363293549514,-0.01328830555779329,0.17,0.015,0.13,-0.012059710890403636,-0.0056275531546542586,-0.00018089566335605453,-0.00869569592174122,-0.014504144739751533,0.002,8e-05,0,-0.4153911509328002,-0.0010879464091645193,-3.323129207462402e-05,0.0,-0.0011211777012391433,0.2,0.02,0.0,-0.12182125553035586,-0.021365744189137195,-0.002436425110607117,0.0,-0.02380216929974431,-0.0331032538509074,0.0,0.0331032538509074,-0.01674035144487206,0.0,0.01674035144487206,-0.5439732045822596,0.0,0.5439732045822596,-0.10682872094568596,0,0.10682872094568596,-0.013315325609548156,0.01447934332560193,0.02380216929974431,0.4,0.03346395492553711,0.7069995403289795,STABILIZE
0.17,0.015,0.13,-0.025545467362044903,-0.0014805403448794243,-0.00038318201043067356,0.0023316756393774924,0.0004679532840673945,0.17,0.015,0.13,-0.013616261059461829,-0.00791187263986661,-0.00020424391589192743,-0.012726804694902146,-0.020842921250660684,0.002,8e-05,0,-0.43341879236809905,-0.0010780431651585716,-3.467350338944793e-05,0.0,-0.0011127166685480196,0.2,0.02,0.0,-0.12494564149033863,-0.018683658323055546,-0.0024989128298067726,0.0,-0.021182571152862317,-0.04654042729333299,0.0,0.04654042729333299,-0.008709060852231908,0.0,0.008709060852231908,-0.5390215825792858,0.0,0.5390215825792858,-0.09341829161527773,0,0.09341829161527773,0.0004339691950579765,0.020843656523629746,0.021182571152862317,0.4,0.033445119857788086,0.7404463291168213,STABILIZE
0.17,0.015,0.13,-0.02544834153144591,0.0004938480540485902,-0.0003817251229716886,0.01713641101052578,0.01724853394160268,0.17,0.015,0.13,-0.015371858865848685,-0.008926549765692349,-0.00023057788298773025,-0.013821577040426995,-0.022978704689107073,0.002,8e-05,0,-0.4514651979431536,-0.0010795192442445596,-3.6117215835452294e-05,0.0,-0.001115636460080012,0.2,0.02,0.0,-0.12832783728002772,-0.02023198152999108,-0.0025665567456005546,0.0,-0.022798538275591633,-0.052509116268778515,0.0,0.052509116268778515,0.0029049885532270014,0.0,-0.0029049885532270014,-0.5397596221222798,0.0,0.5397596221222798,-0.10115990764995539,0,0.10115990764995539,0.017207936487561762,0.023009122411857687,0.022798538275591633,0.4,0.033434152603149414,0.7738900184631348,STABILIZE
0.17,0.015,0.13,-0.024980202070771524,0.0023783952953340542,-0.00037470303106157285,0.025750142319958823,0.027753834584231304,0.17,0.015,0.13,-0.01730524577725013,-0.009822624923592994,-0.00025957868665875194,-0.01791728261581446,-0.027999486226066208,0.002,8e-05,0,-0.46947219944306984,-0.0010762948487182341,-3.755777595544559e-05,0.0,-0.0011138526246736798,0.2,0.02,0.0,-0.1319730760899664,-0.02178792373346021,-0.0026394615217993278,0.0,-0.02442738525525954,-0.057780146609370545,0.0,0.057780146609370545,0.013990560560788554,0.0,-0.013990560560788554,-0.5381474243591171,0.0,0.5381474243591171,-0.10893961866730104,0,0.10893961866730104,0.02770054748515374,0.028052205476134812,0.02442738525525954,0.4,0.03346109390258789,0.8073523044586182,STABILIZE
0.17,0.015,0.13,-0.024420963639285666,0.0028119735294904707,-0.00036631445458928496,0.02307894483447528,0.025524603909376466,0.17,0.015,0.13,-0.019030832055822205,-0.008676626399413249,-0.00028546248083733306,-0.017072076515899818,-0.026034165396150402,0.002,8e-05,0,-0.48771101829321345,-0.0010789268558232055,-3.9016881463457076e-05,0.0,-0.0011179437372866626,0.2,0.02,0.0,-0.1356569469371962,-0.021792130417640183,-0.002713138938743924,0.0,-0.024505269356384106,-0.051038978820077935,0.0,0.051038978820077935,0.01654102076170865,0.0,-0.01654102076170865,-0.5394634279116027,0.0,0.5394634279116027,-0.10896065208820091,0,0.10896065208820091,0.02547504803519134,0.0260826589942315,0.024505269356384106,0.4,0.03380918502807617,0.8411526679992676,STABILIZE
0.17,0.015,0.13,-0.024596758606864028,-0.0008936532614779649,-0.0003689513791029604,0.008902929426288926,0.007640324785708001,0.17,0.015,0.13,-0.0203611406853388,-0.006762620465855197,-0.000305417110280082,-0.005245610054848024,-0.012313647630983303,0.002,8e-05,0,-0.5058338774349085,-0.001083853028424228,-4.046671019479268e-05,0.0,-0.0011243197386190207,0.2,0.02,0.0,-0.13771556525047718,-0.01231174218027099,-0.002754311305009544,0.0,-0.015066053485280534,-0.03978012038738351,0.0,0.03978012038738351,-0.005256783891046852,0.0,0.005256783891046852,-0.541926514212114,0.0,0.541926514212114,-0.061558710901354945,0,0.061558710901354945,0.0076270905685239185,0.012321849304007017,0.015066053485280534,0.4,0.03344154357910156,0.8746073246002197,STABILIZE
0.17,0.015,0.13,-0.02462593074775711,-0.0001474941722520653,-0.0003693889612163566,0.006053473801852957,0.0055365906683845344,0.17,0.015,0.13,-0.02136842554992502,-0.005092826332790779,-0.00032052638324887525,0.01279565477826514,0.0073823020622254855,0.002,8e-05,0,-0.5240469529213008,-0.001083355320114266,-4.192375623370407e-05,-0.0,-0.0011252790763479701,0.2,0.02,0.0,-0.13972916948768252,-0.011977377816343412,-0.0027945833897536506,0.0,-0.014771961206097063,-0.029957801957592817,0.0,0.029957801957592817,-0.0008676127779533253,0.0,0.0008676127779533253,-0.541677660057133,0.0,0.541677660057133,-0.059886889081717055,0,0.059886889081717055,0.005544303797450987,-0.00737651105664134,0.014771961206097063,0.4,0.033623456954956055,0.9082431793212891,STABILIZE
0.17,0.015,0.13,-0.024507239872453363,0.0006025957450246799,-0.0003676085980868004,0.00044791265543850525,0.0006828998023763848,0.17,0.015,0.13,-0.0220500591069197,-0.003460666037383806,-0.00033075088660379547,0.024892183087033906,0.021100766163046306,0.002,8e-05,0,-0.5422775541610061,-0.0010889070114153236,-4.338220433288049e-05,-0.0,-0.001132289215748204,0.2,0.02,0.0,-0.14167289862379595,-0.011609821622319558,-0.002833457972475919,0.0,-0.014443279594795477,-0.02035685904343415,0.0,0.02035685904343415,0.003544680853086352,0.0,-0.003544680853086352,-0.5444535057076618,0.0,0.5444535057076618,-0.05804910811159779,0,0.05804910811159779,0.0007042776486266437,-0.021100063454911472,0.014443279594795477,0.4,0.03348422050476074,0.9417140483856201,STABILIZE
0.17,0.015,0.13,-0.024088006149241545,0.0021309000867850377,-0.00036132009223862314,-0.0011771857422867029,0.0005923942522597118,0.17,0.015,0.13,-0.022267135842727576,-0.001103367428622391,-0.0003340070376409136,0.03976734808667282,0.03832997362040952,0.002,8e-05,0,-0.5603516265461097,-0.0010807965968710144,-4.482813012368878e-05,-0.0,-0.0011256247269947031,0.2,0.02,0.0,-0.14425463955069384,-0.01543834033824945,-0.002885092791013877,0.0,-0.018323433129263326,-0.00649039663895524,0.0,0.00649039663895524,0.012534706392853163,0.0,-0.012534706392853163,-0.5403982984355071,0.0,0.5403982984355071,-0.07719170169124724,0,0.07719170169124724,0.0006440337310515168,-0.038329140731885286,0.018323433129263326,0.4,0.03344583511352539,0.975238561630249,STABILIZE
0.17,0.015,0.13,-0.023814243103817547,0.0013919317460359497,-0.0003572136465572632,-0.0065187612211923636,-0.0054840431217136765,0.17,0.015,0.13,-0.02240607292470098,-0.0007064172405039661,-0.0003360910938705147,0.03639898723174631,0.035356478897371826,0.002,8e-05,0,-0.5787208096973451,-0.0010987883222515905,-4.629766477578761e-05,-0.0,-0.0011450859870273781,0.2,0.02,0.0,-0.1473043185829421,-0.01824224670014545,-0.0029460863716588423,0.0,-0.021188333071804292,-0.004155395532376271,0.0,0.004155395532376271,0.008187833800211469,0.0,-0.008187833800211469,-0.5493941611257952,0.0,0.5493941611257952,-0.09121123350072724,0,0.09121123350072724,-0.0054277509328998766,-0.035365164339947845,0.021188333071804292,0.4,0.03343534469604492,1.0085923671722412,STABILIZE
0.17,0.015,0.13,-0.023166288681452325,0.0032931702734436594,-0.00034749433022178487,0.01912175376144179,0.022067429704663664,0.17,0.015,0.13,-0.022832118896043953,-0.002165340461487384,-0.0003424817834406593,0.020974698021675495,0.01846687577674745,0.002,8e-05,0,-0.5967294379480343,-0.0010767910460373071,-4.773835503584275e-05,0.0,-0.00112452940107315,0.2,0.02,0.0,-0.15012811838763598,-0.016884364001349683,-0.0030025623677527196,-0.0,-0.019886926369102404,-0.012737296832278727,0.0,0.012737296832278727,0.01937158984378623,0.0,-0.01937158984378623,-0.5383955230186536,0.0,0.5383955230186536,-0.08442182000674842,0,0.08442182000674842,0.022094615550188854,-0.01843434073715268,0.019886926369102404,0.4,0.03344869613647461,1.0420420169830322,STABILIZE
0.17,0.015,0.13,-0.02095045442507204,0.0112622606525746,-0.00031425681637608057,0.05216725341738126,0.06311525725357978,0.17,0.015,0.13,-0.022708807362317916,0.0006267466216358668,-0.00034063211043476875,0.02614651183348581,0.026432626344686908,0.002,8e-05,0,-0.614787296364362,-0.0010797808477850804,-4.918298370914897e-05,0.0,-0.0011289638314942293,0.2,0.02,0.0,-0.15452159847740288,-0.026271086784941857,-0.0030904319695480575,-0.0,-0.029361518754489915,0.003686744833152157,0.0,-0.003686744833152157,0.06624859207396823,0.0,-0.06624859207396823,-0.5398904238925402,0.0,0.5398904238925402,-0.13135543392470928,0,0.13135543392470928,0.06317569037311294,-0.02628785992704536,0.029361518754489915,0.4,0.033447265625,1.0755083560943604,STABILIZE
0.17,0.015,0.13,-0.01878856638649197,0.01099324399966234,-0.0002818284957973795,0.0475104867098737,0.05822190221373866,0.17,0.015,0.13,-0.021803792805582842,0.00460201715717409,-0.00032705689208374264,0.03687742495392593,0.04115238521901628,0.002,8e-05,0,-0.6326325863626721,-0.001067572438291735,-5.0610606909013766e-05,0.0,-0.0011181830452007488,0.2,0.02,0.0,-0.1587771687842975,-0.02545842387141735,-0.0031755433756859505,-0.0,-0.0286339672471033,0.02707068915984758,0.0,-0.02707068915984758,0.06466614117448435,0.0,-0.06466614117448435,-0.5337862191458675,0.0,0.5337862191458675,-0.12729211935708673,0,0.12729211935708673,0.05831318533221306,-0.041022934110219705,0.0286339672471033,0.4,0.0334315299987793,1.1089272499084473,STABILIZE
0.17,0.015,0.13,-0.016873850687706804,0.00973199523418156,-0.00025310776031560206,0.03475453645497046,0.04423342392883642,0.17,0.015,0.13,-0.02014306119466002,0.008441061058312757,-0.00030214591791990033,0.04365277714043992,0.051791692280832774,0.002,8e-05,0,-0.6499245803249244,-0.0010340076194012315,-5.1993966425993954e-05,0.0,-0.0010860015858272253,0.2,0.02,0.0,-0.16240570257434975,-0.021697506917704976,-0.003248114051486995,-0.0,-0.02494562096919197,0.04965330034301621,0.0,-0.04965330034301621,0.057247030789303294,0.0,-0.057247030789303294,-0.5170038097006158,0.0,0.5170038097006158,-0.10848753458852488,0,0.10848753458852488,0.044331410317080135,-0.051707845063194355,0.02494562096919197,0.4,0.033446550369262695,1.142376184463501,STABILIZE
0.17,0.015,0.13,-0.012726988561930757,0.021047700207644102,-0.00019090482842896135,0.08980519416526256,0.1106619895444777,0.17,0.015,0.13,-0.017445267517528836,0.013692847945290373,-0.00026167901276293254,0.06581805315161585,0.07924922208414328,0.002,8e-05,0,-0.6683843774923497,-0.001102282854132111,-5.347075019938798e-05,-0.0,-0.001155753604331499,0.2,0.02,0.0,-0.16655870045648324,-0.024798638453085567,-0.003331174009129665,-0.0,-0.028129812462215232,0.08054616438406101,0.0,-0.08054616438406101,0.12381000122143589,0.0,-0.12381000122143589,-0.5511414270660555,0.0,0.5511414270660555,-0.12399319226542782,0,0.12399319226542782,0.11083323268583296,-0.07900955425321653,0.028129812462215232,0.4,0.033493757247924805,1.1758790016174316,STABILIZE
0.17,0.015,0.13,-0.0096277322209568,0.015749896340640824,-0.000144415983314352,0.05689097792520162,0.0724964582825281,0.17,0.015,0.13,-0.01685071008260828,0.0030214402870636205,-0.0002527606512391242,0.023700354782618026,0.026469034418442523,0.002,8e-05,0,-0.687175207439123,-0.0011234331581365686,-5.4974016595129844e-05,-0.0,-0.0011784071747316985,0.2,0.02,0.0,-0.16989281380783297,-0.019933411682730478,-0.0033978562761566595,-0.0,-0.02333126795888714,0.017773178159197767,0.0,-0.017773178159197767,0.09264644906259308,0.0,-0.09264644906259308,-0.5617165790682843,0.0,0.5617165790682843,-0.09966705841365238,0,0.09966705841365238,0.07254239194536696,-0.02634288551772165,0.02333126795888714,0.4,0.033452510833740234,1.209320068359375,STABILIZE
0.17,0.015,0.13,-0.00631582806794127,0.01683101636582641,-9.473742101911905e-05,0.02539436729423935,0.04213064623904664,0.17,0.015,0.13,-0.01607597745307814,0.0039371723831104315,-0.00024113966179617209,0.015119985015521871,0.01881601773683613,0.002,8e-05,0,-0.7055714178120761,-0.001099871691190949,-5.6445713424966096e-05,-0.0,-0.001156317404615915,0.2,0.02,0.0,-0.1723837494391134,-0.014892793297538133,-0.003447674988782268,0.0,-0.0183404682863204,0.02315983754770842,0.0,-0.02315983754770842,0.09900597862250829,0.0,-0.09900597862250829,-0.5499358455954745,0.0,0.5499358455954745,-0.07446396648769066,0,0.07446396648769066,0.04215506472684251,-0.01876124712987773,0.0183404682863204,0.4,0.03345155715942383,1.2427809238433838,STABILIZE
0.17,0.015,0.13,-0.0006064308180643851,0.029024119953138375,-9.096462270965777e-06,0.08238965043829273,0.11140467392916015,0.17,0.015,0.13,-0.013256595393966444,0.01433252574589177,-0.00019884893090949665,0.044476751470653206,0.05861042828563548,0.002,8e-05,0,-0.7244042438999956,-0.0011263292665421173,-5.7952339511999654e-05,-0.0,-0.001184281606054117,0.2,0.02,0.0,-0.1776389144044098,-0.031429409868107654,-0.003552778288088196,-0.0,-0.03498218815619585,0.08430897497583394,0.0,-0.08430897497583394,0.1707301173714022,0.0,-0.1707301173714022,-0.5631646332710586,0.0,0.5631646332710586,-0.15714704934053825,0,0.15714704934053825,0.1115650074826878,-0.058304654895436375,0.03498218815619585,0.4,0.03344106674194336,1.2762300968170166,STABILIZE
0.17,0.015,0.13,0.004810575759233109,0.027541462321695073,7.215863638849662e-05,0.08137518281711231,0.10898880377519587,0.17,0.015,0.13,-0.009954591516925241,0.016788241636396847,-0.00014931887275387862,0.038154564809717864,0.05479348757336083,0.002,8e-05,0,-0.7437071341792814,-0.0011545986596118109,-5.949657073434251e-05,-0.0,-0.0012140952303461533,0.2,0.02,0.0,-0.18236614146725214,-0.028275817514724935,-0.003647322829345043,-0.0,-0.031923140344069977,0.09875436256704027,0.0,-0.09875436256704027,0.16200860189232394,0.0,-0.16200860189232394,-0.5772993298059054,0.0,0.5772993298059054,-0.14137908757362466,0,0.14137908757362466,0.10912367644342108,-0.05452438783032548,0.031923140344069977,0.4,0.03343653678894043,1.3096749782562256,STABILIZE
0.17,0.015,0.13,0.011054254038211225,0.03172366417956515,0.00016581381057316838,0.048821898820956625,0.08071137681109494,0.17,0.015,0.13,-0.007324890463896325,0.013361315136915075,-0.00010987335695844487,-0.0014911927828708286,0.0117602489970858,0.002,8e-05,0,-0.7629450987018811,-0.0011499607588840695,-6.103560789615049e-05,-0.0,-0.0012109963667802201,0.2,0.02,0.0,-0.18554541494425741,-0.019004296093914012,-0.003710908298885148,0.0,-0.02271520439279916,0.07859597139361808,0.0,-0.07859597139361808,0.1866097892915597,0.0,-0.1866097892915597,-0.5749803794420347,0.0,0.5749803794420347,-0.09502148046957005,0,0.09502148046957005,0.08073076944749677,-0.011626378095999354,0.02271520439279916,0.4,0.03345847129821777,1.3431289196014404,STABILIZE
0.17,0.015,0.13,0.020228175136711067,0.046644582906442585,0.00030342262705066597,0.1412951704563957,0.18824317598988893,0.17,0.015,0.13,-0.0036910943250808353,0.018475949753896062,-5.5366414876212525e-05,0.07069301728834773,0.08911360062736759,0.002,8e-05,0,-0.7812865825799674,-0.0010971392599070588,-6.25029266063974e-05,0.0,-0.0011596421865134562,0.2,0.02,0.0,-0.1943425218310839,-0.05262197651667359,-0.003886850436621678,-0.0,-0.05650882695329527,0.10868205737585918,0.0,-0.10868205737585918,0.27437989944966223,0.0,-0.27437989944966223,-0.5485696299535294,0.0,0.5485696299535294,-0.2631098825833679,0,0.2631098825833679,0.1886504113206662,-0.08824822622624053,0.05650882695329527,0.4,0.03343510627746582,1.3765590190887451,STABILIZE
0.17,0.015,0.13,0.02748193927074792,0.036848745577977265,0.0004122290890612188,0.09158337626501462,0.1288443509320531,0.17,0.015,0.13,5.319242992551151e-06,0.018777589208034663,7.978864488826726e-08,0.06788482344812874,0.0866624924448083,0.002,8e-05,0,-0.7999043425816555,-0.0011126735903751789,-6.399234740653245e-05,-0.0,-0.0011766659377817114,0.2,0.02,0.0,-0.20209786763844229,-0.04634912289820112,-0.004041957352768846,-0.0,-0.050391080250969965,0.11045640710608624,0.0,-0.11045640710608624,0.21675732692927802,0.0,-0.21675732692927802,-0.5563367951875894,0.0,0.5563367951875894,-0.23174561449100556,0,0.23174561449100556,0.12919382190741457,-0.08614064513807494,0.050391080250969965,0.4,0.033464908599853516,1.4100422859191895,STABILIZE
0.17,0.015,0.13,0.034653555014427524,0.03645429104488586,0.0005198033252164128,0.03401491405708511,0.07098900842718739,0.17,0.015,0.13,0.004820436275420807,0.02447588995130198,7.23065441313121e-05,0.0464008404874141,0.0709490369828474,0.002,8e-05,0,-0.8174693063049637,-0.0010504127294370487,-6.539754450439711e-05,0.0,-0.0011158102739414458,0.2,0.02,0.0,-0.2116422025815134,-0.057076638905375114,-0.004232844051630268,-0.0,-0.06130948295700538,0.1439758232429528,0.0,-0.1439758232429528,0.2144370061463874,0.0,-0.2144370061463874,-0.5252063647185243,0.0,0.5252063647185243,-0.28538319452687555,0,0.28538319452687555,0.07134151476214103,-0.0705945708798626,0.06130948295700538,0.4,0.03344392776489258,1.4434783458709717,STABILIZE
0.17,0.015,0.13,0.041351593435618395,0.03402205196126341,0.0006202739015342759,0.029682078558152084,0.06432440442094976,0.17,0.015,0.13,0.007501005592247806,0.013615698036954827,0.00011251508388371709,-0.014459681694825111,-0.0007314685739865674,0.002,8e-05,0,-0.8344827724340704,-0.0010166857681696694,-6.675862179472564e-05,0.0,-0.001083444389964395,0.2,0.02,0.0,-0.2183723801980478,-0.04021799995403905,-0.004367447603960956,-0.0,-0.04458544755800001,0.08009234139385192,0.0,-0.08009234139385192,0.2001297174191965,0.0,-0.2001297174191965,-0.5083428840848346,0.0,0.5083428840848346,-0.20108999977019526,0,0.20108999977019526,0.06432144103422247,0.0009572218476792557,0.04458544755800001,0.4,0.03346848487854004,1.476947546005249,STABILIZE
0.17,0.015,0.13,0.0483156832210329,0.03541708253234534,0.0007247352483154935,0.01694766817394369,0.05308948595460451,0.17,0.015,0.13,0.008457257515894021,0.004863184471346698,0.00012685886273841032,-0.038840720717933104,-0.033850677383848,0.002,8e-05,0,-0.8516216871829989,-0.001025446045577724,-6.812973497463992e-05,0.0,-0.001093575780552364,0.2,0.02,0.0,-0.22100271704393942,-0.015737685592523098,-0.004420054340878788,0.0,-0.020157739933401884,0.028606967478509986,0.0,-0.028606967478509986,0.2083357796020314,0.0,-0.2083357796020314,-0.5127230227888621,0.0,0.5127230227888621,-0.07868842796261548,0,0.07868842796261548,0.05304294632421444,0.033923557058716795,0.020157739933401884,0.4,0.03342723846435547,1.5103673934936523,STABILIZE
0.17,0.015,0.13,0.05753233249849745,0.046831444318178365,0.0008629849874774617,0.0008738740895058888,0.048568303395161716,0.17,0.015,0.13,0.010475944032567307,0.010257307439548072,0.0001571391604885096,-0.03757826648771825,-0.027163819887681663,0.002,8e-05,0,-0.8683015646068073,-0.0009970993187131455,-6.94641251685446e-05,0.0,-0.00106656344388169,0.2,0.02,0.0,-0.22814450228027666,-0.04269257508681125,-0.004562890045605533,0.0,-0.04725546513241678,0.06033710258557689,0.0,-0.06033710258557689,0.2754790842245786,0.0,-0.2754790842245786,-0.49854965935657275,0.0,0.49854965935657275,-0.21346287543405623,0,0.21346287543405623,0.048466764215419615,0.02734457847657937,0.04725546513241678,0.4,0.03345680236816406,1.5439541339874268,STABILIZE
0.17,0.015,0.13,0.06507241802277514,0.038314981212233555,0.000976086270341627,0.0067089370654397785,0.04600000454801496,0.17,0.015,0.13,0.011334861008263884,0.004364590783582044,0.00017002291512395825,-0.06589593805586355,-0.06136132435715755,0.002,8e-05,0,-0.8848507713480064,-0.0009893514638992314,-7.078806170784051e-05,0.0,-0.0010601395256070718,0.2,0.02,0.0,-0.23249280208100748,-0.025995184183759158,-0.00464985604162015,0.0,-0.030645040225379307,0.02567406343283555,0.0,-0.02567406343283555,0.22538224242490323,0.0,-0.22538224242490323,-0.49467573194961567,0.0,0.49467573194961567,-0.12997592091879578,0,0.12997592091879578,0.045860687665530454,0.06146551774878624,0.030645040225379307,0.4,0.03345465660095215,1.5772926807403564,STABILIZE
0.17,0.015,0.13,0.0744163358654732,0.04725787289980969,0.0011162450379820978,0.04920382781481955,0.09757794575261133,0.17,0.015,0.13,0.012171481169048582,0.004231296752537084,0.00018257221753572873,-0.0925611250579811,-0.08814725608790829,0.002,8e-05,0,-0.9025436817826619,-0.0010527506349422913,-7.220349454261296e-05,-0.0,-0.0011249541294849042,0.2,0.02,0.0,-0.23590836742928933,-0.020323047484870307,-0.004718167348585787,0.0,-0.025041214833456095,0.024889980897276964,0.0,-0.024889980897276964,0.27798748764593934,0.0,-0.27798748764593934,-0.5263753174711456,0.0,0.5263753174711456,-0.10161523742435154,0,0.10161523742435154,0.09742146141254605,0.08832017385269714,0.025041214833456095,0.4,0.033612728118896484,1.6108970642089844,STABILIZE
0.17,0.015,0.13,0.08557771188799751,0.05672669320464334,0.0012836656783199625,0.10361378365685699,0.16162414253982027,0.17,0.015,0.13,0.010598811648685176,-0.007992951873847156,0.00015898217473027764,-0.09882751317409581,-0.1066614828732127,0.002,8e-05,0,-0.9176168580312614,-0.0009012713791353295,-7.340934864250091e-05,0.0,-0.0009746807277778304,0.2,0.02,0.0,-0.24078355851503197,-0.02915026084037047,-0.00481567117030064,0.0,-0.03396593201067111,-0.0470173639638068,0.0,0.0470173639638068,0.33368643061554903,0.0,-0.33368643061554903,-0.45063568956766475,0.0,0.45063568956766475,-0.14575130420185234,0,0.14575130420185234,0.16135229012559452,0.10707228330277992,0.03396593201067111,0.4,0.03344869613647461,1.6443533897399902,STABILIZE
0.17,0.015,0.13,0.09655110002820179,0.05577722525040763,0.0014482665004230267,0.0928892146722988,0.15011470642312946,0.17,0.015,0.13,0.00608370667909794,-0.022950070087761794,9.12556001864691e-05,-0.1271791370939155,-0.15003795158149083,0.002,8e-05,0,-0.9325666577802496,-0.0008939899042106153,-7.460533262241997e-05,0.0,-0.0009685952368330353,0.2,0.02,0.0,-0.2421029388360313,-0.00788982265041621,-0.004842058776720626,0.0,-0.012731881427136837,-0.13500041228095172,0.0,0.13500041228095172,0.3281013250023978,0.0,-0.3281013250023978,-0.44699495210530765,0.0,0.44699495210530765,-0.039449113252081044,0,0.039449113252081044,0.15001136718264682,0.15014127252446358,0.012731881427136837,0.4,0.033445119857788086,1.6778018474578857,STABILIZE
0.17,0.015,0.13,0.10969966667732976,0.06690366631047646,0.0016454950001599463,0.09164418202373407,0.1601933433343705,0.17,0.015,0.13,-0.001365377212915195,-0.03790306854953233,-2.0480658193727925e-05,-0.22028759796697783,-0.2582111471747039,0.002,8e-05,0,-0.9472738095854614,-0.0008804022727886126,-7.578190476683692e-05,0.0,-0.0009561841775554495,0.2,0.02,0.0,-0.24164968683301175,0.0027132656199482076,-0.004832993736660235,0.0,-0.0021197281167120276,-0.22295922676195487,0.0,0.22295922676195487,0.3935509782969203,0.0,-0.3935509782969203,-0.4402011363943063,0.0,0.4402011363943063,0.013566328099741037,0,-0.013566328099741037,0.16025447732805087,0.25817320982284997,0.0021197281167120276,0.4,0.033410072326660156,1.7112035751342773,STABILIZE
0.17,0.015,0.13,0.12242456997913831,0.06464046720426099,0.0018363685496870746,0.12023496981982279,0.18671180557377087,0.17,0.015,0.13,-0.009690002299618276,-0.04228775984712745,-0.00014535003449427415,-0.2133869460728116,-0.25582005595443336,0.002,8e-05,0,-0.9620780674258019,-0.0008847441723616555,-7.696624539406417e-05,0.0,-0.0009617104177557196,0.2,0.02,0.0,-0.24021738329014053,0.008559849647816618,-0.004804347665802811,0.0,0.0037555019820138067,-0.2487515285125144,0.0,0.2487515285125144,0.3802380423780058,0.0,-0.3802380423780058,-0.44237208618082774,0.0,0.44237208618082774,0.042799248239083085,0,-0.042799248239083085,0.18690284792484546,0.2556805131540711,-0.0037555019820138067,0.4,0.03346562385559082,1.7446835041046143,STABILIZE
0.17,0.015,0.13,0.13482122997287546,0.0628977628153045,0.0020223184495931318,0.0715891356804991,0.13650921694539675,0.17,0.015,0.13,-0.018990691103814357,-0.04718952675324034,-0.00028486036655721536,-0.23515521990103455,-0.2826296070208321,0.002,8e-05,0,-0.9770376405264332,-0.0008929574874836482,-7.816301124211466e-05,0.0,-0.0009711204987257628,0.2,0.02,0.0,-0.2377578847932096,0.014681084704192382,-0.004755157695864192,0.0,0.00992592700832819,-0.277585451489649,0.0,0.277585451489649,0.3699868400900264,0.0,-0.3699868400900264,-0.44647874374182406,0.0,0.44647874374182406,0.07340542352096191,0,-0.07340542352096191,0.13687120035028497,0.2824544841040191,-0.00992592700832819,0.4,0.03350567817687988,1.778174638748169,STABILIZE
0.17,0.015,0.13,0.14776958812045668,0.06575871655623199,0.00221654382180685,0.04136528641503622,0.10934054679307506,0.17,0.015,0.13,-0.028955302751217694,-0.05060564941485864,-0.0004343295412682654,-0.19486894641714153,-0.24590892537326844,0.002,8e-05,0,-0.9937683167338814,-0.0009996159876297915,-7.950146533871053e-05,-0.0,-0.001079117452968502,0.2,0.02,0.0,-0.23581813452469305,0.011589521884089227,-0.004716362690493861,0.0,0.0068731591935953665,-0.29768029067563906,0.0,0.29768029067563906,0.38681597974254106,0.0,-0.38681597974254106,-0.49980799381489577,0.0,0.49980799381489577,0.05794760942044613,0,-0.05794760942044613,0.1095891973568649,0.24579821515609598,-0.0068731591935953665,0.4,0.03347420692443848,1.8116569519042969,STABILIZE
0.17,0.015,0.13,0.1617076978475664,0.0707484217345942,0.002425615467713496,0.06849285491142944,0.14166689211373712,0.17,0.015,0.13,-0.0390768163047473,-0.05137576927556688,-0.0005861522445712095,-0.12998833814518276,-0.18195025966532086,0.002,8e-05,0,-1.0099458204790381,-0.0009660630247351873,-8.079566563832305e-05,-0.0,-0.0010468586903735104,0.2,0.02,0.0,-0.23611490034511062,-0.0017721800014816826,-0.004722298006902213,0.0,-0.006494478008383896,-0.30221040750333455,0.0,0.30221040750333455,0.4161671866740835,0.0,-0.4161671866740835,-0.4830315123675936,0.0,0.4830315123675936,-0.008860900007408412,0,0.008860900007408412,0.14163875147002047,0.18197216654053636,0.006494478008383896,0.4,0.03349161148071289,1.8451933860778809,STABILIZE
0.17,0.015,0.13,0.17393534916209677,0.062145941802598866,0.0026090302374314513,-0.021774688536025575,0.04298028350400475,0.17,0.015,0.13,-0.050835422337450004,-0.05976206119973873,-0.00076253133506175,-0.09988361805940749,-0.16040821059420796,0.002,8e-05,0,-1.025335589244606,-0.0009202014154917085,-8.20268471395685e-05,-0.0,-0.001002228262631277,0.2,0.02,0.0,-0.23227006815252044,0.02298942940497787,-0.004645401363050409,0.0,0.01834402804192746,-0.35154153646905134,0.0,0.35154153646905134,0.3655643635446992,0.0,-0.3655643635446992,-0.4601007077458542,0.0,0.4601007077458542,0.11494714702488934,0,-0.11494714702488934,0.04330200873691208,0.16032166053116084,-0.01834402804192746,0.4,0.03344869613647461,1.8786523342132568,STABILIZE
0.17,0.015,0.13,0.19056984981830458,0.08454817978170992,0.0028585477472745685,0.09100642710507707,0.17841315463406154,0.17,0.015,0.13,-0.06255463458533166,-0.05956524241466454,-0.0009383195187799748,-0.0789451620363791,-0.1394487239698236,0.002,8e-05,0,-1.0404106322631395,-0.000901434401619645,-8.323285058105117e-05,-0.0,-0.0009846672522006961,0.2,0.02,0.0,-0.23198575119067777,0.0017001151509410146,-0.004639715023813555,-0.0,-0.002939599872872541,-0.3503837789097914,0.0,0.3503837789097914,0.4973422340100583,0.0,-0.4973422340100583,-0.45071720080982247,0.0,0.45071720080982247,0.008500575754705073,0,-0.008500575754705073,0.17843384170635482,0.1394222525180293,0.002939599872872541,0.4,0.0334467887878418,1.912193775177002,STABILIZE
0.17,0.015,0.13,0.2055447773573055,0.07603177063582056,0.0030831716603595826,0.06006008957839684,0.13917503187457697,0.17,0.015,0.13,-0.0762606546534756,-0.06958918308199036,-0.001143909819802134,-0.10235761708445842,-0.17309070998625092,0.002,8e-05,0,-1.0553621373855788,-0.0008930923373076361,-8.44289709908463e-05,-0.0,-0.0009775213082984823,0.2,0.02,0.0,-0.2275315361977543,0.026606186108517716,-0.004550630723955086,0.0,0.02205555538456263,-0.4093481357764139,0.0,0.4093481357764139,0.4472457096224739,0.0,-0.4472457096224739,-0.446546168653818,0.0,0.446546168653818,0.13303093054258858,0,-0.13303093054258858,0.13957654318826734,0.1727671032704076,-0.02205555538456263,0.4,0.03348255157470703,1.9455764293670654,STABILIZE
0.17,0.015,0.13,0.22404652759432164,0.09377814306946476,0.0033606979139148246,0.12791196440390962,0.22505080538728922,0.17,0.015,0.13,-0.08986314649603551,-0.06894571647393145,-0.0013479471974405326,-0.08381540101721083,-0.15410906468858282,0.002,8e-05,0,-1.0708159294714235,-0.0009215204009330214,-8.566527435771389e-05,0.0,-0.0010071856752907353,0.2,0.02,0.0,-0.22579556228397252,0.01035173353019779,-0.004515911245679451,-0.0,0.0058358222845183395,-0.4055630380819497,0.0,0.4055630380819497,0.5516361357027338,0.0,-0.5516361357027338,-0.46076020046651067,0.0,0.46076020046651067,0.05175866765098895,0,-0.05175866765098895,0.2251899293774273,0.15390570012720986,-0.0058358222845183395,0.4,0.033539772033691406,1.9790990352630615,STABILIZE
0.17,0.015,0.13,0.2415236917467124,0.08635956588807389,0.003622855376200686,0.07214735979138605,0.16212978105566062,0.17,0.015,0.13,-0.1037496303906721,-0.0686170084800914,-0.0015562444558600815,-0.07883735636893696,-0.14901060930488846,0.002,8e-05,0,-1.086808091661288,-0.0009296677062750433,-8.694464733290303e-05,0.0,-0.0010166123536079464,0.2,0.02,0.0,-0.22036818132453412,0.03155083563897184,-0.004407363626490682,0.0,0.027143472012481157,-0.4036294616475965,0.0,0.4036294616475965,0.5079974464004346,0.0,-0.5079974464004346,-0.4648338531375217,0.0,0.4648338531375217,0.15775417819485918,0,-0.15775417819485918,0.16253944135276113,0.14856364829696017,-0.027143472012481157,0.4,0.03440403938293457,2.0135128498077393,STABILIZE
0.17,0.015,0.13,0.2579707552328693,0.0836999044229297,0.003869561328493039,0.09930448294525014,0.1868739486966729,0.17,0.015,0.13,-0.11313386480014768,-0.04775682442136722,-0.0016970079720022152,0.05501412191323019,0.005560289519860755,0.002,8e-05,0,-1.1048751328536452,-0.0010816947012193116,-8.839001062829162e-05,-0.0,-0.0011700847118476033,0.2,0.02,0.0,-0.2185159702592598,0.01108940237372404,-0.004370319405185196,-0.0,0.006719082968538843,-0.28092249659627777,0.0,0.28092249659627777,0.49235237895840994,0.0,-0.49235237895840994,-0.5408473506096558,0.0,0.5408473506096558,0.055447011868620194,0,-0.055447011868620194,0.1868684803179399,-0.005741130959585914,-0.006719082968538843,0.4,0.03340506553649902,2.04689359664917,STABILIZE
0.17,0.015,0.13,0.27329266234090055,0.07789220697602624,0.0040993899351135085,-0.02969558519349374,0.05229601171764601,0.17,0.015,0.13,-0.1241831636696522,-0.056171484947346334,-0.0018627474550447828,0.015628974911620568,-0.04240525749077055,0.002,8e-05,0,-1.1229185012030798,-0.001079145175911636,-8.983348009624639e-05,-0.0,-0.0011689786560078823,0.2,0.02,0.0,-0.21743518463122247,0.0064640070196631235,-0.00434870369262445,0.0,0.0021153033270386737,-0.33042049969027254,0.0,0.33042049969027254,0.45818945280015433,0.0,-0.45818945280015433,-0.539572587955818,0.0,0.539572587955818,0.032320035098315616,0,-0.032320035098315616,0.05231992382135731,0.042375751034737875,-0.0021153033270386737,0.4,0.03344011306762695,2.080338954925537,STABILIZE
0.17,0.015,0.13,0.28898167733321867,0.07820287398298319,0.00433472515999828,0.010598710352761774,0.09313630949574324,0.17,0.015,0.13,-0.1377979190619483,-0.06786359760470582,-0.0020669687859292242,0.008984312229299933,-0.06094625416133512,0.002,8e-05,0,-1.1401817692346663,-0.0010123510172523318,-9.121454153877331e-05,-0.0,-0.0011035655587911051,0.2,0.02,0.0,-0.21337781635723033,0.023793182681447297,-0.004267556327144607,-0.0,0.01952562635430269,-0.3991976329688578,0.0,0.3991976329688578,0.460016905782254,0.0,-0.460016905782254,-0.5061755086261659,0.0,0.5061755086261659,0.11896591340723649,0,-0.11896591340723649,0.09326265420457341,0.06075273963783933,-0.01952562635430269,0.4,0.03410530090332031,2.1144351959228516,STABILIZE
0.17,0.015,0.13,0.30614885845779904,0.0871357569325226,0.004592232876866985,-0.02953363037255347,0.062194359436836114,0.17,0.015,0.13,-0.1515641140169983,-0.06987331285107973,-0.0022734617102549743,-0.0031270339666943175,-0.07527380852802902,0.002,8e-05,0,-1.1570788738742646,-0.0010089991184203452,-9.256630990994117e-05,-0.0,-0.0011015654283302863,0.2,0.02,0.0,-0.19581528849691168,0.10487344137507518,-0.003916305769938234,0.0,0.10095713560513694,-0.4110194873592925,0.0,0.4110194873592925,0.5125632760736623,0.0,-0.5125632760736623,-0.5044995592101725,0.0,0.5044995592101725,0.5243672068753759,0,-0.5243672068753759,0.06288064615011027,0.0747014654194773,-0.10095713560513694,0.4,0.0334928035736084,2.1480257511138916,STABILIZE
0.17,0.015,0.13,0.3233277038800642,0.08730371915197026,0.004849915558200963,0.004213164920678595,0.09636679963084982,0.17,0.015,0.13,-0.17094121063683068,-0.09847533752680895,-0.00256411815955246,-0.1353591691997385,-0.23639862488609992,0.002,8e-05,0,-1.1751252832497796,-0.0010789731872129092,-9.401002265998237e-05,-0.0,-0.0011729832098728917,0.2,0.02,0.0,-0.1858092620159799,0.059824833066880724,-0.003716185240319598,0.0,0.05610864782656112,-0.5792666913341703,0.0,0.5792666913341703,0.5135512891292368,0.0,-0.5135512891292368,-0.5394865936064546,0.0,0.5394865936064546,0.2991241653344036,0,-0.2991241653344036,0.09759964742310806,0.23589230326998026,-0.05610864782656112,0.4,0.033451080322265625,2.1814584732055664,STABILIZE
0.17,0.015,0.13,0.34077913556792494,0.08871114540490459,0.005111687033518874,0.022826590981478753,0.11664942341990221,0.17,0.015,0.13,-0.18942049959992308,-0.09393606894295417,-0.002841307493998846,-0.2101059769605715,-0.30688335339752454,0.002,8e-05,0,-1.1914721124364522,-0.0009776011954883467,-9.531776899491619e-05,0.0,-0.001072918964483263,0.2,0.02,0.0,-0.17470447492302704,0.06641075779127317,-0.0034940894984605408,0.0,0.06291666829281263,-0.5525651114291421,0.0,0.5525651114291421,0.521830267087674,0.0,-0.521830267087674,-0.4888005977441733,0.0,0.4888005977441733,0.33205378895636584,0,-0.33205378895636584,0.11842597609486105,0.30620216975502473,-0.06291666829281263,0.4,0.03344273567199707,2.2148702144622803,STABILIZE
0.17,0.015,0.13,0.3585741239741907,0.08881074038566661,0.00537861185961286,0.04983576322377399,0.14402511546905344,0.17,0.015,0.13,-0.2067670574265491,-0.08657272534007356,-0.0031015058613982367,-0.13855963735383356,-0.22823386855530536,0.002,8e-05,0,-1.206535915724806,-0.0008844707830552908,-9.652287325798447e-05,0.0,-0.0009809936563132753,0.2,0.02,0.0,-0.16779764291063687,0.040553444581642305,-0.0033559528582127376,0.0,0.037197491723429565,-0.5092513255298444,0.0,0.5092513255298444,0.5224161199156859,0.0,-0.5224161199156859,-0.4422353915276454,0.0,0.4422353915276454,0.2027672229082115,0,-0.2027672229082115,0.1448319214235775,0.22772274189977,-0.037197491723429565,0.4,0.034062862396240234,2.248906373977661,STABILIZE
0.17,0.015,0.13,0.37470773706389326,0.08152289506715008,0.005620616055958399,0.015312524467079409,0.10245603559018789,0.17,0.015,0.13,-0.2215866684543243,-0.07488326316219908,-0.003323800026814864,-0.03298818040435813,-0.11119524359337207,0.002,8e-05,0,-1.22041836221331,-0.0008252680632483525,-9.763346897706482e-05,0.0,-0.0009229015322254173,0.2,0.02,0.0,-0.15681773612227015,0.06527211480617912,-0.003136354722445403,0.0,0.06213576008373371,-0.44048978330705335,0.0,0.44048978330705335,0.47954644157147097,0.0,-0.47954644157147097,-0.4126340316241762,0.0,0.4126340316241762,0.3263605740308956,0,-0.3263605740308956,0.10308774557700257,0.11060984648076495,-0.06213576008373371,0.4,0.033643484115600586,2.2825541496276855,STABILIZE
0.17,0.015,0.13,0.388886310154545,0.07198641263764016,0.0058332946523181745,-0.06903787912972535,0.008781828160232985,0.17,0.015,0.13,-0.2338510615566442,-0.06226787822506116,-0.0035077659233496627,0.033811716422057006,-0.031963927726353814,0.002,8e-05,0,-1.232422032722049,-0.0007169900773210746,-9.859376261776392e-05,0.0,-0.0008155838399388385,0.2,0.02,0.0,-0.14438176002022463,0.07428120807279108,-0.0028876352004044924,-0.0,0.07139357287238658,-0.36628163661800683,0.0,0.36628163661800683,0.4234494861037656,0.0,-0.4234494861037656,-0.3584950386605373,0.0,0.3584950386605373,0.3714060403639554,0,-0.3714060403639554,0.008988840639765934,0.03190633049230706,-0.07139357287238658,0.4,0.03348350524902344,2.3160479068756104,STABILIZE
0.17,0.015,0.13,0.4047332438516757,0.08052741832360802,0.006070998657775135,-0.03075923211840423,0.055839184862978924,0.17,0.015,0.13,-0.24727882182759947,-0.06823420159094402,-0.003709182327413992,0.13730658999885986,0.06536320608050185,0.002,8e-05,0,-1.245940650000928,-0.0008081870411606746,-9.967525200007425e-05,0.0,-0.0009078622931607489,0.2,0.02,0.0,-0.12849889846497964,0.09495292766038357,-0.0025699779692995926,0.0,0.09238294969108399,-0.40137765641731776,0.0,0.40137765641731776,0.4736906960212236,0.0,-0.4736906960212236,-0.4040935205803373,0.0,0.4040935205803373,0.47476463830191784,0,-0.47476463830191784,0.05529566108122688,-0.06582365183483957,-0.09238294969108399,0.4,0.033454179763793945,2.3495142459869385,STABILIZE
0.17,0.015,0.13,0.42161010068247007,0.08586201823149717,0.006324151510237051,-0.012779014591735055,0.07940715514999916,0.17,0.015,0.13,-0.2620795428791434,-0.07529955331778185,-0.003931193143187151,0.08420906892136794,0.0049783224603989346,0.002,8e-05,0,-1.2605705876218183,-0.0008756550870918788,-0.00010084564700974548,0.0,-0.0009765007341016243,0.2,0.02,0.0,-0.11792036998199149,0.06331634843642785,-0.0023584073996398298,-0.0,0.06095794103678802,-0.4429385489281285,0.0,0.4429385489281285,0.5050706954793951,0.0,-0.5050706954793951,-0.4378275435459394,0.0,0.4378275435459394,0.3165817421821392,0,-0.3165817421821392,0.07937843595195113,-0.005417000033020438,-0.06095794103678802,0.4,0.03341484069824219,2.3829097747802734,STABILIZE
0.17,0.015,0.13,0.43713601012001746,0.07893661299712848,0.006557040151800262,-0.04490305364674181,0.040590599502186936,0.17,0.015,0.13,-0.2790082740894096,-0.08606881995881856,-0.004185124111341144,0.0018891741194459,-0.0883647699507138,0.002,8e-05,0,-1.2750447719855824,-0.0008657581999169097,-0.0001020035817588466,0.0,-0.0009677617816757564,0.2,0.02,0.0,-0.10477171967137854,0.07864727668352545,-0.0020954343934275707,0.0,0.07655184229009787,-0.5062871762283444,0.0,0.5062871762283444,0.4643330176301675,0.0,-0.4643330176301675,-0.43287909995845486,0.0,0.43287909995845486,0.3932363834176272,0,-0.3932363834176272,0.04119610998726176,0.0880841067293467,-0.07655184229009787,0.4,0.03343701362609863,2.416356086730957,STABILIZE
0.17,0.015,0.13,0.45386535575721637,0.08227893683130853,0.006807980336358245,0.003015863443487268,0.09210278061115405,0.17,0.015,0.13,-0.29470537718984163,-0.07720212030069788,-0.004420580657847624,-0.012017778746932942,-0.09364047970547845,0.002,8e-05,0,-1.2906570128790047,-0.000903349971764417,-0.00010325256103032038,-0.0,-0.0010066025327947375,0.2,0.02,0.0,-0.0929726077318465,0.06827160501931616,-0.00185945215463693,0.0,0.06641215286467923,-0.45413011941586984,0.0,0.45413011941586984,0.48399374606652074,0.0,-0.48399374606652074,-0.4516749858822085,0.0,0.4516749858822085,0.34135802509658075,0,-0.34135802509658075,0.0926590359521958,0.09309008911902589,-0.06641215286467923,0.4,0.03456521034240723,2.450916051864624,STABILIZE
0.17,0.015,0.13,0.47006896126375197,0.08240094753255627,0.00705103441895628,0.04713345214887623,0.1365854341003888,0.17,0.015,0.13,-0.3095894021674894,-0.07569042339136998,-0.004643841032512341,-0.06272444137264736,-0.14305870579652968,0.002,8e-05,0,-1.3059739058191295,-0.0009163730228486264,-0.00010447791246553038,-0.0,-0.0010208509353141566,0.2,0.02,0.0,-0.08182821673235328,0.06667422242836028,-0.0016365643346470658,-0.0,0.06503765809371322,-0.44523778465511754,0.0,0.44523778465511754,0.48471145607386035,0.0,-0.48471145607386035,-0.45818651142431316,0.0,0.45818651142431316,0.3333711121418014,0,-0.3333711121418014,0.13741549356625163,0.14226157682421894,-0.06503765809371322,0.4,0.03342938423156738,2.4843454360961914,STABILIZE
0.17,0.015,0.13,0.4859492303176884,0.08062097218478083,0.007289238454765325,-4.292873689353627e-05,0.08786728190265262,0.17,0.015,0.13,-0.32457482270415045,-0.07607800397839713,-0.004868622340562257,-0.037218654025649,-0.1181652803446084,0.002,8e-05,0,-1.320804442994046,-0.0008857846107113772,-0.00010566435543952369,-0.0,-0.0009914489661509008,0.2,0.02,0.0,-0.06871753317086181,0.07830627844227861,-0.0013743506634172362,-0.0,0.07693192777886138,-0.4475176704611596,0.0,0.4475176704611596,0.4742410128516519,0.0,-0.4742410128516519,-0.4428923053556886,0.0,0.4428923053556886,0.391531392211393,0,-0.391531392211393,0.08867270791361595,0.11756208393502843,-0.07693192777886138,0.4,0.03348565101623535,2.5178658962249756,STABILIZE
0.17,0.015,0.13,0.5026182136941362,0.08476936895229024,0.007539273205412042,-0.005480086429156077,0.08682855572854621,0.17,0.015,0.13,-0.33940612344730237,-0.07542391616485886,-0.005091091851709535,-0.001887682561517252,-0.08240269057808564,0.002,8e-05,0,-1.3360803657094833,-0.0009139414271314434,-0.00010688642925675867,-0.0,-0.001020827856388202,0.2,0.02,0.0,-0.0548214608527059,0.08313865160592054,-0.001096429217054118,0.0,0.08204222238886642,-0.443670095087405,0.0,0.443670095087405,0.4986433467781779,0.0,-0.4986433467781779,-0.4569707135657217,0.0,0.4569707135657217,0.4156932580296027,0,-0.4156932580296027,0.08742411456762297,0.08177056742178149,-0.08204222238886642,0.4,0.03342866897583008,2.5512802600860596,STABILIZE
0.17,0.015,0.13,0.5200320311114296,0.08853887640575019,0.007800480466671444,0.04343927020376509,0.1397786270761867,0.17,0.015,0.13,-0.35336607232282186,-0.07097801467085314,-0.005300491084842328,0.06770749218502499,-0.008571013570670485,0.002,8e-05,0,-1.3519303906321958,-0.0009480932256138855,-0.00010815443125057568,-0.0,-0.0010562476568644612,0.2,0.02,0.0,-0.04443437709200734,0.0621319133277234,-0.0008886875418401468,-0.0,0.06124322578588325,-0.41751773335795966,0.0,0.41751773335795966,0.5208169200338246,0.0,-0.5208169200338246,-0.47404661280694277,0.0,0.47404661280694277,0.310659566638617,0,-0.310659566638617,0.13982304452947972,0.007813007067667972,-0.06124322578588325,0.4,0.03343558311462402,2.5847134590148926,STABILIZE
0.17,0.015,0.13,0.5377179593551451,0.08831899098627978,0.008065769390327176,0.027662576210461892,0.12404733658706885,0.17,0.015,0.13,-0.36893068548096764,-0.07772568735303284,-0.005533960282214514,-0.001839992537392616,-0.08509964017263998,0.002,8e-05,0,-1.3688820995362412,-0.0009959116218520565,-0.0001095105679628993,-0.0,-0.0011054221898149559,0.2,0.02,0.0,-0.0320501270205748,0.07275737593109889,-0.000641002540411496,0.0,0.0721163733906874,-0.45720992560607554,0.0,0.45720992560607554,0.5195234763898811,0.0,-0.5195234763898811,-0.4979558109260283,0.0,0.4979558109260283,0.36378687965549444,0,-0.36378687965549444,0.12458515392719838,0.08431031901727473,-0.0721163733906874,0.4,0.0340425968170166,2.6187376976013184,STABILIZE
0.17,0.015,0.13,0.5550537881295114,0.08804002161777459,0.008325806821942672,0.025829789547895214,0.12219561798761247,0.17,0.015,0.13,-0.38557982680777025,-0.08455267881374545,-0.005783697402116554,-0.03994788180234336,-0.13028425801820537,0.002,8e-05,0,-1.3863548263668086,-0.0010439442178367256,-0.0001109083861093447,-0.0,-0.0011548526039460703,0.2,0.02,0.0,-0.018072825962853905,0.08351027725474423,-0.0003614565192570781,0.0,0.08314882073548716,-0.497368698904385,0.0,0.497368698904385,0.5178824801045564,0.0,-0.5178824801045564,-0.5219721089183628,0.0,0.5219721089183628,0.4175513862737211,0,-0.4175513862737211,0.12314183032101475,0.12939028776503764,-0.08314882073548716,0.4,0.03347444534301758,2.6522467136383057,STABILIZE
0.17,0.015,0.13,0.5753617841122703,0.0899489044993558,0.008630426761684054,0.041566063638891794,0.14014539489993166,0.17,0.015,0.13,-0.40364917085997004,-0.08003338704110395,-0.00605473756289955,-0.02016927790436201,-0.10625740250836552,0.002,8e-05,0,-1.406485205340154,-0.0010489670219764556,-0.00011251881642721233,-0.0,-0.001161485838403668,0.2,0.02,0.0,-0.00366952977923061,0.07505364267799199,-7.33905955846122e-05,-0.0,0.07498025208240737,-0.4707846296535526,0.0,0.4707846296535526,0.529111202937387,0.0,-0.529111202937387,-0.5244835109882278,0.0,0.5244835109882278,0.3752682133899599,0,-0.3752682133899599,0.14083833443365168,0.10533722444339172,-0.07498025208240737,0.4,0.038381338119506836,2.6906158924102783,STABILIZE
