Mode,Time,Freq,North-Vision,East-Vision,Down-Vision,Yaw-Vision,North-Desired,East-Desired,Down-Desired,Roll-UAV,Pitch-UAV,Yaw-UAV,Roll-Control,Pitch-Control,Yaw-Control,Thrust-Control,northVraw,eastVraw,downVraw,yawVraw,zGyro
GUIDED_NOGPS,0.004412651062011719,227.9884763820188,356.29967670395314,70.97173205360818,37.81673930306806,-0.002651266791731109,349.7280992654804,65.67959952035471,21.611015665300183,-2.6970752173770163,2.8364371165414872,90.08421873694442,0.21170664865311847,-0.3285786098763519,0.00010605067166924436,0.4918971381811161,356.29967670395314,70.97173205360818,37.81673930306806,-6.630818246119503,-5.213915935690491
GUIDED_NOGPS,0.028443098068237305,41.63122214612552,355.473838413198,72.17359201666486,40.01144166280641,-0.011542947533346027,349.72780081220816,65.67940296299986,21.61097970429737,-2.646305567502665,2.808756494269541,90.03775979021,0.25989458231553375,-0.2873287124721719,0.00046171790133384106,0.49079976902074546,354.6480001224429,73.37545197972153,42.20614402254476,-11.890131509722664,-5.213915935690491
GUIDED_NOGPS,0.04543733596801758,58.864119909057735,355.29617782778246,73.17711904657263,41.074957448285886,-0.12546805730176053,349.7257357240379,65.67804292340224,21.61072942197428,-2.5509512174908213,2.794235512094094,89.96206763382791,0.30069394868701377,-0.2779907265445202,0.0050187222920704214,0.4902678859868442,354.94085665695144,75.18417310638817,43.20198901924483,-10.027432562768851,-4.984732817638163
GUIDED_NOGPS,0.07892537117004395,29.87140700225052,356.72990833644565,74.38805337172357,41.99006273630569,-0.20308879639562294,349.72020315911584,65.67439924974279,21.61005445682791,-2.241682172863348,2.5199645702171773,89.78780901753338,0.3500251511954662,-0.3494873414915338,0.008123551855824918,0.4898099958602611,361.0310998624353,78.02085634717638,44.73537860036509,-11.809964371257749,-4.068000345428845
GUIDED_NOGPS,0.12151956558227539,23.481452452665405,356.2075194769989,75.19255494413306,42.34550294029491,-0.3493045566898447,349.70957316097315,65.667398474374,21.60874874069467,-1.7179276859377262,2.030568282694247,89.57885304025518,0.3833810909167097,-0.3229361465022752,0.013972182267593789,0.4896316229001999,354.11796403921187,78.41056123377103,43.76726375625176,-3.1611997270719456,-4.18259190445501
GUIDED_NOGPS,0.16157150268554688,24.97323044679432,356.1550154691017,77.08783002877104,43.49775665752706,-0.5197661938882584,349.69228568079666,65.65601316990042,21.606610469642987,-1.0000263525149613,1.4246366949347342,89.37678189366035,0.4607738943945705,-0.3194562881992804,0.020790647755530335,0.48905442690605794,355.89249542961556,80.44810747679803,43.57800788922885,-2.3654998829140226,-3.495042550298022
GUIDED_NOGPS,0.20424294471740723,23.441687858041078,356.50745156839787,78.99592701292545,43.660531787930495,-0.6424689150978706,349.66684959969933,65.63926130525901,21.603442074865942,-0.07692101680351503,0.6591580780226587,89.23666056283754,0.538887381070662,-0.33662487043380834,0.025698756603914824,0.48897145514346774,358.6220681641749,82.91593690049365,43.02001967456194,-1.5489749255195306,-1.948056503444799
GUIDED_NOGPS,0.24674105644226074,23.53494635722943,356.50776984079243,81.15760207574112,43.082856171410285,-0.7428248375164589,349.63184175099076,65.61620560179949,21.599050193573856,0.5090957803888637,0.19766679515807972,89.17646610568222,0.6271470608592814,-0.3364418042552701,0.029712993500658355,0.4892580970110818,356.5099977475543,85.99254842046658,40.313610936643805,-1.8420882034825894,-1.432394487827058
GUIDED_NOGPS,0.28725767135620117,24.687043478772683,356.8449470873754,83.2028829619919,41.99970682349926,-0.8025473432938891,349.58590594244794,65.5859528893648,21.593245639886916,1.0184150360296338,-0.19799979356054428,89.17247727520693,0.7110662023289503,-0.3539085378991292,0.032101893731755565,0.48979676940819383,358.9970946766167,88.24726077843029,39.31963186080995,-1.18109959926457,-0.40107045659157625
GUIDED_NOGPS,0.3302440643310547,23.267692205277843,357.38935940751753,85.48112543169853,40.79528929881223,-0.8124796296388698,349.52775197858557,65.54765346237144,21.585843375727798,1.5547568145436488,-0.6301918860828692,89.21248852336487,0.8045530413100412,-0.3827533873277017,0.032499185185554794,0.4903952770384578,359.00329868358057,89.80177358230421,37.74517613281664,-1.0651336881572746,0.8021409131831525
GUIDED_NOGPS,0.3675801753997803,26.792618191341898,357.4881408234675,87.44314714717356,39.271382738923876,-0.7896459226933203,349.45615468292664,65.50050043588992,21.576662481714266,1.9733385545255333,-0.956443342307933,89.24689218621423,0.8852042691996199,-0.39063154609043255,0.03158583690773281,0.4911526398713952,355.73110798455116,90.25821605417313,35.95847508978708,2.5072381533728105,1.5469860468532228
GUIDED_NOGPS,0.41158390045166016,22.731137341614367,358.45817882471147,90.03888304058378,37.52459535262665,-0.7209076427467636,349.36995292027314,65.44372910172504,21.565526128051793,2.263611775854143,-1.1766381824219776,89.39493653647425,0.9919290874770433,-0.44336588058472826,0.028836305709870544,0.49202046538771255,368.79140387238715,95.8946163675448,34.286082743075774,-6.520686523257169,2.864788975654116
GUIDED_NOGPS,0.4484999179840088,27.09148688799897,359.89528124887545,92.03354932325838,35.93431103083864,-0.5972388436340927,349.26804861897654,65.37661628449641,21.55226154542618,2.463421916390285,-1.373761604015071,89.52786567810104,1.074634661404391,-0.5217985638664032,0.02388955374536371,0.4928089752572938,365.61478343252367,95.96587983383958,32.362189327703796,-5.087544559633102,4.354479242994256
GUIDED_NOGPS,0.4929161071777344,22.52023667622392,361.0131498977296,93.67015199663223,34.38398232628995,-0.45498829538371954,349.14940579320825,65.29847969771878,21.53669999589616,2.6738209845740615,-1.5056343074763285,89.72939040956226,1.142914798307732,-0.5860206957751314,0.018199531815348783,0.4935763588348031,364.83544462044875,96.43027414529946,31.567988338066506,-7.531919015383224,4.870141258611998
GUIDED_NOGPS,0.5356383323669434,23.410025283673892,361.9967120641827,95.2000189018811,33.10559411055051,-0.27204611220568936,349.01304956523023,65.20867729988241,21.518676743786017,2.883716539749962,-1.6904335064857803,89.96189687909866,1.2066089790989656,-0.6456551176437758,0.010881844488227575,0.49420654131661773,366.4905654957996,97.4511081085486,31.35323505411944,-8.995623100154688,5.500394833255903
GUIDED_NOGPS,0.5886168479919434,18.87880451906198,363.49733626537716,96.6861436581563,32.228440934742636,-0.044119372658029885,348.85806518766555,65.10660665053352,21.49803102657821,3.141622134932116,-1.934855134307566,90.29658980880762,1.2682913238797058,-0.7335825385304748,0.0017647749063211954,0.4946347950459178,368.51499135711,97.6888398355492,31.57270921074768,-9.25049055779634,6.589014644004467
GUIDED_NOGPS,0.6322555541992188,22.923577217998677,364.9581143795631,97.10235736513539,31.786634617940543,0.2732666059024666,348.683597065769,64.99170426635462,21.474606025805965,3.3724436821776425,-2.105828429611325,90.6369996068519,1.2856209850561602,-0.8227987874652781,-0.010930664236098665,0.49484398570393273,370.6833195901039,97.97568490244026,32.07705115906531,-7.891306330696196,7.62033867523995
GUIDED_NOGPS,0.6696860790252686,26.72058814160758,367.69184823209594,97.77434322481102,31.9115316762009,0.5909622632612423,348.48884777969755,64.86344497724495,21.448248837945908,3.534385973294764,-2.235461578076759,90.99904744418676,1.312027469941515,-0.9769423406143294,-0.023638490530449696,0.4947683585808725,380.8731695038434,99.3258091322177,32.9866746190056,-9.916043810007011,8.59436692696235
GUIDED_NOGPS,0.7154669761657715,21.8465849605967,371.2307319108599,98.28296664504117,32.20395701322847,0.9192099890154156,348.2730771067809,64.72134128240086,21.41881044531068,3.73322302531759,-2.450280418983769,91.47580147844282,1.3300273876426103,-1.1729072821913122,-0.03676839956061662,0.49460742671604113,384.04217741466306,98.97339124645022,33.03011502320433,-14.822407566423735,10.026761414789407
GUIDED_NOGPS,0.7557551860809326,24.828503945397824,373.02514120632327,98.31041254613812,32.47603598951113,1.3441943478346514,348.03560104379204,64.56494270639615,21.38614568694153,3.809050077935779,-2.5979119696858324,91.86810022361168,1.3267822047961184,-1.2845888037614572,-0.05376777391338606,0.4944550548487152,383.14667823609386,97.58833761403343,32.71362993553277,-3.39820008947072,10.714310768946394
GUIDED_NOGPS,0.7985365390777588,23.37870874603555,374.4385443689773,97.71713045441042,32.5963517781975,1.7334913667098606,347.77579082921795,64.39383515526255,21.35011322950095,3.8507095361178023,-2.6355057577644057,92.2492657604334,1.299164121869776,-1.3767313589058854,-0.06933965466839442,0.4943768807256517,376.922008733756,94.7224293769107,32.17428815417952,2.484038900537385,10.714310768946394
GUIDED_NOGPS,0.8438942432403564,22.051259943114605,377.4089595225678,97.23332650951457,32.80386087471687,2.1642552359553666,347.4930719655299,64.20764027257006,21.31057553816529,3.8748316298321717,-2.835709701394881,92.86874342758605,1.2713069456337989,-1.5483232844133155,-0.08657020943821467,0.4942533573317242,388.59876584917254,95.556665177961,33.11459664166217,-12.226950466838574,11.287268564077218
GUIDED_NOGPS,0.8861806392669678,23.654135507957456,381.6029596934214,96.22857611919619,33.13725880412327,2.6354500228640645,347.18692324145417,64.00601479550733,21.267398847517356,3.8263586310662374,-2.9560960543845867,93.33825063113272,1.2165845323148694,-1.7812290548051144,-0.10541800091456258,0.49406507002169703,400.0425668626283,94.30205718062582,34.653664266037595,-9.368878801438456,11.172677005051053
GUIDED_NOGPS,0.9363148212432861,19.94808357232202,384.7056959836594,94.43238214688358,33.36087107281219,3.0677184627912624,346.85687575424254,63.788649910962064,21.220453132439033,3.8236572912494977,-3.138596574573212,93.85855395153679,1.1314001725239833,-1.9575330994692097,-0.1227087385116505,0.49392979102981344,393.3368816790138,89.99242138488712,34.14817636664893,-19.443852107029613,11.058085446024888
GUIDED_NOGPS,0.985386848449707,20.383754440702347,388.12260580351364,92.17117341352937,33.83088710719231,3.584811205382229,346.5025119319429,63.55527061160144,21.1696120790039,3.727918956540252,-3.405716735275948,94.41860214272116,1.0213885763056547,-2.149064661290532,-0.14339244821528918,0.4936693624859058,398.0185981489381,86.28229394726232,35.06371010743341,-11.09718063066046,10.657014989433312
GUIDED_NOGPS,1.026688575744629,24.218633253457284,390.0111381378422,89.89452299523677,34.334970393553604,4.084596395145852,346.12346455566967,63.30563505195248,21.114753055369853,3.6792884365365843,-3.6800192667777756,94.85791991013637,0.913954665086119,-2.263078420912566,-0.1633838558058341,0.4933898913309081,395.9814281784714,83.33917728544768,34.69470458598598,0.12823283695493615,10.485127650894066
GUIDED_NOGPS,1.067037582397461,24.78829821813776,391.46621457875574,86.29494560412687,34.47613465817744,4.508462687890374,345.71941578187455,63.03953390448242,21.055757082671697,3.619690767159992,-3.9143775713528997,95.19231914171102,0.757171873110735,-2.3498638150524416,-0.18033850751561495,0.49328981121224713,395.68278894197164,77.5587782224114,33.820417964781356,-22.084063338321286,11.000789666511807
GUIDED_NOGPS,1.1080574989318848,24.38534659682211,392.52094627700376,82.28990716247179,34.09305484864292,4.901359399667398,345.2900961646169,62.75678971567912,20.992508805913776,3.4644738644978057,-4.258965310735097,95.74389789832458,0.5864907950522364,-2.4140595239180396,-0.19605437598669592,0.49344972697863543,391.5845318220783,74.27686497235045,32.73826521836497,-28.879689153919585,10.313240312354818
GUIDED_NOGPS,1.1444480419158936,27.4847088889617,394.79941979975627,78.76910233674829,33.622581567776855,5.302440591870694,344.8352836778344,62.457256262131466,20.924896464862584,3.3032487432435356,-4.46389019574252,96.09945022575876,0.42867840291262654,-2.5390744262232667,-0.21209762367482776,0.4936511574485429,395.14979691577605,72.38839725626963,31.795809962318593,6.417645029477143,9.912169855763242
GUIDED_NOGPS,1.1926333904266357,20.75535299852041,396.18719586404205,75.60560467360155,32.92693653738324,5.611883776591273,344.35480273761345,62.14081790660976,20.85281186493938,2.9317671340044127,-4.5338219413333425,96.55615082461166,0.2925069951816654,-2.620983314482732,-0.2244753510636509,0.4939629376637781,399.70097436345895,70.46480563152856,31.585484955465347,-17.459125499363864,8.651662706475431
GUIDED_NOGPS,1.2372393608093262,22.42331770479709,397.3135561337243,72.75624254905274,32.17249379697786,6.023280753129645,343.84852322445994,61.807388954146084,20.776150348112804,2.6468293576346404,-4.5593139148631225,96.90168326453345,0.16492113128027563,-2.6901550677648287,-0.2409312301251858,0.49430182827556746,409.05344902008665,69.09236666270365,30.922490883959096,-3.8895999481633936,8.078704911344607
GUIDED_NOGPS,1.2782180309295654,24.40776755526847,398.858841506386,69.86448855446513,31.38323242153981,6.344881486941488,343.31635950556966,61.456913008114725,20.694810763791487,2.251333230160576,-4.4562297117015275,97.21223147552641,0.037154692157058467,-2.779696384006567,-0.2537952594776595,0.49465578917112585,405.69916466030725,63.10000824947336,29.874111087591086,-7.56007594751496,6.589014644004467
GUIDED_NOGPS,1.3260056972503662,20.931749675616327,400.28818527672706,67.2189958150808,30.803857842903206,6.617161203023019,342.7582694570988,61.089362326312546,20.60869543971666,1.917744443219626,-4.352705815112114,97.53842764990787,-0.07822132853329344,-2.865123562652682,-0.2646864481209208,0.49490241879840674,409.45334831166645,61.0494012754288,29.84139232518194,-1.0425803638670033,6.302535746439056
GUIDED_NOGPS,1.3606724739074707,28.847847916695326,402.37659005864043,64.11067199708391,30.81247680699257,6.885194435368989,342.17425348643457,60.704737177039384,20.51771015285478,1.6259728491418446,-4.241205111345772,97.67686875419487,-0.21606587545667064,-2.980371601024185,-0.2754077774147596,0.4948526166729311,412.68866643377845,56.84677816628514,31.838904782765432,-12.108915930977489,5.099324376664327
GUIDED_NOGPS,1.4063024520874023,21.9202274437662,403.4793703697815,60.762653693588696,30.95163781844811,6.993480700711621,341.564353554466,60.303065195178434,20.421764100290144,1.2069985867260957,-4.143066392030089,97.84655797393467,-0.3493476892652626,-3.0494439611894553,-0.27973922802846485,0.494735063140921,404.5050314311003,53.72471411405249,32.28129001274303,3.2699594216773846,2.177239621497128
GUIDED_NOGPS,1.4442672729492188,26.345137746064847,405.474436471357,57.4256399216719,31.549058687059393,7.105914960318181,340.92865219785386,59.88440073827667,20.320769870117488,0.8320510300091617,-4.096612141050717,97.8858657126081,-0.4877196003857179,-3.1626404035976674,-0.28423659841272725,0.49438585559152903,407.5450606346822,52.40729780311964,33.909595227015494,-4.77540431024137,1.088619810748564
GUIDED_NOGPS,1.4915542602539062,21.151519430352298,406.7887952641645,54.87475207954774,32.48939222507358,7.109575702504888,340.267271551302,59.44882424262517,20.214643412334617,0.4856390431491888,-4.044947736395095,97.85280076683605,-0.5843931296717426,-3.2502029563762367,-0.2843830281001955,0.49386262559363053,405.66466725823574,50.345569038852545,34.575778777662016,-11.921787804120527,-0.9740282517223995
GUIDED_NOGPS,1.5307354927062988,25.524908411533453,406.94632780303857,52.25926075822489,33.722733166157454,7.06071770308831,339.58037236982716,58.9964415793396,20.103304009735012,0.30760503979092896,-4.0740460498066415,97.77821510109952,-0.6729038316318263,-3.283385595094549,-0.2824287081235324,0.4931902854217888,400.9612346744514,47.97194466881456,36.008097030601334,-0.8583682315240253,-3.20856365273261
GUIDED_NOGPS,1.5761408805847168,22.029023261676794,405.9348010098342,50.484294058730775,34.556571615724636,6.96338244076712,338.8681530510301,58.52738341044054,19.986674248800444,0.27644395588918536,-4.160433001768493,97.62362742961461,-0.7176035219122527,-3.266455744270916,-0.2785352976306848,0.4927150513165379,400.9612346744514,47.97194466881456,36.008097030601334,-0.8583682315240253,-3.666929888837269
GUIDED_NOGPS,1.6151385307312012,25.64758829860092,404.9339580407997,49.10257209402975,35.421509597908255,6.804928969404186,338.1308486573658,58.04180454493387,19.864679990593597,0.1902649911916883,-4.3056441041834335,97.43587918970931,-0.7427556760628133,-3.2547760554608236,-0.27219715877616746,0.4922215851963427,397.6924209080316,46.816104290547365,36.60597992366112,-1.2287789697603415,-5.156620156177409
GUIDED_NOGPS,1.6610119342803955,21.804449989602826,403.69556514917724,48.06310126384533,36.054507223363885,6.613296293302003,337.36872993841416,57.539883294891204,19.737250341650668,0.08754662336740618,-4.458931051518268,97.15445490533727,-0.7506724331043901,-3.2355016853595155,-0.26453185173208016,0.49184137155914337,399.5462051786868,47.209943652197566,37.07458335429365,-7.6248393668940935,-6.016056848873644
GUIDED_NOGPS,1.7010009288787842,25.008669520731722,401.965596006744,47.650095308556516,36.34563661700311,6.350369469675648,336.58210235315056,57.02182083153026,19.604317624873985,-0.05307055651078585,-4.536236413204942,96.87104303591677,-0.7265157082706739,-3.1977541820579867,-0.25401477878702594,0.4916293405039354,398.8489132943126,48.28053926240845,36.03142574585815,-15.058235977627675,-7.104676659622208
GUIDED_NOGPS,1.7452776432037354,22.621412738049653,401.54469891150575,48.00445606585737,36.25996532217912,6.072674810285269,335.7713050922162,56.487840541295256,19.465817350424636,-0.17703376751103644,-4.535431304656527,96.53322187956793,-0.6778402710017388,-3.2289403416251075,-0.24290699241141078,0.49160292601412275,401.1378546691942,49.74374845531884,35.57974055648136,-0.9490009366281953,-8.078704911344607
GUIDED_NOGPS,1.788870096206665,22.926208540131622,400.9049363211649,48.56940260836556,36.0428255039654,5.74933046844546,334.93671010018903,55.93818738193727,19.321688186615056,-0.31864438639781495,-4.363635398444604,96.20972362990862,-0.6162916375498171,-3.2519888244810287,-0.2299732187378184,0.4916394313413248,402.4269599119552,50.79667738135549,34.92239793953275,-16.359134397264725,-8.59436692696235
GUIDED_NOGPS,1.831751823425293,23.327867940688996,400.6747846110613,49.697309511846484,35.660562862685815,5.380195144810434,334.078721097854,55.37312723859469,19.17187193080167,-0.34355003087603175,-4.142172491022464,95.8256142815546,-0.5308666242163605,-3.298703142538786,-0.21520780579241738,0.49175565453405795,403.82345357740667,52.45563880795205,34.69466671726321,-8.416947511729461,-9.453803619658583
GUIDED_NOGPS,1.8732514381408691,24.10131702944354,401.70776707226855,51.60991591584466,35.51524448353999,4.9805001208850435,333.19777260447364,54.792946279873576,19.016313480277493,-0.3841536912227593,-3.738551426643846,95.37298447544704,-0.4167857092952743,-3.4111661262731814,-0.19922000483540175,0.49175053449836875,409.2250943641095,56.772975672188416,36.347991458564515,-1.4018486437609994,-10.59971920992023
GUIDED_NOGPS,1.9139931201934814,24.55566484005433,401.58402953116416,53.36789396681938,35.642423932598795,4.574423430367229,332.29432896005875,54.19795031392801,18.854960803164733,-0.2914113015990634,-3.4836961512563374,94.96970278609281,-0.30183012438680484,-3.4655812437656497,-0.1829769372146892,0.491606268435283,399.9713343456166,57.07042951728209,36.66732299115219,-8.640804273674803,-10.59971920992023
GUIDED_NOGPS,1.955216646194458,24.261079811663446,402.15916682930407,55.33794350179327,36.259257925151715,4.1378220103864045,331.36888334763887,53.58846414454058,18.687764909307425,-0.27066006632265394,-3.0550065850764803,94.48404901534822,-0.17782195564069475,-3.5551439092194257,-0.16551288041545617,0.49121425349207787,402.293519293151,59.59399613018828,38.66391051924598,-8.364539191740647,-11.745634800181877
GUIDED_NOGPS,1.9969432353973389,23.97443826486576,402.12488272786015,57.98559836873843,37.8028031257394,3.6334376444722865,330.4219568155328,52.96483092720268,18.51467982116404,-0.23277055239736025,-2.6625234248000376,93.94426599543128,-0.01866927184635439,-3.6159467646969192,-0.14533750577889146,0.4903559383477123,399.2719323671355,64.03495171608131,42.64012394247116,-7.345253528613185,-13.636395524113594
GUIDED_NOGPS,2.044980764389038,20.81943403437886,402.98037541570534,61.02219828849486,39.96661416961468,3.1003310786183946,329.4540972996192,52.32741152519495,18.335662544700092,-0.11463846865866259,-2.258341431135832,93.35505289649096,0.15699810402231304,-3.7204163520083378,-0.12401324314473579,0.4891845241875427,405.6928547970741,67.63863840673417,45.5137219366396,-1.7988337299446613,-14.2666490987575
GUIDED_NOGPS,2.090038776397705,22.19772217282696,402.9466763443753,63.61002703236757,42.08989261602518,2.4278102671599493,328.4658786456071,51.676583865667666,18.150673040280758,-0.01589433044629569,-1.7472841591555583,92.68419854640148,0.3283354045302739,-3.777296664488019,-0.09711241068639798,0.4880303902121278,400.8682620985537,69.71211939155192,46.96438369061704,-10.993425747464727,-15.52715624804531
GUIDED_NOGPS,2.1285085678100586,25.997805780590454,402.2310635270054,67.33802700596956,45.062134636996014,1.7483973749613284,327.4578996313066,51.01274229572112,17.959674193563494,0.025325981256650268,-1.332486664138978,92.00100204448178,0.5485358283965893,-3.7978005770175853,-0.06993589499845314,0.4864487697782837,396.7020573729961,75.71042938529204,51.528533096006306,-18.222487206242945,-16.558480279280793
GUIDED_NOGPS,2.1695353984832764,24.380810658420188,401.28849239984874,71.30507975477671,48.17342437869657,1.1305654466307191,326.43078298889907,50.33629693848601,17.76263178639064,0.04377436222549438,-0.9303417743947293,91.30155652252662,0.7754273083994987,-3.8031484344005393,-0.04522261786522876,0.484794603703847,396.28288456015366,79.42925987422406,54.22035922774881,-11.031076426831277,-17.24602963343778
GUIDED_NOGPS,2.20721435546875,26.54488380335173,399.6707161743543,74.38394138640527,50.4894714357521,0.4613980211230919,325.38517442720814,49.64767304920383,17.559514467682042,0.050720904735235356,-0.6950970393313848,90.78262607014574,0.9710948704900239,-3.769075805714129,-0.018455920844923677,0.48353502151596495,396.28288456015366,79.42925987422406,54.22035922774881,-11.031076426831277,-17.417916971977025
GUIDED_NOGPS,2.241711139678955,28.99843057543263,398.76030634729085,78.20912982730334,53.0886658779091,-0.16870763233239225,324.3217416539699,48.94731037130728,17.350293724327663,-0.03432323470383468,-0.3855586291185192,90.04054650739137,1.19393884352893,-3.7667790131523446,0.00674830529329569,0.4821308139232093,392.68805572910895,86.76458061122459,58.509694147424554,-13.643664042142518,-17.47521275149011
GUIDED_NOGPS,2.278418779373169,27.248833855229137,397.3026498499461,82.34895891117421,55.8317501105211,-0.7559378147178163,323.2411733981038,48.23566249250064,17.13494385208021,-0.23591329318921236,-0.15678944699687566,89.43647774700626,1.426794958617084,-3.7336673971904952,0.030237512588712653,0.4806515968707796,390.63226731439266,90.41126481090632,60.67980485367703,-14.327321943973516,-17.876283208081684
GUIDED_NOGPS,2.3274009227752686,20.42415270744059,395.6544578128106,85.97417910358557,57.995199052879215,-1.3597585527954277,322.1441784319827,47.51319620084016,16.913441926447717,-0.42841940018167146,-0.04956481517693136,88.61390440488329,1.640059940867474,-3.6870669511139402,0.054390342111817105,0.47945912143678426,386.08639607005176,93.83653034734884,62.34577780779689,0.4246026029548773,-17.303325412950862
GUIDED_NOGPS,2.358266830444336,32.40195911808785,393.39980974162705,90.62749237899182,60.4867967257985,-2.1588021055836055,321.03148459370385,46.780390840814476,16.685767773586196,-0.5025376248468879,0.05910514870441112,88.17113056174804,1.905083757686821,-3.5967089735538518,0.08635208422334423,0.47809948552389386,387.6556702276058,102.69582625125526,66.67834759234526,-11.467017131478741,-17.589804310516275
GUIDED_NOGPS,2.4107933044433594,19.05817456458817,391.74823575775855,95.28080565439805,62.97839439871778,-2.6526848858297636,319.9038378093594,46.03773766942494,16.451903941192224,-0.6674684438910072,0.16102453780825382,87.16905984823713,2.151574241490775,-3.543279077913854,0.10610739543319055,0.4767367547712372,387.6556702276058,102.69582625125526,66.67834759234526,-11.467017131478741,-17.01684651538545
GUIDED_NOGPS,2.447232961654663,27.433654481355756,388.949029464954,99.4872963953259,64.62317661427593,-3.5068830695470794,318.7620011153068,45.28573921226612,16.21183566939557,-0.6630543274181807,0.24137477648257805,86.60308988304237,2.3980326214893894,-3.4118054687178816,0.14027532278188318,0.47579432952755984,374.30840703055947,107.79703431586381,66.73360522521526,-1.2051175681710333,-16.27200138171538
GUIDED_NOGPS,2.479060173034668,31.415654258108006,386.19782143974146,103.8029562288342,66.03779187465332,-4.052496628993012,317.6067536804392,44.52490861960605,15.96555086165181,-0.6748199152329095,0.2656310727419676,86.14136226496034,2.6282908187558616,-3.2920130140783486,0.1620998651597205,0.4749638794934992,374.2732203584534,111.98956397844785,67.752881155564,-4.411787105972252,-15.52715624804531
GUIDED_NOGPS,2.5310800075531006,19.22766676293556,383.025038796324,108.09031823294943,67.13604718529469,-4.497423598777455,316.43888982845664,43.755769022466765,15.71304005563493,-0.6184349960871617,0.24949597812742896,85.3513279440433,2.8491490903527983,-3.15410681555309,0.1798969439510982,0.4742884964351701,370.90062341281407,115.27334036792487,67.83705436100367,-3.6009643076061906,-13.750987083139758
GUIDED_NOGPS,2.564875841140747,29.594248096692937,380.4682791379654,112.30702741128025,67.67027453260755,-5.230074304201021,315.25921806013565,42.97885288870458,15.454296394129955,-0.5509197500803492,0.23046765806915526,85.08876864215884,3.083180347858292,-3.0253333358019137,0.20920297216804085,0.4738920109307612,372.2339784622398,123.77937214290931,69.34948432890961,-17.571470169961202,-13.2926208470351
GUIDED_NOGPS,2.6131460666656494,20.72253869754895,377.5302402072091,116.97420301039979,68.0696977234347,-5.615742733080237,314.0685600756008,42.194701379090546,15.189315595925551,-0.1961356721854465,0.1514103528603733,84.32443632308856,3.313678629777009,-2.8945621735893434,0.2246297093232095,0.47355980893624544,367.1279558683423,126.031704246853,68.67546354648108,-15.969919398338675,-11.3445643435903
GUIDED_NOGPS,2.6558759212493896,23.405714285714286,374.57969218220205,121.06058317329868,68.17955711825661,-6.1527157733415585,312.8677497965944,41.403863703390826,14.918095926706645,0.15249755355759537,0.07454121614608127,83.94424750331814,3.5270369792462666,-2.7520375620365343,0.24610863093366234,0.473369269404225,362.48201186999546,128.22893513035834,67.28290219932482,-30.842990221528083,-9.511099399171666
GUIDED_NOGPS,2.6953816413879395,25.31599850312051,371.11720459700314,124.9147318241894,67.9443736635047,-6.55077361815591,311.6576323887477,40.60689647644705,14.640638169947042,0.5304314770869853,0.02427331837146172,83.61506653626938,3.7197505154347996,-2.5925643626740857,0.2620309447262364,0.47334813225322114,359.9557695460145,131.26030723290145,66.57696388180449,-8.100117397327367,-8.078704911344607
GUIDED_NOGPS,2.740239143371582,22.297792710415514,366.2882517482163,128.5769618047866,67.02150079925929,-6.844986838039252,310.43906328385094,39.80436307425677,14.356945597802032,0.8986819266010162,0.036233353134124284,83.34983663041945,3.8907389439073676,-2.373408264701136,0.2737994735215701,0.47366772239927135,349.0240474373107,133.5844902709109,63.22269003977652,-2.7860956845710803,-6.474423084978302
GUIDED_NOGPS,2.793163299560547,18.900923797936102,363.39093422388305,131.23597594492873,65.64606496201833,-7.131667591388027,309.21290720212426,38.99683299005381,14.067023942001002,1.2749904518709283,0.037465508588224006,83.11263782092324,4.032033848316005,-2.2532812297956992,0.2852667036555211,0.47421047948999134,351.12986683589344,137.07444284361986,62.472305142704855,-34.620977576193724,-4.5263665815335035
GUIDED_NOGPS,2.832763433456421,25.255480957398767,360.21851807335634,134.31585695219138,64.0167705390861,-7.398892493983381,307.98003717448813,38.184881190388694,13.770881364740067,1.4616940997200498,0.13559211499029977,82.99961185053787,4.18625696391794,-2.1180124616893776,0.2959556997593353,0.474877055412827,348.89389115423967,141.43110928316625,60.52899143181993,-9.443649705428811,-3.724225668350351
GUIDED_NOGPS,2.8759171962738037,23.177304023960303,357.6491271444297,137.47837412481914,62.62572202292781,-7.528558188057614,306.7413335648338,37.369087471208914,13.468528429574667,1.8275095334341183,0.2752086521447651,82.86504346351028,4.342035947554625,-2.0225519854520426,0.3011423275223046,0.47542140320332343,350.34549598140126,144.04152099349722,60.32765961853338,-14.70651340431668,-2.0626480624709638
GUIDED_NOGPS,2.9122567176818848,27.52258276190164,354.6425945990302,140.10764913750603,61.21296279377772,-7.649888946115215,305.497683092294,36.55003581393957,13.159978072312185,2.0065682786112915,0.3832837492380818,82.80430259122136,4.472980014452136,-1.9088024552885243,0.30599555784460863,0.4759735076392672,348.1817180990436,144.40668229633584,59.51316773605402,-34.29669416280481,-1.4896902673401404
GUIDED_NOGPS,2.954143524169922,23.88093421547081,352.39473020834197,142.65877881616967,60.478351017600765,-7.7311308752482235,304.2499778535133,35.72831374156346,12.845245571904567,2.277734045736791,0.4224425044102343,82.7536567385257,4.604605233566043,-1.8357740977978427,0.30924523500992895,0.4761834472771519,349.1450407428366,146.34013866422927,59.549631158891756,-28.35846846091262,-1.604281826366305
GUIDED_NOGPS,2.993307590484619,25.58219988533369,350.2653207867353,144.51651458910732,59.850408297833084,-7.797298527865939,302.9991143449191,34.904511674701716,12.52434852134093,2.551134992268177,0.4086001655618514,82.73865764310835,4.708856869671161,-1.773346702759294,0.3118919411146376,0.4763369701117539,345.4467364971417,146.3631217083081,59.33259154386644,-16.37058382342947,-0.8021409131831525
GUIDED_NOGPS,3.0326037406921387,25.41909991151837,348.664037272599,145.7711159310222,59.686915356979476,-7.830758813758815,301.7459924849915,34.07922228769407,12.197306798540183,2.843498678369634,0.39812361587040385,82.7475095682727,4.791870885519164,-1.7428073019726944,0.31323035255035264,0.47625519572078034,347.1455014329241,147.7041159927406,59.71152672755186,-32.93694072449051,-0.17188733853924698
GUIDED_NOGPS,3.071409225463867,25.775412505761253,348.3226771447621,146.76868933206495,59.45768379024603,-7.859718501381037,300.4915146365345,33.253039864679266,11.864142537243627,3.0135454158237986,0.48954452397226095,82.76177783344886,4.873152383024847,-1.7752727304614866,0.3143887400552415,0.4762032293734988,346.2931664146159,149.02938799871092,59.18150178486613,-29.925444172668236,0.0
GUIDED_NOGPS,3.110687732696533,25.466017413267597,347.0091221120708,147.39487949676365,59.09978930274485,-7.853547209962972,299.23658462894605,32.42655965567549,11.524880097907587,3.262748282786299,0.48549977132314404,82.81615296943133,4.932040976136115,-1.7658105930967982,0.3141418883985189,0.47621254539758134,340.6214265743635,147.5376331198294,57.72369529854812,-12.937884647410144,0.8021409131831525
GUIDED_NOGPS,3.151982545852661,24.22031148042709,346.2321896367786,147.86728769794271,58.68713731820323,-7.8376643562709845,297.982106780489,31.60037723266069,11.179546038596023,3.4197837233150006,0.434862936611638,82.85360972683968,4.988270076124849,-1.7842204336575647,0.3135065742508394,0.4762462043601964,342.6784313519021,148.7021796701245,57.48637123618363,-13.067232090612208,0.9167324722093172
GUIDED_NOGPS,3.1909587383270264,25.67443454840388,345.222819477583,148.32098258565404,58.18340803869338,-7.819531980232015,296.7289849205614,30.77508784565302,10.828169085873128,3.4686543671566765,0.4574845765035731,82.91178927818984,5.041977650570239,-1.7915946680069834,0.3127812792092806,0.4763223805235899,342.2705347078364,148.63159614686464,56.813945146317245,-35.3437651616252,1.1459155902616465
GUIDED_NOGPS,3.227259397506714,27.57977104005155,344.84291894311673,148.8161574321061,57.6519898176431,-7.76773890835695,295.47812141196715,29.951285778791302,10.470780105695958,3.504227913344807,0.41491552922317443,82.99700954846409,5.100309738521869,-1.8325682136634431,0.310709556334278,0.4764093951440264,345.1425138233136,150.179990225001,57.05443562230044,-20.355727603438908,2.0626480624709638
GUIDED_NOGPS,3.2683656215667725,24.323407117879366,344.2597510446685,148.92673659733907,57.19447135543296,-7.69843134908537,294.2304161731865,29.129563706415183,10.107412074307035,3.5348946089445183,0.3671891021500343,83.0802558940682,5.141563187248181,-1.8675288661852383,0.3079372539634148,0.47645647035943706,344.4796975552507,149.58228382487573,56.89390947381542,-12.514324337315102,2.521014298575622
GUIDED_NOGPS,3.299483060836792,32.148390014333124,343.8058564195385,149.10164763750646,56.83116920178353,-7.628174520820399,292.9867657006467,28.310512049145814,9.738100049126992,3.5928464161745493,0.3167035988173264,83.16254601318852,5.185457000654575,-1.9082913079788206,0.305126980832816,0.47645346542367173,341.81557949610175,148.41218832066633,55.907184530300995,-13.90250735287296,2.46371851906254
GUIDED_NOGPS,3.3466761112213135,21.192344226843712,343.3961532273321,149.05627789554788,56.39926385959776,-7.540179580946438,291.74806209099233,27.494718329966062,9.362881139647122,3.714505745670816,0.19741012945567532,83.35461093264928,5.220879084553767,-1.9543664682057669,0.3016071832378575,0.4764818086400247,343.8678758952728,148.47533096033155,55.32684452525476,-13.178116786919489,3.323155211758775
GUIDED_NOGPS,3.3800454139709473,29.973230428413192,343.3384569794229,148.97622542601988,56.09253656513836,-7.4064058782434365,290.5151920633562,26.682766530300924,8.981794478322074,3.755522312297212,0.14079479814714543,83.475484790391,5.254559055962645,-2.022068452329391,0.2962562351297375,0.47644462895659184,345.8315964313422,148.23133379922484,55.2803086740202,-21.839193759483464,3.8388172273765155
GUIDED_NOGPS,3.433725357055664,18.63215924588314,343.7805434859923,148.2963745249535,55.68677128216317,-7.289174689854638,289.2890359816296,25.875236446097972,8.594881191462402,3.8173368049462972,-0.0015780938633902898,83.73590624306524,5.268744945467357,-2.115819017236011,0.29156698759418553,0.4764540549546496,344.1581186269185,146.7807357196691,55.02560920742452,-10.501981318520919,4.010704565915763
GUIDED_NOGPS,3.4691314697265625,28.250368763849693,344.6642086053438,147.739667780385,55.221525225045376,-7.106344632166124,288.07046687673284,25.072703043907723,8.202184370127213,3.8265255438140797,-0.10142417370859032,83.8729881397074,5.286444917514289,-2.236728658746785,0.28425378528664497,0.4764903295725409,349.74775230671366,146.79875010203313,54.56767918822644,-13.368566522425695,4.18259190445501
GUIDED_NOGPS,3.502826690673828,29.689773555789937,345.78808576979327,147.20665842516655,54.86206456161325,-6.963013890074608,286.86034946888606,24.27573581696393,7.803749041016761,3.838555641376588,-0.261237500197504,84.06212290801422,5.30714442317911,-2.3650714970029156,0.27852055560298433,0.47647084223970176,351.26155202343233,145.74714154457425,54.10988121314036,-25.1314895042986,4.870141258611998
GUIDED_NOGPS,3.5392394065856934,27.46850911948656,346.7219116906689,146.4517952226793,54.53699808487077,-6.818008683567377,285.6595391898797,23.484898141264196,7.3996221373650855,3.8679758274527716,-0.39896893182147225,84.20960718276231,5.31705110907632,-2.485231399782654,0.27272034734269507,0.47643131202624717,352.61312119031857,144.70101494789526,53.70151214154236,-25.187304246659963,4.870141258611998
GUIDED_NOGPS,3.5772738456726074,26.298555377207062,346.6867980745532,144.80450179053992,53.80834733956067,-6.65263292526124,284.4688812053448,22.700746631650176,6.989852469832607,3.905036433889261,-0.535053060555851,84.3611690804449,5.2841245733871975,-2.563913984858206,0.2661053170104496,0.47659075256513594,344.1987886263255,139.99486663852787,51.637054947469714,-7.6525539617931315,4.92743703812508
GUIDED_NOGPS,3.6291322708129883,19.290187276941758,346.9825541623248,143.11378822530727,52.90303276460306,-6.454759789826481,283.2892094370238,21.923830497887963,6.574490697398744,4.062120112628976,-0.870894902788406,84.72048484211174,5.249760238984064,-2.6621119798512822,0.25819039159305923,0.47683572896639786,344.18162819827415,138.3271678935059,50.49903633263648,-7.699375312298997,5.844169510334397
GUIDED_NOGPS,3.674274206161499,22.153521119321393,347.2756182766874,141.20907525692763,51.93871636839494,-6.195748401952624,282.12134558504124,21.154690900748705,6.153589298254529,4.1474146612104485,-1.1651143726316966,84.98792772925277,5.202549925553226,-2.766512303298932,0.24782993607810497,0.4771074364649298,346.2123888101737,137.27518526013498,49.74609720718585,-9.135751477831093,5.557690612768986
GUIDED_NOGPS,3.7161307334899902,23.894266703126423,348.4145269359327,139.3287851315809,50.84632072257539,-5.945561948263695,280.9660981501737,20.393860308088634,5.727202540695224,4.225791081936345,-1.405349734822499,85.24931223859998,5.159734505267115,-2.910577850812346,0.23782247793054778,0.4774404409090599,354.94286570530437,136.3456909178406,48.64790298404263,-25.093097258153946,6.302535746439056
GUIDED_NOGPS,3.7557084560394287,25.287304209422064,349.3672297074836,136.95223488651519,49.48975514512525,-5.702082753022102,279.824261456121,19.64186185092977,5.295386454012938,4.255747864749198,-1.6390679226063456,85.47494070764219,5.094889416444306,-3.0458965426167026,0.2280833101208841,0.4779028156544438,351.7797407993258,132.81826372256657,46.91868425429164,-32.14587038550678,6.64631042351755
GUIDED_NOGPS,3.7957584857940674,24.964014903519946,349.7540324535208,134.73403690553445,47.985544124944035,-5.469312418606912,278.6966146717766,18.899208679540294,4.858198799389218,4.2356436298140885,-1.7868406661251584,85.72481634823794,5.032790681304806,-3.1506243284873907,0.21877249674427648,0.4784363273372226,352.84217427501113,128.90387673362434,44.11599984656361,-27.739694608967028,6.531718864491385
GUIDED_NOGPS,3.8397347927093506,22.742353343057143,349.8274069885655,132.2745124660278,46.36020530866823,-5.220278852887153,277.5839208334978,18.166403319514572,4.415699040787718,4.299800023574841,-2.0154786872703965,86.02651946425574,4.957678840642804,-3.2413598092203424,0.20881115411548615,0.47902774686605976,351.84854830378964,126.02954569597262,42.37234225125744,-9.777805773204562,6.64631042351755
GUIDED_NOGPS,3.874558925628662,28.724174770579374,349.95489271218975,129.61937437089654,44.677583481823255,-4.930858169828235,276.48692586737667,17.443937027854105,3.967948315846744,4.2529338268111525,-2.1657588572665443,86.30024612543318,4.870993815096779,-3.337676078682878,0.19723432679312938,0.47964518241701176,353.6330069793124,123.99949478447866,41.33298807296096,-11.971030651996486,7.104676659622208
GUIDED_NOGPS,3.909090280532837,28.96218754315702,350.2973950231576,126.17419834225207,42.85165750391574,-4.693137002366437,275.4063576115105,16.73228914904746,3.515009406771913,4.263220518588015,-2.319890827067756,86.5425880673744,4.755462826932664,-3.440790363721408,0.18772548009465748,0.4803316759514281,346.9388071140685,119.11981077461837,39.51827309450504,-3.0455247144380735,7.219268218648373
GUIDED_NOGPS,3.948451042175293,25.41170768354599,350.677725862345,122.95344635441306,41.19138272762931,-4.464450228148134,274.3429248382724,16.031926471150896,3.0569467112287576,4.255136135931659,-2.4299063915764436,86.78530566971996,4.648494554023,-3.542724859558395,0.1785780091259254,0.48093278199179973,347.2242749117734,116.71450378337161,38.6173103728595,-1.9123078962660855,6.818197762056797
GUIDED_NOGPS,3.9852113723754883,27.21170913998028,351.3870041270097,120.25770414041264,40.041079183478544,-4.211112544810375,273.2973162765814,15.343302581868727,2.593826213235328,4.244957873407871,-2.5857427070189853,87.05056972651575,4.560699856433976,-3.659912046475651,0.168444501792415,0.4812763735148784,351.8866149274907,115.42516566362222,38.36448212580979,-5.115682919750327,6.64631042351755
GUIDED_NOGPS,4.028653860092163,23.022982890453893,350.8914790202017,117.49682702908055,39.02514040589063,-3.983108378100441,272.27019963417393,14.666857224633645,2.1257154540548413,4.173052203146915,-2.743802249036366,87.35029208767425,4.466591468986449,-3.713912178007372,0.15932433512401764,0.48155028752408213,350.97866485084074,112.2251601393121,37.292648363317866,-2.931884779477869,6.302535746439056
GUIDED_NOGPS,4.066416263580322,26.48889113438001,352.1966041091127,114.61041406616127,38.26657719568942,-3.725687261578216,271.26222061987335,14.00301565468709,1.6526835030882445,4.135263754676997,-2.8529315965002446,87.47094054917335,4.370172976477646,-3.8583356086752834,0.14902749046312866,0.4816930531536994,362.2207415106136,109.56742996988223,37.54017202195491,-21.478784065472,6.0733526283867265
GUIDED_NOGPS,4.103809356689453,26.747511335301734,353.73601833420184,112.34622229091526,37.75672418172495,-3.5263862647538593,270.2740019658613,13.352187995159795,1.1748009287668673,3.988054821929827,-2.9285605736325033,87.68853671575162,4.301618687105643,-4.006353357280007,0.14105545059015437,0.48170903837352097,365.1574880757243,107.79885189838828,36.96900802468267,-8.953598165848234,5.385803274229739
GUIDED_NOGPS,4.152647018432617,20.480100000488285,354.3815362551842,109.50816385694311,37.08161177826871,-3.333458050926681,269.30614244994763,12.71476859315203,0.6921397694450171,3.732076834197497,-3.264572583624927,88.00470617243151,4.206843252389125,-4.109759894671572,0.13333832203706725,0.48180526399558815,357.01269167164844,102.52421161351086,35.24174835557834,-7.063150946061114,4.984732817638163
GUIDED_NOGPS,4.18790340423584,28.368260152043934,354.45274503331495,106.14631407898169,36.271964657989784,-3.0968354034128316,268.3592159178416,12.091135375814162,0.2047735042926,3.5991831241770287,-3.412893983433162,88.14930810734985,4.084592437259982,-4.18710004621818,0.12387341613651327,0.4819664044231514,354.2026772043588,98.6159167738151,34.31624652441513,-27.948051884383148,4.92743703812508
GUIDED_NOGPS,4.229422569274902,24.091211423254318,355.63421903674896,103.05794043045316,35.57568093472565,-2.942543237587079,267.4337703054217,11.481649206426738,-0.28722297581226286,3.517536536942577,-3.6936804988914473,88.37005982132466,3.9812646067237476,-4.311050728468031,0.11770172950348316,0.48206854804473104,356.3905991415402,96.78329189666958,33.81122974699722,-7.205610602326345,4.297183463481175
GUIDED_NOGPS,4.273478031158447,22.700258160189208,356.9478033894124,99.47531598934249,34.57403279499916,-2.7717241423852372,266.5303266610068,10.886653240481166,-0.7837733973906076,3.5588911979328888,-3.8675169241179113,88.54799307939267,3.8560155957999473,-4.44235178522005,0.1108689656954095,0.4823210969038051,357.73294973308134,91.65430776432889,32.53193132332244,-6.94311033265042,3.8388172273765155
GUIDED_NOGPS,4.318349361419678,22.29103799405828,358.1236180060396,95.88896002955134,33.622408802096984,-2.588909772314027,265.6493781676264,10.306472281760023,-1.284800133470057,3.6514370595353878,-4.030827600946562,88.72135694090593,3.7279316110330005,-4.565917763332341,0.10355639089256108,0.48254639553221645,361.2931318605081,89.86707209943252,32.21088806017177,-17.900560935601263,4.239887683968092
GUIDED_NOGPS,4.3611159324646,23.391747115282726,359.039556143772,92.70058612731498,32.77706788918948,-2.413125179552221,264.7913891652915,9.741412138417473,-1.7902242326921645,3.8098526251632556,-4.199888443282718,88.90737714295123,3.6142725864507703,-4.673393137276561,0.09652500718208884,0.48271635393905915,358.3061699527001,86.58234210232895,31.015043791040814,-21.170810393731188,4.068000345428845
GUIDED_NOGPS,4.401417255401611,24.81498967596126,357.80568031918193,88.98987769058219,31.667461202252845,-2.265486798875204,263.95679417326426,9.191758979059529,-2.299965448419826,3.900975032654042,-4.340871231714598,89.06392507872792,3.4764299763057016,-4.670604721241517,0.09061947195500816,0.4830162866746637,352.349734913893,80.06237459015122,28.768213089731937,-26.395499445711934,3.495042550298022
GUIDED_NOGPS,4.443397045135498,23.827211270806114,356.62247798576044,85.34136641490672,30.57785573334109,-2.128202968632176,263.14599691232996,8.657778688824493,-2.8139422678446238,3.9786667269156446,-4.464503205220529,89.22176392025774,3.3413797193072425,-4.6677324666828754,0.08512811874528704,0.4833041009994071,355.69186940835255,78.54073551829215,28.363202402438436,-22.712392568423326,3.495042550298022
GUIDED_NOGPS,4.48449182510376,24.33850938885407,356.7876024974532,82.36207069114069,29.61922656901222,-1.9980282915298047,262.35936932706625,8.139716225463502,-3.332071941094263,3.936775896075487,-4.555646530165649,89.36849687419713,3.235307033610856,-4.728905927365621,0.07992113166119219,0.48352435074494676,358.3336877651903,76.75782914549877,27.738785501678088,-15.139023475668836,3.0366763141933633
GUIDED_NOGPS,4.527239561080933,23.397488606126196,356.58957674357725,79.0184062830985,28.515230972345297,-1.8935124800483347,261.5972506081146,7.637794975420803,-3.854270510339955,3.843348299739821,-4.649618834087622,89.47540982527534,3.115275656560756,-4.769288177717728,0.07574049920193339,0.4838152492586574,352.6184711733513,73.1487500592216,26.690910076837117,-1.019769146034747,2.177239621497128
GUIDED_NOGPS,4.570060968399048,23.357617406122436,355.52592523451096,75.13974307882047,27.522375149078847,-1.8126635598691685,260.85994621445036,7.152216109914264,-4.380452838903754,3.6838659439409622,-4.782497176182459,89.55476296305254,2.973593387741723,-4.7641052584229175,0.07250654239476674,0.4840485860060087,347.88138706900963,67.1890260809388,26.050764674708574,-25.003912673324407,1.6615776058793874
GUIDED_NOGPS,4.608073472976685,26.312743880252444,354.64533766839463,72.25552084965766,26.98429152745685,-1.7633808608134258,260.14772689565336,6.683157941015111,-4.9105326403659895,3.60247057960192,-4.853681834599155,89.55459903851246,2.873719766958691,-4.763241969414517,0.07053523443253704,0.4840525879160886,350.6882492041508,65.64126344433713,26.077794981621967,1.856914749702284,0.40107045659157625
GUIDED_NOGPS,4.645034074783325,27.065613546022405,353.70447516393585,69.2870056063866,26.5309193860582,-1.7837620961509446,259.46082771417844,6.230775277729549,-5.444422507672627,3.390180829678519,-4.969922689649486,89.53875299963804,2.775410038024431,-4.754276148505454,0.07135048384603779,0.48401232905313457,353.7662318248378,63.698159301936826,26.096341695445194,-14.548647106389794,-1.260507149287811
GUIDED_NOGPS,4.679239511489868,29.238990860863442,353.0967271278901,66.2450573678615,26.168980011142548,-1.821887029852234,258.79944706762655,5.795198782078074,-5.982033942242676,3.2444141340632804,-5.027026913092201,89.50165141206652,2.675336513433662,-4.759801678615779,0.07287548119408936,0.48392449302330737,353.4441856643342,61.54808795287336,25.92908862709982,-12.29687854174496,-1.604281826366305
GUIDED_NOGPS,4.728880882263184,20.14855237811586,351.9997695782046,63.172013585507614,25.772273499029392,-1.8873066376722887,258.1637457110145,5.376534325176294,-6.523277383075548,2.9479911811607202,-5.017787801579289,89.37997842219193,2.5751211490120407,-4.739146660434635,0.07549226550689155,0.48385222455894755,343.5740745164091,57.78353114745211,24.70737751627135,2.374503325576029,-2.635605857601787
GUIDED_NOGPS,4.770783424377441,23.89222505140956,351.1806721893678,60.78489859405708,25.576193976083424,-2.0018056811669243,257.5538457790458,4.974862343315351,-7.068062235858477,2.7174701622386745,-4.9484601008431905,89.28365226432723,2.505866074879159,-4.7276029047660755,0.08007222724667697,0.48367787189402905,349.13909029765796,55.25345112368615,25.070367059978743,-3.6440561075740163,-3.7815214478634336
GUIDED_NOGPS,4.808003664016724,26.845435518660512,350.13485485453486,58.425184047168806,25.4653206123922,-2.1288338978711026,256.96982980838175,4.5902371940421745,-7.6162969020738736,2.497070203006118,-4.938517052958945,89.13991093324431,2.4374142111134116,-4.702869961056241,0.0851533559148441,0.483459191242767,349.96714908652706,53.84269070989575,25.52342816316585,-5.970490899615882,-3.896113006889598
GUIDED_NOGPS,4.844881772994995,27.12442443996068,348.8138914936021,55.92378122675808,25.341150072145716,-2.2462518060816694,256.41173975991086,4.222686512239989,-8.167888808106728,2.2122229266428484,-4.838234508017525,89.02898866112331,2.3611030870122653,-4.664077294654849,0.08985007224326678,0.48324548055987376,342.0507642858892,51.1911451998832,25.475488994212746,-11.246492866741164,-3.4377467707849396
GUIDED_NOGPS,4.880234241485596,28.293818849036366,347.90686391956757,53.585608266678534,25.26131308138314,-2.3631504809891353,255.87957604102053,3.8722105662085937,-8.72274443435197,1.995567832066163,-4.835078533734156,88.90032838772777,2.2911859584544785,-4.644655728576163,0.09452601923956541,0.48300797124213246,340.6251664767331,49.85722315247561,25.529903673286928,0.2779681514462027,-3.552338329811104
GUIDED_NOGPS,4.918140172958374,26.38906260813761,346.7308677947901,51.72249579565971,25.666589313252956,-2.498996628609215,255.37329652786696,3.538781613745016,-9.280769344321914,1.8164732283958471,-4.705062040901555,88.76859452920574,2.240427429688583,-4.609241359309655,0.0999598651443686,0.4825263206712126,341.28028020593086,48.467968792357944,26.73375867562044,-11.830005687457643,-4.18259190445501
GUIDED_NOGPS,4.964570045471191,21.541508309879408,344.9943424194525,50.102859093822076,26.13784055596533,-2.6547994987642567,254.89281558764617,3.2223432582233045,-9.841868213753575,1.5656240723999622,-4.63840750545187,88.56981553379086,2.1989629837041407,-4.543854842938242,0.10619197995057027,0.48201014561514055,339.8740288221371,47.15526761449795,27.4266232735406,-11.553585920353925,-4.5263665815335035
GUIDED_NOGPS,5.000951528549194,27.493717020091115,342.7343821418321,48.128578154693535,26.65079657523837,-2.841816116560912,254.43800310086357,2.9228098046755235,-10.405944859716097,1.3082312750140876,-4.510615519854578,88.41037159780608,2.143168767155813,-4.4501807548631955,0.11367264466243648,0.48147162928252274,335.3645034433712,43.971286014253046,28.088208259531065,-10.896003474684775,-4.354479242994256
GUIDED_NOGPS,5.036973237991333,27.763241854984976,341.42289343509054,46.403120670284856,27.301227027279094,-3.0098717890725237,254.00868348360586,2.640065615872288,-10.972902269718137,1.1346054117131306,-4.396992334803653,88.2621564928168,2.097014979193646,-4.403173496585631,0.12039487156290095,0.4808629353515014,333.08216486247625,42.563857777839814,28.727641254416355,-12.84542269919055,-4.984732817638163
GUIDED_NOGPS,5.078896522521973,23.860284664307738,338.815814819126,44.60440924440301,28.02238967951041,-3.1811604133855806,253.60463470981074,2.373964468402221,-11.54264263081522,1.0123172779263991,-4.270566387040364,88.08188731005265,2.0436853885654664,-4.290935782383585,0.12724641653542323,0.4802174838448372,328.2824613699413,40.86366602306638,29.13571693444351,-13.90383591841018,-4.984732817638163
GUIDED_NOGPS,5.124394178390503,21.994598761385863,335.8496881118908,42.815588168519746,28.64161692438203,-3.37321372541778,253.22558733353753,2.1243289087532276,-12.115067358717159,1.0041839100070893,-4.0999529573285,87.8934902021762,1.9898655128896154,-4.159132815164324,0.1349285490167112,0.4796216578584504,326.23813542864565,39.52386341294164,29.82989489997854,-15.810026819609618,-4.755549699585833
GUIDED_NOGPS,5.166888236999512,23.53138131651734,334.1802177017576,41.157852686386704,29.342591209279572,-3.591417131328882,252.87122351123793,1.890949609392635,-12.690077126895464,1.111154384084715,-3.9462527835488794,87.6548092416301,1.9455542098538938,-4.089484511483635,0.14365668525315528,0.4789836658319125,328.6950010048234,38.8665902038327,30.931494698028306,-0.6734995642902533,-5.443099053742821
GUIDED_NOGPS,5.210599660873413,22.882931247067553,331.75532942768126,39.61369209517588,30.162720322142935,-3.811679377988658,252.5411760240263,1.6735847248473874,-13.267571895690597,1.2790154610044755,-3.7007177281706762,87.41843688502347,1.90218119031102,-3.9810689673993003,0.15246717511954633,0.4782848538910832,321.2260602841223,36.25048305819894,32.18885382384786,2.2240425688377456,-5.557690612768986
GUIDED_NOGPS,5.2465009689331055,27.859318645261137,328.73415700480837,38.02242822305734,30.98379844167274,-4.063126188053924,252.2350272999505,1.471959247784696,-13.847450941419584,1.3376620265391437,-3.412826535315108,87.21795034231609,1.8552742100283552,-3.8407948537082097,0.16252504752215696,0.4775843753084538,317.1109008229476,34.60753841724714,32.83303185206538,-14.189951971463046,-6.302535746439056
GUIDED_NOGPS,5.28319239616394,27.260168202675125,325.88856258059667,36.6588938254756,31.999594155917624,-4.287218965386933,251.95230843626246,1.2857643650920636,-14.429612885483142,1.446002060267063,-3.1298240503579766,86.99332591108187,1.8144309145971054,-3.709031770583458,0.17148875861547733,0.47678539647929963,317.1092734284433,34.0459940351577,34.214695505667905,1.9163571450061738,-6.760901982543714
GUIDED_NOGPS,5.323915958404541,24.557965244273735,323.1196308647166,35.309743471481426,33.01109474331791,-4.517069677678039,251.69249822168842,1.1146568139585042,-15.013955723473263,1.4900673458625175,-2.9482259689134396,86.83259789953313,1.7732006873552248,-3.5802305113638817,0.18068278710712157,0.4759874747666044,313.21304971633083,32.77811164297074,34.88739783697999,-17.843609461796802,-6.703606203030632
GUIDED_NOGPS,5.368036508560181,22.672526284494175,320.0900382723281,33.80424953729583,34.30646124873747,-4.766901981826563,251.45502215869953,0.958258237953828,-15.600376854280537,1.3929945629441807,-2.555028200095084,86.4923178750831,1.7242160091847492,-3.4376572217401673,0.19067607927306252,0.475046580948491,308.84542412336793,31.339120532904737,37.40832722512606,-12.586928521633467,-6.245239966925974
GUIDED_NOGPS,5.398734092712402,32.585976770384185,317.4001332830469,32.67386162814458,35.619937348650616,-5.038139004408196,251.23925148578292,0.8161545431097466,-16.18877310920146,1.1866401406878149,-2.3180056948568324,86.31185744702219,1.6908233615637245,-3.30878827932473,0.20152556017632783,0.47409564477107397,306.76322145569145,30.59854351244266,38.75623432341359,-15.297318066309643,-6.41712730546522
GUIDED_NOGPS,5.442202806472778,23.009721094555747,314.9657690364276,31.87206264718368,36.80457784292026,-5.2324947497322025,251.04450219971125,0.6878952540000114,-16.779040781046003,0.7883775197956308,-1.9068995969215268,86.01975074678826,1.665752009402067,-3.194178488963644,0.2092997899892881,0.4732081906880169,306.76322145569145,30.59854351244266,38.75623432341359,-15.297318066309643,-6.474423084978302
GUIDED_NOGPS,5.483814716339111,24.036263818130763,311.8158168593005,30.919564125007014,38.2637912660069,-5.49192617005306,250.8700340778147,0.5729928698211211,-17.371075653244763,0.45628486444803096,-1.4181401178169941,85.80181307075149,1.6333571897688781,-3.041517579270528,0.2196770468021224,0.47218256654037416,303.495383587807,29.283501424274355,41.510762621101115,-13.225736525183649,-5.958761069360562
GUIDED_NOGPS,5.5230631828308105,25.483191669046303,309.2355370676023,30.000409954561388,39.78996980359445,-5.734363533588429,250.71504970025023,0.4709222204722323,-17.96477302895659,0.22257833601054094,-0.9404457586112938,85.58147799831605,1.6022740062309444,-2.9169001082844574,0.22937454134353716,0.4711226285837245,300.5838219505368,28.18234079074263,42.518290524917774,-12.406584608808458,-5.7868737308213145
GUIDED_NOGPS,5.564345359802246,24.230385728563093,306.58509113213415,29.032719248131663,41.541334943794084,-5.933654656111129,250.57869347227222,0.3811198226359238,-18.56002776017574,0.14124665784942408,-0.5164693964847157,85.38967262604375,1.5651821799137877,-2.7902141187381604,0.23734618624444515,0.4699493186480151,295.9073333392025,26.500667000756103,46.1651529261242,-14.164046192729089,-4.755549699585833
GUIDED_NOGPS,5.602508783340454,26.20948572142723,303.26377031679795,27.940700841718648,43.30490915757487,-6.101070507957062,250.46005064650387,0.30298323585833487,-19.156734276839476,0.06779847207374319,-0.18059369679100148,85.27366186299108,1.516595535527835,-2.6316861244512535,0.2440428203182825,0.46876917828279285,290.53870690575366,25.138451480377594,47.574105392317506,-13.733090711442102,-3.323155211758775
GUIDED_NOGPS,5.6336541175842285,32.1119626382881,300.4530531653258,26.693522861894298,45.54597995782332,-6.225206753182227,250.35814634520727,0.23587041862947444,-19.754786615935235,0.009083924812492173,0.08904576317883803,85.1981541217166,1.4611689644850614,-2.4999225653556767,0.24900827012728907,0.4673496167131207,290.72731250455365,24.362653613320912,49.961588324655835,-12.750341689090817,-2.864788975654116
GUIDED_NOGPS,5.669843673706055,27.641568746334165,297.70336904893946,25.452834199213108,47.51226275096452,-6.298608795125002,250.27194458255372,0.179099084464724,-20.354078450608274,0.049580516607894455,0.3511009650860395,85.11145170039245,1.4031842869683542,-2.3725289931312705,0.2519443518050001,0.4660668293992136,286.84795119227743,23.080058110868396,51.342176586807106,-13.524309028921067,-1.948056503444799
GUIDED_NOGPS,5.707596302032471,26.494078112070543,295.2193616425588,24.243565434993886,49.708247570808496,-6.349013302301116,250.20034728689473,0.13194605798327075,-20.954503119268782,0.024908926170669587,0.5399813088462796,85.07480773549533,1.3462134513699893,-2.258317383593666,0.25396053209204467,0.4646686246549614,286.8911622046464,22.135996969646516,53.498214624137674,-13.487946505372932,-0.5156620156177409
GUIDED_NOGPS,5.745935440063477,26.087549291569744,291.99551877783466,23.040782179240693,51.302741350735744,-6.36323225176509,250.14219332303253,0.09364663098983783,-21.555953654699504,0.028155267058409046,0.6630921602628802,85.10673203967598,1.2833864215417792,-2.1083736805950264,0.2545292900706036,0.46357065249728235,280.97247853789844,20.486750721990127,54.137621825760476,-16.90224726670948,0.8021409131831525
GUIDED_NOGPS,5.781017303466797,28.511345251852354,288.3864305766153,21.784876754536306,52.6408093904854,-6.341332364140465,250.0962575144896,0.06339391855516396,-22.158322813162922,0.041488209864883836,0.6677941051761993,85.1725955538424,1.2145429915115078,-1.9401601814775316,0.2536532945656186,0.46260043389817584,274.62267797805197,18.858924356855663,54.264445591065815,-20.154767702489224,1.8907607239317168
GUIDED_NOGPS,5.821255683898926,24.853956553170814,284.9356957116613,20.43673871797828,53.62983402178171,-6.273095862056152,250.0612496657809,0.0403382150956304,-22.761503103508833,0.10527930189685344,0.6388482970822142,85.26745322103554,1.1412587301304529,-1.7808141730406308,0.2509238344822461,0.4618043314373547,272.97794303090507,17.62196343053078,54.90671148113738,-20.081505941745405,3.151267873219528
GUIDED_NOGPS,5.864539861679077,23.109876910531476,281.2267669895857,18.64469993727728,54.26951227881136,-6.12686237582327,250.03581358468386,0.02358635045425217,-23.365386816281546,0.25038891863970236,0.49040811601544443,85.58403248906563,1.046781616402305,-1.6118683877581261,0.24507449503293083,0.46118255045245354,266.23590356259757,14.119864207363403,54.54056787195535,-19.09372785409454,5.729577951308232
GUIDED_NOGPS,5.904894113540649,24.785075667594416,277.9241160965525,16.682721565412436,54.400793942738765,-5.904681107127207,250.01852610450737,0.012201045980759773,-23.969866052827445,0.4144097750594761,0.3020698651597212,85.91163568241612,0.9462651697218429,-1.4641128038390037,0.23618724428508828,0.4608146700022169,264.1174997614878,12.326105110322288,54.15462294377468,-20.96598767225619,7.563042895726867
