E-kp,E-ki,E-kd,E-I-Tot,E-P,E-I,E-D,E-PID,N-kp,N-ki,N-kd,N-I-Tot,N-P,N-I,N-D,N-PID,D-kp,D-ki,D-kd,D-I-Tot,D-P,D-I,D-D,D-PID,Y-kp,Y-ki,Y-kd,Y-I-Tot,Y-P,Y-I,Y-D,Y-PID,errorN,desiredN,actualN,errorE,desiredE,actualE,errorD,desiredD,actualD,errorY,desiredY,actualY,roll,pitch,yaw-rate,thrust,dt,Time,Mode
0.12,0.004,0.1,-0.0006303242382053734,-0.0022922542797951624,-2.521296952821494e-06,-0.05788940486627101,-0.06018418044301899,0.12,0.004,0.1,0.0007672935129864957,0.0027903604722706123,3.0691740519459827e-06,0.070468755812094,0.07326218545841656,0.002,8e-05,0,-0.02319801951255121,-0.0014060424854203204,-1.8558415610040969e-06,-0.0,-0.0014078983269813245,0.2,0.02,0,0.0007967205747958918,0.004828959543574093,1.5934411495917836e-05,0.0,0.00484489395507001,0.023253003935588438,0.0,-0.023253003935588438,-0.01910211899829302,0.0,0.01910211899829302,-0.7030212427101602,0.0,0.7030212427101602,0.024144797717870464,0,-0.024144797717870464,-0.06021504823870848,-0.07323681696627253,-0.00484489395507001,0.4,0.03299760818481445,0.03336381912231445,STABILIZE
0.12,0.004,0.1,-0.0012699133303795303,-0.0022956103181143413,-5.079653321518121e-06,-0.028986527008735427,-0.031287216980171284,0.12,0.004,0.1,0.0018500767637111468,0.003886320816065555,7.400307054844587e-06,0.04889276672467633,0.05278648784779673,0.002,8e-05,0,-0.04717617439400689,-0.0014343714432887033,-3.7740939515205515e-06,-0.0,-0.001438145537240224,0.2,0.02,0,0.0015634549419010833,0.004586599286729431,3.1269098838021665e-05,0.0,0.004617868385567453,0.03238600680054629,0.0,-0.03238600680054629,-0.01913008598428618,0.0,0.01913008598428618,-0.7171857216443517,0.0,0.7171857216443517,0.022932996433647154,0,-0.022932996433647154,-0.031308342597479395,-0.05277396071424587,-0.004617868385567453,0.4,0.03343367576599121,0.06670689582824707,STABILIZE
0.12,0.004,0.1,-0.0017930230692830469,-0.0018758041937478147,-7.172092277132188e-06,-0.01583969687543875,-0.017722673161463698,0.12,0.004,0.1,0.0029094477448913954,0.003798767985849267,1.1637790979565582e-05,0.03186843434389026,0.03567884012071909,0.002,8e-05,0,-0.07093569869114144,-0.001419976600303056,-5.674855895291316e-06,-0.0,-0.0014256514561983473,0.2,0.02,0,0.0023050224059474687,0.004431942463675253,4.6100448118949373e-05,0.0,0.004478042911794202,0.031656399882077225,0.0,-0.031656399882077225,-0.015631701614565122,0.0,0.015631701614565122,-0.709988300151528,0.0,0.709988300151528,0.022159712318376264,0,-0.022159712318376264,-0.017736470981721122,-0.03567198303238081,-0.004478042911794202,0.4,0.033464670181274414,0.10020041465759277,STABILIZE
0.12,0.004,0.1,-0.002209229813220321,-0.0014739503061465345,-8.836919252881284e-06,-0.009409076046310331,-0.010891863271709747,0.12,0.004,0.1,0.003958335833089532,0.003714521547844246,1.5833343332358128e-05,0.023383357921277666,0.02711371281245427,0.002,8e-05,0,-0.09477463693838843,-0.0014070495348594333,-7.581970955071076e-06,-0.0,-0.0014146315058145044,0.2,0.02,0,0.003031212261410219,0.004286202211486922,6.062424522820438e-05,0.0,0.0043468264567151265,0.030954346232035385,0.0,-0.030954346232035385,-0.012282919217887787,0.0,0.012282919217887787,-0.7035247674297166,0.0,0.7035247674297166,0.02143101105743461,0,-0.02143101105743461,-0.010902004168917049,-0.02710963690473891,-0.0043468264567151265,0.4,0.03388500213623047,0.13405156135559082,STABILIZE
0.12,0.004,0.1,-0.002777507425517905,-0.001998124205247962,-1.111002970207162e-05,-0.010087053731129263,-0.012096287966079297,0.12,0.004,0.1,0.004893420689528942,0.0032878572816871527,1.9573682758115768e-05,0.01662307981151698,0.01993051077596225,0.002,8e-05,0,-0.1183719101090411,-0.0013828418153320554,-9.46975280872329e-06,-0.0,-0.0013923115681407788,0.2,0.02,0,0.0037954125898841604,0.004478348671313995,7.590825179768321e-05,0.0,0.004554256923111678,0.027398810680726273,0.0,-0.027398810680726273,-0.016651035043733015,0.0,0.016651035043733015,-0.6914209076660277,0.0,0.6914209076660277,0.022391743356569974,0,-0.022391743356569974,-0.012104076078012392,-0.019925781908039404,-0.004554256923111678,0.4,0.034128665924072266,0.1681511402130127,STABILIZE
0.12,0.004,0.1,-0.00330545038357243,-0.001893810116732054,-1.322180153428972e-05,0.0020105358403087656,0.00010350392204242181,0.12,0.004,0.1,0.005957263239340331,0.0038161618650376194,2.3829052957361327e-05,0.005161422149922772,0.009001413067917753,0.002,8e-05,0,-0.14133763814459432,-0.001373024851400574,-1.1307011051567548e-05,0.0,-0.0013843318624521415,0.2,0.02,0,0.004600451997066691,0.00481299400004749,9.200903994133382e-05,-0.0,0.004905003039988824,0.031801348875313495,0.0,-0.031801348875313495,-0.015781750972767117,0.0,0.015781750972767117,-0.686512425700287,0.0,0.686512425700287,0.024064970000237447,0,-0.024064970000237447,9.9723202869052e-05,-0.009001455746931616,-0.004905003039988824,0.4,0.033452749252319336,0.20164704322814941,STABILIZE
0.12,0.004,0.1,-0.003803080825976396,-0.0017852145588852957,-1.5212323303905585e-05,0.0025683476171618133,0.0007679207349726119,0.12,0.004,0.1,0.00666201093555975,0.0025282332840289874,2.6648043742239e-05,-0.006719091846332512,-0.004164210518561286,0.002,8e-05,0,-0.16413362188734998,-0.0013629834040794725,-1.3130689750988e-05,0.0,-0.0013761140938304604,0.2,0.02,0,0.005418048901443677,0.004888453266451903,0.00010836097802887353,0.0,0.004996814244480776,0.02106861070024156,0.0,-0.02106861070024156,-0.014876787990710799,0.0,0.014876787990710799,-0.6814917020397362,0.0,0.6814917020397362,0.024442266332259516,0,-0.024442266332259516,0.0007696971090227201,0.004163882546189241,-0.004996814244480776,0.4,0.03345012664794922,0.23508810997009277,STABILIZE
0.12,0.004,0.1,-0.004281793266607392,-0.0017179720393771206,-1.712717306642957e-05,0.0008127154612200806,-0.0009223837512234695,0.12,0.004,0.1,0.007002060063527464,0.001220346170851693,2.8008240254109857e-05,-0.012802018150416223,-0.01155366373931042,0.002,8e-05,0,-0.1874940237186789,-0.0013972381527533216,-1.4999521897494313e-05,0.0,-0.001412237674650816,0.2,0.02,0,0.0062823605373046746,0.005169642209981289,0.00012564721074609348,0.0,0.0052952894207273825,0.01016955142376411,0.0,-0.01016955142376411,-0.014316433661476006,0.0,0.014316433661476006,-0.6986190763766608,0.0,0.6986190763766608,0.025848211049906443,0,-0.025848211049906443,-0.0009171713794025217,0.011554078684446563,-0.0052952894207273825,0.4,0.03343796730041504,0.26854896545410156,STABILIZE
0.12,0.004,0.1,-0.004735880918718031,-0.001629007830875205,-1.8943523674872124e-05,-0.0007205739063766847,-0.0023685252609267618,0.12,0.004,0.1,0.007295058166631304,0.0010511102915246064,2.9180232666525218e-05,-0.013230868786788585,-0.012150578262597455,0.002,8e-05,0,-0.21137937955663333,-0.001428117512937357,-1.6910350364530668e-05,-0.0,-0.0014450278633018879,0.2,0.02,0,0.007048716364015629,0.004582080269988689,0.0001409743272803126,0.0,0.004723054597269002,0.00875925242937172,0.0,-0.00875925242937172,-0.013575065257293377,0.0,0.013575065257293377,-0.7140587564686786,0.0,0.7140587564686786,0.022910401349943446,0,-0.022910401349943446,-0.002363666517951199,0.01215152437429438,-0.004723054597269002,0.4,0.03345012664794922,0.3020033836364746,STABILIZE
0.12,0.004,0.1,-0.0052675729473227444,-0.0018873907543754298,-2.1070291789290978e-05,0.0005653258872436668,-0.0013431351589210541,0.12,0.004,0.1,0.007839851862452198,0.0019338988158854305,3.135940744980879e-05,-0.006794891775204804,-0.004829633551869565,0.002,8e-05,0,-0.2351993554494911,-0.0014092619991440314,-1.881594843595929e-05,-0.0,-0.0014280779475799906,0.2,0.02,0,0.008013803355123762,0.005709747266556843,0.00016027606710247524,0.0,0.005870023333659318,0.016115823465711922,0.0,-0.016115823465711922,-0.015728256286461916,0.0,0.015728256286461916,-0.7046309995720157,0.0,0.7046309995720157,0.02854873633278421,0,-0.02854873633278421,-0.0013407285334532339,0.004830302195521358,-0.005870023333659318,0.4,0.033804893493652344,0.33580994606018066,STABILIZE
0.12,0.004,0.1,-0.005701354646450947,-0.001553802693655575,-2.2805418585803788e-05,0.0017052143102483071,0.00012860619800692842,0.12,0.004,0.1,0.008205264124956294,0.001308903900083249,3.282105649982517e-05,-0.012536328273152736,-0.011194603316569662,0.002,8e-05,0,-0.25837139920566643,-0.001383368027366878,-2.0669711936453317e-05,-0.0,-0.0014040377393033311,0.2,0.02,0,0.008837787096598323,0.004919172322563341,0.00017675574193196645,0.0,0.005095928064495307,0.010907532500693741,0.0,-0.010907532500693741,-0.012948355780463125,0.0,0.012948355780463125,-0.6916840136834389,0.0,0.6916840136834389,0.024595861612816704,0,-0.024595861612816704,0.00013341179152402436,0.011194547077188992,-0.005095928064495307,0.4,0.03350090980529785,0.3692810535430908,STABILIZE
0.12,0.004,0.1,-0.006150560246668878,-0.0016114823237038686,-2.4602240986675513e-05,0.0008767432228711111,-0.0007593413418194331,0.12,0.004,0.1,0.008692208845066584,0.0017468678233262505,3.4768835380266335e-05,-0.003937011640694122,-0.0021553749819876048,0.002,8e-05,0,-0.28195316047205093,-0.0014099553902914665,-2.2556252837764077e-05,-0.0,-0.0014325116431292307,0.2,0.02,0,0.009705937737034275,0.005190679615659302,0.00019411875474068552,0.0,0.005384798370399988,0.014557231861052088,0.0,-0.014557231861052088,-0.013429019364198906,0.0,0.013429019364198906,-0.7049776951457333,0.0,0.7049776951457333,0.02595339807829651,0,-0.02595339807829651,-0.0007583649388984762,0.002155718721406788,-0.005384798370399988,0.4,0.03345036506652832,0.4027564525604248,STABILIZE
0.12,0.004,0.1,-0.006548217145221039,-0.0014272480117161473,-2.6192868580884154e-05,0.0014599765067323407,6.535626435309446e-06,0.12,0.004,0.1,0.009004404732387056,0.0011205161058853235,3.601761892954822e-05,-0.0005403541550221614,0.0006161795697927103,0.002,8e-05,0,-0.3049651449789307,-0.0013765555705881445,-2.4397211598314456e-05,0.0,-0.0014009527821864588,0.2,0.02,0,0.010489148281406856,0.0046850928370698736,0.00020978296562813712,-0.0,0.00489487580269801,0.00933763421571103,0.0,-0.00933763421571103,-0.011893733430967893,0.0,0.011893733430967893,-0.6882777852940722,0.0,0.6882777852940722,0.023425464185349368,0,-0.023425464185349368,6.283699967739766e-06,-0.0006161821903930256,-0.00489487580269801,0.4,0.033434152603149414,0.4362058639526367,STABILIZE
0.12,0.004,0.1,-0.00689721514590234,-0.0012521398954268084,-2.758886058360936e-05,0.0018892854505743715,0.0006095566945639537,0.12,0.004,0.1,0.009149784427944858,0.000521595299794167,3.659913771177943e-05,-0.0026815965037025346,-0.002123402066196588,0.002,8e-05,0,-0.3274684764938282,-0.0013456294455752326,-2.619747811950626e-05,0.0,-0.0013718269236947388,0.2,0.02,0,0.011192186102201839,0.004203948168245615,0.00022384372204403678,-0.0,0.004427791890289652,0.004346627498284726,0.0,-0.004346627498284726,-0.010434499128556738,0.0,0.010434499128556738,-0.6728147227876163,0.0,0.6728147227876163,0.021019740841228075,0,-0.021019740841228075,0.0006103356526346838,0.0021231782990928172,-0.004427791890289652,0.4,0.033446550369262695,0.4696226119995117,STABILIZE
0.12,0.004,0.1,-0.007326352675266963,-0.0015377254397324481,-2.9305410701067855e-05,0.001741877664409311,0.00017484681397579496,0.12,0.004,0.1,0.009015717216590712,-0.00048040207958155657,3.606286886636285e-05,-0.012020703160780103,-0.012465042371495297,0.002,8e-05,0,-0.34997970513717913,-0.0013444054099147292,-2.7998376410974332e-05,0.0,-0.0013724037863257037,0.2,0.02,0,0.011984837247063767,0.004733835297089557,0.00023969674494127535,-0.0,0.004973532042030833,-0.004003350663179638,0.0,0.004003350663179638,-0.01281437866443707,0.0,0.01281437866443707,-0.6722027049573646,0.0,0.6722027049573646,0.023669176485447786,0,-0.023669176485447786,0.00017999617099810375,0.012464969077777796,-0.004973532042030833,0.4,0.03348875045776367,0.5031638145446777,STABILIZE
0.12,0.004,0.1,-0.007620767439352372,-0.0010557259280966232,-3.0483069757409487e-05,0.002482802721433118,0.0013965937235790855,0.12,0.004,0.1,0.008923642952605046,-0.00033016410743546355,3.569457181042018e-05,-0.00816312378495473,-0.008457593320579772,0.002,8e-05,0,-0.37196811874068975,-0.0013141176547906,-2.9757449499255183e-05,0.0,-0.0013438751042898552,0.2,0.02,0,0.012633594215655566,0.0038772373553988397,0.00025267188431311134,-0.0,0.004129909239711951,-0.002751367561962196,0.0,0.002751367561962196,-0.00879771606747186,0.0,0.00879771606747186,-0.6570588273953,0.0,0.6570588273953,0.019386186776994198,0,-0.019386186776994198,0.0013994552938670515,0.008457120295084112,-0.004129909239711951,0.4,0.033464908599853516,0.5366134643554688,STABILIZE
0.12,0.004,0.1,-0.008024946621633723,-0.0014511334383011882,-3.2099786486534894e-05,0.0007984692087878037,-0.0006847640159999193,0.12,0.004,0.1,0.008692300443565814,-0.0008305941158880221,3.476920177426326e-05,-0.012840705426027575,-0.013636530340141334,0.002,8e-05,0,-0.3938705921031753,-0.0013106155582781112,-3.150964736825403e-05,0.0,-0.0013421252056463652,0.2,0.02,0,0.013252386800596448,0.0037027744572433736,0.00026504773601192895,-0.0,0.003967822193255303,-0.006921617632400184,0.0,0.006921617632400184,-0.012092778652509902,0.0,0.012092778652509902,-0.6553077791390556,0.0,0.6553077791390556,0.018513872286216867,0,-0.018513872286216867,-0.0006803576351609464,0.013636750894677283,-0.003967822193255303,0.4,0.03342318534851074,0.5700054168701172,STABILIZE
0.12,0.004,0.1,-0.008386125276643095,-0.0012954908980740926,-3.3544501106572384e-05,0.0006554438134285243,-0.0006735915857521407,0.12,0.004,0.1,0.008653665881464927,-0.000138576083770729,3.461466352585971e-05,-0.006270946650324265,-0.006374908070569134,0.002,8e-05,0,-0.4163526092523245,-0.0013439908561924255,-3.3308208740185964e-05,0.0,-0.0013772990649326116,0.2,0.02,0,0.013641998256287499,0.0023291247864581,0.00027283996512574997,-0.0,0.0026019647515838503,-0.0011548006980894084,0.0,0.0011548006980894084,-0.010795757483950771,0.0,0.010795757483950771,-0.6719954280962127,0.0,0.6719954280962127,0.0116456239322905,0,-0.0116456239322905,-0.0006722958432154885,0.00637504484939508,-0.0026019647515838503,0.4,0.033455610275268555,0.60349440574646,STABILIZE
0.12,0.004,0.1,-0.00883452353279479,-0.0016009408454533858,-3.533809413117916e-05,-0.0017318062061401776,-0.003368085145724743,0.12,0.004,0.1,0.008846358325654962,0.0006879803841380486,3.5385433302619846e-05,0.0008122703463937181,0.0015356361638343865,0.002,8e-05,0,-0.4386683204815975,-0.0013279167612031495,-3.50934656385278e-05,0.0,-0.0013630102268416774,0.2,0.02,0,0.014133673961605598,0.002925761153029384,0.000282673479232112,-0.0,0.0032084346322614962,0.0057331698678170714,0.0,-0.0057331698678170714,-0.01334117371211155,0.0,0.01334117371211155,-0.6639583806015747,0.0,0.6639583806015747,0.01462880576514692,0,-0.01462880576514692,-0.0033684771158340454,-0.0015347761715084072,-0.0032084346322614962,0.4,0.03361010551452637,0.6370959281921387,STABILIZE
0.12,0.004,0.1,-0.009354611599660221,-0.0018072720281735518,-3.7418446398640884e-05,-0.0013063211107535687,-0.0031510115853257614,0.12,0.004,0.1,0.008818360346178014,-9.729114813002645e-05,3.527344138471206e-05,0.002009052028043207,0.0019470343212978926,0.002,8e-05,0,-0.4611982845439614,-0.0013048358678646966,-3.689586276351691e-05,0.0,-0.0013417317306282136,0.2,0.02,0,0.014783115996714764,0.003761281017421072,0.0002956623199342953,-0.0,0.004056943337355367,-0.0008107595677502204,0.0,0.0008107595677502204,-0.015060600234779599,0.0,0.015060600234779599,-0.6524179339323483,0.0,0.6524179339323483,0.01880640508710536,0,-0.01880640508710536,-0.0031516504978318055,-0.0019459999482748314,-0.004056943337355367,0.4,0.034533023834228516,0.6716065406799316,STABILIZE
0.12,0.004,0.1,-0.010108885418259023,-0.0020923635545266038,-4.043554167303609e-05,-0.004805241676389335,-0.006938040772588975,0.12,0.004,0.1,0.008430119251663214,-0.0010769849045554258,3.372047700665286e-05,-0.0025137410832334847,-0.003557005510782258,0.002,8e-05,0,-0.4887463796332683,-0.0012736451215328505,-3.9099710370661464e-05,0.0,-0.001312744831903512,0.2,0.02,0,0.015885351841189024,0.005096023160738274,0.0003177070368237805,0.0,0.005413730197562055,-0.00897487420462855,0.0,0.00897487420462855,-0.017436362954388364,0.0,0.017436362954388364,-0.6368225607664253,0.0,0.6368225607664253,0.025480115803691368,0,-0.025480115803691368,-0.0069364582438467045,0.0035600905883437094,-0.005413730197562055,0.4,0.0432586669921875,0.7148580551147461,STABILIZE
0.12,0.004,0.1,-0.010600509588716982,-0.0017587534967007375,-4.240203835486793e-05,-0.0011759241822648888,-0.0029770797173204943,0.12,0.004,0.1,0.008386711355507033,-0.00015528892543665974,3.3546845422028134e-05,0.004561276036089733,0.004439533956075102,0.002,8e-05,0,-0.510112446122041,-0.0012739285551150762,-4.0808995689763284e-05,0.0,-0.0013147375508048395,0.2,0.02,0,0.016647345784072266,0.004543306289783291,0.0003329469156814453,0.0,0.004876253205464736,-0.0012940743786388313,0.0,0.0012940743786388313,-0.014656279139172813,0.0,0.014656279139172813,-0.636964277557538,0.0,0.636964277557538,0.022716531448916454,0,-0.022716531448916454,-0.002978839662018814,-0.00443835325975846,-0.004876253205464736,0.4,0.03354358673095703,0.7485027313232422,STABILIZE
0.12,0.004,0.1,-0.011133777196784553,-0.0019115616793005412,-4.453510878713821e-05,-0.002712069332024152,-0.004668166120111832,0.12,0.004,0.1,0.008189356055019859,-0.0007074437372733205,3.275742422007943e-05,-0.001635147179005992,-0.002309833492059233,0.002,8e-05,0,-0.530994002886166,-0.0012475407316002657,-4.247952023089329e-05,0.0,-0.001290020251831159,0.2,0.02,0,0.017521999450208894,0.005225501560418095,0.0003504399890041779,0.0,0.005575941549422273,-0.005895364477277671,0.0,0.005895364477277671,-0.015929680660837844,0.0,0.015929680660837844,-0.6237703658001329,0.0,0.6237703658001329,0.026127507802090475,0,-0.026127507802090475,-0.0046671123252201305,0.0023119619870959926,-0.005575941549422273,0.4,0.03347635269165039,0.7819004058837891,STABILIZE
0.12,0.004,0.1,-0.01165372186325368,-0.0018147925779255108,-4.661488745301472e-05,-0.0007282868384256028,-0.002589694303804128,0.12,0.004,0.1,0.00784623636275682,-0.0011976102670456412,3.1384945451027285e-05,-0.00811008615184858,-0.009276311473443193,0.002,8e-05,0,-0.5521157279281845,-0.001228706062754167,-4.4169258234254764e-05,0.0,-0.0012728753209884217,0.2,0.02,0,0.01834869482413193,0.004809103498740496,0.00036697389648263865,0.0,0.005176077395223135,-0.009980085558713677,0.0,0.009980085558713677,-0.015123271482712591,0.0,0.015123271482712591,-0.6143530313770835,0.0,0.6143530313770835,0.02404551749370248,0,-0.02404551749370248,-0.0025858010542174088,0.009277397482456894,-0.005176077395223135,0.4,0.034380435943603516,0.8162829875946045,STABILIZE
0.12,0.004,0.1,-0.012136542866495148,-0.0017324571741752692,-4.8546171465980594e-05,0.0006778563134884504,-0.0011031470321527994,0.12,0.004,0.1,0.007373854934386647,-0.001694997916479989,2.9495419737546587e-05,-0.006798916633831898,-0.00846441913057434,0.002,8e-05,0,-0.572466481920142,-0.001217042116938527,-4.579731855361137e-05,0.0,-0.0012628394354921384,0.2,0.02,0,0.019090355348831196,0.004435374214569357,0.0003818071069766239,0.0,0.004817181321545981,-0.014124982637333243,0.0,0.014124982637333243,-0.014437143118127244,0.0,0.014437143118127244,-0.6085210584692635,0.0,0.6085210584692635,0.02217687107284678,0,-0.02217687107284678,-0.0010998707164581376,0.008464845479963486,-0.004817181321545981,0.4,0.03344297409057617,0.8497345447540283,STABILIZE
0.12,0.004,0.1,-0.012666072453662074,-0.001899176740433318,-5.0664289814648295e-05,0.000945774707285502,-0.0010040663229624644,0.12,0.004,0.1,0.007067084904818286,-0.0011002416464306363,2.8268339619273145e-05,-6.170078498417497e-05,-0.001133674091795538,0.002,8e-05,0,-0.5927858612192224,-0.001214602969631952,-4.74228688975378e-05,0.0,-0.0012620258385294897,0.2,0.02,0,0.019808136326636486,0.004290578439209945,0.00039616272653272974,-0.0,0.004686741165742675,-0.009168680386921969,0.0,0.009168680386921969,-0.015826472836944317,0.0,0.015826472836944317,-0.607301484815976,0.0,0.607301484815976,0.021452892196049726,0,-0.021452892196049726,-0.0010036417782528703,0.00113404995845034,-0.004686741165742675,0.4,0.03345847129821777,0.8831932544708252,STABILIZE
0.12,0.004,0.1,-0.013150929494684271,-0.0017135231444796856,-5.260371797873709e-05,0.00019945000110720815,-0.0015666768613512144,0.12,0.004,0.1,0.0066344961138114075,-0.0015288030135027714,2.6537984455245632e-05,-0.00674486356393236,-0.008247128592979887,0.002,8e-05,0,-0.6133639778636315,-0.0012120782057620735,-4.9069118229090527e-05,0.0,-0.001261147323991164,0.2,0.02,0,0.02051634986340561,0.004171471120398942,0.0004103269972681122,-0.0,0.004581798117667055,-0.012740025112523095,0.0,0.012740025112523095,-0.014279359537330713,0.0,0.014279359537330713,-0.6060391028810368,0.0,0.6060391028810368,0.02085735560199471,0,-0.02085735560199471,-0.0015636745592781766,0.008247698363162047,-0.004581798117667055,0.4,0.03395509719848633,0.9171521663665771,STABILIZE
0.12,0.004,0.1,-0.013641108697061028,-0.0017580076010024106,-5.456443478824411e-05,0.0007386410755474421,-0.0010739309602432125,0.12,0.004,0.1,0.006204835962972067,-0.0015409585052995323,2.4819343851888268e-05,-0.0040564330735387245,-0.0055725722349863685,0.002,8e-05,0,-0.6335390329742335,-0.0012059501254203192,-5.0683122637938686e-05,0.0,-0.0012566332480582578,0.2,0.02,0,0.021091518212278126,0.003438029480752738,0.0004218303642455625,-0.0,0.0038598598449983007,-0.012841320877496103,0.0,0.012841320877496103,-0.014650063341686755,0.0,0.014650063341686755,-0.6029750627101595,0.0,0.6029750627101595,0.01719014740376369,0,-0.01719014740376369,-0.0010722590027814774,0.0055728941899576695,-0.0038598598449983007,0.4,0.03345918655395508,0.9506239891052246,STABILIZE
0.12,0.004,0.1,-0.01417326018932819,-0.0019079413024081092,-5.669304075731276e-05,-0.00047708288535475136,-0.0024417172285201736,0.12,0.004,0.1,0.005818493885822811,-0.0013851657217211042,2.3273975543291245e-05,-0.0009044531489264943,-0.0022663448951043075,0.002,8e-05,0,-0.6541439510893134,-0.0012312588575423085,-5.233151608714508e-05,-0.0,-0.0012835903736294536,0.2,0.02,0,0.021685491482187548,0.0035493217960624202,0.00043370982964375095,-0.0,0.0039830316257061715,-0.011543047681009201,0.0,0.011543047681009201,-0.01589951085340091,0.0,0.01589951085340091,-0.6156294287711542,0.0,0.6156294287711542,0.0177466089803121,0,-0.0177466089803121,-0.0024410151410862585,0.0022671010759569643,-0.0039830316257061715,0.4,0.03346967697143555,0.984093427658081,STABILIZE
0.12,0.004,0.1,-0.014835533534337045,-0.0023751484858964673,-5.934213413734818e-05,-0.0032145930786029358,-0.005649083698636752,0.12,0.004,0.1,0.005327221005867323,-0.0017618798125910884,2.1308884023469292e-05,-0.0003021002960286218,-0.002042671224596241,0.002,8e-05,0,-0.6751096525409217,-0.0012531747511263362,-5.400877220327374e-05,-0.0,-0.0013071835233296099,0.2,0.02,0,0.022390503090053488,0.004214038572798659,0.0004478100618010698,-0.0,0.004661848634599728,-0.014682331771592404,0.0,0.014682331771592404,-0.01979290404913723,0.0,0.01979290404913723,-0.6265873755631681,0.0,0.6265873755631681,0.021070192863993295,0,-0.021070192863993295,-0.005648332136098386,0.00204474850441692,-0.004661848634599728,0.4,0.033460140228271484,1.0175888538360596,STABILIZE
0.12,0.004,0.1,-0.01562122045551638,-0.0028201851045850518,-6.248488182206552e-05,-0.004602775988273676,-0.007485445974680794,0.12,0.004,0.1,0.004739822566074607,-0.0021084382159160327,1.8959290264298426e-05,-0.004992474111834834,-0.007081953037486568,0.002,8e-05,0,-0.6960970235677015,-0.001255552509925143,-5.568776188541613e-05,-0.0,-0.001311240271810559,0.2,0.02,0,0.02320434486920115,0.004868742669994024,0.000464086897384023,0.0,0.005332829567378047,-0.01757031846596694,0.0,0.01757031846596694,-0.023501542538208766,0.0,0.023501542538208766,-0.6277762549625715,0.0,0.6277762549625715,0.02434371334997012,0,-0.02434371334997012,-0.007482436333440814,0.007085132799110748,-0.005332829567378047,0.4,0.033431291580200195,1.0510125160217285,STABILIZE
0.12,0.004,0.1,-0.016415562006570954,-0.002850010645660368,-6.566224802628382e-05,-0.005662672207214625,-0.008578345100901278,0.12,0.004,0.1,0.004226776693724511,-0.001840752502457762,1.6907106774898045e-05,-0.0015549784806577955,-0.0033788238763406593,0.002,8e-05,0,-0.7169574224189977,-0.0012474138427394422,-5.7356593793519825e-05,-0.0,-0.001304770436532962,0.2,0.02,0,0.023954410639424467,0.004485256640639197,0.0004790882127884894,0.0,0.004964344853427686,-0.015339604187148017,0.0,0.015339604187148017,-0.023750088713836402,0.0,0.023750088713836402,-0.6237069213697211,0.0,0.6237069213697211,0.022426283203195983,0,-0.022426283203195983,-0.008577021929981925,0.00338218128876851,-0.004964344853427686,0.4,0.03344583511352539,1.0844991207122803,STABILIZE
0.12,0.004,0.1,-0.017145813901435547,-0.0026232054843668535,-6.858325560574218e-05,-0.004309520109598875,-0.007001308849571471,0.12,0.004,0.1,0.003909341690419224,-0.0011402876835462936,1.5637366761676896e-05,0.0020002989387163063,0.0008756486219316894,0.002,8e-05,0,-0.7379990555029374,-0.0012597599927273596,-5.9039924440234996e-05,-0.0,-0.0013187999171675945,0.2,0.02,0,0.024534859746418065,0.003475141686426315,0.0004906971949283613,0.0,0.003965838881354676,-0.00950239736288578,0.0,0.00950239736288578,-0.021860045703057114,0.0,0.021860045703057114,-0.6298799963636798,0.0,0.6298799963636798,0.017375708432131574,0,-0.017375708432131574,-0.0070015740797269655,-0.0008735253415180078,-0.003965838881354676,0.4,0.03340578079223633,1.1178691387176514,STABILIZE
0.12,0.004,0.1,-0.0179294297481607,-0.0028106464208052877,-7.17177189926428e-05,-0.004496664816020435,-0.0073790289558183664,0.12,0.004,0.1,0.0036357554792874306,-0.0009812896310262605,1.4543021917149722e-05,0.0020165759627128964,0.0010498293536037855,0.002,8e-05,0,-0.7588735348547025,-0.0012478644334339456,-6.070988278837621e-05,-0.0,-0.0013085743162223218,0.2,0.02,0,0.02509281160550717,0.003335404293409433,0.0005018562321101433,-0.0,0.0038372605255195765,-0.008177413591885506,0.0,0.008177413591885506,-0.02342205350671073,0.0,0.02342205350671073,-0.6239322167169729,0.0,0.6239322167169729,0.016677021467047165,0,-0.016677021467047165,-0.007379334215945102,-0.0010476815030704364,-0.0038372605255195765,0.4,0.03345632553100586,1.1513276100158691,STABILIZE
0.12,0.004,0.1,-0.01887944073907862,-0.0029934340495828583,-7.551776295631447e-05,-0.002969418213799851,-0.006038370026339024,0.12,0.004,0.1,0.0033728794495925148,-0.0008283083728827149,1.349151779837006e-05,0.004562502246438747,0.0037476853913544026,0.002,8e-05,0,-0.7824296880083015,-0.0012370697392149821,-6.259437504066412e-05,0.0,-0.0012996641142556462,0.2,0.02,0,0.025702818842957557,0.0032035005428579996,0.0005140563768591511,-0.0,0.003717556919717151,-0.0069025697740226245,0.0,0.0069025697740226245,-0.02494528374652382,0.0,0.02494528374652382,-0.618534869607491,0.0,0.618534869607491,0.016017502714289998,0,-0.016017502714289998,-0.0060394174864011555,-0.0037459971693145602,-0.003717556919717151,0.4,0.038083791732788086,1.189448595046997,STABILIZE
0.12,0.004,0.1,-0.019680500755850892,-0.002864966303635055,-7.872200302340357e-05,-0.0001126150595044742,-0.0030563033661629327,0.12,0.004,0.1,0.0031640906478683038,-0.0007467266733976245,1.2656362591473214e-05,0.006695459192918904,0.005961388882112752,0.002,8e-05,0,-0.8031478770852835,-0.0012349660103509093,-6.425183016682269e-05,0.0,-0.0012992178405177319,0.2,0.02,0,0.02621592050935985,0.003058486991825199,0.000524318410187197,-0.0,0.0035828054020123957,-0.006222722278313538,0.0,0.006222722278313538,-0.023874719196958792,0.0,0.023874719196958792,-0.6174830051754546,0.0,0.6174830051754546,0.015292434959125993,0,-0.015292434959125993,-0.003057894371890251,-0.005960572932206965,-0.0035828054020123957,0.4,0.03355264663696289,1.222959280014038,STABILIZE
0.12,0.004,0.1,-0.020457984838320845,-0.002768216010277206,-8.183193935328339e-05,0.0005144518864608499,-0.0023355960631696393,0.12,0.004,0.1,0.0031346926575854953,-0.000104670936943573,1.253877063034198e-05,0.008536569063616481,0.00844443689730325,0.002,8e-05,0,-0.823592941345372,-0.001213237147272199,-6.588743530762976e-05,0.0,-0.0012791245825798288,0.2,0.02,0,0.026601971769514638,0.0022908792245048388,0.0005320394353902928,-0.0,0.0028229186598951314,-0.0008722578078631084,0.0,0.0008722578078631084,-0.023068466752310054,0.0,0.023068466752310054,-0.6066185736360995,0.0,0.6066185736360995,0.011454396122524193,0,-0.011454396122524193,-0.0023372842023529797,-0.008443969803372182,-0.0028229186598951314,0.4,0.03370332717895508,1.2566876411437988,STABILIZE
0.12,0.004,0.1,-0.021264709064762584,-0.0028902558848516095,-8.505883625905034e-05,-0.0012243826227999303,-0.00419969734391059,0.12,0.004,0.1,0.003016977714991762,-0.00042173805423838804,1.2067910859967048e-05,0.0034641205982393003,0.0030544504548608792,0.002,8e-05,0,-0.8436879615172929,-0.0011999092214424125,-6.749503692138343e-05,0.0,-0.0012674042583637958,0.2,0.02,0,0.026931713070352487,0.0019689436695296916,0.0005386342614070497,-0.0,0.0025075779309367413,-0.0035144837853199004,0.0,0.0035144837853199004,-0.024085465707096746,0.0,0.024085465707096746,-0.5999546107212063,0.0,0.5999546107212063,0.009844718347648457,0,-0.009844718347648457,-0.004200222105988192,-0.0030537288062330624,-0.0025075779309367413,0.4,0.03349423408508301,1.2901630401611328,STABILIZE
0.12,0.004,0.1,-0.022166439374429428,-0.0032216224348076018,-8.866575749771771e-05,-0.0019348971171165874,-0.005245185309421907,0.12,0.004,0.1,0.003027948859333867,3.919673584122581e-05,1.2111795437335468e-05,0.004959257215040941,0.005010565746319502,0.002,8e-05,0,-0.8638221377903268,-0.0011988934550276294,-6.910577102322615e-05,0.0,-0.0012679992260508557,0.2,0.02,0,0.027143261755160897,0.0012596707717126303,0.0005428652351032179,-0.0,0.0018025360068158482,0.00032663946534354846,0.0,-0.00032663946534354846,-0.026846853623396682,0.0,0.026846853623396682,-0.5994467275138147,0.0,0.5994467275138147,0.006298353858563151,0,-0.006298353858563151,-0.005245736074251888,-0.0050099891284969954,-0.0018025360068158482,0.4,0.03358793258666992,1.3237600326538086,STABILIZE
0.12,0.004,0.1,-0.02309950954383524,-0.0033485414745084686,-9.239803817534097e-05,-0.001767570312254204,-0.005208509824938014,0.12,0.004,0.1,0.0028678677533474674,-0.0005744886507538852,1.147147101338987e-05,0.0012309378273034524,0.000667920647562957,0.002,8e-05,0,-0.8838856092840982,-0.0012000413370535454,-7.071084874272787e-05,0.0,-0.0012707521857962733,0.2,0.02,0,0.027446203629832185,0.0018119634602760633,0.0005489240725966438,-0.0,0.002360887532872707,-0.004787405422949044,0.0,0.004787405422949044,-0.02790451228757057,0.0,0.02790451228757057,-0.6000206685267727,0.0,0.6000206685267727,0.009059817301380316,0,-0.009059817301380316,-0.005208615373868216,-0.0006670970506758435,-0.002360887532872707,0.4,0.03343796730041504,1.3571903705596924,STABILIZE
0.12,0.004,0.1,-0.02393968219666812,-0.003002867018996237,-9.575872878667248e-05,-0.0006897694694128808,-0.0037883952171957904,0.12,0.004,0.1,0.002693194802323754,-0.0006242998292925714,1.0772779209295016e-05,0.0005784310172884751,-3.509603279480125e-05,0.002,8e-05,0,-0.9036928889831849,-0.0011798889736903493,-7.22954311186548e-05,0.0,-0.0012521844048090042,0.2,0.02,0,0.02766471737022307,0.0013016525075824972,0.0005532943474044614,-0.0,0.0018549468549869585,-0.0052024985774380954,0.0,0.0052024985774380954,-0.02502389182496864,0.0,0.02502389182496864,-0.5899444868451746,0.0,0.5899444868451746,0.006508262537912486,0,-0.006508262537912486,-0.003788391206175526,3.552635869060963e-05,-0.0018549468549869585,0.4,0.033574819564819336,1.3907701969146729,STABILIZE
0.12,0.004,0.1,-0.024684733924060846,-0.002671012591967135,-9.873893569624339e-05,0.00048414949986742405,-0.002285602027795954,0.12,0.004,0.1,0.0025054900655728813,-0.0006729220227271346,1.0021960262291525e-05,-0.0028387035471603797,-0.0035016036096252225,0.002,8e-05,0,-0.9231274173250266,-0.0011612140028106406,-7.385019338600214e-05,0.0,-0.0012350641961966428,0.2,0.02,0,0.027800657252769156,0.0008122414517932747,0.0005560131450553831,-0.0,0.001368254596848658,-0.0056076835227261215,0.0,0.0056076835227261215,-0.02225843826639279,0.0,0.02225843826639279,-0.5806070014053203,0.0,0.5806070014053203,0.004061207258966373,0,-0.004061207258966373,-0.0022853538233544076,0.0035017656075878004,-0.001368254596848658,0.4,0.03347277641296387,1.4242651462554932,STABILIZE
0.12,0.004,0.1,-0.025525011600722736,-0.003015146844518243,-0.00010210004640289094,-0.0006236492512867325,-0.0037408961422078666,0.12,0.004,0.1,0.002517048687663086,4.147550731171196e-05,1.0068194750652343e-05,0.0022993696020775687,0.002350913304139933,0.002,8e-05,0,-0.9426585065557653,-0.0011680484459615555,-7.541268052446123e-05,0.0,-0.0012434611264860167,0.2,0.02,0,0.027898390139774285,0.0005844873546837897,0.0005579678027954857,-0.0,0.0011424551574792754,0.0003456292275975997,0.0,-0.0003456292275975997,-0.025126223704318693,0.0,0.025126223704318693,-0.5840242229807777,0.0,0.5840242229807777,0.0029224367734189483,0,-0.0029224367734189483,-0.0037410160483638414,-0.002350722492395056,-0.0011424551574792754,0.4,0.03344225883483887,1.4577171802520752,STABILIZE
0.12,0.004,0.1,-0.026344958960804646,-0.002939974347358248,-0.00010537983584321858,0.0013949799269154235,-0.0016503742562860432,0.12,0.004,0.1,0.0024438585770937106,-0.0002624278801663335,9.775434308374843e-06,-0.0015012587219210994,-0.001753911167779058,0.002,8e-05,0,-0.9623952578895074,-0.0011794566628357307,-7.69916206311606e-05,0.0,-0.0012564482834668913,0.2,0.02,0,0.02782834698433198,-0.0004185737813458001,0.0005565669396866397,-0.0,0.00013799315834083956,-0.0021868990013861125,0.0,0.0021868990013861125,-0.024499786227985404,0.0,0.024499786227985404,-0.5897283314178653,0.0,0.5897283314178653,-0.0020928689067290004,0,0.0020928689067290004,-0.0016504383210931785,0.0017538508826405222,-0.00013799315834083956,0.4,0.03346753120422363,1.4911854267120361,STABILIZE
0.12,0.004,0.1,-0.027016949412886633,-0.0024102207593264,-0.00010806779765154653,0.00466656346953559,0.0021482749125576435,0.12,0.004,0.1,0.0025867267784768612,0.000512423805657409,1.0346907113907446e-05,0.0054174998538798905,0.005940270566651207,0.002,8e-05,0,-0.9818649960381254,-0.0011638649259340685,-7.854919968305004e-05,0.0,-0.0012424141256171185,0.2,0.02,0,0.027408630529095056,-0.0025089873184674025,0.0005481726105819011,-0.0,-0.0019608147078855015,0.0042701983804784086,0.0,-0.0042701983804784086,-0.02008517299438667,0.0,0.02008517299438667,-0.5819324629670343,0.0,0.5819324629670343,-0.01254493659233701,0,0.01254493659233701,0.0021495754859556064,-0.005939800058514253,0.0019608147078855015,0.4,0.033457040786743164,1.5246264934539795,STABILIZE
0.12,0.004,0.1,-0.027643026879899835,-0.0022478999222753275,-0.00011057210751959934,0.003760073684513492,0.001401601654718565,0.12,0.004,0.1,0.0027534616164613295,0.0005986531205697791,1.1013846465845317e-05,0.006094767270921285,0.006704434237956909,0.002,8e-05,0,-1.0011847239228935,-0.0011561086579731327,-8.009477791383149e-05,0.0,-0.001236203435886964,0.2,0.02,0,0.02703150639079386,-0.0022567423517616627,0.0005406301278158772,-0.0,-0.0017161122239457856,0.00498877600474816,0.0,-0.00498877600474816,-0.018732499352294398,0.0,0.018732499352294398,-0.5780543289865663,0.0,0.5780543289865663,-0.011283711758808313,0,0.011283711758808313,0.0014029219848770474,-0.006704158079427073,0.0017161122239457856,0.4,0.033421993255615234,1.558053731918335,STABILIZE
0.12,0.004,0.1,-0.028302991455557994,-0.0022545291149079143,-0.00011321196582223198,0.002076260760182618,-0.00029148032054752797,0.12,0.004,0.1,0.0028697129914939,0.00039713057234569616,1.14788519659756e-05,0.0053807147142046746,0.005789324138516346,0.002,8e-05,0,-1.0220902129320901,-0.001190266754990049,-8.176721703456722e-05,-0.0,-0.001272033972024616,0.2,0.02,0,0.026453378727073845,-0.0032916050801934556,0.0005290675745414769,-0.0,-0.0027625375056519784,0.003309421436214135,0.0,-0.003309421436214135,-0.01878774262423262,0.0,0.01878774262423262,-0.5951333774950245,0.0,0.5951333774950245,-0.016458025400967278,0,0.016458025400967278,-0.00028981734410817706,-0.005789407626444056,0.0027625375056519784,0.4,0.03512740135192871,1.593174934387207,STABILIZE
0.12,0.004,0.1,-0.02891765773697504,-0.002203172382603144,-0.00011567063094790016,0.004046994175523393,0.0017281511619723485,0.12,0.004,0.1,0.0028925578394749813,8.188368172832425e-05,1.1570231357899926e-05,0.0002509840251325579,0.00034443793821878213,0.002,8e-05,0,-1.041753295033998,-0.0011746525649633738,-8.334026360271985e-05,-0.0,-0.0012579928285660937,0.2,0.02,0,0.025805015294767687,-0.003873257329851594,0.0005161003058953538,-0.0,-0.00335715702395624,0.0006823640144027021,0.0,-0.0006823640144027021,-0.0183597698550262,0.0,0.0183597698550262,-0.587326282481687,0.0,0.587326282481687,-0.01936628664925797,0,0.01936628664925797,0.0017282674851572754,-0.00034385379401561127,0.00335715702395624,0.4,0.03347897529602051,1.626659870147705,STABILIZE
0.12,0.004,0.1,-0.029614893398960423,-0.0025026400553468196,-0.0001184595735958417,0.002179719803209301,-0.0004413798257333606,0.12,0.004,0.1,0.003089151671896456,0.0007056489311678916,1.2356606687585825e-05,0.004874029145145128,0.005592034683000605,0.002,8e-05,0,-1.0612215579990547,-0.001164648180445414,-8.489772463992438e-05,0.0,-0.0012495459050853384,0.2,0.02,0,0.02524677981485306,-0.0033395271941291677,0.0005049355962970612,-0.0,-0.0028345915978321068,0.0058804077597324304,0.0,-0.0058804077597324304,-0.02085533379455683,0.0,0.02085533379455683,-0.5823240902227069,0.0,0.5823240902227069,-0.016697635970645837,0,0.016697635970645837,-0.0004397501274753287,-0.00559216307629092,0.0028345915978321068,0.4,0.0334320068359375,1.6600961685180664,STABILIZE
0.12,0.004,0.1,-0.030398995560755614,-0.0028136539218122057,-0.00012159598224302246,-0.0020093027992318098,-0.004944552703287038,0.12,0.004,0.1,0.0034608594830413484,0.0013338276458791842,1.3843437932165394e-05,0.004144848373046873,0.005492519456858223,0.002,8e-05,0,-1.0806384892595986,-0.0011612543928737286,-8.645107914076789e-05,0.0,-0.0012477054720144965,0.2,0.02,0,0.02476946429719781,-0.0028546464640902963,0.0004953892859439562,-0.0,-0.00235925717814634,0.011115230382326535,0.0,-0.011115230382326535,-0.023447116015101716,0.0,0.023447116015101716,-0.5806271964368642,0.0,0.5806271964368642,-0.014273232320451482,0,0.014273232320451482,-0.00494318428144692,-0.005493751048164213,0.00235925717814634,0.4,0.03344130516052246,1.6935346126556396,STABILIZE
0.12,0.004,0.1,-0.03118690297229501,-0.0028232024955464276,-0.00012474761188918003,-0.0028662736164599134,-0.005814223723895521,0.12,0.004,0.1,0.00394805349307918,0.0017456966704587262,1.579221397231672e-05,0.00576456051413762,0.007526049398568662,0.002,8e-05,0,-1.100771709107065,-0.001202344245112485,-8.806173672856521e-05,-0.0,-0.0012904059818410502,0.2,0.02,0,0.024432197085529593,-0.0020141402820147746,0.0004886439417105919,0.0,-0.0015254963403041827,0.014547472253822719,0.0,-0.014547472253822719,-0.023526687462886896,0.0,0.023526687462886896,-0.6011721225562424,0.0,0.6011721225562424,-0.010070701410073872,0,0.010070701410073872,-0.005812900803736108,-0.007527071230374356,0.0015254963403041827,0.4,0.03348994255065918,1.7270252704620361,STABILIZE
0.12,0.004,0.1,-0.03189404018462143,-0.002534890336489497,-0.0001275761607384857,-0.0013993775433481068,-0.00406184404057609,0.12,0.004,0.1,0.004552140197215122,0.0021654829105629673,1.820856078886049e-05,0.00881073485210137,0.010994426323453196,0.002,8e-05,0,-1.1209745370453137,-0.0012070253697521222,-8.96779629636251e-05,-0.0,-0.0012967033327157473,0.2,0.02,0,0.02414484657206253,-0.0017167861886770597,0.0004828969314412506,0.0,-0.0012338892572358092,0.018045690921358062,0.0,-0.018045690921358062,-0.021124086137412474,0.0,0.021124086137412474,-0.603512684876061,0.0,0.603512684876061,-0.008583930943385299,0,0.008583930943385299,-0.004060196833598709,-0.0109950347368364,0.0012338892572358092,0.4,0.033475399017333984,1.7605438232421875,STABILIZE
0.12,0.004,0.1,-0.03264565494256215,-0.0026967308066151263,-0.0001305826197702486,-0.0024615303164828677,-0.005288843742868242,0.12,0.004,0.1,0.005127323499261346,0.0020637095183287995,2.0509293997045387e-05,0.009872953388605207,0.011957172200931052,0.002,8e-05,0,-1.1411864922190507,-0.001208646708150441,-9.129491937752406e-05,-0.0,-0.001299941627527965,0.2,0.02,0,0.023798130205686,-0.0020733154773041915,0.00047596260411372,0.0,-0.0015973528731904716,0.017197579319406662,0.0,-0.017197579319406662,-0.02247275672179272,0.0,0.02247275672179272,-0.6043233540752204,0.0,0.6043233540752204,-0.010366577386520958,0,0.010366577386520958,-0.005286680234294133,-0.011958128920509204,0.0015973528731904716,0.4,0.03344559669494629,1.7939584255218506,STABILIZE
0.12,0.004,0.1,-0.03334446870641627,-0.002507231642942922,-0.00013337787482566507,-2.4316036055681002e-05,-0.002664925553824268,0.12,0.004,0.1,0.005695868014086083,0.002039846482313695,2.278347205634433e-05,0.006644420113483778,0.008707050067853817,0.002,8e-05,0,-1.1612540827777598,-0.0011999882431461347,-9.290032662222079e-05,-0.0,-0.0012928885697683554,0.2,0.02,0,0.02338654650284445,-0.0024611604618675234,0.00046773093005688906,0.0,-0.0019934295318106343,0.01699872068594746,0.0,-0.01699872068594746,-0.02089359702452435,0.0,0.02089359702452435,-0.5999941215730673,0.0,0.5999941215730673,-0.012305802309337616,0,0.012305802309337616,-0.002663055420306249,-0.008707622231121207,0.0019934295318106343,0.4,0.033446311950683594,1.827416181564331,STABILIZE
0.12,0.004,0.1,-0.03413700748028767,-0.0023200366760217097,-0.00013654802992115066,0.002286822427054929,-0.00016976227888793136,0.12,0.004,0.1,0.006383093627975078,0.002011748423532292,2.553237451190031e-05,0.00339942754337603,0.005436708341420222,0.002,8e-05,0,-1.1856798243597222,-0.001191710701891296,-9.485438594877779e-05,-0.0,-0.001286565087840074,0.2,0.02,0,0.022803486878369084,-0.002844697230568969,0.00045606973756738165,0.0,-0.0023886274930015874,0.016764570196102432,0.0,-0.016764570196102432,-0.01933363896684758,0.0,0.01933363896684758,-0.595855350945648,0.0,0.595855350945648,-0.014223486152844845,0,0.014223486152844845,-0.00016841262895937156,-0.005436750316816879,0.0023886274930015874,0.4,0.04099273681640625,1.8684346675872803,STABILIZE
0.12,0.004,0.1,-0.03475337963448174,-0.002208909274228184,-0.00013901351853792696,0.002887467346503378,0.0005395445537372673,0.12,0.004,0.1,0.006908348150163949,0.0018823685941983309,2.7633392600655796e-05,0.0007057376403469995,0.002615739627145986,0.002,8e-05,0,-1.2060056577829936,-0.0012140371594654223,-9.64804526226395e-05,-0.0,-0.0013105176120880619,0.2,0.02,0,0.022383819704595073,-0.0025066206780291695,0.00044767639409190146,-0.0,-0.002058944283937268,0.015686404951652758,0.0,-0.015686404951652758,-0.018407577285234865,0.0,0.018407577285234865,-0.6070185797327111,0.0,0.6070185797327111,-0.012533103390145846,0,0.012533103390145846,0.0005401167179632252,-0.0026156215424762816,0.002058944283937268,0.4,0.033484697341918945,1.9018962383270264,STABILIZE
0.12,0.004,0.1,-0.03532249700884855,-0.002034360910010678,-0.0001412899880353942,0.0023186059297047082,0.00014295503165863595,0.12,0.004,0.1,0.007368189250857568,0.0016437431050285365,2.9472757003430273e-05,-0.0025689916832209126,-0.000895775821188946,0.002,8e-05,0,-1.2261118227224572,-0.0011978547204660594,-9.808894581779659e-05,0.0,-0.001295943666283856,0.2,0.02,0,0.022140687019435154,-0.0014484991816951015,0.0004428137403887031,0.0,-0.0010056854413063984,0.013697859208571138,0.0,-0.013697859208571138,-0.01695300758342232,0.0,0.01695300758342232,-0.5989273602330296,0.0,0.5989273602330296,-0.0072424959084755065,0,0.0072424959084755065,0.00014284179961615876,0.0008957938843203101,0.0010056854413063984,0.4,0.033570289611816406,1.9354526996612549,STABILIZE
0.12,0.004,0.1,-0.03584203543155048,-0.0018645122543732638,-0.0001433681417262019,0.003971690016782831,0.0019638096206833653,0.12,0.004,0.1,0.007759034338619141,0.0014026594066001115,3.103613735447657e-05,-0.0032634964200155834,-0.0018298008760609951,0.002,8e-05,0,-1.2457919396945583,-0.0011771288275193269,-9.966335517556467e-05,0.0,-0.0012767921826948915,0.2,0.02,0,0.022070348299930313,-0.00042071769460172215,0.0004414069659986063,0.0,2.0689271396884137e-05,0.011688828388334264,0.0,-0.011688828388334264,-0.0155376021197772,0.0,0.0155376021197772,-0.5885644137596634,0.0,0.5885644137596634,-0.0021035884730086106,0,0.0021035884730086106,0.0019637424390532804,0.0018298729752043452,-2.0689271396884137e-05,0.4,0.033437490463256836,1.9688901901245117,STABILIZE
0.12,0.004,0.1,-0.03634713340564097,-0.0018035580664625178,-0.00014538853362256387,0.0033296859892084103,0.0013807393891233286,0.12,0.004,0.1,0.008240659920059604,0.0017197449742018293,3.296263968023842e-05,-0.001572055934403334,0.00018065167947873368,0.002,8e-05,0,-1.2654145235726093,-0.0011677757337350395,-0.00010123316188580875,0.0,-0.0012690088956208484,0.2,0.02,0,0.0220223573522376,-0.00028560287729072074,0.000440447147044752,0.0,0.00015484426975403124,0.014331208118348577,0.0,-0.014331208118348577,-0.015029650553854315,0.0,0.015029650553854315,-0.5838878668675198,0.0,0.5838878668675198,-0.0014280143864536037,0,0.0014280143864536037,0.0013807438911761555,-0.0001806172664915474,-0.00015484426975403124,0.4,0.033606767654418945,2.0025014877319336,STABILIZE
0.12,0.004,0.1,-0.03685763073159205,-0.0018313736076059268,-0.0001474305229263682,0.002430003904637844,0.000451199774105549,0.12,0.004,0.1,0.008722220838672034,0.0017275662613084422,3.488888335468814e-05,-0.00141884605270739,0.00034360909195574026,0.002,8e-05,0,-1.285392585017661,-0.001194498403866372,-0.0001028314068014129,-0.0,-0.001297329810667785,0.2,0.02,0,0.022096763307971043,0.00044487697470648694,0.00044193526615942085,0.0,0.0008868122408659078,0.014396385510903685,0.0,-0.014396385510903685,-0.01526144673004939,0.0,0.01526144673004939,-0.597249201933186,0.0,0.597249201933186,0.0022243848735324346,0,-0.0022243848735324346,0.0004511864338847688,-0.0003436266085533714,-0.0008868122408659078,0.4,0.03345012664794922,2.0359623432159424,STABILIZE
0.12,0.004,0.1,-0.03741634841062439,-0.0019735962966749765,-0.00014966539364249756,0.0011791246538803487,-0.0009441370364371255,0.12,0.004,0.1,0.009339408695015655,0.0021801344638712108,3.735763478006262e-05,0.0014454584552465134,0.003662950553897787,0.002,8e-05,0,-1.3051232574868563,-0.0011615998436381694,-0.00010440986059894852,0.0,-0.001266009704237118,0.2,0.02,0,0.022201292916488074,0.0006153950256815303,0.0004440258583297615,0.0,0.0010594208840112918,0.018167787198926758,0.0,-0.018167787198926758,-0.016446635805624804,0.0,0.016446635805624804,-0.5807999218190847,0.0,0.5807999218190847,0.0030769751284076513,0,-0.0030769751284076513,-0.000944333747780175,-0.0036628998452968697,-0.0010594208840112918,0.4,0.033971548080444336,2.069930076599121,STABILIZE
0.12,0.004,0.1,-0.03797005351610547,-0.001913717268423891,-0.00015188021406442189,0.0005999793124872794,-0.0014656181700010336,0.12,0.004,0.1,0.010213267721239793,0.0030202342223307546,4.0853070884959174e-05,0.006662879945072024,0.009723967238287739,0.002,8e-05,0,-1.3253827020838032,-0.0011670125664986863,-0.00010603061616670426,0.0,-0.0012730431826653906,0.2,0.02,0,0.022475174846416358,0.0015776525976994927,0.0004495034969283272,0.0,0.00202715609462782,0.025168618519422956,0.0,-0.025168618519422956,-0.015947643903532427,0.0,0.015947643903532427,-0.5835062832493432,0.0,0.5835062832493432,0.007888262988497463,0,-0.007888262988497463,-0.0014669569145896776,-0.009723765365447069,-0.00202715609462782,0.4,0.03472018241882324,2.104660749435425,STABILIZE
0.12,0.004,0.1,-0.03850871986650477,-0.001934358243274983,-0.00015403487946601908,-0.00034956584425221125,-0.0024379589669932134,0.12,0.004,0.1,0.011170175598804188,0.0034362692966608305,4.468070239521675e-05,0.009939526430799664,0.01342047642985571,0.002,8e-05,0,-1.3448404829706364,-0.0011645526284927042,-0.00010758723863765093,0.0,-0.0012721398671303552,0.2,0.02,0,0.02290478583094479,0.0025712315508726376,0.0004580957166188958,0.0,0.0030293272674915333,0.028635577472173587,0.0,-0.028635577472173587,-0.016119652027291525,0.0,0.016119652027291525,-0.5822763142463521,0.0,0.5822763142463521,0.012856157754363188,0,-0.012856157754363188,-0.002440970222721935,-0.013419929057220836,-0.0030293272674915333,0.4,0.033416748046875,2.1380767822265625,STABILIZE
0.12,0.004,0.1,-0.03905504286077146,-0.0019586811201704746,-0.00015622017144308585,-0.0007729717365349036,-0.002887873028148464,0.12,0.004,0.1,0.012063047471251353,0.0032011306455093157,4.825218988500541e-05,0.00719613589524927,0.010445518730643592,0.002,8e-05,0,-1.3641120903875081,-0.0011515450871521522,-0.00010912896723100066,0.0,-0.0012606740543831528,0.2,0.02,0,0.02303613777425638,0.0007848732165222875,0.0004607227554851276,0.0,0.001245595972007415,0.026676088712577633,0.0,-0.026676088712577633,-0.016322342668087287,0.0,0.016322342668087287,-0.5757725435760761,0.0,0.5757725435760761,0.003924366082611437,0,-0.003924366082611437,-0.0028885884674289745,-0.010445320906739525,-0.001245595972007415,0.4,0.033470869064331055,2.1715662479400635,STABILIZE
0.12,0.004,0.1,-0.03959173783416763,-0.0019260422448731315,-0.00015836695133667053,-0.00047169708048846234,-0.0025561062766982644,0.12,0.004,0.1,0.012935203742163634,0.0031299153246737645,5.1740814968654535e-05,0.006802206162782962,0.009983862302425381,0.002,8e-05,0,-1.383276821561012,-0.0011462774847765065,-0.00011066214572488098,0.0,-0.0012569396305013875,0.2,0.02,0,0.022907107748149805,-0.0007717520921481735,0.00045814215496299614,-0.0,-0.0003136099371851774,0.026082627705614706,0.0,-0.026082627705614706,-0.01605035204060943,0.0,0.01605035204060943,-0.5731387423882532,0.0,0.5731387423882532,-0.0038587604607408675,0,0.0038587604607408675,-0.002555433876993837,-0.009984034428620484,0.0003136099371851774,0.4,0.03343820571899414,2.2049829959869385,STABILIZE
0.12,0.004,0.1,-0.04021307105941638,-0.0022266408338975736,-0.0001608522842376655,-0.0012701100072004046,-0.0036576031253356435,0.12,0.004,0.1,0.01382987148057096,0.003206176071319893,5.531948592228384e-05,0.004961448545189353,0.00822294410243153,0.002,8e-05,0,-1.402298028943357,-0.0011360891747636073,-0.00011218384231546857,0.0,-0.0012482730170790758,0.2,0.02,0,0.022894815151595103,-7.342060677229968e-05,0.0004578963030319021,-0.0,0.0003844756962596024,0.026718133927665776,0.0,-0.026718133927665776,-0.01855534028247978,0.0,0.01855534028247978,-0.5680445873818036,0.0,0.5680445873818036,-0.0003671030338614984,0,0.0003671030338614984,-0.003657550439569704,-0.008222967537098879,-0.0003844756962596024,0.4,0.03348541259765625,2.2384724617004395,STABILIZE
0.12,0.004,0.1,-0.040944190688489784,-0.002625498067638901,-0.00016377676275395914,-0.003546882657173771,-0.006336157487566631,0.12,0.004,0.1,0.014847461528353211,0.0036542319448964367,5.9389846113412844e-05,0.0031634518795344985,0.006877073670544348,0.002,8e-05,0,-1.4213360503428718,-0.0011394461865618785,-0.00011370688402742975,0.0,-0.0012531530705893082,0.2,0.02,0,0.022308804852719438,-0.0035073350655908317,0.0004461760970543888,-0.0,-0.003061158968536443,0.030451932874136972,0.0,-0.030451932874136972,-0.02187915056365751,0.0,0.02187915056365751,-0.5697230932809392,0.0,0.5697230932809392,-0.01753667532795416,0,0.01753667532795416,-0.006334052306138523,-0.006879012673374156,0.003061158968536443,0.4,0.0334162712097168,2.271890878677368,STABILIZE
0.12,0.004,0.1,-0.041642067969622956,-0.002503800300894714,-0.00016656827187849183,-0.0028375192800261452,-0.0055078878527993515,0.12,0.004,0.1,0.01562687722768633,0.002796338719242435,6.250750891074532e-05,-0.003186385777243202,-0.00032753954909002167,0.002,8e-05,0,-1.4402869631941035,-0.0011331815918050425,-0.0001152229570555283,0.0,-0.0012484045488605708,0.2,0.02,0,0.021734197940594266,-0.003435897681846295,0.0004346839588118853,-0.0,-0.0030012137230344097,0.023302822660353627,0.0,-0.023302822660353627,-0.020865002507455953,0.0,0.020865002507455953,-0.5665907959025213,0.0,0.5665907959025213,-0.017179488409231475,0,0.017179488409231475,-0.005507985814221303,0.00032588805680728943,0.0030012137230344097,0.4,0.033447265625,2.305342674255371,STABILIZE
0.12,0.004,0.1,-0.042078553007408356,-0.001566015944504892,-0.00016831421202963344,0.001956611782607295,0.00022228162607276954,0.12,0.004,0.1,0.01651384760667609,0.0031822620148652964,6.605539042670436e-05,-9.245259180546279e-05,0.0031558648134865377,0.002,8e-05,0,-1.4591606233222385,-0.0011285783067458905,-0.00011673284986577909,0.0,-0.0012453111566116696,0.2,0.02,0,0.021088844183224268,-0.0038589878476141663,0.00042177688366448534,-0.0,-0.003437210963949681,0.02651885012387747,0.0,-0.02651885012387747,-0.013050132870874101,0.0,0.013050132870874101,-0.5642891533729453,0.0,0.5642891533729453,-0.01929493923807083,0,0.01929493923807083,0.00022334438317318981,-0.0031557897789296677,0.003437210963949681,0.4,0.0334467887878418,2.3387835025787354,STABILIZE
0.12,0.004,0.1,-0.04287060169481236,-0.002827734324493756,-0.00017148240677924945,-0.004462357693634426,-0.007461574424907431,0.12,0.004,0.1,0.01689102021870537,0.001346563611878241,6.756408087482148e-05,-0.008839885253244256,-0.007425757560491193,0.002,8e-05,0,-1.4779552575089825,-0.0011183283942714452,-0.00011823642060071861,0.0,-0.0012365648148721638,0.2,0.02,0,0.020797648918109313,-0.0017326856698554013,0.0004159529783621863,-0.0,-0.001316732691493215,0.011221363432318675,0.0,-0.011221363432318675,-0.023564452704114634,0.0,0.023564452704114634,-0.5591641971357225,0.0,0.5591641971357225,-0.008663428349277006,0,0.008663428349277006,-0.007462697153870998,0.00742462924564119,0.001316732691493215,0.4,0.03361201286315918,2.372469663619995,STABILIZE
0.12,0.004,0.1,-0.04381910496285549,-0.003410736135429717,-0.00017527641985142195,-0.005877891308042494,-0.009463903863323634,0.12,0.004,0.1,0.017864276169569336,0.003499744652943903,7.145710467827735e-05,0.0015342285248571236,0.005105430282479304,0.002,8e-05,0,-1.4964051291777702,-0.0011057358492220814,-0.00011971241033422163,0.0,-0.001225448259556303,0.2,0.02,0,0.01973330410294668,-0.006378820618302474,0.0003946660820589336,-0.0,-0.00598415453624354,0.029164538774532525,0.0,-0.029164538774532525,-0.028422801128580977,0.0,0.028422801128580977,-0.5528679246110407,0.0,0.5528679246110407,-0.03189410309151237,0,0.03189410309151237,-0.009461060423123002,-0.005110697640587273,0.00598415453624354,0.4,0.0333712100982666,2.4057960510253906,STABILIZE
0.12,0.004,0.1,-0.044767217237781924,-0.003404416982548209,-0.0001790688689511277,-0.0038570404575823027,-0.00744052630908164,0.12,0.004,0.1,0.018518827251219772,0.0023503174436687374,7.40753090048791e-05,-0.0064328307484895625,-0.0040084379958159454,0.002,8e-05,0,-1.5152048472968025,-0.0011250791234353687,-0.00012121638778374422,0.0,-0.001246295511219113,0.2,0.02,0,0.019845132759248593,0.0006692445376600492,0.00039690265518497184,0.0,0.0010661471928450211,0.01958597869723948,0.0,-0.01958597869723948,-0.028370141521235077,0.0,0.028370141521235077,-0.5625395617176843,0.0,0.5625395617176843,0.003346222688300246,0,-0.003346222688300246,-0.007440292193177875,0.0040088725350868135,-0.0010661471928450211,0.4,0.03341937065124512,2.4392123222351074,STABILIZE
0.12,0.004,0.1,-0.04608684623960363,-0.004695389549420403,-0.00018434738495841453,-0.010843215893941846,-0.015722952828320664,0.12,0.004,0.1,0.016600518587858996,-0.006825559636892394,6.640207435143598e-05,-0.04750354622665597,-0.05426270378919693,0.002,8e-05,0,-1.5342470165992643,-0.001129236608895956,-0.00012273976132794117,0.0,-0.0012519763702238972,0.2,0.02,0,0.02187759003429202,0.012052855557266927,0.0004375518006858404,0.0,0.012490407357952767,-0.056879663640769955,0.0,0.056879663640769955,-0.03912824624517002,0.0,0.03912824624517002,-0.564618304447978,0.0,0.564618304447978,0.06026427778633463,0,-0.06026427778633463,-0.015665870083458103,0.05427921133071055,-0.012490407357952767,0.4,0.033725738525390625,2.4729177951812744,STABILIZE
0.12,0.004,0.1,-0.04804844846962275,-0.0070329006836489655,-0.000192193793878491,-0.027156011168723095,-0.03438110564625055,0.12,0.004,0.1,0.013195196386262948,-0.012209046499409995,5.278078554505179e-05,-0.07623401749317266,-0.0883902832070376,0.002,8e-05,0,-1.5534657763131796,-0.001148411795405656,-0.00012427726210505438,-0.0,-0.0012726890575107104,0.2,0.02,0,0.026092961906946703,0.02518884076100272,0.0005218592381389341,0.0,0.025710699999141655,-0.10174205416174996,0.0,0.10174205416174996,-0.058607505697074715,0.0,0.058607505697074715,-0.574205897702828,0.0,0.574205897702828,0.1259442038050136,0,-0.1259442038050136,-0.03418672843283602,0.08846564412210242,-0.025710699999141655,0.4,0.03347015380859375,2.506397247314453,STABILIZE
0.12,0.004,0.1,-0.0493356929327418,-0.004557127347184527,-0.0001973427717309672,-0.008726418846345327,-0.01348088896526082,0.12,0.004,0.1,0.008719759486985036,-0.01584402688738683,3.487903794794014e-05,-0.08500471770114168,-0.10081386555058057,0.002,8e-05,0,-1.5727830196701895,-0.0011397878763078288,-0.00012582264157361516,-0.0,-0.001265610517881444,0.2,0.02,0,0.02937171950351363,0.019345866741193436,0.0005874343900702726,0.0,0.01993330113126371,-0.13203355739489026,0.0,0.13203355739489026,-0.037976061226537725,0.0,0.037976061226537725,-0.5698939381539144,0.0,0.5698939381539144,0.09672933370596717,0,-0.09672933370596717,-0.013310671294306381,0.1008364809195519,-0.01993330113126371,0.4,0.03389620780944824,2.5403220653533936,STABILIZE
0.12,0.004,0.1,-0.04950388162380706,-0.0006035760170178806,-0.00019801552649522825,0.0138909000832319,0.013089308539718791,0.12,0.004,0.1,0.005313655392847776,-0.012223430301208224,2.12546215713911e-05,-0.07771232566326834,-0.08991450134290517,0.002,8e-05,0,-1.5918725158673173,-0.001141769402822053,-0.00012734980126938539,-0.0,-0.0012691192040914384,0.2,0.02,0,0.032182244031438656,0.016810139349557645,0.0006436448806287731,0.0,0.01745378423018642,-0.1018619191767352,0.0,0.1018619191767352,-0.005029800141815671,0.0,0.005029800141815671,-0.5708847014110265,0.0,0.5708847014110265,0.08405069674778821,0,-0.08405069674778821,0.01322119551096265,0.08989520309255745,-0.01745378423018642,0.4,0.03343844413757324,2.573746919631958,STABILIZE
0.12,0.004,0.1,-0.05179017624078401,-0.00818093103127958,-0.00020716070496313606,-0.023798477798728533,-0.032186569534971246,0.12,0.004,0.1,0.0008502806232527967,-0.015971065533579947,3.401122493011187e-06,-0.09060494571396417,-0.1065726101250511,0.002,8e-05,0,-1.611007912513656,-0.0011411868433858238,-0.0001288806330010925,-0.0,-0.0012700674763869164,0.2,0.02,0,0.03679646081326765,0.02751802631152067,0.000735929216265353,0.0,0.028253955527786024,-0.1330922127798329,0.0,0.1330922127798329,-0.06817442526066317,0.0,0.06817442526066317,-0.5705934216929119,0.0,0.5705934216929119,0.13759013155760336,0,-0.13759013155760336,-0.03193055342273048,0.1066495956176761,-0.028253955527786024,0.4,0.03353595733642578,2.607292413711548,STABILIZE
0.12,0.004,0.1,-0.056203588865010645,-0.015830215337566265,-0.00022481435546004258,-0.05552535313359844,-0.07158038282662474,0.12,0.004,0.1,-0.004642281257234133,-0.01970095359897424,-1.8569125028936533e-05,-0.06384065389738845,-0.08356017662139163,0.002,8e-05,0,-1.6300855108497232,-0.001140472296221713,-0.00013040684086797788,-0.0,-0.0012708791370896909,0.2,0.02,0,0.04319537512069063,0.038253161456470355,0.0008639075024138126,0.0,0.03911706895888417,-0.16417461332478533,0.0,0.16417461332478533,-0.13191846114638556,0.0,0.13191846114638556,-0.5702361481108564,0.0,0.5702361481108564,0.19126580728235176,0,-0.19126580728235176,-0.07130104241725106,0.08379866152163579,-0.03911706895888417,0.4,0.033455610275268555,2.6407546997070312,STABILIZE
