Mode,Time,Freq,North-Vision,East-Vision,Down-Vision,Yaw-Vision,North-Desired,East-Desired,Down-Desired,Roll-UAV,Pitch-UAV,Yaw-UAV,Roll-Control,Pitch-Control,Yaw-Control,Thrust-Control,northVraw,eastVraw,downVraw,yawVraw,zGyro
GUIDED_NOGPS,0.022957324981689453,43.607086417699406,35.136840004155864,-2.5723756486351785,83.21439786568503,-5.070416394864951,37.192337869916244,2.9231215119826754,92.43034698669787,0.16697439296748862,-0.4525427211956573,-11.40860584332393,-0.24947317194757773,-0.10367913898218639,10.0,0.5138239236815193,45.264934989722356,2.15528117979447,103.60812803457384,7.024548810338502,1.088619810748564
GUIDED_NOGPS,0.03957390785217285,60.20416834127577,53.70179185261165,-7.2247782744269,102.76938201617246,-4.815725991421787,37.19225649222754,2.9231726174414367,92.430359109926,0.1792067014820261,-0.5354357112319303,-11.394347823431527,-0.4690745899123771,0.8430096308408167,-4.233021729996113,0.48449146564063034,57.53133575575359,-9.541812901052882,103.89561531869664,8.527787723706263,0.8594366926962349
GUIDED_NOGPS,0.047571420669555664,125.30409583843695,49.97807075482264,0.6274657396945544,104.41434204253676,-4.574441600896466,37.191693415465124,2.9235262315182107,92.43044348548466,0.1792067014820261,-0.5354357112319303,-11.394347823431527,-0.11085641146736826,0.6575874970866231,-10.0,0.48202415216442185,44.80620107673015,10.751477097385585,105.89288172957741,6.501708989668065,0.8594366926962349
GUIDED_NOGPS,0.08422231674194336,27.29049846770468,48.03742185920602,3.3711158062938473,105.752364838222,-4.35480637828088,37.190184879999634,2.9244735968003837,92.43067103076469,0.3762237348746687,-0.7170494807672174,-11.372214595426101,0.01511441136837251,0.5681238372909313,0.10189251781924691,0.48001745928881406,43.49045204751434,9.495673298356513,108.3020560840396,6.406786610233897,0.5729577951308232
GUIDED_NOGPS,0.13301992416381836,20.495211289629022,47.25590568231859,4.516503087741823,108.05783648985941,-4.119557376531317,37.18728645414792,2.926293817860923,92.43111121577982,0.41378321192483325,-0.7886718048993231,-11.351102480701591,0.06926273907118075,0.5402688607330768,0.5460930497801892,0.4765599120888806,43.971474013297865,6.45339773568226,110.95063348297226,6.515849484121877,0.6302535746439055
GUIDED_NOGPS,0.1555953025817871,44.313829899630214,46.54818734270702,7.1549409562934905,109.92591271590986,-3.894168165913958,37.18257276758074,2.929254028679262,92.43183207297942,0.4475694363453889,-0.7266746046899405,-11.305221538725677,0.19292397341204423,0.5100166621058542,-2.2533920413413977,0.4737588790356043,43.84147763071358,12.598109846879638,110.04276150826675,6.384241925512221,0.9740282517223995
GUIDED_NOGPS,0.1898021697998047,29.242252480252105,45.97447211051111,10.542391573373507,110.40117082204016,-3.6938084524302814,37.17563724473031,2.933609560062192,92.4329002070611,0.49562136462116246,-0.8543776911063169,-11.298041302360701,0.35419023236743324,0.487422073738568,-0.28298664750361713,0.4730475940775314,44.04181413748279,18.83835191880468,109.47653028094564,6.018618039277381,0.8021409131831525
GUIDED_NOGPS,0.2335221767425537,22.878562584206534,45.49670289629074,11.310565507674417,112.54023377265838,-3.4888604719618903,37.16609183819802,2.93960410706475,92.43438080478356,0.5131114513731553,-0.788178217010084,-11.264176370682133,0.39741269412568825,0.47232826965288877,0.19900422967246767,0.4698412205481878,44.191655550167106,9.749907407248141,114.85214108354911,6.287094199643829,0.6302535746439055
GUIDED_NOGPS,0.2800307273864746,21.50517081374303,45.641281855096885,13.256443938734549,114.15131065178008,-3.2874687717017665,37.153566762162036,2.9474698964111057,92.43633764477927,0.5876798815542108,-0.9504798401105714,-11.268264238900384,0.49734219031926946,0.4897309590623901,0.2640586014301034,0.4674275404894988,46.33407549167536,14.09727946249043,113.8032406224535,6.452979432559181,0.34377467707849396
GUIDED_NOGPS,0.3263406753540039,21.59885885545674,46.420206278532014,12.014533031707284,117.54750301962264,-3.0936573620434737,37.13771022578494,2.957427853915452,92.4388331073672,0.4870575347015829,-0.7199892368746732,-11.235863529025137,0.4491074853157423,0.5422283522874527,0.18747478613368207,0.46233699513161686,48.44356467468689,5.762766501498019,120.66845753010584,6.90995300577646,0.17188733853924698
GUIDED_NOGPS,0.3478689193725586,46.465530038663076,48.3464986610843,13.441977884356417,119.27134345844378,-2.9021948919648137,37.11818816662139,2.969687771902892,92.44192818436555,0.5267894387946347,-0.8833290487290026,-11.240410727465074,0.5207482344741446,0.6498790114733576,-2.3151006045249765,0.45975587708888266,52.980051413758765,13.951325180592516,118.37396813574266,7.156006318773151,0.4583662361046586
GUIDED_NOGPS,0.41205263137817383,15.581955367657713,49.669903810637635,13.990439522456606,119.71804414496442,-2.727884731728721,37.09468398402571,2.9844484766303285,92.44568248890445,0.4631532066278606,-0.7948795930812185,-11.225976830201544,0.5593301764278572,0.737216271517462,0.7308693261274868,0.4590914575159101,52.980051413758765,13.951325180592516,118.37396813574266,7.156006318773151,0.0
GUIDED_NOGPS,0.4334690570831299,46.7175762976164,49.563047634517844,16.837468099796354,120.53739697587366,-2.5688686477386686,37.06689827255959,3.001897995707353,92.45015426523874,0.413600717807947,-0.5975077233570658,-11.205822649508129,0.6982056029740062,0.7395044493443076,-1.8586486852646615,0.4578691359340476,47.49646895446759,21.41162991828761,117.7907414510689,6.340021094670347,0.0
GUIDED_NOGPS,0.4774014949798584,22.767166415163985,49.851308247569015,18.95235956640152,120.62286971324734,-2.4188224904928433,37.03454855539968,3.022213725517133,92.45540039856061,0.35708746581099704,-0.5522467277700358,-11.204898012649238,0.8094106432903856,0.7678172540723581,0.12310981750998162,0.4577487960279699,50.04707024142604,23.615883276985414,118.32699031898926,6.360245419025336,0.057295779513082325
GUIDED_NOGPS,0.5098428726196289,30.836389301415988,50.289203787113436,21.302479652260555,121.266250182169,-2.262171803831751,36.99736901774525,3.0455625986373005,92.46147642481245,0.375200060272813,-0.5902362399336467,-11.204890328686421,0.9307267829947974,0.8024790198311932,-0.6373154456737389,0.45679283936396514,50.04707024142604,23.615883276985414,118.32699031898926,6.360245419025336,0.7448451336700702
GUIDED_NOGPS,0.5404820442199707,32.645833171179724,51.61272167436414,19.282009090125893,124.69324944361986,-2.077933669314206,36.95511024022581,3.0721012512608428,92.46843654049944,0.32387369662025306,-0.44256765679967686,-11.187299176479053,0.8481665921472803,0.8874903100535743,-1.4199153337731951,0.4516627806453194,55.02496758899263,8.10288066647879,132.7763466698353,8.294820490254546,0.6875493541569879
GUIDED_NOGPS,0.581709623336792,24.263044635212996,50.01842134801923,21.157058650355612,129.10389350093962,-1.9595588380354994,36.90753893230875,3.1019761906169876,92.4763336125024,0.29016436518871297,-0.33655863856943613,-11.193038242929157,0.9551987972158744,0.8228676390460188,0.12531920434694777,0.4450586601673442,42.35904821538608,24.677778496770433,140.8564430715187,5.23002521300672,-0.2291831180523293
GUIDED_NOGPS,0.6353683471679688,18.64126826102995,49.65926041718398,22.514225569708383,130.46668769486436,-1.8240902655766755,36.854437665707025,3.1353239623920954,92.48521918789044,0.263426629187346,-0.16437789388646562,-11.177538836155106,1.0393064917319967,0.8224487975972499,0.18974750520679384,0.4430277972395391,46.968815821401776,22.514842763941083,127.90085232749091,6.545415147123271,-0.11459155902616465
GUIDED_NOGPS,0.6670777797698975,31.548455035051298,41.77557572788542,26.93999075699958,133.6073302135388,-1.7318061884070355,36.79560460778671,3.172271318150544,92.49514350373369,0.2235436471795474,0.11994495201459392,-11.153734773123965,1.2682571351568797,0.41414530962113816,-0.016598413054530692,0.4383317199352923,11.080711699017689,38.26316655822354,136.16450008967576,3.3241616263927733,0.7448451336700702
GUIDED_NOGPS,0.6849453449249268,55.97704493587263,35.28176220092862,30.24710981441432,135.4046744615107,-1.6497951873237688,36.730853254974704,3.2129353827556213,92.50615549691604,0.3059425290582655,0.015179455100118651,-11.171350684767074,1.4376302412135935,0.07247355524221069,-0.8773437570422433,0.435652221553108,11.080711699017689,38.26316655822354,136.16450008967576,3.3241616263927733,0.057295779513082325
GUIDED_NOGPS,0.735694169998169,19.707759896628687,30.521045737368166,32.36785404860531,136.30616861118912,-1.575512408319688,36.66001216616635,3.2574238217904097,92.5183028139479,0.28080588544788476,0.2783980836828966,-11.170146010152212,1.5673557807943483,-0.18397550677812627,0.6229093553873888,0.4343182013041382,11.080711699017689,38.26316655822354,136.16450008967576,3.3241616263927733,0.0
GUIDED_NOGPS,0.7560956478118896,49.04242084093354,25.886551051389734,35.5422278852208,138.37948949059273,-1.5023683203428466,36.582924696133055,3.305835008978678,92.53163182077886,0.3712480487860202,0.27200950893140746,-11.189470322861471,1.7348390189573826,-0.4326943450392639,-0.5694162716484132,0.4312282134952792,11.080711699017689,38.26316655822354,136.16450008967576,3.3241616263927733,-0.11459155902616465
GUIDED_NOGPS,0.7952620983123779,25.539673744268605,22.776478863852354,36.79669577873983,138.80390559618192,-1.436785020144466,36.49944872892997,3.358258193605768,92.54618761261048,0.3640610355927271,0.3725385810131823,-11.171455698925563,1.81510990337892,-0.6045442174618252,0.2584261260546752,0.43061342302464284,11.080711699017689,38.26316655822354,136.16450008967576,3.3241616263927733,-0.34377467707849396
GUIDED_NOGPS,0.820305585861206,39.94118767378966,19.401675518253672,38.48507064551813,139.70155683425824,-1.3674426161436912,36.40945641130358,3.4147736679394836,92.56201402370898,0.39294361107603676,0.42892371360234166,-11.183099463913143,1.9168989059074188,-0.7924173485282159,0.06644207143753378,0.4292906857841761,11.080711699017689,38.26316655822354,136.16450008967576,3.3241616263927733,0.17188733853924698
GUIDED_NOGPS,0.8741505146026611,18.574565229906693,16.60742148788711,39.79316920616037,140.33415674120224,-1.3122802078760405,36.31283388609936,3.47545293465098,92.57915363721796,0.46502014278794834,0.4715833676109488,-11.195252077993887,2.0077833273705235,-0.9551736019762612,0.5193998222801872,0.4283674953440236,11.080711699017689,38.26316655822354,136.16450008967576,3.3241616263927733,-0.8021409131831525
GUIDED_NOGPS,0.8922266960144043,55.36304118268215,13.674372881030655,41.31334949749844,141.2037580380238,-1.2655440773776985,36.20948102566944,3.5403588742356513,92.59764779497114,0.5604368716368215,0.4833624557214589,-11.217787433386698,2.1025830047220184,-1.1227918741720244,0.37613396411829514,0.42709083463542097,11.080711699017689,38.26316655822354,136.16450008967576,3.3241616263927733,-0.8021409131831525
GUIDED_NOGPS,0.930020809173584,26.46482339134056,11.845247560496748,42.05116164102311,141.475913295028,-1.2118618641696859,36.099311165280206,3.6095459124340192,92.61753660730511,0.5760765107322698,0.5804924414740946,-11.23555787805978,2.1637466932180773,-1.2351539320465625,0.4064270397835642,0.4267124349684157,11.080711699017689,38.26316655822354,136.16450008967576,3.3241616263927733,-0.34377467707849396
GUIDED_NOGPS,0.9861037731170654,17.833076811877653,9.826554536126329,43.00228260394461,141.9294309774888,-1.1584137715728344,35.98225083651995,3.6830601876526226,92.638858962872,0.6544848412481948,0.5464266595452445,-11.266577182175391,2.237292869276186,-1.3600575185003263,0.40107737784606146,0.4260641419780748,11.080711699017689,38.26316655822354,136.16450008967576,3.3241616263927733,-0.057295779513082325
GUIDED_NOGPS,0.9958570003509521,102.58031696341224,7.973952658219468,43.81992963308788,142.28501540217886,-1.1160583039360397,35.85823950070652,3.760939718384903,92.66165253845229,0.6847572001450434,0.5329261503204796,-11.288613079985145,2.294729330768361,-1.4695076146940136,0.24975282506941598,0.42556495570441016,11.080711699017689,38.26316655822354,136.16450008967576,3.3241616263927733,-0.8021409131831525
GUIDED_NOGPS,1.0520591735839844,17.79826698011525,7.087075575757319,43.995494936576065,142.16840860351925,-1.0845093370104317,35.727229282294935,3.8432145706321,92.68595380876741,0.7209663274519552,0.551769575023487,-11.32883179513912,2.341956041126051,-1.5440298834417774,0.7820680034897151,0.42577631780787223,11.080711699017689,38.26316655822354,136.16450008967576,3.3241616263927733,-1.5469860468532228
GUIDED_NOGPS,1.083235502243042,32.08224207563334,5.167747967881921,44.97160301620402,142.7460219921711,-1.0738779364072144,35.58918470228505,3.9299070253241304,92.71179805629261,0.7024242314852218,0.5701077791713249,-11.337220974987188,2.4118852861085363,-1.6616379760951352,0.9024771279213201,0.42494866409618226,11.080711699017689,38.26316655822354,136.16450008967576,3.3241616263927733,-1.432394487827058
GUIDED_NOGPS,1.1015727519989014,54.56431071042943,5.290425760172986,44.612076393517405,142.53057208202603,-1.0294826546812552,35.44408241162919,4.021031745740485,92.73921938106959,0.7024242314852218,0.5701077791713249,-11.337220974987188,2.4036420903184728,-1.6585453583639782,-0.25212031386939615,0.42531297094856535,11.080711699017689,38.26316655822354,136.16450008967576,3.3241616263927733,-1.2032113697747289
GUIDED_NOGPS,1.1334853172302246,31.388382500411595,5.324479877853506,44.28766546953664,142.02396121649582,-0.9739261669226983,35.29191092463976,4.116595944931111,92.76825071051924,0.780841740067844,0.5602612077091053,-11.374006666309583,2.406262866337963,-1.6677903579278117,0.07505206076677184,0.4261164342410351,11.080711699017689,38.26316655822354,136.16450008967576,3.3241616263927733,-1.0313240312354819
GUIDED_NOGPS,1.16257905960083,34.3516654518055,4.645709199281673,44.43780857086715,141.88580747855474,-0.9412929973968546,35.1326703523969,4.216599553137306,92.79892380925442,0.7525239892123826,0.6077681615943059,-11.365554307211692,2.4308071296985867,-1.7143952073577848,0.3904102365639033,0.4263696744960495,11.080711699017689,38.26316655822354,136.16450008967576,3.3241616263927733,-1.3178029288008934
GUIDED_NOGPS,1.184098482131958,46.48922091309119,4.188714609972951,44.47237686023519,141.6895051455915,-0.8954961713320613,34.96637213615615,4.321035385212602,92.8312692888926,0.8317567982663222,0.5980332210363336,-11.390676596752646,2.443390546263063,-1.7437004740800797,-0.18130959432472982,0.42671264621495164,11.080711699017689,38.26316655822354,136.16450008967576,3.3241616263927733,-0.34377467707849396
GUIDED_NOGPS,1.2287251949310303,22.41253386483988,4.180648007188319,44.25882636398207,141.36422728622057,-0.8486717637013469,34.79303878075605,4.429889308043657,92.86531661786867,0.8750248727195894,0.665862975910084,-11.411321697292657,2.460989031693373,-1.7633285545101454,0.3646402566471729,0.4272516339974721,11.080711699017689,38.26316655822354,136.16450008967576,3.3241616263927733,0.0
GUIDED_NOGPS,1.2497084140777588,47.68530434980332,3.752739961240968,44.49137351924094,141.4293498937959,-0.8115777002532795,34.61270358802579,4.543140407971143,92.90109413124762,0.9265230583184575,0.6341034500431709,-11.426774146516163,2.4829140373817844,-1.7904696657075059,-0.055112205076879306,0.4272076163561776,11.080711699017689,38.26316655822354,136.16450008967576,3.3241616263927733,-0.34377467707849396
GUIDED_NOGPS,1.308112382888794,17.12394156888682,10.073204136275358,44.910920610281856,140.2377728123412,-0.7370915903746617,34.42541039019285,4.660761158210633,92.93862904053726,1.055832199685139,0.8212608785852754,-11.46323625762663,2.5385513147777243,-1.4694077369311256,0.16518656031618273,0.4290512843422941,66.42210144155804,43.98358751233119,129.8109435158401,6.831295648075847,-1.3750987083139758
GUIDED_NOGPS,1.3376867771148682,33.82503225806452,15.569997341858063,45.939157023959034,139.40485091006192,-0.6885478287015412,34.231213283290664,4.7827175862734865,92.977947443501,1.1331243278802956,0.8542498385027907,-11.47808679642953,2.6025360060205265,-1.1750677829781764,-0.06446050655240787,0.4303596448001586,66.42210144155804,43.98358751233119,129.8109435158401,6.831295648075847,-1.432394487827058
GUIDED_NOGPS,1.363511323928833,38.73142983784582,21.195219679061207,46.306765123418785,138.37967909226492,-0.619532076017525,34.03017636056619,4.908969441387751,93.01907433397048,1.278644176190062,0.827342521710937,-11.510906709165088,2.6308856137902294,-0.8692871785608083,-0.6598060971580382,0.43195909286255835,66.42210144155804,43.98358751233119,129.8109435158401,6.831295648075847,-0.7448451336700702
GUIDED_NOGPS,1.4046738147735596,24.29987370079835,26.339934731748,46.612887898465765,137.44121091727013,-0.5591627076582875,33.82237344588762,5.039470361919035,93.0620336116584,1.5783094412359684,0.6688217284811689,-11.606306522623594,2.6684267356259843,-0.5891945563403569,-0.06729859945758576,0.4334312340415824,66.42210144155804,43.98358751233119,129.8109435158401,6.831295648075847,-1.3178029288008934
GUIDED_NOGPS,1.441671371459961,27.036303630363037,31.4251476488662,47.1932734537964,136.61010225172635,-0.5058650092957162,33.607887827151984,5.174168042791404,93.1068480919712,1.7588194948900635,0.4609180272219739,-11.625018679628491,2.7162824179043663,-0.30791099427210183,-0.08914810820008334,0.43474511876036726,66.42210144155804,43.98358751233119,129.8109435158401,6.831295648075847,-0.5729577951308232
GUIDED_NOGPS,1.4750308990478516,29.98501572776666,36.25018737639927,47.55642893214986,135.78116815718997,-0.45616554394395575,33.3868119896928,5.31300440290827,93.15353951582176,2.0118802447948574,0.01129350434920452,-11.715032888926443,2.750753981355974,-0.037053198625500994,-0.14711005354104967,0.4360585570379477,66.42210144155804,43.98358751233119,129.8109435158401,6.831295648075847,-1.3178029288008934
GUIDED_NOGPS,1.516169786453247,24.312127939531297,40.72569342897492,47.77238067494831,134.99558667571526,-0.4019466028767761,33.15924734968769,5.4559157525732775,93.2021285594422,2.1429054711905047,-0.19119684510593224,-11.764136826416957,2.7842810743312967,0.2194954552703659,-0.09755398965771311,0.4373098128255904,66.42210144155804,43.98358751233119,129.8109435158401,6.831295648075847,-0.8594366926962349
GUIDED_NOGPS,1.550182580947876,29.414102878782565,45.18324124052306,48.04738652582225,134.24273471297496,-0.3516182573206404,32.92530398756605,5.602832960911194,93.2526348441965,2.2041011913894684,-0.4891719584973779,-11.813517386568856,2.8147386113391364,0.47706721707638644,-0.22126564847092023,0.43851485019683234,66.42210144155804,43.98358751233119,129.8109435158401,6.831295648075847,-0.6875493541569879
GUIDED_NOGPS,1.5817770957946777,31.659425431379358,49.00293074637774,48.09907317472309,133.5568282697667,-0.2964219394912846,32.68510038141667,5.753681623288793,93.30507694639333,2.3455881331594597,-0.8333039961958888,-11.867567234792107,2.8326134813189494,0.7027573051013668,-0.39998840611965314,0.43962237301493995,66.42210144155804,43.98358751233119,129.8109435158401,6.831295648075847,-0.8594366926962349
GUIDED_NOGPS,1.6236867904663086,23.890183748561796,52.30874114057477,48.05132212109356,132.94596570401285,-0.24918824494767594,32.43876314039535,5.908382228735755,93.35947240709872,2.3868234792827074,-0.8954614924073552,-11.913571973946727,2.8536397796238666,0.907717427227596,-0.11143178614207716,0.4406202600546288,66.42210144155804,43.98358751233119,129.8109435158401,6.831295648075847,-1.432394487827058
GUIDED_NOGPS,1.6474213600158691,42.11656022813994,55.79430461523008,48.12483987234171,132.34403039129342,-0.22440916722351634,32.18642673813261,6.066850327365541,93.4158377419488,2.4995619413927033,-1.1066313047502856,-11.982522733618007,2.8664320453164387,1.1168402750114939,-0.06553480116313998,0.44160771102598306,66.42210144155804,43.98358751233119,129.8109435158401,6.831295648075847,-2.0053522829578814
GUIDED_NOGPS,1.6876952648162842,24.83850221777417,58.17478205875569,47.93304166232198,131.8840088523877,-0.18150120887245172,31.92823324614124,6.228996697796289,93.47418845096254,2.5570448134475305,-1.0994586456264202,-12.067517607649645,2.8788330195546163,1.2774784813879732,-0.13260722767160948,0.44238526939786227,66.42210144155804,43.98358751233119,129.8109435158401,6.831295648075847,-1.6615776058793874
GUIDED_NOGPS,1.7230160236358643,28.31827050967842,61.073544264220686,47.93044896200829,131.3858433547673,-0.1649032287303785,31.664332067223995,6.394727514571704,93.53453902835443,2.6222075928938025,-1.1918436776183068,-12.123198163537234,2.8970493122136283,1.466000551381564,0.18685010283307116,0.44322304351038067,66.42210144155804,43.98358751233119,129.8109435158401,6.831295648075847,-1.8907607239317168
GUIDED_NOGPS,1.7634015083312988,24.7656117146906,63.53683152999451,47.846011798790364,130.95523477905917,-0.158961350118292,31.394879668881217,6.563944515581946,93.59690297234725,2.696202660710547,-1.3149351056844552,-12.233935166777005,2.914561242041024,1.6365998892628788,0.34802486906505986,0.4439625022899321,66.42210144155804,43.98358751233119,129.8109435158401,6.831295648075847,-2.521014298575622
GUIDED_NOGPS,1.795421838760376,31.241324345461994,65.8771673943391,47.76129073287178,130.54678885271878,-0.17193024613280702,31.120039316718476,6.736545169484511,93.6612927949848,2.7292298269987323,-1.2803733879888388,-12.316768285936336,2.9252726659442834,1.7969237228676553,0.6500952482125565,0.444671755913399,66.42210144155804,43.98358751233119,129.8109435158401,6.831295648075847,-2.979380534680281
GUIDED_NOGPS,1.8429639339447021,21.037789035461703,67.46553181973029,47.56359913216445,130.24276194306762,-0.18193467889571974,30.8399808078542,6.91242284312513,93.7277200319446,2.7720602357365896,-1.2440477739400664,-12.471344004590186,2.9427653486024274,1.9313196607652154,0.5546620957291559,0.4452274371333155,66.42210144155804,43.98358751233119,129.8109435158401,6.831295648075847,-3.552338329811104
GUIDED_NOGPS,1.8707177639007568,36.04097064686877,69.1334081177315,47.404162411243774,129.9454470150347,-0.2145345505033372,30.554880204327326,7.091466968958651,93.79619525235061,2.838474860791678,-1.2604049030634834,-12.544322014550833,2.946447000105413,2.0558754376664456,1.0863670839605462,0.44577612235597386,66.42210144155804,43.98358751233119,129.8109435158401,6.831295648075847,-3.552338329811104
GUIDED_NOGPS,1.8881239891052246,57.48456773203223,69.72180761514521,47.12401164294372,129.78412948507003,-0.19336803945461567,30.264919566504915,7.273563212469931,93.86672806858603,2.797932351982363,-1.215227043685257,-12.589803390460302,2.9366673503420584,2.115908735222883,-0.18999312461045637,0.446123897875274,66.42210144155804,43.98358751233119,129.8109435158401,6.831295648075847,-3.552338329811104
GUIDED_NOGPS,1.9294309616088867,24.212621516152122,70.05786886949593,46.8582892588607,129.67717472969676,-0.1656482641839133,29.970286686489832,7.458593639594721,93.93932714610591,2.8716091756724675,-1.0826920253179197,-12.796597612866194,2.9454454307726934,2.1835257212368804,0.07997616997720985,0.4463932286246137,66.42210144155804,43.98358751233119,129.8109435158401,6.831295648075847,-3.552338329811104
GUIDED_NOGPS,1.9730970859527588,22.909428562065084,71.59392767562504,46.76905945810691,129.42242207398382,-0.22630979652016708,29.671174821528346,7.646436884140552,94.01400021324994,2.9216112830388385,-0.9925391845241579,-12.963553049390692,2.9632587326800897,2.3176213208397485,1.2114646503990394,0.44688736720889916,66.42210144155804,43.98358751233119,129.8109435158401,6.831295648075847,-4.068000345428845
GUIDED_NOGPS,2.015631675720215,23.510804432760274,72.90359913950577,46.64785743536061,129.20309510456303,-0.30092668680317775,29.367782427417765,7.836968315207644,94.09075407105522,2.9424301265158608,-0.9215275219925336,-13.045377008100152,2.978612729604727,2.4406445908057095,1.4554366356647588,0.44733148844973825,66.42210144155804,43.98358751233119,129.8109435158401,6.831295648075847,-4.1252961249419275
GUIDED_NOGPS,2.0410618782043457,39.364655091506336,73.3918138300739,46.45249110326004,129.09119811547274,-0.32846116157212835,29.060312891914123,8.030060204609759,94.16959460306887,2.9067003397504663,-0.6607369189379895,-13.17609231466221,2.9774986141727586,2.5050429059977555,1.138652367419,0.4476175947313942,66.42210144155804,43.98358751233119,129.8109435158401,6.831295648075847,-3.896113006889598
GUIDED_NOGPS,2.1001486778259277,16.932589440707936,73.49265674755904,46.24222591845455,129.04117381435356,-0.33217663250348184,28.74897426813976,8.225581894295123,94.2505267851609,2.82461341875796,-0.29102368836366516,-13.416789034787106,3.0,2.5821463444432005,0.5934232282615638,0.447814029456211,66.42210144155804,43.98358751233119,129.8109435158401,6.831295648075847,-4.010704565915763
GUIDED_NOGPS,2.11702036857605,59.259158790036594,74.46604255469713,46.11810002527919,128.82019415001176,-0.4255865062835152,28.43397900799099,8.423399963767299,94.33355469533682,2.7690293392923966,0.005622739790801435,-13.468002646957508,2.995979354623472,2.665130918852251,3.5383809996638753,0.4482700408179876,66.42210144155804,43.98358751233119,129.8109435158401,6.831295648075847,-4.239887683968092
GUIDED_NOGPS,2.14933443069458,30.95427306273063,74.01156428657164,45.897014743004746,128.86858294637366,-0.4024228312458118,28.115543695545743,8.623378397506068,94.41868152355039,2.7399047723412275,0.2228073874715744,-13.594321873015016,2.9987909146566247,2.6891619397191397,0.23868719634304453,0.4483251478657651,66.42210144155804,43.98358751233119,129.8109435158401,6.831295648075847,-4.5263665815335035
GUIDED_NOGPS,2.1887760162353516,25.35977556350972,74.27100022723876,45.74285745951722,128.82793214687882,-0.44176579055869525,27.793888780471192,8.825378752388339,94.5059095815164,2.746259836477101,0.5954644295781741,-13.828286587939218,3.0,2.7578383495119385,1.168267089207081,0.44851696615195635,66.42210144155804,43.98358751233119,129.8109435158401,6.831295648075847,-3.724225668350351
GUIDED_NOGPS,2.226353883743286,26.622388097595653,74.67742434567266,45.60194354264787,128.77120148093027,-0.5017533873634845,27.46923831143139,9.029260325109016,94.59524031252336,2.7182850891840213,0.7246773079662406,-13.952205002503467,3.0,2.83291196043877,1.5315798913679783,0.4487360582473896,66.42210144155804,43.98358751233119,129.8109435158401,6.831295648075847,-3.4377467707849396
GUIDED_NOGPS,2.2758710384368896,20.195993836671803,74.83337452849383,45.45321199904097,128.74850604231415,-0.5505139974488609,27.14181966949491,9.234880319601901,94.68667430124619,2.695332451921605,0.8804666658582384,-14.016662351474523,3.0,2.9075109766091893,1.2467419642484208,0.44890725238839807,66.42210144155804,43.98358751233119,129.8109435158401,6.831295648075847,-3.724225668350351
GUIDED_NOGPS,2.297701835632324,45.828369135289876,74.99165966500777,45.30827243460943,128.72363985152475,-0.5822085011531167,26.8118633015425,9.44209401446058,94.78021128355901,2.705415732127248,1.0100479475746624,-14.097770847868425,3.0,2.9547714493965485,1.5171182726950723,0.4490848571480514,66.42210144155804,43.98358751233119,129.8109435158401,6.831295648075847,-3.7815214478634336
GUIDED_NOGPS,2.332761526107788,28.528798802883962,74.50442822638537,45.156877134671376,128.7905530262353,-0.577979808834495,26.479602453674687,9.650754930359302,94.87585015634785,2.690966893824909,1.2823332253938093,-14.213662936384262,3.0,2.981983237189031,0.6896623569294562,0.44912794569516884,66.42210144155804,43.98358751233119,129.8109435158401,6.831295648075847,-3.8388172273765155
GUIDED_NOGPS,2.3787930011749268,21.728317291254392,74.37950191055421,45.025289978208434,128.80807094031456,-0.6083948853907819,26.14527290461945,9.86071499747388,94.97358898732335,2.753361952553445,1.3328040544919721,-14.336853935801905,3.0,3.0,1.1251833795711967,0.4492482770705132,66.42210144155804,43.98358751233119,129.8109435158401,6.831295648075847,-3.0939720937064457
GUIDED_NOGPS,2.40861177444458,33.54342975504035,74.1970547330448,44.900000002298576,128.80531789768176,-0.6266567150453531,25.809112699139845,10.07182472290257,95.07342502483348,2.7510305101689436,1.500985936859312,-14.33110803916263,3.0,3.0,1.1148524991252562,0.4494021606907276,66.42210144155804,43.98358751233119,129.8109435158401,6.831295648075847,-2.521014298575622
GUIDED_NOGPS,2.4416511058807373,30.276350931901195,73.83937160693152,44.78412577097461,128.86203390668254,-0.5772036806838428,25.471361881441624,10.283933358086971,95.17535470767635,2.7800936054175827,1.5987694863381532,-14.392595109618378,3.0,3.0,-0.02933074040207273,0.44946998120149073,66.42210144155804,43.98358751233119,129.8109435158401,6.831295648075847,-1.8334649444186344
GUIDED_NOGPS,2.4611527919769287,51.30521577453763,73.39424095632091,44.680913769019,128.91089177796363,-0.5436849271313825,25.132262228580906,10.496889066232896,95.2793736749128,2.8158788874699834,1.5743199704304462,-14.422168121177242,3.0,3.0,-0.16941726082034114,0.44955272284542375,66.42210144155804,43.98358751233119,129.8109435158401,6.831295648075847,-1.6615776058793874
GUIDED_NOGPS,2.4939746856689453,30.474994732291417,72.92386713864025,44.59242355064668,128.98666723276796,-0.5009106273215005,24.792056983871788,10.710539089731284,95.38547677567927,2.8216147522689132,1.7416822300973842,-14.482198653792484,3.0,3.0,0.021402927461791732,0.449598214314367,66.42210144155804,43.98358751233119,129.8109435158401,6.831295648075847,-1.5469860468532228
GUIDED_NOGPS,2.5335662364959717,25.26917492544507,72.74622773707031,44.50326482726987,129.02726608923868,-0.47914423490464597,24.45099059029402,10.924729917579066,95.49365807900038,2.843215012075667,1.8751727278965828,-14.51321966545539,3.0,3.0,0.402269027245237,0.44969958798464255,66.42210144155804,43.98358751233119,129.8109435158401,6.831295648075847,-0.6302535746439055
GUIDED_NOGPS,2.5743963718414307,24.49772212228115,72.61176005537536,44.41418285119629,129.06100300332966,-0.43070790445493506,24.10930842390058,11.139307452800066,95.60391088360183,2.8838734206574603,1.8997503098512274,-14.467025388551301,3.0,3.0,0.03583456709426924,0.44981436182040824,66.42210144155804,43.98358751233119,129.8109435158401,6.831295648075847,1.3750987083139758
GUIDED_NOGPS,2.6033031940460205,34.60161528498478,72.4259304587842,44.328937748673766,129.10017647399098,-0.34601703585646504,23.76725652722538,11.354117179865883,95.71622772772294,2.890430188817261,1.9582905805669375,-14.409392252334733,3.0,3.0,-0.9377899112739738,0.44992407688059793,66.42210144155804,43.98358751233119,129.8109435158401,6.831295648075847,2.0053522829578814
GUIDED_NOGPS,2.646070957183838,23.3866604217546,72.0486320458821,44.26227639996524,129.15772763936272,-0.22451824034451395,23.425081342690877,11.569004332116783,95.83060039892952,2.96589396074897,2.1354665414107146,-14.187377807137114,3.0,3.0,-0.9862383346405176,0.4500093091393502,66.42210144155804,43.98358751233119,129.8109435158401,6.831295648075847,3.724225668350351
GUIDED_NOGPS,2.684480905532837,26.044621622796395,71.8175708297751,44.18724811790177,129.19903553340384,-0.06277328863261063,23.08302944601569,11.783814059182598,95.94701994392652,2.9949907800566358,2.139271810552058,-14.103460395447046,3.0,3.0,-1.8475025509749627,0.450121976615784,66.42210144155804,43.98358751233119,129.8109435158401,6.831295648075847,4.1252961249419275
GUIDED_NOGPS,2.713148355484009,34.89176351188347,71.42638374676362,44.13389708514424,129.24976998404864,0.0989688304084434,22.741347279622243,11.998391594403598,96.0654766783708,2.9863087558479036,2.1192452690187573,-13.928405208340557,3.0,3.0,-2.6415104032063494,0.45022356004148323,66.42210144155804,43.98358751233119,129.8109435158401,6.831295648075847,5.443099053742821
GUIDED_NOGPS,2.7554495334625244,23.646400865957062,71.05487020049657,44.087136650816454,129.30375495400702,0.27133072675199343,22.400280886044477,12.212582422251378,96.18596019668381,2.9873497193660956,2.2040830486994856,-13.766171140079829,3.0,3.0,-2.002739506593091,0.4503233078640152,66.42210144155804,43.98358751233119,129.8109435158401,6.831295648075847,5.844169510334397
GUIDED_NOGPS,2.775084972381592,50.94193234954758,70.74096012391858,44.03831399208915,129.34837051764742,0.4708589498331913,22.060075641335366,12.426232445749768,96.30845938186435,2.9834330327639167,2.189893330698784,-13.670899392668261,3.0,3.0,-5.279076596057779,0.4504401332963254,66.42210144155804,43.98358751233119,129.8109435158401,6.831295648075847,6.130648407899809
GUIDED_NOGPS,2.817863702774048,23.382749085719382,70.3608668855344,44.01145127024735,129.39960976956206,0.6272218104739699,21.720975988474642,12.639188153895699,96.43296241530129,2.926256878891505,2.302979492126216,-13.458466849102523,3.0,3.0,-2.0683716512661228,0.45055002896860885,66.42210144155804,43.98358751233119,129.8109435158401,6.831295648075847,6.990085100596044
GUIDED_NOGPS,2.848663330078125,32.48125145202509,70.10089799428683,43.96674649122443,129.43903006653912,0.8865561463016818,21.383225170776427,12.851296789080095,96.55945678658631,2.9076883693025906,2.3326058645379693,-13.295698318539243,3.0,3.0,-4.676435045484498,0.4506806400800708,66.42210144155804,43.98358751233119,129.8109435158401,6.831295648075847,7.7349302342661135
GUIDED_NOGPS,2.8951356410980225,21.52448399380074,69.79745952368752,43.93698768917802,129.47981600395588,1.1327305634683904,21.047064965296805,13.06240651450879,96.68792930332657,2.7701603759302684,2.44379494092343,-12.956768110223932,3.0,3.0,-3.299705290580592,0.45081216994905604,66.42210144155804,43.98358751233119,129.8109435158401,6.831295648075847,8.938141604040842
GUIDED_NOGPS,2.9315152168273926,27.490833775750307,69.5240436260857,43.904327676318815,129.51696809978324,1.444676802800198,20.71273541624157,13.27236658162337,96.81836610095753,2.671449628271598,2.5302343999645265,-12.623011770204904,3.0,3.0,-5.179010159234328,0.4509520970017614,66.42210144155804,43.98358751233119,129.8109435158401,6.831295648075847,9.969465635276325
GUIDED_NOGPS,2.9598820209503174,35.26314284993652,69.24749080396927,43.877865971437956,129.55433866267987,1.692737449751754,20.380474568373774,13.481027497522085,96.95075265255558,2.6378194843457474,2.6948146382051537,-12.200528711546474,3.0,3.0,-5.5109070771989614,0.45109462098481357,66.42210144155804,43.98358751233119,129.8109435158401,6.831295648075847,10.714310768946394
GUIDED_NOGPS,2.9902396202087402,32.95155043327284,68.96696390726312,43.864138718229015,129.5887222395337,1.9699847386060927,20.05051820042135,13.688241192380765,97.08507377865082,2.6769671404604987,2.7659920395458566,-11.86323177221644,3.0,3.0,-5.935178515541965,0.4512445273086757,66.42210144155804,43.98358751233119,129.8109435158401,6.831295648075847,11.172677005051053
GUIDED_NOGPS,3.0273516178131104,26.954295408976403,68.70964019583292,43.85083862679149,129.61973772674295,2.2869156432847957,19.723099558484876,13.89386118687365,97.22131365703979,2.732154001737144,2.94194795784914,-11.306638802978455,3.0,3.0,-5.849830690624444,0.45140236389544525,66.42210144155804,43.98358751233119,129.8109435158401,6.831295648075847,12.433184154338864
GUIDED_NOGPS,3.0614380836486816,29.34372485780449,68.4692491593194,43.83406060865936,129.6490398528747,2.6872595354237374,19.398449089445066,14.097742759594329,97.35945583259816,2.7566419374589324,2.9633418178769126,-11.053274643264125,3.0,3.0,-7.835337650844508,0.4515656239695852,66.42210144155804,43.98358751233119,129.8109435158401,6.831295648075847,12.605071492878112
GUIDED_NOGPS,3.10888934135437,21.080188371052778,68.23597679958421,43.823151477807684,129.6757627487938,3.078562798544632,19.076794174370512,14.299743114476605,97.4994832270935,2.7517971989032777,2.8961724569185376,-10.598593219084607,3.0,3.0,-6.302260661222257,0.45173558071744957,66.42210144155804,43.98358751233119,129.8109435158401,6.831295648075847,13.178029288008934
GUIDED_NOGPS,3.1435577869415283,28.850625945797223,68.01591428215112,43.81671710603536,129.70003456093798,3.430155887767543,18.758358861925267,14.499721548215366,97.64137814899799,2.8182609159430254,2.8787810877443927,-10.1308353977391,3.0,3.0,-7.562695808586422,0.45191201538209,66.42210144155804,43.98358751233119,129.8109435158401,6.831295648075847,12.891550390443523
GUIDED_NOGPS,3.175152540206909,31.65990338164251,67.81371480205647,43.81242737009425,129.72212142219843,3.7389820840177177,18.443363601776504,14.697539617687536,97.78512230330111,2.8588433386703023,2.861736350670626,-9.901801225622002,3.0,3.0,-7.609755570192741,0.452094501321654,66.42210144155804,43.98358751233119,129.8109435158401,6.831295648075847,13.120733508495853
GUIDED_NOGPS,3.2043793201446533,34.22720188015635,67.64432007431749,43.81208676751144,129.74109806040028,3.8889510815331207,18.132024978002136,14.89306130737291,97.93069680132241,2.934706676668457,2.8269958741178254,-9.349473709520689,3.0,3.0,-5.30081181615353,0.4522843981113832,66.42210144155804,43.98358751233119,129.8109435158401,6.831295648075847,12.83425461093044
GUIDED_NOGPS,3.2294228076934814,39.945371948838584,67.48079187128036,43.814245455229305,129.75742762615235,4.195826578970616,17.824555442498493,15.086153196775026,98.07808217052424,3.0236666889566997,2.7510424629999912,-9.062750905900016,3.0,3.0,-9.260911305864434,0.4524809818165578,66.42210144155804,43.98358751233119,129.8109435158401,6.831295648075847,13.178029288008934
GUIDED_NOGPS,3.2686054706573486,25.529724695814135,67.33435339379399,43.81851417091988,129.7709586181822,4.4702360663807985,17.52116304838792,15.276684627842112,98.22725836432443,3.0660055375177278,2.675703342020635,-8.52258027274768,3.0,3.0,-6.743051054346019,0.45268444961921334,66.42210144155804,43.98358751233119,129.8109435158401,6.831295648075847,12.490479933851947
GUIDED_NOGPS,3.327646493911743,16.938675454431642,67.17803119966464,43.81583511422736,129.7869033023912,4.887484097438436,17.222051183426423,15.464527872387954,98.37820477190908,3.2132240752184176,2.5121075047941357,-8.10391443606164,3.0,3.0,-7.0910548313848105,0.4528869522042768,66.42210144155804,43.98358751233119,129.8109435158401,6.831295648075847,12.891550390443523
GUIDED_NOGPS,3.3378090858459473,98.50871342007609,67.03653723655684,43.81083969802049,129.80709028674377,5.2524869079483025,16.927418303411336,15.649558299512744,98.53090022804525,3.2132240752184176,2.5121075047941357,-8.10391443606164,3.0,3.0,-10.0,0.4530857149119522,66.42210144155804,43.98358751233119,129.8109435158401,6.831295648075847,12.891550390443523
GUIDED_NOGPS,3.381640911102295,22.821176342564883,66.9650135297488,43.828881731648856,129.80926309945636,5.279384455475921,16.637457665588933,15.831654543024012,98.68532302289366,3.211934236682343,2.4842023400532254,-7.8499210451700225,3.0,3.0,-4.155555977526195,0.4533140898851559,66.42210144155804,43.98358751233119,129.8109435158401,6.831295648075847,12.08940947726037
GUIDED_NOGPS,3.395857810974121,70.37540898337221,66.85001844004377,43.832137509847364,129.81838748856296,5.609174561736455,16.352357062062048,16.010698668857547,98.84145091182145,3.2381009048360734,2.511721172219207,-7.790714404123413,3.0,3.0,-10.0,0.45353459513488775,66.42210144155804,43.98358751233119,129.8109435158401,6.831295648075847,11.745634800181877
GUIDED_NOGPS,3.4448928833007812,20.396045574126035,66.75763133127496,43.83857770585805,129.82468677300162,5.849369179031507,16.07229855319779,16.186576342498153,98.99926112521493,3.3549857186590897,2.45492942993102,-7.2459496149805975,3.0,3.0,-6.744979232069532,0.45376186152832,66.42210144155804,43.98358751233119,129.8109435158401,6.831295648075847,10.886198107485642
GUIDED_NOGPS,3.475928544998169,32.23065455607297,66.62019849359262,43.83656869584987,129.83631671980203,6.195006802031115,15.797458201035042,16.359176996400716,99.15873037829226,3.50749914707042,2.4852541891854076,-6.9509550253882155,3.0,3.0,-10.0,0.45398362048773533,66.42210144155804,43.98358751233119,129.8109435158401,6.831295648075847,9.625690958197831
GUIDED_NOGPS,3.5089855194091797,30.25713090274271,66.55592843122888,43.84658079489309,129.83882735980393,6.354867499127194,15.528005802692263,16.528393997410962,99.31983488091619,3.6714678699369196,2.3643824658778074,-6.799303481472776,3.0,3.0,-7.128473792366244,0.4542215112816684,66.42210144155804,43.98358751233119,129.8109435158401,6.831295648075847,8.766254265501596
GUIDED_NOGPS,3.531925916671753,43.614341568921056,66.50523148997686,43.85605147829784,129.840826590278,6.479919446367497,15.264104623775005,16.694124814186384,99.4825503474068,3.737596480820514,2.42590027218482,-6.468899056788933,3.0,3.0,-7.50915377292541,0.4544625856356932,66.42210144155804,43.98358751233119,129.8109435158401,6.831295648075847,8.88084582452776
GUIDED_NOGPS,3.577392578125,21.99748258789964,66.45370563000515,43.86397054428542,129.84284548159843,6.615590833380011,15.005911131783648,16.856271184617132,99.64685200635421,3.9498497319205375,2.3422569218351974,-6.0381087805524745,3.0,3.0,-6.375378757054492,0.45470600978713366,66.42210144155804,43.98358751233119,129.8109435158401,6.831295648075847,7.62033867523995
GUIDED_NOGPS,3.6023781299591064,40.039941576852215,66.37740521789252,43.86801098431131,129.8498296782246,6.857326912107378,14.753574729520906,17.014739283246907,99.81271461043131,4.034422414884105,2.145305855796941,-5.946485207931338,3.0,3.0,-10.0,0.45494432739831003,66.42210144155804,43.98358751233119,129.8109435158401,6.831295648075847,7.39115555718762
GUIDED_NOGPS,3.633655309677124,31.98169992451219,66.33840718785997,43.87556397371565,129.8504763610812,6.972931230119456,14.507237488499598,17.16943988869387,99.98011244620652,4.110182446271063,2.085558349145431,-5.799000079409606,3.0,3.0,-7.023432412436927,0.455194454127688,66.42210144155804,43.98358751233119,129.8109435158401,6.831295648075847,6.703606203030632
GUIDED_NOGPS,3.6642308235168457,32.712286886396605,66.2831782997761,43.881130148289145,129.85242749982697,7.151333287338824,14.267033882350205,17.32028855107148,100.14901934395644,4.0937579757512985,2.1839322831006553,-5.59877265700386,3.0,3.0,-8.364636666660177,0.4554448877661942,66.42210144155804,43.98358751233119,129.8109435158401,6.831295648075847,6.0733526283867265
GUIDED_NOGPS,3.7178218364715576,18.665242621666845,66.23674187819313,43.88719016269031,129.853483029015,7.284533009118109,14.033090520228583,17.467205759409385,100.31940868747866,4.1251111053625955,1.8030092179944595,-5.341832039485381,3.0,3.0,-6.699788277359834,0.45569888848769546,66.42210144155804,43.98358751233119,129.8109435158401,6.831295648075847,4.1252961249419275
GUIDED_NOGPS,3.735671043395996,56.137375359700194,66.16480745246501,43.89123709955228,129.85681398783998,7.501245713289236,13.80552588022347,17.61011710907439,100.49125342390442,4.090227194837224,1.9003133735709303,-5.309082989962462,3.0,3.0,-10.0,0.45595165915409663,66.42210144155804,43.98358751233119,129.8109435158401,6.831295648075847,4.698253920072751
GUIDED_NOGPS,3.768014669418335,31.047989873492682,66.16215544602242,43.89972650545427,129.85413521507624,7.545524584120955,13.584450042764274,17.748953469191267,100.66452607351138,4.022673208851214,1.7711118076836767,-5.173484098143845,3.0,3.0,-6.357954681746109,0.4562155862876527,66.42210144155804,43.98358751233119,129.8109435158401,6.831295648075847,3.896113006889598
GUIDED_NOGPS,3.8073699474334717,25.329758195038288,66.13408412193806,43.90587852528304,129.85387493343774,7.636549325811855,13.369964424028637,17.88365115006364,100.83919873953634,4.050249243851494,1.5817063931309918,-5.157275205469759,3.0,3.0,-6.945445387853516,0.4564779857091479,66.42210144155804,43.98358751233119,129.8109435158401,6.831295648075847,2.9220847551671985
GUIDED_NOGPS,3.832817316055298,39.30931583880037,66.11974836106617,43.9122095636717,129.8527715716637,7.699331761106527,13.16216150935007,18.014152070594935,101.01524311798794,4.014639198839986,1.4936844646365681,-5.071473515342412,3.0,3.0,-7.038130871708009,0.4567437073194863,66.42210144155804,43.98358751233119,129.8109435158401,6.831295648075847,2.7501974166279517
GUIDED_NOGPS,3.858898401260376,38.355988002048434,66.11357407269014,43.91843068225689,129.85103333248014,7.720820700860538,12.961124586625587,18.140403925709176,101.1926305074594,3.9392936745582827,1.431325264401175,-5.014586577292669,3.0,3.0,-6.2575758671026005,0.4570123957624689,66.42210144155804,43.98358751233119,129.8109435158401,6.831295648075847,0.8021409131831525
GUIDED_NOGPS,3.8966825008392334,26.47467918978457,66.10590859011688,43.9240741050467,129.84960426951474,7.73894765126999,12.766927479723421,18.262360353772042,101.37133181894127,3.951372010331804,1.213229853683263,-5.064149418118044,3.0,3.0,-6.121728992830297,0.4572825913241398,66.42210144155804,43.98358751233119,129.8109435158401,6.831295648075847,0.4583662361046586
GUIDED_NOGPS,3.9295692443847656,30.41268045796988,66.08281923347188,43.928974034340186,129.84941699378237,7.753217087481954,12.57963428189045,18.379981104011524,101.55131758563414,3.958917234930553,1.0171827204929755,-5.102796335989268,3.0,3.0,-6.133378516645729,0.45755285088777764,66.42210144155804,43.98358751233119,129.8109435158401,6.831295648075847,-0.8021409131831525
GUIDED_NOGPS,3.9616916179656982,31.138576667805015,66.07282728486598,43.93408249354367,129.84826493977417,7.72229670554045,12.399299089160195,18.49323220393902,101.73255797276133,3.8567909658000525,0.958275540552789,-5.167293812321699,3.0,3.0,-5.407585240608344,0.45782643954948077,66.42210144155804,43.98358751233119,129.8109435158401,6.831295648075847,-2.4064227395494577
GUIDED_NOGPS,3.993232011795044,31.74328701601429,66.06720627014512,43.939054313652946,129.84683688438756,7.652560518990619,12.225965733760106,18.602086126770065,101.91502278738167,3.673210421948919,1.0519731428040817,-5.277280348526414,3.0,3.0,-4.733281605008427,0.4581022788544912,66.42210144155804,43.98358751233119,129.8109435158401,6.831295648075847,-3.9534087864026803
GUIDED_NOGPS,4.028273105621338,28.51968150570828,66.06444986421766,43.9438355164295,129.8452177869212,7.536246823819363,12.059667517519344,18.706521958845375,102.09868148820222,3.5874407483333073,0.799426044469214,-5.537394015801186,3.0,3.0,-4.090324558133288,0.4583801955519215,66.42210144155804,43.98358751233119,129.8109435158401,6.831295648075847,-5.844169510334397
GUIDED_NOGPS,4.062367677688599,29.33900391717963,66.06252594373562,43.94842062083856,129.8436754832491,7.39052779220649,11.900426945276521,18.806525567051555,102.28350319539096,3.3477098596457338,0.9841826615180589,-5.734771541775745,3.0,3.0,-3.516501117857445,0.4586597415682128,66.42210144155804,43.98358751233119,129.8109435158401,6.831295648075847,-6.016056848873644
GUIDED_NOGPS,4.096228361129761,29.556709676055444,66.06709190960719,43.95280027902311,129.84190400393794,7.228029586839143,11.748255458287076,18.902089766242174,102.46945670038954,3.2863615274075024,0.8191304998944661,-5.897434204406892,3.0,3.0,-3.0528515602490476,0.4589413290446774,66.42210144155804,43.98358751233119,129.8109435158401,6.831295648075847,-7.047380880109126
GUIDED_NOGPS,4.139169454574585,23.28965590000722,66.07547018192444,43.956881357697135,129.83993020735284,7.057999201563902,11.603153167631206,18.993214486658548,102.65651047572602,3.0649451506490832,0.9974001447790913,-6.101870730888659,3.0,3.0,-3.543234859134685,0.45922487040255977,66.42210144155804,43.98358751233119,129.8109435158401,6.831295648075847,-7.39115555718762
GUIDED_NOGPS,4.169549226760864,32.93007772630918,66.08454201100648,43.9606830192479,129.83795459051706,6.857525291556932,11.46510858762133,19.079906941350576,102.84463268482757,3.0261142445570917,0.8679132050505781,-6.250372276936253,3.0,3.0,-1.930481786555168,0.4595100171414658,66.42210144155804,43.98358751233119,129.8109435158401,6.831295648075847,-8.422479588423101
GUIDED_NOGPS,4.200104475021362,32.76032179957822,66.10868131954278,43.96402331727325,129.8358295624274,6.763437943588168,11.334098369209741,19.16218179359777,103.03379119183319,2.9306871103419048,0.9847032499988608,-6.413643253290354,3.0,3.0,-3.8012570294951953,0.4597969424441087,66.42210144155804,43.98358751233119,129.8109435158401,6.831295648075847,-8.479775367936185
GUIDED_NOGPS,4.218654632568359,53.89750706759188,66.11763159509951,43.96719992205695,129.83396465303747,6.554335571008117,11.210087033396277,19.24006132433006,103.2239535714065,2.8345013982420233,1.0775827236536328,-6.585695718482975,3.0,3.0,0.5742704515638302,0.46008498337755355,66.42210144155804,43.98358751233119,129.8109435158401,6.831295648075847,-9.167324722093172
GUIDED_NOGPS,4.248481035232544,33.535383901943696,66.1381797418652,43.96956759858991,129.83182235550325,6.435731756794153,11.093026704636046,19.31357559954866,103.41508711854836,2.779005470905435,1.0132741447404356,-6.918462534845996,3.0,3.0,-3.10294160818532,0.46037489714456764,66.42210144155804,43.98358751233119,129.8109435158401,6.831295648075847,-10.59971920992023
GUIDED_NOGPS,4.276201248168945,36.08810572687225,66.1478066337073,43.972145729369196,129.8302104500639,6.226599428918864,10.982856844246797,19.38276263774704,103.60715885840969,2.7524067932867013,1.0235151596272236,-7.223063358619177,3.0,3.0,-1.1153170885254347,0.4606654226125187,66.42210144155804,43.98358751233119,129.8109435158401,6.831295648075847,-9.912169855763242
GUIDED_NOGPS,4.314099311828613,26.486214779171245,66.15907054155159,43.974416026546855,129.82861351126232,6.018291012326339,10.879503983816889,19.447668577331715,103.80013555610418,2.6743509645649723,1.2000198409416352,-7.6169740284321525,3.0,3.0,-1.7990954759658844,0.4609572830672628,66.42210144155804,43.98358751233119,129.8109435158401,6.831295648075847,-10.59971920992023
GUIDED_NOGPS,4.3609771728515625,21.33170585333354,66.16705482089179,43.97680724886119,129.82719754944367,5.759016071637529,10.782881458612664,19.508347844043204,103.99398372652098,2.7234295022895103,1.1911600183710709,-8.113094210306137,3.0,3.0,-2.0423267841471713,0.46125017926561596,66.42210144155804,43.98358751233119,129.8109435158401,6.831295648075847,-10.485127650894066
GUIDED_NOGPS,4.3896708488464355,34.86768862434742,66.17292950124113,43.979619113043455,129.8259039706868,5.421100422828143,10.692889140986253,19.56486331837691,104.18866964413742,2.6672409510824004,1.269481370696784,-8.240019615652484,3.0,3.0,1.6561097306242738,0.46154414851017594,66.42210144155804,43.98358751233119,129.8109435158401,6.831295648075847,-11.688339020668794
GUIDED_NOGPS,4.415499687194824,38.72427801166999,66.18852158891389,43.98108035267208,129.8243102312566,5.238983303507565,10.609413173783182,19.617286503004,104.38415935283179,2.6305549378332045,1.4448025082940794,-8.505230738482203,3.0,3.0,-0.7701000668138778,0.4618397736823628,66.42210144155804,43.98358751233119,129.8109435158401,6.831295648075847,-10.943493886998723
GUIDED_NOGPS,4.433708906173706,55.023862935705196,66.20760325800617,43.98184377424376,129.82283352153954,5.1502895604822,10.532325703749862,19.665697690192264,104.58041867569605,2.7210432049482374,1.320709070132349,-8.736173948472318,3.0,3.0,-1.7921837153251357,0.4621363777312348,66.42210144155804,43.98358751233119,129.8109435158401,6.831295648075847,-12.375888374825783
GUIDED_NOGPS,4.480061054229736,21.573862233561023,66.22163207251089,43.982788400773465,129.82159113122088,5.00272862368636,10.46148461494154,19.710186129227072,104.7774132248485,2.6225894431570884,1.4792638008645556,-8.892102044581833,3.0,3.0,-2.59843479756721,0.46243373314044145,66.42210144155804,43.98358751233119,129.8109435158401,6.831295648075847,-11.459155902616464
GUIDED_NOGPS,4.504490852355957,40.995230276018454,66.22796476667988,43.98482593092119,129.82045304919703,4.637267163332892,10.396733262129558,19.750850193832125,104.9751084112466,2.659271827868288,1.3298632311674585,-9.006105585792161,3.0,3.0,3.8478854286751516,0.46273198304307434,66.42210144155804,43.98358751233119,129.8109435158401,6.831295648075847,-11.974817918234207
GUIDED_NOGPS,4.534603595733643,33.19644157406528,66.24236334427269,43.985328276649696,129.81934079867244,4.526079208005415,10.33790020420922,19.787797549590582,105.17346945449961,2.572468020923654,1.4725945480268614,-9.203307661282416,3.0,3.0,-1.2303514596323164,0.46303119298374074,66.42210144155804,43.98358751233119,129.8109435158401,6.831295648075847,-10.943493886998723
GUIDED_NOGPS,4.559117794036865,40.80776789710261,66.25407483191947,43.98599087419713,129.81834463234753,4.377925782126477,10.284798937607448,19.82114532136571,105.37246139268136,2.521331248381415,1.58269762433429,-9.45164394799397,3.0,3.0,-1.5479294808180586,0.46333117514050076,66.42210144155804,43.98358751233119,129.8109435158401,6.831295648075847,-10.886198107485642
GUIDED_NOGPS,4.599870204925537,24.545318352059926,66.26178535166025,43.987149971005934,129.81736570825836,4.065696821025402,10.237227629690452,19.851020260721842,105.57204909214299,2.3937892050190626,1.8066684918422937,-10.08591495111522,3.0,3.0,0.3522199965251387,0.46363202507582696,66.42210144155804,43.98358751233119,129.8109435158401,6.831295648075847,-11.745634800181877
GUIDED_NOGPS,4.634876012802124,28.571942397035382,66.26918139602309,43.988415599898616,129.81637576728798,3.6672091142908956,10.194968852171016,19.87755891334537,105.77219725732564,2.3299405966577833,1.804568635559338,-10.529579280163507,3.0,3.0,2.536947866845464,0.4639337322350565,66.42210144155804,43.98358751233119,129.8109435158401,6.831295648075847,-12.547775713365029
GUIDED_NOGPS,4.682440280914307,21.035467822179424,66.27881603679195,43.989242513453306,129.81546989610666,3.3225603489346134,10.157789314516592,19.90090778646554,105.97287044057319,2.3053303578611697,1.7391375577447314,-11.017670574668141,3.0,3.0,0.6989273119544319,0.4642361008166998,66.42210144155804,43.98358751233119,129.8109435158401,6.831295648075847,-12.204001036286535
GUIDED_NOGPS,4.698704481124878,61.48923943001231,66.28901839518052,43.98997247418439,129.81451618613585,2.998005316670311,10.125439597356674,19.921223516275308,106.17403305194497,2.159404433460905,2.0001942180117886,-11.192974209905689,3.0,3.0,7.08702640261404,0.4645392752987137,66.42210144155804,43.98358751233119,129.8109435158401,6.831295648075847,-11.974817918234207
GUIDED_NOGPS,4.740407228469849,23.984034675404136,66.30123899834227,43.989760307302255,129.813930165655,2.8992651450076043,10.097653885890523,19.93867303535237,106.37564936902858,2.0649917957808768,1.9992661660583133,-11.62216963697095,3.0,3.0,-1.5941538727000717,0.46484257880506036,66.42210144155804,43.98358751233119,129.8109435158401,6.831295648075847,-11.688339020668794
GUIDED_NOGPS,4.7638983726501465,42.59214427880905,66.31062432035242,43.99020459500588,129.8132386757405,2.59777100715409,10.074149703294879,19.95343374007979,106.57768354675244,2.0255566313907503,2.1133034313276693,-11.712112129282616,3.0,3.0,4.040247963577226,0.4651466673065179,66.42210144155804,43.98358751233119,129.8109435158401,6.831295648075847,-12.261296815799618
GUIDED_NOGPS,4.818100929260254,18.45142444878495,66.32049282276807,43.99019920088123,129.81272634947155,2.399549380515873,10.054627644131315,19.965693658067213,106.78009962719867,2.0056442820826357,1.973152645314062,-12.114417955359183,3.0,3.0,-0.5847750921329458,0.4654510599165907,66.42210144155804,43.98358751233119,129.8109435158401,6.831295648075847,-12.375888374825783
GUIDED_NOGPS,4.8337788581848145,63.820815581253804,66.3292157424228,43.9906855679681,129.81191355411872,2.028466406654958,10.038771107754243,19.975651615571554,106.98286154941579,1.8831117555896648,2.2053987138883593,-12.275431981079418,3.0,3.0,10.0,0.4657564219929456,66.42210144155804,43.98358751233119,129.8109435158401,6.831295648075847,-12.08940947726037
GUIDED_NOGPS,4.876780033111572,23.25982121070961,66.33835776516017,43.99031233271749,129.81162961381926,1.9450838749496249,10.026246031718202,19.983517404917922,107.18593315923133,1.8161833722429446,2.1854703563243776,-12.692558463881266,3.0,3.0,-1.1550305586431668,0.4660614553181181,66.42210144155804,43.98358751233119,129.8109435158401,6.831295648075847,-11.802930579694959
GUIDED_NOGPS,4.893556356430054,59.76579888570655,66.34647991770308,43.99052288915954,129.8110662984686,1.653860133681733,10.01670062518589,19.98951195192051,107.38927821906476,1.7872883636809114,2.3226662317483084,-12.779222465391326,3.0,3.0,7.1863416374176055,0.46636731788089425,66.42210144155804,43.98358751233119,129.8109435158401,6.831295648075847,-11.745634800181877
GUIDED_NOGPS,4.923696994781494,33.15655335968379,66.35400510174824,43.99015962092928,129.81087898460447,1.5827665943624496,10.00976510233555,19.993867483303422,107.59286041774003,1.7343932443142172,2.4209961963607505,-13.170255918016434,3.0,3.0,-0.6951390589427462,0.4666729721497033,66.42210144155804,43.98358751233119,129.8109435158401,6.831295648075847,-10.886198107485642
GUIDED_NOGPS,4.960886716842651,26.897944001949543,66.36119865797897,43.99021349077668,129.8105493432039,1.3253878871767883,10.005051415768335,19.996827694121738,107.79664338029838,1.708873950027757,2.365723744276069,-13.565629955859086,3.0,3.0,1.8688216274082876,0.46697914105564176,66.42210144155804,43.98358751233119,129.8109435158401,6.831295648075847,-10.943493886998723
GUIDED_NOGPS,4.999732732772827,25.751832705035795,66.36842114152674,43.99032049461577,129.810200137453,0.9966698512639112,10.002152989916638,19.998647915182307,108.00059067781105,1.7484107134817872,2.2334059045799965,-14.025886521948626,3.0,3.0,2.9074085815216346,0.4672855858105371,66.42210144155804,43.98358751233119,129.8109435158401,6.831295648075847,-11.631043241155712
GUIDED_NOGPS,5.0330116748809814,30.056568754613142,66.37524010986945,43.99023844427546,129.8099566875334,0.7194429735164242,10.000644454451063,19.99959528046448,108.20466583719204,1.7357093363899139,2.2909745808862723,-14.304431027811855,3.0,3.0,3.0312039189355744,0.46759206372448797,66.42210144155804,43.98358751233119,129.8109435158401,6.831295648075847,-11.688339020668794
GUIDED_NOGPS,5.056882381439209,41.99973964852551,66.38124629318402,43.989964868918975,129.80982975013336,0.5187653703414878,10.000081377688659,19.99994889454128,108.40883235101077,1.7247221233363021,2.3073316032879836,-14.428048914052622,3.0,3.0,3.2571860625016837,0.4678985039013161,66.42210144155804,43.98358751233119,129.8109435158401,6.831295648075847,-11.745634800181877
GUIDED_NOGPS,5.07663893699646,50.561805337898114,66.38645326705074,43.98964194519108,129.8097452863273,0.39889295967013083,9.999999999999986,19.99999999999999,108.61305368730491,1.6954513476482125,2.4446508490037973,-14.545109818690179,3.0,3.0,1.9582301190230256,0.4682049626014664,66.42210144155804,43.98358751233119,129.8109435158401,6.831295648075847,-11.115381225537972
GUIDED_NOGPS,5.109755754470825,30.20766444122752,66.39116364265637,43.98933392833968,129.80968932195753,0.26506983102644655,10.0,20.0,108.81729329939294,1.6836673503392365,2.3865361844507436,-14.71637851967554,3.0,3.0,1.1278328966150244,0.4685114059661531,66.42210144155804,43.98358751233119,129.8109435158401,6.831295648075847,-10.886198107485642
GUIDED_NOGPS,5.152270078659058,23.528477266990155,66.39642891588917,43.98921891496648,129.80952916873235,0.010519688724751633,10.0,20.0,109.02151463568707,1.733189636916414,2.338977577259945,-15.149286154554703,3.0,3.0,2.3570597172802517,0.4688179782004321,66.42210144155804,43.98358751233119,129.8109435158401,6.831295648075847,-10.427831871380983
GUIDED_NOGPS,5.17268967628479,48.9954442445623,66.4016023039712,43.98911293025047,129.80936275530865,-0.267246674763215,10.0,20.0,109.22568114950582,1.7738971374828667,2.25027262984852,-15.26639487051645,3.0,3.0,6.247358826318044,0.4691244775912957,66.42210144155804,43.98358751233119,129.8109435158401,6.831295648075847,-11.058085446024888
GUIDED_NOGPS,5.197259187698364,40.79149606605526,66.40506516986045,43.98876469374515,129.80937816252828,-0.3887781384440774,10.0,20.0,109.4297563088868,1.7898972825004447,2.168918673531321,-15.35813626390077,3.0,3.0,2.048779012363253,0.4694305672195378,66.42210144155804,43.98358751233119,129.8109435158401,6.831295648075847,-10.771606548459477
