Mode,Time,Freq,North-Vision,East-Vision,Down-Vision,Yaw-Vision,North-Desired,East-Desired,Down-Desired,Roll-UAV,Pitch-UAV,Yaw-UAV,Roll-Control,Pitch-Control,Yaw-Control,Thrust-Control,northVraw,eastVraw,downVraw,yawVraw,zGyro
GUIDED_NOGPS,0.002981901168823242,338.30488788514276,30.49927490013592,-6.303940724708048,42.643624007869214,8.461288059959518,35.820780793521976,-8.24288050000277,40.83569215143878,0.6240790802191194,0.4254458666543358,18.237397385877767,2.0,-2.0,-7.0,0.49728810221535436,30.49927490013592,-6.303940724708048,42.643624007869214,-0.6236262172974137,5.729577951308232
GUIDED_NOGPS,0.024808168411254883,45.834378756420065,30.49927490013592,-6.303940724708048,42.643624007869214,10.470296939675258,35.820673593752595,-8.24285583178312,40.83571417385337,0.6276045784087567,0.41208729729826027,18.327002637599165,0.06983890980091423,-0.21296459763678205,-7.0,0.49728813524897625,30.49927490013592,-6.303940724708048,42.643624007869214,-0.6236262172974137,5.844169510334397
GUIDED_NOGPS,0.028394460678100586,279.34092574092574,30.87461917665934,-6.343278635856845,42.729647570873745,10.44300789839697,35.819931846228975,-8.242685144934232,40.83586744602746,0.6276045784087567,0.41208729729826027,18.327002637599165,0.02940283863412721,0.21478933280911855,-6.7279633800042475,0.4971593298127306,31.625307729706186,-6.421954458154438,42.901694696882814,-0.19556031226098147,5.557690612768986
GUIDED_NOGPS,0.06463217735290527,27.601187146702113,31.062291314921055,-6.362947591431244,42.77265935237601,10.316393961476242,35.81794463503415,-8.242227858854912,40.83628079273986,0.6951360461148479,0.34149387713159346,18.53167779381506,0.06576133714459823,-0.16958053568525136,-7.0,0.4970954321605458,31.625307729706186,-6.421954458154438,42.901694696882814,-0.19556031226098147,5.958761069360562
GUIDED_NOGPS,0.07316136360168457,117.43158719937284,31.177588155711693,-6.307963841406961,42.85711772980532,10.381710562276561,35.81412650517798,-8.241349251872018,40.837080409540675,0.751530143327293,0.25180196738510163,18.55923589956877,0.09278441586782069,-0.12941413947508493,-7.0,0.49696994401960304,31.63877551887423,-6.088028841309832,43.19495123952255,0.12540729871694922,5.844169510334397
GUIDED_NOGPS,0.10294365882873535,33.58882695880582,31.405488279459355,-6.264781464727318,42.96738317613598,10.288323335082431,35.807917111411975,-8.239920380427655,40.83838988057661,0.7688278642046147,0.19127517883797585,18.780330830549374,0.07633919178474814,-0.1450789458903479,-7.0,0.49680651005666093,31.63877551887423,-6.088028841309832,43.19495123952255,0.12540729871694922,5.844169510334397
GUIDED_NOGPS,0.14470124244689941,23.952532422662458,31.65142234945946,-6.2499593802720055,43.178432979445596,10.30057235717979,35.79878086704409,-8.237817998266378,40.840330196416204,0.9088064013850907,0.008481173958451771,19.10360539151337,0.07292010129785706,-0.14190681057989052,-7.0,0.4964928458254559,31.72894525013647,-6.229830302431489,43.6988730244173,0.7112104007843831,3.896113006889598
GUIDED_NOGPS,0.17921209335327148,28.986606587513304,31.672149853545516,-6.211534549127416,43.33786864495249,10.366464602676254,35.786206592753516,-8.234924475622389,40.84301977187517,0.9869886953281706,-0.05312691891165168,19.325779492382836,0.07683213270102604,-0.16153738238577306,-7.0,0.49625772669038404,31.72894525013647,-6.229830302431489,43.6988730244173,0.7112104007843831,4.068000345428845
GUIDED_NOGPS,0.22244620323181152,23.133712432503984,31.91484394237304,-6.185881192007843,43.596959900900615,10.358660216290236,35.7697071654055,-8.231127718406736,40.846574463841634,1.0108444116649093,0.06867413700989321,19.47399288982482,0.0758341544595794,-0.1313033549151712,-7.0,0.49587442184441155,32.83877817384379,-6.293687672556574,44.19715097662344,1.1072197634143175,1.8334649444186344
GUIDED_NOGPS,0.2671220302581787,22.386575433128023,31.476704635513123,-6.156313039060702,44.009102056067846,10.313622317502631,35.74881916686615,-8.226321087394515,40.851107589101424,0.8637120517416385,0.08557458633744351,19.40720217747856,0.07699120044665604,-0.20936579502549313,-7.0,0.4952630082995504,29.44807898457468,-5.940188076574129,45.255662015358666,1.2965492515108703,-0.9167324722093172
GUIDED_NOGPS,0.3030104637145996,27.87413024263489,31.038565328653213,-6.126744886113562,44.42124421123507,10.19965426580585,35.72310253281721,-8.220403317412066,40.856729942163355,0.7961209266020154,0.3328923210890202,19.37896276035514,0.07831780823811654,-0.2352429360971905,-7.0,0.49465322859639244,29.44807898457468,-5.940188076574129,45.255662015358666,1.2965492515108703,-1.6615776058793874
GUIDED_NOGPS,0.33963847160339355,27.313423893932093,30.613175514211992,-5.974651671079168,44.78154854038213,10.02956129427082,35.69214020157087,-8.213278436524178,40.86354981308449,0.8394654137966221,0.31328498241602926,19.223099551042743,0.09536061679499176,-0.24745413387329906,-7.0,0.49412300190905356,29.60199617793036,-5.469364227259524,45.50039467015259,1.3911409252246907,-3.0939720937064457
GUIDED_NOGPS,0.38675880432128906,21.226449660421665,30.187785699770767,-5.822558456044776,45.14185286952919,9.815533137240221,35.655537762884606,-8.204855685221276,40.87167300529544,0.8417861840105455,-0.056340949802965806,19.052998812405452,0.09890758144129724,-0.25784757387627616,-7.0,0.49359473020364936,29.60199617793036,-5.469364227259524,45.50039467015259,1.3911409252246907,-4.469070802020421
GUIDED_NOGPS,0.4202849864959717,29.834435861323318,29.428737105304304,-5.611303269254759,45.53087331157826,9.530048013218416,35.61292310677592,-8.195049435606636,40.88120285342564,0.7129012614243453,-0.15979163530221363,18.79135304832248,0.11235057086911257,-0.32260095407122386,-6.3078856906177965,0.4930254943127711,29.043535201511464,-5.23741173860649,46.14225318686877,1.395214872125923,-6.703606203030632
GUIDED_NOGPS,0.4584941864013672,26.181346050611104,29.23925225193235,-5.438093828947008,45.81190425428141,9.199255338706378,35.56394607233722,-8.183779110583576,40.89224024112862,0.5696666983613302,-0.3899280291966232,18.519649830686667,0.11514408637076606,-0.27006465383553396,-5.289365449770285,0.4926205039802708,28.500654717714912,-5.074140875035376,46.66081672887442,1.313171290050032,-7.62033867523995
GUIDED_NOGPS,0.49651288986206055,26.30828770173557,29.0497673985604,-5.264884388639257,46.092935196984556,8.84108171817219,35.50827809655052,-8.170969103042653,40.904883618907284,0.4038426186398202,-0.5899081774100745,18.150529332466252,0.12067845732766573,-0.2747779306755834,-4.6633572579386176,0.4922179226328841,28.500654717714912,-5.074140875035376,46.66081672887442,1.313171290050032,-8.708958485988513
GUIDED_NOGPS,0.5325007438659668,27.81018306712019,28.678287942964165,-5.161301420862328,46.40260947150643,8.43444404079872,35.44561186310234,-8.156548695048865,40.91922902193921,0.35298588385355145,-0.9207762011838322,17.855017782931064,0.11789123020037923,-0.30793799897424945,-3.2758559775315046,0.49177492932564915,27.744598899949164,-4.951449388374882,47.04876604276193,0.839756169691151,-9.625690958197831
GUIDED_NOGPS,0.571753740310669,25.475916860020167,28.306808487367924,-5.0577184530854,46.71228374602829,8.039784236079178,35.37566095119846,-8.140451977028857,40.93537008790188,0.3034637039980798,-0.9110264263087564,17.46023284890433,0.12017795035365303,-0.3163865699851227,-3.583562548406695,0.4913346295128104,27.744598899949164,-4.951449388374882,47.04876604276193,0.839756169691151,-9.625690958197831
GUIDED_NOGPS,0.6064634323120117,28.817324868771813,27.911144385894566,-4.896575109098928,46.90505419702497,7.600363921161424,35.29815948437873,-8.122617766958106,40.95339807479803,0.24474872985000565,-0.9810998983248559,17.086641991872142,0.13226869260014146,-0.33531611578658693,-1.8673023292006956,0.4910725158166596,27.065214694144686,-4.431695018674127,47.106105441852144,0.3462403180387387,-10.255944532841736
GUIDED_NOGPS,0.648066520690918,24.043704319412996,27.49660763786439,-4.735801326086132,47.020293897027614,7.171689869178677,35.21286177933187,-8.102989529548134,40.97340187878087,0.25745154768490713,-0.9677495465401256,16.617428486459776,0.13486509943907585,-0.34389383698897363,-2.629765294541503,0.4909296619726299,26.427970977564016,-4.2702719599714,47.23701522888767,-0.07904662518632007,-10.943493886998723
GUIDED_NOGPS,0.6893787384033203,24.211643143706524,26.98044674980298,-4.509934854247299,47.138477095326515,6.6541374349034905,35.11954199471026,-8.0815152954337,40.99546805197938,0.28367488506440747,-0.9316274507842784,16.235235006167958,0.14803210325993296,-0.3706080648203401,-1.0002219259884733,0.4907854864349793,25.91985027740788,-3.944808515841209,47.25173272036892,-0.4857462548222586,-11.745634800181877
GUIDED_NOGPS,0.7214088439941406,31.229926137717417,26.508457585726518,-4.225545163334325,47.20532535607399,6.12410861794941,35.01799377994478,-8.058147580360002,41.01968082032361,0.27728108094933507,-0.852599707487998,15.831628882828149,0.168791362453924,-0.39052418140875167,1.4364371410228323,0.4907215331963744,25.38465307956685,-3.529500933810013,47.38300734649929,-0.9503449960677568,-11.802930579694959
GUIDED_NOGPS,0.7621114253997803,24.57379219835718,26.036468421650056,-3.941155472421351,47.27217361682146,5.679028676625955,34.90802992405959,-8.032843304369873,41.046122101369924,0.30998744178994114,-0.7849511660706644,15.315780553310228,0.17204234941268814,-0.39499147331769896,-0.8930354364677022,0.4906609227268227,25.38465307956685,-3.529500933810013,47.38300734649929,-0.9503449960677568,-12.662367272391194
GUIDED_NOGPS,0.8065073490142822,22.527010043503946,25.501445139990164,-3.6479898008259566,47.36857970950807,5.130707916868098,34.789482004486906,-8.005563710990984,41.07487152212632,0.34973396675668494,-0.6616332745448479,14.732043558536965,0.18035527203806984,-0.4138746978941636,0.31813090510914144,0.4905594377189274,24.390098285845234,-2.9658666606971558,47.588135905285164,-1.9016121416541285,-11.974817918234207
GUIDED_NOGPS,0.8525090217590332,21.744087426254833,25.040928165530616,-3.315333259487989,47.42973126052001,4.5487993236084385,34.66220003588185,-7.9762742864230445,41.10600643687768,0.2562808639333375,-0.37909577605980616,14.231593036729192,0.19378688538352148,-0.41930210625968434,1.0666994861368142,0.4905144127645365,24.125386105266266,-2.6069892532815597,47.54277298394737,-2.3808935234740782,-11.287268564077218
GUIDED_NOGPS,0.8900961875915527,26.61377293003128,24.750194647737015,-3.03950405488695,47.4923848037522,3.9702500460950523,34.52605211893722,-7.944944678724995,41.139601945011044,0.15711861675814534,-0.3542836197958539,13.788812363404775,0.20251111969961266,-0.4133479280939547,3.0323257456602013,0.49047082571188827,24.466182688439865,-2.5656624928360134,47.56500043652988,-2.8826325179951358,-11.058085446024888
GUIDED_NOGPS,0.9327907562255859,23.425976709765703,24.568566905132037,-2.7624765370720894,47.50708686236668,3.506602153778111,34.38092408919831,-7.911548617002213,41.17573090884092,-0.04706045027853081,-0.1615574526460735,13.336154382766875,0.20831958245567384,-0.40207175601913314,1.129312688921848,0.4905029660697114,24.476514366541938,-2.1443633447357073,47.456517639571615,-3.416172902105695,-11.000789666511807
GUIDED_NOGPS,0.9786334037780762,21.816131532271907,24.3937629407822,-2.3914446795306437,47.49284134957366,2.9893127462734475,34.22671916587769,-7.87606383059371,41.21446397143453,-0.31972160861554644,0.24820928788167493,12.828506549121201,0.22654452974291633,-0.40174604879663095,1.8759253819341044,0.49058243393279133,24.510633257817663,-1.6743416461027845,47.311779782534224,-3.97416091803933,-10.026761414789407
GUIDED_NOGPS,1.0137417316436768,28.491009747647997,24.392726408330162,-2.082652433111376,47.440728102990576,2.4701874942390694,34.06335760067004,-7.83847196825933,41.25586957443713,-0.4040160947725679,0.16495312388062763,12.485345038615066,0.23800103349600485,-0.37528617020620675,4.150218223953696,0.49072271220716984,24.384915623585055,-1.421905428600817,47.327569672369734,-4.46025846325338,-9.281916281119337
GUIDED_NOGPS,1.05391526222229,24.898513558436626,24.394977949773157,-1.8000963892430382,47.42065687461932,2.079525647270931,33.890776326566915,-7.798758517366949,41.30001397589722,-0.48071399650993357,0.11169813892203821,12.150072396600295,0.2409080598450336,-0.36976074935808273,1.999443506433023,0.49081903565191687,24.13664381248125,-1.1942090339398697,47.44241684209109,-4.885447407724171,-9.224620501606255
GUIDED_NOGPS,1.0891177654266357,28.41669376693767,24.310288609952163,-1.4683300295307529,47.389578704366635,1.6707248238355885,33.708928606671584,-7.756912723079677,41.34696126809192,-0.6127123647797489,0.20028142358887233,11.859941328583787,0.259497720968177,-0.3725560142997866,3.359071105378164,0.4909360738455879,24.04273598933488,-0.9068306942745881,47.40960958526648,-5.272796470992302,-7.849521793292278
GUIDED_NOGPS,1.131319522857666,23.699578478680966,24.223532934510754,-1.220823499438529,47.38019709350561,1.3463066940676942,33.51778368301381,-7.7129275075430535,41.396773395352156,-0.6287933514894563,-0.08992136141392193,11.51209516208067,0.2546245941510183,-0.3699940260831218,1.6818249201038569,0.4910248644527698,24.04273598933488,-0.9068306942745881,47.40960958526648,-5.272796470992302,-6.932789321082962
GUIDED_NOGPS,1.176182746887207,22.295896236444822,24.092871413030725,-1.0227139540303556,47.39665681951636,1.0002274705179,33.31732642536465,-7.666799389072249,41.449510171887994,-0.5680235042574132,-0.12030353694601958,11.296646236222728,0.25539721827505046,-0.37117585275869314,2.093629295137361,0.49107928002855744,23.85732565041751,-0.6837939190619173,47.394078412587966,-5.814102657997258,-5.443099053742821
GUIDED_NOGPS,1.2124803066253662,27.55784494086728,23.859318605205036,-0.7744166308202323,47.38483232914392,0.7129357274097982,33.10755698005127,-7.618528401339264,41.505229299613916,-0.44286669101927645,-0.24407318145240908,11.121746435919857,0.2701684421503252,-0.3813526139525664,2.404238945009821,0.49118059545570497,23.21715158445661,-0.18041881255019998,47.268447220507596,-6.1018975073331,-3.8388172273765155
GUIDED_NOGPS,1.2552123069763184,23.408457464323387,23.58601065263617,-0.4726484149437896,47.3244279438978,0.5128850829308481,32.888490418771745,-7.568118012560127,41.563986385974076,-0.3142713577817143,-0.36456497548742717,10.991412766177673,0.2811037942515906,-0.38642247144088315,1.0312489978797101,0.4913593376631144,22.770104049636913,0.31463204544234313,47.140394915860476,-6.342847152240791,-2.635605857601787
GUIDED_NOGPS,1.2847280502319336,33.88651989497071,23.33148426469657,-0.22835586700040333,47.2705850100166,0.34865855046503647,32.66015638740985,-7.515575044682098,41.62583496176759,-0.200284758642178,-0.39966702517941516,10.968787764552006,0.29003000351588404,-0.3861532743115951,1.590888459332961,0.4915328749276265,22.770104049636913,0.31463204544234313,47.140394915860476,-6.342847152240791,-0.8594366926962349
GUIDED_NOGPS,1.3262245655059814,24.105056867489267,23.06171507452094,0.1465473835998468,47.16653118340464,0.28359899597992255,32.42259875484988,-7.46090959257086,41.69082649897382,-0.032023748800108075,-0.46312289766341863,10.99645856842702,0.30654645548761394,-0.3874307679078239,-0.3094886395730351,0.4917864429733538,22.693890038456747,0.9676855587266625,46.88934045220668,-6.557336168017619,1.3750987083139758
GUIDED_NOGPS,1.3729615211486816,21.399401023464165,22.89509661259959,0.5570126463414024,47.003032744520674,0.26612721859790706,32.17587526179143,-7.404134943197727,41.75901042857765,0.07051417930012406,-0.3759942298463857,11.149762164347957,0.31902839872293043,-0.37469977388304565,-0.8912910682030518,0.4921339665260855,23.024233340810756,1.3685323946458605,46.5765862181681,-6.774852724552768,3.6096341093241864
GUIDED_NOGPS,1.41823410987854,22.093773210212756,22.753767625775616,1.0376480431796795,46.80223199359496,0.3391137873190282,31.920057169564224,-7.345267494826839,41.83043415839478,0.08495776155845318,-0.4220770892896386,11.35765348588928,0.3409523423764032,-0.36724341512792186,-1.9608736676641076,0.4925423032471997,22.51050665033674,2.2227581716411855,46.26444346587902,-6.883499512585077,5.443099053742821
GUIDED_NOGPS,1.455991268157959,26.488723846333592,22.72143824208387,1.6009208014201295,46.578158955273814,0.4693244336715076,31.655228908942885,-7.284326676202359,41.90514309089697,0.02022759188677954,-0.4610258161448132,11.51480760095481,0.3733979932275933,-0.3439012128861587,-3.0014297252105226,0.4929904762034347,22.60845713117817,3.1309958366445922,46.02002972425478,-6.779250422088834,5.500394833255903
GUIDED_NOGPS,1.4909889698028564,28.580314128990494,22.689108858392117,2.1641935596605792,46.35408591695268,0.6124040693380519,31.381487728961773,-7.221334865735678,41.98318064103734,-0.05075895102334644,-0.6648699304377876,11.727358819057377,0.39566540237130293,-0.3313786130187995,-3.481463773544363,0.493443642086127,22.60845713117817,3.1309958366445922,46.02002972425478,-6.779250422088834,6.64631042351755
GUIDED_NOGPS,1.5284440517425537,26.70425619966256,22.70729712391509,2.6731783399060647,46.1600729558679,0.7886922701234621,31.098943345729758,-7.156317310692611,42.06458825407568,-0.1313862259056661,-0.6087433845417367,12.117404455573771,0.40297480616262943,-0.31526066850774276,-3.9609046115465527,0.4938567729473117,22.78483136607161,3.5126094599540885,45.919275646782836,-6.607250628185262,8.479775367936185
GUIDED_NOGPS,1.5693840980529785,24.430656679209235,22.718306156585538,3.173743017597734,46.006792224045995,1.0233307241288354,30.807717591245037,-7.089302046380594,42.14940542340366,0.02792388106006164,-0.4592700306412968,12.509505125256693,0.4144321645998137,-0.30607488244235875,-4.712986570679824,0.4942139197990365,23.079278504163003,3.871355783104208,45.81018255905855,-6.374250575705483,9.625690958197831
GUIDED_NOGPS,1.6126453876495361,23.12134241802827,22.820443449848568,3.6096303548226336,45.8784434617274,1.3258161000192206,30.50794406220993,-7.020319815335888,42.23766970837016,0.2711775598739882,-0.2094219242456419,12.939486877850152,0.4204625947718076,-0.2827035210680624,-5.651228402687723,0.4945388393699641,23.02119311665188,4.402194857765685,45.622699654286016,-6.129234748987385,10.427831871380983
GUIDED_NOGPS,1.6526086330413818,25.030459276234126,22.837236780308462,4.05352035445874,45.737042829663714,1.6625972256479211,30.199767768845692,-6.949403986510777,42.32941675210656,0.44754553068329384,-0.17768480993694297,13.28014683157277,0.43742084578714896,-0.2745633089973995,-6.720905482552833,0.4948885608836643,22.692423783477647,5.350445834825126,45.313026563936376,-5.825282286347478,9.740282517223996
GUIDED_NOGPS,1.7010600566864014,20.643596470072893,22.722544167699244,4.569649532310113,45.59174459147233,1.9600673689958439,29.8833447837073,-6.876590474460766,42.42468029935196,0.5048718419957398,-0.09469673086081866,13.75713309226061,0.4532172075151361,-0.28274233287234696,-5.881864096571622,0.49524940356181946,22.034994068132093,5.71164172590146,45.29353853329784,-5.511147019703679,9.224620501606255
GUIDED_NOGPS,1.7432472705841064,23.709894234628408,22.542364812231227,5.17420087141109,45.44726406159872,2.3158329820238777,29.558841890498268,-6.80191765853178,42.52349221427853,0.5179696368637384,-0.22181338150392596,14.106555324914707,0.4850067059868316,-0.2802529400501451,-7.0,0.4956143422290197,21.88393458873154,6.535366155458971,45.196872997414815,-4.980096229590716,8.13600069085769
GUIDED_NOGPS,1.7810378074645996,26.466827366003255,22.425102636126923,6.005341667538104,45.293020670576446,2.5887496875672666,29.22643623288544,-6.7254263020473655,42.62588249831673,0.5546272087783439,-0.34449083607334813,14.337787964170904,0.5388652347179294,-0.2629489304475696,-7.0,0.4959992927416104,22.492967623641462,8.027059763739283,45.038965603947176,-4.6501739381555325,7.677634454753031
GUIDED_NOGPS,1.8125395774841309,31.757948376252166,22.427970802570314,6.73726109174415,45.202703121649314,2.795645693086786,28.8863149633138,-6.647159471495886,42.73187930798063,0.6762298690488411,-0.551476517219411,14.541399318423569,0.5662469947340394,-0.2283659355850372,-6.966962557675967,0.49629376427949695,23.035533948868846,8.061791978795918,45.171111909650314,-4.276625690700226,6.41712730546522
GUIDED_NOGPS,1.8463764190673828,29.559834240126293,22.54019338938759,7.37724475459667,45.19832279877677,2.926654921955175,28.538674891821277,-6.567162455717728,42.841508972693155,0.6598662832622244,-0.6389636632461639,14.716544151762914,0.5712593156173942,-0.19968262875807624,-5.741910437138971,0.49646477926087457,23.253536717564018,8.550364149087722,45.29112494957366,-3.9022951495256413,5.729577951308232
GUIDED_NOGPS,1.8850960731506348,25.83017613006528,22.800165690457842,8.06151655727467,45.19338676321847,3.0483657756239984,28.183722134853525,-6.485482685092494,42.95479601261141,0.8382971312834325,-1.0030283273768876,14.93883948849015,0.5899391660822748,-0.16613313281176964,-5.512834660958134,0.4966421138740894,23.334855573483345,9.133000739291463,45.2688583555063,-3.584314888510961,4.5263665815335035
GUIDED_NOGPS,1.9296340942382812,22.455611354413165,23.099789420142258,8.645796996655225,45.25687182613395,3.167382082544675,27.821671764078754,-6.402169650726202,43.07176315645192,1.0569532044826673,-1.111739325754103,15.073286639659973,0.5932013035789809,-0.14378972978785737,-5.414924378625549,0.49672233699547697,23.382053237153624,9.456768352361745,45.514298311992235,-3.239886601765844,3.4377467707849396
GUIDED_NOGPS,1.973107099533081,23.010352262191475,23.322008234852298,9.047826400847821,45.32054811550817,3.2461652217163253,27.452747455202523,-6.317274823638489,43.192431359315904,1.244062074648641,-0.9757709633900709,15.139991974641609,0.5913322593106559,-0.1246104108685552,-5.089817185288783,0.4968078248657116,23.604061697191657,10.037206784702267,45.35734705081827,-3.0799040301680285,0.8594366926962349
GUIDED_NOGPS,2.0104966163635254,26.754335942234214,23.39122228836253,9.601157869507961,45.33319053136509,3.234360551152258,27.077181136782528,-6.230851573949809,43.3168198205146,1.2546125824821952,-0.7693651012715185,15.133535738328655,0.6265095243414356,-0.11506187650886937,-4.015000143107391,0.4969754439337243,23.381604216419994,10.828449322096615,45.23432398893494,-3.0363045661384427,-0.9740282517223995
GUIDED_NOGPS,2.0521888732910156,23.99089395924017,23.45667795731155,10.201105611638784,45.28054729345937,3.156020755645802,26.69521263904341,-6.14295509006863,43.444946001394506,1.2418067248403617,-0.5775647449193921,15.05679856300356,0.645251248521374,-0.10149169691591806,-3.167592457506618,0.4972465980619027,23.580815062309107,11.550102859741834,45.02790876004504,-2.961008561862029,-2.119943841984046
GUIDED_NOGPS,2.0873332023620605,28.462009296644386,23.57776852230698,10.71123797630338,45.267044539999624,3.0330943219925013,26.30708934269159,-6.053642297878633,43.57682564316265,1.140600716978815,-0.254516327249947,14.952001263020763,0.6599127711681119,-0.06608733757726441,-2.243306070586871,0.49746467165474456,23.9403083984605,11.683662562614442,45.20134458820757,-2.961719303365088,-3.0939720937064457
GUIDED_NOGPS,2.1248433589935303,26.661818644121666,23.689419554568353,11.15661681835392,45.204453795242685,2.8812299684832077,25.913065827730023,-5.962971779925919,43.71247278471192,1.0504730625076177,-0.28340994842980505,14.745722719897207,0.6639827523524148,-0.050311442032750786,-1.8390582732344587,0.49776202848420387,23.9403083984605,11.683662562614442,45.20134458820757,-2.961719303365088,-4.010704565915763
GUIDED_NOGPS,2.1599457263946533,28.50282017478288,23.871425318793264,11.48018270433298,45.23015617999438,2.6807153073181635,25.513403522273002,-5.871003694606194,43.851899780446296,0.9068081441660388,-0.1333304152405264,14.63479361758703,0.6628815250781666,-0.014103814957783858,-0.790080399153259,0.49793261540067785,24.514090518316205,11.655036214597576,45.48585897457675,-2.9790585132467187,-5.500394833255903
GUIDED_NOGPS,2.197446823120117,26.669277870681817,24.164452664958212,11.780526335095953,45.26359329046589,2.4563088193734277,25.108370351361025,-5.777799695351984,43.995117318106146,0.8595463833998711,-0.19807313805284257,14.424676508149929,0.6668550308971233,0.021288017860813885,-0.46703069825012955,0.49809728604146036,24.846740947244726,12.330167475911482,45.401509541292455,-3.0432350829624637,-6.41712730546522
GUIDED_NOGPS,2.228684425354004,32.0276116952634,24.488969136112132,12.022262047209402,45.361959812208624,2.1976140296210858,24.698240385775517,-5.6834228498198245,44.1421344365935,0.7997814811103191,-0.07716662346915781,14.33970895487497,0.6699317246455951,0.07112331153293827,0.9694322535170303,0.4981702619365773,25.203397418078705,12.758781420309072,45.519741368758666,-3.2547511962824887,-6.589014644004467
GUIDED_NOGPS,2.264162063598633,28.192642482170825,24.905963171750937,12.271915888004154,45.4574244232929,1.957459817522247,24.283293490853673,-5.587937559077458,44.29295854379735,0.9438098402209366,-0.13825306064140153,13.942992784860412,0.6745854261029415,0.10341843778298129,0.41587666890166775,0.49825330118075667,26.025278576654518,12.931931766588198,45.67866764362894,-3.3796793069822693,-7.16197243913529
GUIDED_NOGPS,2.3022072315216064,26.288335944844878,25.250760487808872,12.675008850926583,45.57700194849409,1.6470274302679677,23.863814975303256,-5.491409476791047,44.447595434418886,1.1725759274131125,-0.24811195768600225,13.463265910768104,0.6995646702236153,0.12058201222277148,1.4114103438980252,0.4983058902288872,25.664294978750185,13.699127377226592,45.79923221421351,-3.7189174847765916,-9.339212060632418
GUIDED_NOGPS,2.34043288230896,26.194426749603426,25.43587232256918,13.292953376154292,45.6310798008633,1.2696049918100505,23.440095240017403,-5.393905428412353,44.60604930779684,1.0684563102620266,-0.1865469803850345,13.121451655075754,0.7397809711908365,0.12957659965980423,2.7290289213986343,0.4984624542604003,25.43964969211773,14.744758840736125,45.75624823642278,-4.027383019053236,-10.542423430407148
GUIDED_NOGPS,2.375039577484131,28.889574608772318,25.55445407154378,13.775871649119221,45.702027539889365,0.8889628367757082,23.012429426889405,-5.295493330365956,44.76832278573268,0.8774968675906051,-0.15084494126314316,12.772141266769315,0.744845527737482,0.15060144550220633,3.6492543914449116,0.49859944286876495,25.43964969211773,14.744758840736125,45.75624823642278,-4.027383019053236,-9.740282517223996
GUIDED_NOGPS,2.4149081707000732,25.11228460921316,25.659086166027794,14.340051903986199,45.71787257903136,0.5305394759309517,22.581117067627545,-5.19624210923644,44.93441693031598,0.7487002038550862,-0.2615093737429823,12.357807477564357,0.7637138158173247,0.1619616359441251,2.92906663605331,0.49882481652692695,25.726557890498757,15.579682694643962,45.59896656446865,-4.3945542258833195,-10.255944532841736
GUIDED_NOGPS,2.4524309635162354,26.64251186249039,25.88126539790854,14.81449600201432,45.7324896801977,0.11053679082035202,22.14646173256987,-5.096221620955597,45.10433126174965,0.6496595794038452,0.026436247182534352,11.955300160907274,0.7714058241603616,0.20372818292891826,4.379129751143722,0.4990577623723279,27.136174736058255,15.304152256728795,45.75175314946066,-4.508472092726453,-10.141352973815572
GUIDED_NOGPS,2.483921527862549,31.764201597940097,26.429065861040083,15.14595751451541,45.7575457124256,-0.29373618525216677,21.70877067949899,-4.995502569989627,45.27806377617519,0.5662082214029237,0.37895298241747055,11.64704433215449,0.7712880188486195,0.2995090776996334,5.691633871448272,0.49928077709562435,28.403297294407906,15.35643493973204,45.92451237535302,-4.7566768560441455,-10.255944532841736
GUIDED_NOGPS,2.52148175239563,26.633714543341735,27.324295697981132,14.731985413997744,46.565635504600245,-0.6149686677674382,21.268354502456923,-4.894156428526335,45.455610963498025,0.5044336426718011,0.5317095228745711,11.312515326985604,0.6770481135445965,0.3719210681119545,3.924142290398437,0.4983349631883467,29.91579887682297,12.674898338147804,49.79669719729598,-4.852549500319564,-9.281916281119337
GUIDED_NOGPS,2.5678892135620117,21.551137852544176,27.502210929657615,15.040487906796113,46.70943801442074,-0.9864460906326642,20.825526780559862,-4.792255355662339,45.636967825212764,0.427645134206227,0.6114018222327526,10.947407564902573,0.7511376499183009,0.30603927975388917,3.929989629255845,0.49839129471618804,26.32922585050016,16.287271304727966,46.475260785525265,-6.442063365606033,-9.11002894258009
GUIDED_NOGPS,2.5916202068328857,42.15550373884377,27.43151890745556,15.400475547415045,46.78457827369372,-1.3548950107818947,20.380603726812957,-4.689872116590249,45.82212789222846,0.23536095500094048,0.9262216762213307,10.66801440803497,0.7841708130486142,0.33152019338000854,7.0,0.4985563244278021,25.373097779488468,17.379620897738615,45.97466786083351,-6.8647316498363855,-8.479775367936185
GUIDED_NOGPS,2.6374950408935547,21.80172987358616,27.962594268221586,15.498205929185925,47.41673958549184,-1.5586543861706148,19.933903836925165,-4.587080001785893,46.01108324269392,0.008912623134499725,1.2079040136779455,10.303199490312604,0.7452467900464713,0.39304597400160535,2.777733165506208,0.4978915154858031,29.7915515398884,15.792804165583206,48.91255970845127,-6.611164506680236,-7.104676659622208
GUIDED_NOGPS,2.667603015899658,33.22352568418551,28.331217721682457,15.343963486260384,48.37279969919747,-1.936900485948961,19.485747538124023,-4.48395274619549,46.203824519822966,-0.0495562507600424,1.1796114491450487,10.207590502310765,0.7061479325854572,0.44919951804165514,7.0,0.49674653723093826,30.24641456171228,14.585222725104325,50.70481294388113,-6.817182964823413,-6.875493541569879
GUIDED_NOGPS,2.710176944732666,23.49881786094459,28.397340858660318,15.72602836365169,48.5544228485145,-2.1737655194495713,19.036456837970483,-4.380564448422874,46.4003409497197,-0.3394725680240928,1.291912565704752,9.806786464077954,0.7712842695885226,0.4101470087092869,3.9684256991767333,0.4967688771518078,30.24641456171228,14.585222725104325,50.70481294388113,-6.817182964823413,-6.818197762056797
GUIDED_NOGPS,2.7465152740478516,27.52294396724259,29.297492724614727,15.562878667198737,49.28388938460446,-2.472602439995625,18.58635497317364,-4.276989489916671,46.600620359203816,-0.45435827085441133,1.3416350622019755,9.5299674347538,0.7123919123224818,0.5644750921060667,5.598584123708575,0.495975096461899,30.82998518027222,15.471522822463193,50.122593465975115,-6.86408246876162,-5.67228217179515
GUIDED_NOGPS,2.78621244430542,25.195403403595822,30.450914380722928,15.325543968116312,50.08626029985866,-2.715595507389038,18.135766058405633,-4.17330245415752,46.80464919363587,-0.4853463588710832,1.3781321780319387,9.326461094659624,0.6962836336832309,0.6422771396167783,4.806505142379123,0.4950775833406658,31.140206060029463,16.19294740232649,49.98652243710448,-7.321450133296377,-5.500394833255903
GUIDED_NOGPS,2.8202898502349854,29.35522567731189,30.667995448853837,15.512203993237321,50.311624400171844,-2.9536951002103273,17.685014735116372,-4.069578045845255,47.01241253474254,-0.42696424972334135,1.2684346442064796,9.179246612383754,0.7395774731982373,0.5867212783098792,5.507948657646077,0.49505118220185607,30.876956880542945,16.726104291188246,50.039380210017185,-7.555882490531115,-4.698253920072751
GUIDED_NOGPS,2.855736494064331,28.215590775771602,30.657832384044305,16.207491141119103,49.99214337141678,-3.12359963111184,17.234425820348363,-3.9658910100861045,47.22389411844191,-0.3303915113574435,0.9974035598736763,9.035355017139095,0.8124944316546938,0.5754672359148844,4.561787926586073,0.4958476261205377,30.195599237664606,18.061658464513243,49.107407800105804,-8.013113958870292,-3.2658594322456924
GUIDED_NOGPS,2.8923778533935547,27.302222945484132,30.467733318720917,17.229905530779337,49.50393812383344,-3.278847845039525,16.784323955551514,-3.862316051579901,47.439076352668785,-0.28369809703541493,1.121232755091892,8.930321221856286,0.8771065671335642,0.5654101020692075,4.4710840152114555,0.49690270734325304,29.295919235095333,19.697294673405494,48.26378670596446,-8.45406645651364,-2.6929016371148693
GUIDED_NOGPS,2.9282636642456055,27.868388880029766,29.950720923221354,19.14790639835354,48.68134042917586,-3.4208783007001617,16.335033255397974,-3.758927753807286,47.65794033519992,-0.26268171168099147,1.1817230448156404,8.859912216797209,1.034738812901299,0.5271427085389192,4.479343147089823,0.4984648998590361,28.24492320277441,25.061527160334222,46.00960499268722,-9.362098527260843,-2.2345354010102105
GUIDED_NOGPS,2.967456579208374,25.523510475807974,29.37725270993183,20.918331545423843,47.9397616255557,-3.519466075171232,15.886876956596836,-3.655800498216883,47.88046587147933,-0.18968869398046848,1.112752221463675,8.838864988869815,1.0666358643940514,0.5174202533725633,3.8693021170590898,0.49991105636888544,28.27286499358185,25.04507313767799,46.278628419003674,-9.416683563307364,-0.4583662361046586
GUIDED_NOGPS,2.9975364208221436,33.25065402482916,28.893836096701705,22.80026311362846,47.018601617682,-3.579828014949228,15.44017706670904,-3.553008383412525,48.10663149244356,-0.15830525540472926,1.0499716839338564,8.844918244021738,1.190487408139784,0.5242830772754065,3.682652026235828,0.5016320448121423,28.459873814392285,26.13576213221133,45.4335801706487,-9.643351608691024,0.7448451336700702
GUIDED_NOGPS,3.030163526535034,30.65429085115402,28.546691012047244,24.41508384716808,46.283836091790576,-3.599130106883806,14.995254012962135,-3.450625144340435,48.33641447234698,-0.07157700075768168,1.0401976832315682,8.890066648209169,1.2000133965175528,0.5454679803590935,3.0086101537455723,0.5030788675708346,28.459873814392285,26.13576213221133,45.4335801706487,-9.643351608691024,1.5469860468532228
GUIDED_NOGPS,3.070526599884033,24.783025389828705,28.35173369504259,25.793666342326286,45.72526097547688,-3.581950091668457,14.552426291065075,-3.348724071476438,48.56979084658702,0.17114502386857475,1.2623574833924607,9.022772101140639,1.194951278803182,0.5686667146637117,2.4966795543433893,0.5042667948066653,28.321132650072048,26.59020714919653,45.470911124396,-9.700759114484901,3.0366763141933633
GUIDED_NOGPS,3.102703094482422,31.087801479417127,28.326557169665637,26.31692316400929,45.553822942966676,-3.5149210462131713,14.112010114023,-3.247377930013146,48.8067354295295,0.36446316298011167,1.2421153640134817,9.142611185223098,1.143656140870487,0.6125728768394213,1.6151252511266536,0.5048793687298443,28.119040575889652,27.67781126874926,45.15241483013622,-9.696140588949005,4.297183463481175
GUIDED_NOGPS,3.133566379547119,32.4069661428152,28.45067188063677,27.009444707992998,45.25079743136454,-3.42897875799071,13.674319060952143,-3.1466588790471803,49.047221832333896,0.49340816988666675,1.173429274172541,9.293867431940322,1.187325032528755,0.6563785328442001,1.195072888748869,0.5056946366014541,28.893438548437523,28.50768085759653,44.76350086099294,-10.211351618341157,5.213915935690491
GUIDED_NOGPS,3.174257755279541,24.58329816664322,29.158901176864227,26.27371957995369,46.1398834573487,-3.3109210713698753,13.23966372589446,-3.0466383907663346,49.291222480778586,0.5331526137801478,1.0500741367714066,9.509339409686715,1.0128098822353448,0.7470306800704483,0.9674149384236854,0.5047270085351448,32.001020295529585,22.457136492014797,49.87901030056949,-7.535197238100242,5.557690612768986
GUIDED_NOGPS,3.205439329147339,32.082487474662486,29.86713047309168,25.537994451914383,47.02896948333286,-3.139329272430766,12.808351366632593,-2.9473871696368175,49.53870863308617,0.47369165490866133,1.0379428670318176,9.690646781204704,0.9669066207880951,0.8182026645926829,-0.3552669704267797,0.50376460872463,32.001020295529585,22.457136492014797,49.87901030056949,-7.535197238100242,5.958761069360562
GUIDED_NOGPS,3.231140613555908,38.92192052857222,30.46535019488249,25.809342290012705,47.0160889496038,-3.00197175122673,12.380685553504598,-2.848975071590422,49.78965039774875,0.4132264981466243,0.9698019116640086,9.829145942099638,1.0912745002985351,0.8760545113142983,-0.46271119403260697,0.5041603421722174,31.31223125902612,27.946946339688154,45.406508455750675,-9.661688996296597,6.703606203030632
GUIDED_NOGPS,3.2627828121185303,31.61980580182136,30.692969252225716,25.78581850139804,47.48570974883464,-2.8671552929152293,11.956965818218727,-2.751471023211728,50.04401675135317,0.3241962096151246,1.0084204415614955,10.052527278904904,1.049818731784297,0.8277972177880908,-0.09528655258930385,0.5038374605037778,29.25713586260575,27.56019232567594,47.50051882629043,-8.648678346972227,7.505747116213785
GUIDED_NOGPS,3.2900829315185547,36.643317054419335,30.999597162011987,25.090113288490322,48.52034301005254,-2.6892092857967187,11.537487302668325,-2.6549429409253147,50.30177555640631,0.2646302899460021,1.0953892402632677,10.283444021911988,0.9330639425726822,0.8789018695406906,-1.3211670424148718,0.5026721488195307,30.426578097368882,25.029154793057934,49.93666716708242,-7.811826815469859,7.792226013779196
GUIDED_NOGPS,3.3191473484039307,34.41197850432785,30.684708722379845,25.60451694869895,48.53187438335512,-2.5253906009435374,11.122540407746484,-2.559457650182953,50.562893579160416,0.27895714533863275,1.0273234169763288,10.481827720128654,1.1034857216854996,0.7924792016069974,-1.0805403456153697,0.5030465287937079,30.426578097368882,25.029154793057934,49.93666716708242,-7.811826815469859,7.7349302342661135
GUIDED_NOGPS,3.356228828430176,26.976832735177968,30.338494685545026,26.19540565320541,48.56273225851401,-2.3344466714680983,10.712410442160959,-2.4650808046507855,50.82733650743829,0.2487290225888306,1.3430318358872433,10.890632471200488,1.11894421563914,0.7889458677377419,-1.036339846573636,0.5033969063733864,30.269950111355488,25.41158001454709,50.03329967636396,-7.486991751909307,8.537071147449266
GUIDED_NOGPS,3.3942506313323975,26.306472654290015,29.870104726174,26.240412721913355,49.0508570864082,-2.0764734580393833,10.307377271248995,-2.371876805396578,51.095068968458655,0.3111070058444414,1.4832513506793736,11.2458253599296,1.0652442647848999,0.7735825753886957,-2.0877376231731994,0.5030663178230756,28.970281462170977,28.17198168322789,47.84713259522163,-7.303010013639555,8.708958485988513
GUIDED_NOGPS,3.421391487121582,36.85777305201368,29.64302688586846,26.725622858487345,48.80266464412209,-1.8130727018513042,9.907714965791996,-2.2799087200768575,51.366054546661374,0.36308181058132943,1.2579349359048775,11.275610107352733,1.1368809915000273,0.8131370479761042,-3.8180083319221794,0.503845084853809,28.12174666107808,29.986243008545873,46.25955661485987,-7.423703272664095,8.479775367936185
GUIDED_NOGPS,3.460129499435425,25.82127114679012,29.1820605986103,27.717040501584933,48.067242533677586,-1.6459518497227663,9.513691450830393,-2.189238202124141,51.64025580153276,0.4926252060922011,1.3406668828871262,11.764738736837565,1.2032790092356853,0.7787123359501172,-1.3156247369460732,0.5053595199017827,28.12174666107808,29.986243008545873,46.25955661485987,-7.423703272664095,7.62033867523995
GUIDED_NOGPS,3.4957942962646484,28.044289917090133,28.73465898619303,28.672416008937695,47.625045531894784,-1.391979343135101,9.125568154478572,-2.0999254099341425,51.917634285430836,0.6543372451290991,1.0178305212470689,12.051803903690384,1.23602753909449,0.7775673341713502,-2.8615367561044183,0.506438883130304,28.189570035282554,29.80603232982173,47.7256821581684,-6.6238165033059655,8.021409131831525
GUIDED_NOGPS,3.525376558303833,33.81167119444736,28.200255499687067,29.605572665941793,47.584291926954215,-1.1469796471483054,8.743599656739477,-2.012028926052963,52.19815056141065,0.8227134143618138,0.8091819024815193,12.2854347931189,1.2840986290623542,0.7580233836101551,-3.7388746288324652,0.5069207879516846,27.59793267882568,30.077363299567583,49.82953165166112,-6.3731050497372665,7.849521793292278
GUIDED_NOGPS,3.5602588653564453,28.679393906241454,28.660062230572528,29.932884126301644,47.716057952766064,-0.9587295545827459,8.368033338319478,-1.9256056763642846,52.481764221049495,0.9252333265040886,0.6756726216621033,12.50829447422631,1.216513975192753,0.910102000135713,-2.5408149782311042,0.5071485594024251,31.26931511659829,29.808538985027155,48.50596272428086,-5.138092075620562,7.276563998161455
GUIDED_NOGPS,3.590970277786255,32.56877072284385,29.289575921676565,29.8973433215979,48.16533917465027,-0.7530599030917091,7.9991090294432325,-1.8407108492765722,52.76843390227225,1.057109124894814,0.37220624962137894,12.724557900142775,1.1738193488809845,0.9818861388249733,-3.3114074674937664,0.5069046420914329,31.26931511659829,29.808538985027155,48.50596272428086,-5.138092075620562,6.818197762056797
GUIDED_NOGPS,3.6219675540924072,32.27008270821312,29.919089612780606,29.86180251689416,48.61462039653447,-0.5716166705670092,7.637058658668479,-1.7573978149102842,53.05811730717662,1.1552528601306675,0.26701600031789346,12.924147980521596,1.1705157313087349,1.022152148026008,-3.119336425785708,0.5066652453659632,31.26931511659829,29.808538985027155,48.50596272428086,-5.138092075620562,6.760901982543714
GUIDED_NOGPS,3.6611032485961914,25.558349125875193,30.535038629043754,29.862303847935245,48.77067650975696,-0.4030913352697323,7.282105901700717,-1.6757180442850483,53.35077121985842,1.2018629248004808,0.11352329353431255,13.083495440084347,1.1751636068177163,1.0319001981601614,-2.484071000488753,0.5068701420651522,31.26931511659829,29.808538985027155,48.50596272428086,-5.138092075620562,6.359831525952138
GUIDED_NOGPS,3.6744394302368164,75.04166890308268,31.26931511659827,29.808538985027155,48.505962724280906,-0.2542870472288191,6.9344658302081825,-1.5957210285068797,53.64635152423688,1.204246767542521,0.22385027198047072,13.120652522942864,1.1418433327675226,1.3031523385724566,-6.102572585195343,0.507710583199934,31.26931511659829,29.808538985027155,48.50596272428086,-5.138092075620562,6.187944187412891
GUIDED_NOGPS,3.703805685043335,34.063753238420865,31.26931511659827,29.808538985027155,48.5059627242809,-0.2120637367636105,6.594344560636557,-1.5174541979554093,53.9448132218799,1.2718320229883262,0.14655259425661327,13.18476580113448,1.1665481152741632,1.037655874055154,-1.255744917928498,0.5081582757463985,31.26931511659829,29.808538985027155,48.50596272428086,-5.138092075620562,6.016056848873644
GUIDED_NOGPS,3.7335410118103027,33.6416311078315,31.26931511659827,29.808538985027155,48.5059627242809,-0.08914159645683505,6.261938903023719,-1.440962841470995,54.2461104498293,1.3667382485575938,0.007712991120236899,13.356594577631784,1.1649667081053485,1.0500723786304031,-2.7265584981178055,0.5086102215883226,31.26931511659829,29.808538985027155,48.50596272428086,-5.138092075620562,4.698253920072751
GUIDED_NOGPS,3.7692179679870605,28.037915959196223,31.26931511659827,29.808538985027155,48.5059627242809,0.021983391980893337,5.937436009814704,-1.366290025542007,54.5501964984262,1.55473173494279,0.12061217611913955,13.630629451095512,1.164930835625604,1.055931785383091,-2.341715025367141,0.509066350661218,31.26931511659829,29.808538985027155,48.50596272428086,-5.138092075620562,4.297183463481175
GUIDED_NOGPS,3.7938175201416016,40.661787088830934,31.26931511659827,29.808538985027155,48.5059627242809,0.13743514035112508,5.621013024676287,-1.2934765134919957,54.85702382913619,1.5250312976672245,0.1829353044179787,13.710131145487168,1.1601204152739795,1.0831769406794354,-3.196491666601486,0.509526591657283,31.26931511659829,29.808538985027155,48.50596272428086,-5.138092075620562,3.380450991271857
GUIDED_NOGPS,3.8381731510162354,22.552689027734463,31.26931511659827,29.808538985027155,48.5059627242809,0.15648456206227765,5.312836731312061,-1.2225606846668846,55.16654409237465,1.6900260430131067,0.42347877217337215,13.785591929211115,1.1635339456038016,1.0738197345545868,-1.1208954270251432,0.5099908720521407,31.26931511659829,29.808538985027155,48.50596272428086,-5.138092075620562,0.9740282517223995
GUIDED_NOGPS,3.875194549560547,27.017843109467798,31.26931511659827,29.808538985027155,48.5059627242809,0.1895926927263441,5.013063202276953,-1.1535784536221811,55.47870814533205,1.6283932974289679,0.8003637013762098,13.806076520305629,1.1611185325807343,1.0914223641087857,-1.3879062202479862,0.5104591181315767,31.26931511659829,29.808538985027155,48.50596272428086,-5.138092075620562,-0.9167324722093172
GUIDED_NOGPS,3.9030985832214355,35.86499867461329,31.26931511659827,29.808538985027155,48.5059627242809,0.15012826882146824,4.721837447792211,-1.0865631893101657,55.793466069799194,1.567793831400205,0.9567735392656208,13.777178843700952,1.1574541058619017,1.1135537358817653,-0.18564976545733858,0.5109312550182774,31.26931511659829,29.808538985027155,48.50596272428086,-5.138092075620562,-1.5469860468532228
GUIDED_NOGPS,3.932710886001587,33.78198746758163,31.26931511659827,29.808538985027155,48.5059627242809,0.09102457486624072,4.439293064560218,-1.0215456342670919,56.11076718999254,1.567793831400205,0.9567735392656208,13.777178843700952,1.1567624314722207,1.1216494622962345,0.15734312524419314,0.5114072066985674,31.26931511659829,29.808538985027155,48.50596272428086,-5.138092075620562,-1.5469860468532228
GUIDED_NOGPS,3.9531478881835938,48.94741510094527,31.26931511659827,29.808538985027155,48.5059627242809,0.021556652503173852,4.165551884579088,-0.9585538238004077,56.43056009037943,1.5664732570128652,0.9714065792321385,13.725232693742065,1.1521493781232854,1.1472880944268276,0.8877184903380452,0.5118868960491478,31.26931511659829,29.808538985027155,48.50596272428086,-5.138092075620562,-1.8334649444186344
GUIDED_NOGPS,3.9922139644622803,25.605313602676336,31.26931511659827,29.808538985027155,48.5059627242809,-0.07784965939167124,3.9007236239577594,-0.8976130051759306,56.75279263350343,1.3769923902141927,1.3412154324548429,13.49757565851637,1.1562385905756527,1.1338071290368326,0.6032692444183633,0.5123702448638338,31.26931511659829,29.808538985027155,48.50596272428086,-5.138092075620562,-4.18259190445501
GUIDED_NOGPS,4.017197847366333,40.03268048715306,31.26931511659827,29.808538985027155,48.5059627242809,-0.2318937701587393,3.644905531730558,-0.8387455568050477,57.07741197780952,1.3624348024936628,1.3223602683641995,13.34153315673826,1.1520200946687007,1.15822104453573,2.543998964390874,0.512857173880293,31.26931511659829,29.808538985027155,48.50596272428086,-5.138092075620562,-4.870141258611998
GUIDED_NOGPS,4.053227663040161,27.763425628669584,31.26931511659827,29.808538985027155,48.5059627242809,-0.37570957996951587,3.398182038672104,-0.7819709074319121,57.40436459546948,1.3457597494087228,1.46416396015695,13.150846227942552,1.1535612548216467,1.1564376236495757,1.670719017641695,0.5133476028067828,31.26931511659829,29.808538985027155,48.50596272428086,-5.138092075620562,-5.557690612768986
GUIDED_NOGPS,4.093859434127808,24.61850538820933,31.26931511659827,29.808538985027155,48.5059627242809,-0.5658101929231837,3.160624406112106,-0.7273054553206713,57.7335962902071,1.3348086082916653,1.402311047693784,12.925017975867126,1.153601072460737,1.1626985396548337,2.1879802871826244,0.5138414503488893,31.26931511659829,29.808538985027155,48.50596272428086,-5.138092075620562,-5.500394833255903
GUIDED_NOGPS,4.12202000617981,35.52387566697722,31.26931511659827,29.808538985027155,48.5059627242809,-0.7951348617662702,2.932290374750238,-0.6747624874426457,58.06505221512346,1.3143066215591084,1.41634025624899,12.764756978502886,1.1509667918363073,1.1801332601708983,3.9616322503691634,0.5143386342362638,31.26931511659829,29.808538985027155,48.50596272428086,-5.138092075620562,-5.901465289847479
GUIDED_NOGPS,4.148547887802124,37.70432031067403,31.26931511659827,29.808538985027155,48.5059627242809,-0.9939678460371603,2.713223813470705,-0.6243520986635076,58.39867689052223,1.3734906376040918,1.4509300417532272,12.560728128937203,1.149502305472977,1.1914780954480952,3.993443636346904,0.514839071249362,31.26931511659829,29.808538985027155,48.50596272428086,-5.138092075620562,-7.16197243913529
GUIDED_NOGPS,4.178525924682617,33.36783904406558,31.26931511659827,29.808538985027155,48.5059627242809,-1.1974614583691128,2.5034543681573496,-0.5760811109305237,58.73441422173498,1.395339879150434,1.4264130777274664,12.33916362245116,1.1496102467724247,1.195773173865229,3.8567772939984133,0.5153426772461811,31.26931511659829,29.808538985027155,48.50596272428086,-5.138092075620562,-8.078704911344607
GUIDED_NOGPS,4.2101640701293945,31.619329061439878,31.26931511659827,29.808538985027155,48.5059627242809,-1.436370461210962,2.3029971105081586,-0.5299529924597195,59.07220751694639,1.4364854723191196,1.4503652704862318,12.051656200849582,1.1493609968602188,1.2020594908503364,4.482310781612541,0.5158493671889982,31.26931511659829,29.808538985027155,48.50596272428086,-5.138092075620562,-8.078704911344607
GUIDED_NOGPS,4.235841512680054,38.96169137591499,31.26931511659827,29.808538985027155,48.5059627242809,-1.6865066059218126,2.111852186850399,-0.485967776923097,59.41199950501955,1.4631993026583914,1.4293176156720142,11.921051884861537,1.1474370381158534,1.2154030185855274,5.91885933411533,0.516359055171108,31.26931511659829,29.808538985027155,48.50596272428086,-5.138092075620562,-7.792226013779196
GUIDED_NOGPS,4.2661967277526855,32.9554340310516,31.26931511659827,29.808538985027155,48.5059627242809,-1.8938270641917447,1.9300044669550402,-0.4441219826358278,59.7537323533213,1.4972698870640018,1.4503341077481435,11.606758168882461,1.148186201728316,1.216761552805791,4.5206637129564715,0.5168716544435606,31.26931511659829,29.808538985027155,48.50596272428086,-5.138092075620562,-8.193296470370772
GUIDED_NOGPS,4.290297746658325,41.507214250371106,31.26931511659827,29.808538985027155,48.5059627242809,-2.1534664293856087,1.7574231928519453,-0.4044085317434494,60.097347685547405,1.5102263290326927,1.4979123517328061,11.418454122333442,1.1463289139337711,1.229593762165119,6.837756607146543,0.5173870774418997,31.26931511659829,29.808538985027155,48.50596272428086,-5.138092075620562,-8.537071147449266
GUIDED_NOGPS,4.316406965255737,38.31114358786993,31.26931511659827,29.808538985027155,48.5059627242809,-2.356407465747953,1.5940616276442938,-0.36681666940906155,60.44278659954796,1.5148215522402304,1.4385703875632658,11.245689609919847,1.1464692974734505,1.2331276184526205,5.5188213195524405,0.5179052358129006,31.26931511659829,29.808538985027155,48.50596272428086,-5.138092075620562,-8.36518380891002
GUIDED_NOGPS,4.3508806228637695,29.021103469271964,31.26931511659827,29.808538985027155,48.5059627242809,-2.5563235003018137,1.4398567043236596,-0.3313318830005656,60.78998968515252,1.425622590052743,1.2327347395187038,10.934185172443074,1.1474624233303077,1.2337285691856492,4.831780003959568,0.5184260404413075,31.26931511659829,29.808538985027155,48.50596272428086,-5.138092075620562,-7.047380880109126
GUIDED_NOGPS,4.372502088546753,46.25849499840081,31.26931511659827,29.808538985027155,48.5059627242809,-2.79238595576159,1.2947286745847464,-0.2979358212777754,61.138897041995534,1.3075913716662222,1.162931486861643,10.803927488555408,1.1453511568880412,1.24755194411534,7.0,0.518949401476572,31.26931511659829,29.808538985027155,48.50596272428086,-5.138092075620562,-6.474423084978302
GUIDED_NOGPS,4.406216621398926,29.671500728646414,31.26931511659827,29.808538985027155,48.5059627242809,-2.942309137514382,1.1585807576400668,-0.2666062135797205,61.48944829734148,1.0482634963111186,1.1974194598585646,10.559309386073279,1.147100881193817,1.2445034439125293,4.487492614704504,0.5194752283595909,31.26931511659829,29.808538985027155,48.50596272428086,-5.138092075620562,-6.130648407899809
GUIDED_NOGPS,4.431057929992676,40.27717600061458,31.26931511659827,29.808538985027155,48.5059627242809,-3.161813954219488,1.0312987890350485,-0.23731678901179265,61.84158262391033,0.9591269663215134,1.1246478496768983,10.4867941214289,1.145843572057171,1.2545782798219114,6.89055459786886,0.5200034298494441,31.26931511659829,29.808538985027155,48.50596272428086,-5.138092075620562,-6.130648407899809
GUIDED_NOGPS,4.459720849990845,34.898150382320885,31.26931511659827,29.808538985027155,48.5059627242809,-3.313331066587101,0.9127508694623998,-0.2100371956328857,62.195238757702526,0.842379770138102,1.1663630165893397,10.42607288593384,1.146439241283377,1.256305573122766,5.289977122480934,0.5205339140501325,31.26931511659829,29.808538985027155,48.50596272428086,-5.138092075620562,-5.7868737308213145
GUIDED_NOGPS,4.4836671352386475,41.78176239714701,31.26931511659827,29.808538985027155,48.5059627242809,-3.462630423557427,0.8027870135772162,-0.1847329196427694,62.550355015824664,0.6635734751559546,1.2782790812345834,10.307544344398378,1.1457115712372063,1.2635937693062411,5.981271329149619,0.5210665884373157,31.26931511659829,29.808538985027155,48.50596272428086,-5.138092075620562,-4.469070802020421
GUIDED_NOGPS,4.515937805175781,30.995447827372153,31.26931511659827,29.808538985027155,48.5059627242809,-3.5327380968630764,0.7012387988117439,-0.16136520456907277,62.90686931431437,0.48654580412236087,1.2802803266613973,10.181678472147029,1.1470631841053132,1.2623298023964182,3.953891137152419,0.5216013598850502,31.26931511659829,29.808538985027155,48.50596272428086,-5.138092075620562,-1.604281826366305
GUIDED_NOGPS,4.54231333732605,37.924554233426164,31.26931511659827,29.808538985027155,48.5059627242809,-3.6102445893493673,0.6079190141900881,-0.13989097045463694,63.26471918596588,0.44376528778195623,1.2680905734270402,10.171712372374333,1.1466488968373456,1.268581154255349,4.435732113311747,0.5221381346925275,31.26931511659829,29.808538985027155,48.50596272428086,-5.138092075620562,-0.34377467707849396
GUIDED_NOGPS,4.576170444488525,29.543801815889385,31.26931511659827,29.808538985027155,48.5059627242809,-3.6322745995947736,0.5226213091432328,-0.12026273304466173,63.62384179815516,0.4469362031041347,1.2445925882480806,10.183852179850385,1.1476920110388948,1.268989656643136,3.3293812532318308,0.5226768186108114,31.26931511659829,29.808538985027155,48.50596272428086,-5.138092075620562,0.6302535746439055
GUIDED_NOGPS,4.601669549942017,39.2265980827683,31.26931511659827,29.808538985027155,48.5059627242809,-3.639629613372643,0.4451198423234928,-0.10242852297390925,63.984173970665246,0.500880236756102,1.3251384478091022,10.222934522281198,1.1473132232626995,1.2749291997395649,3.164611276090619,0.5232173168695765,31.26931511659829,29.808538985027155,48.50596272428086,-5.138092075620562,1.260507149287811
GUIDED_NOGPS,4.627938270568848,38.07811166591012,31.26931511659827,29.808538985027155,48.5059627242809,-3.599626337507807,0.3751689304196191,-0.08633180495389325,64.34565219351148,0.5339596433192672,1.4104504987503235,10.305584080106584,1.1477357497914424,1.2770981174487885,2.2260072892166805,0.5237595342038459,31.26931511659829,29.808538985027155,48.50596272428086,-5.138092075620562,3.0939720937064457
GUIDED_NOGPS,4.661206245422363,30.064755678845092,31.26931511659827,29.808538985027155,48.5059627242809,-3.5340998426313535,0.3125026969714213,-0.07191139696010396,64.70821264476687,0.6041386097415317,1.3788945978980414,10.39613275170709,1.148770761489717,1.2774635048361227,1.9540243925891154,0.524303374880729,31.26931511659829,29.808538985027155,48.50596272428086,-5.138092075620562,4.010704565915763
GUIDED_NOGPS,4.6933064460754395,31.16680537391511,31.26931511659827,29.808538985027155,48.5059627242809,-3.427386177384991,0.25683472118470263,-0.0591013894191974,65.07179120838725,0.7070451212629999,1.4524309758233374,10.604954686522827,1.1492756733642167,1.2801499390115907,1.1662610009262866,0.5248487427261596,31.26931511659829,29.808538985027155,48.50596272428086,-5.138092075620562,4.92743703812508
GUIDED_NOGPS,4.717302322387695,41.688738693966805,31.26931511659827,29.808538985027155,48.5059627242809,-3.3031766168005556,0.20785768674602423,-0.04783106439614215,65.43632349203668,0.7182380404045053,1.5809554992091135,10.701663334981038,1.1492731728626944,1.284024249148147,0.13857589368325396,0.5253955411516337,31.26931511659829,29.808538985027155,48.50596272428086,-5.138092075620562,5.213915935690491
GUIDED_NOGPS,4.751346111297607,29.383193807138603,31.26931511659827,29.808538985027155,48.5059627242809,-3.190930248894765,0.16524303063738444,-0.03802481478150099,65.80174484491266,0.8372604366334716,1.6576461438704861,10.950111466040251,1.1504895592933677,1.2836327182204956,0.9766309445596264,0.5259436731809477,31.26931511659829,29.808538985027155,48.50596272428086,-5.138092075620562,5.844169510334397
GUIDED_NOGPS,4.774695158004761,42.840549512282315,31.26931511659827,29.808538985027155,48.5059627242809,-3.014840598815977,0.12864059195106847,-0.02960206347858474,66.16799037557135,0.9098650807064427,1.6648524203316728,11.116443647802988,1.1505520448415112,1.2870890740752081,-1.3134814995202144,0.5264930414769357,31.26931511659829,29.808538985027155,48.50596272428086,-5.138092075620562,6.818197762056797
GUIDED_NOGPS,4.809208154678345,28.98420288853569,31.26931511659827,29.808538985027155,48.5059627242809,-2.86467909544253,0.09767826070472552,-0.022477182590705524,66.53499496975306,0.9018381143277967,1.745811079450657,11.400698191812348,1.1517763312230296,1.2867271822142698,0.13809879266065206,0.5270435483682082,31.26931511659829,29.808538985027155,48.50596272428086,-5.138092075620562,7.906817572805361
GUIDED_NOGPS,4.840236186981201,32.240564514889236,31.26931511659827,29.808538985027155,48.5059627242809,-2.63475274842295,0.07196162665582051,-0.016559412608266655,66.90269330820723,0.9155507863036552,1.7294088070456946,11.647216794431033,1.15244806866506,1.2884577295246067,-1.6247852030212515,0.5275950958758895,31.26931511659829,29.808538985027155,48.50596272428086,-5.138092075620562,8.193296470370772
GUIDED_NOGPS,4.871797323226929,31.69339579870032,31.26931511659827,29.808538985027155,48.5059627242809,-2.420345023775183,0.05107362811645544,-0.011752781596044315,67.27101988451798,0.9782775360937598,1.6804880040023014,11.897498831282395,1.1532650492793084,1.2895972705896488,-1.5054979503961123,0.5281475857403556,31.26931511659829,29.808538985027155,48.50596272428086,-5.138092075620562,8.36518380891002
GUIDED_NOGPS,4.899448394775391,36.18056190533698,31.26931511659827,29.808538985027155,48.5059627242809,-2.185799008572656,0.034574200768417995,-0.007956024380384008,67.63990902292923,0.9887560067759114,1.6366646565138532,12.11131192683412,1.1539218772842326,1.290866967081945,-2.5895994172292927,0.5287009194479725,31.26931511659829,29.808538985027155,48.50596272428086,-5.138092075620562,8.708958485988513
GUIDED_NOGPS,4.933710336685181,29.19381085953324,31.26931511659827,29.808538985027155,48.5059627242809,-1.9680680412484701,0.02199992647780391,-0.00506250173637568,68.00929489617006,1.0254399923126978,1.581635529918353,12.396836886029101,1.1549315657371115,1.2915177240154256,-1.7223076791303007,0.5292549982578337,31.26931511659829,29.808538985027155,48.50596272428086,-5.138092075620562,9.281916281119337
GUIDED_NOGPS,4.961684226989746,35.75371448542762,31.26931511659827,29.808538985027155,48.5059627242809,-1.6727675758340554,0.012863682110037189,-0.0029601195751354226,68.37911154327989,1.1177483981198333,1.3602174456126415,12.757610039310114,1.1556408732040462,1.2925995063957323,-4.113398565594316,0.5298097232284985,31.26931511659829,29.808538985027155,48.50596272428086,-5.138092075620562,10.198648753328653
GUIDED_NOGPS,4.994019508361816,30.93258600980862,31.26931511659827,29.808538985027155,48.5059627242809,-1.4205661860050955,0.006654288344009274,-0.001531248130774543,68.74929288743391,1.1959670841645846,1.263797799533687,13.089237921629035,1.1565599968713591,1.2933210701945836,-3.0227523383841195,0.5303649952447295,31.26931511659829,29.808538985027155,48.50596272428086,-5.138092075620562,10.771606548459477
GUIDED_NOGPS,5.018991231918335,40.06250596977859,31.26931511659827,29.808538985027155,48.5059627242809,-1.1178381034563711,0.0028361584878098256,-0.0006526411478517957,69.11977275376817,1.3228613267728435,1.1300364420452151,13.426469974161952,1.1572359776451695,1.2940929245846255,-5.423590922260132,0.5309207150442309,31.26931511659829,29.808538985027155,48.50596272428086,-5.138092075620562,11.229972784564136
