Mode,Time,Freq,North-Vision,East-Vision,Down-Vision,Yaw-Vision,North-Desired,East-Desired,Down-Desired,Roll-UAV,Pitch-UAV,Yaw-UAV,Roll-Control,Pitch-Control,Yaw-Control,Thrust-Control,northVraw,eastVraw,downVraw,yawVraw,zGyro
GUIDED_NOGPS,0.00393223762512207,255.81263722859234,8.826359383900671,0.6040719600555841,71.9604881077634,4.441360554430343,8.639689560283184,-5.61442635044185,64.12960334970143,-1.4215654576857555,2.4510921442779425,14.410695110918912,2.0,-0.2660373412027481,-0.4441360554430343,0.48825367286290705,8.826359383900671,0.6040719600555841,71.9604881077634,4.441360554430343,-3.20856365273261
GUIDED_NOGPS,0.009032726287841797,196.21556886227546,8.420596529248378,1.2369061229214906,72.68411619922801,4.390151856703341,8.639663704545038,-5.61440954831759,64.12961670154776,-1.4126155619955116,2.336636529921923,14.386178146893151,0.674146608065665,0.3132787163249401,-0.4390151856703341,0.48716825075347964,8.014833674596083,1.869740285787397,73.40774429069263,4.338943158976337,-3.0939720937064457
GUIDED_NOGPS,0.04239535331726074,29.983515265893185,7.976694782270132,2.181043108452008,73.93401626025933,4.288201387354423,8.639484800897652,-5.614293289354225,64.12970962807525,-1.222479530645047,2.2312159751773613,14.268050878971428,0.38310414791944525,0.07990398045976464,-0.42882013873544234,0.48529354005172387,7.088891288313642,4.069317079513043,76.43381638232195,4.084300448656589,-3.6096341093241864
GUIDED_NOGPS,0.08037781715393066,26.333394024247067,7.379916532785098,3.794246765923758,75.96450938711781,4.213874143875415,8.639005501244387,-5.613981820685788,64.12996023373714,-0.9199010831964244,1.793699670155732,14.065439293658523,0.49173279168175354,0.11305107029683864,-0.42138741438754157,0.482248176269929,7.036024635445572,5.443682932470835,78.05196748833893,3.9908924134383934,-3.151267873219528
GUIDED_NOGPS,0.12732744216918945,21.30331919648526,6.753888686164795,5.970966123393382,77.70533692041442,4.165459087879939,8.638084598463168,-5.613383380104677,64.13044502892626,-0.44254284400308264,1.2996067738047714,13.858815825981882,0.5852681357475616,0.12887304143338266,-0.4165459087879939,0.47963766216276776,6.1367501347351725,8.39989835819627,78.63022689058245,3.9717988638980337,-2.7501974166279517
GUIDED_NOGPS,0.16495275497436523,26.585938490403386,6.408816158973873,8.122030791554245,79.26072657156361,4.057685280471985,8.636586941703392,-5.6124101410180955,64.1312389407824,-0.11008917580525064,0.9481956754417311,13.762255734138119,0.7015301318796476,0.12584584412193672,-0.40576852804719854,0.47730576855382817,6.053673706740875,10.522511083995626,81.09998533576945,3.902491517390576,-2.119943841984046
GUIDED_NOGPS,0.19540119171142578,32.85398503896918,7.215567379301812,12.357065196736878,80.20033451389135,3.952739491712882,8.634383351682828,-5.610978157404483,64.13241532399931,0.09189464575382093,0.6739669953603041,13.693981163194673,1.169882674627981,-0.05357704052525498,-0.3952739491712882,0.47589812121516195,9.456278296429389,18.148786148018733,80.87079131532217,3.814214215180823,-2.3491269600363753
GUIDED_NOGPS,0.2220778465270996,37.499029959499694,8.322076766533216,15.606694460011033,80.94718932213793,3.898722245017729,8.631350535984517,-5.609007308769955,64.13404597163202,0.21903297424341509,0.6343168934547339,13.66510739225209,1.1861068185986035,-0.1466854136698864,-0.38987222450177295,0.47478028497424113,9.456278296429389,18.148786148018733,80.87079131532217,3.814214215180823,-2.0053522829578814
GUIDED_NOGPS,0.25910425186157227,27.014710807677446,9.12162834812843,19.093095267644298,81.00055458767282,3.8440526052256034,8.627371004353675,-5.606421245104736,64.13620112590397,0.44200880858735225,0.4574645128228862,13.59717945340902,1.2308720747808644,-0.10619362898895485,-0.38440526052256035,0.47470346980734673,8.452328451526512,20.981713506895417,81.26008113237415,3.7175442144777606,-2.2345354010102105
GUIDED_NOGPS,0.29575395584106445,27.292451847995835,10.7426678142414,21.02539865923737,82.57292622584428,3.671275884950981,8.622332983994601,-5.603147331839604,64.13894948901421,0.8070830600547685,0.007109586595748585,13.504582578831158,1.1532624250723469,-0.2629213059414665,-0.36712758849509813,0.4723490348947549,14.319396694768303,23.94569632279796,85.58790622983655,3.1079152625249233,-1.2032113697747289
GUIDED_NOGPS,0.3259902000427246,33.07993343481107,12.48481705254776,20.670287585984582,85.26054894840219,3.4441477713831086,8.616130334867577,-5.5991165948023145,64.1423582339446,0.9973821088108143,0.0006676509913687464,13.448971178608913,0.9080711839072555,-0.38513110795070604,-0.34441477713831087,0.4683227139283136,14.682726011348466,17.083452928260357,88.93365948299589,2.7668509495512144,-2.0626480624709638
GUIDED_NOGPS,0.36144351959228516,28.22698395606762,14.1893370836902,23.038454822124674,86.32445407859348,3.389283875776423,8.608662464985763,-5.594263665174047,64.14649301526701,1.2407521009438294,-0.28567244859237173,13.36428024799534,1.2771752779612522,-0.41692552670221494,-0.3389283875776423,0.4667330584050103,13.56588854495384,28.086215215315693,84.45179652294802,3.5398947371473963,-1.1459155902616465
GUIDED_NOGPS,0.40028977394104004,25.74519384222544,15.027508859235958,24.28667855471302,86.83094924494151,3.2475264229315775,8.599834245712112,-5.588526724445838,64.15141797995044,1.2988090290540553,-0.33092351906076406,13.349826713937947,1.1974008403919147,-0.34454699918249393,-0.32475264229315776,0.4659807031025134,16.833912021405574,27.690367520563,87.10739172888067,3.1054269509565953,-0.7448451336700702
GUIDED_NOGPS,0.435896635055542,28.091622685991375,10.459627503812811,26.047548824018538,86.9079407104672,3.143555505541628,8.58955592705626,-5.581847449375015,64.15719577816827,1.4173812197671822,-0.5740687552814034,13.295122875101669,1.3239688511202656,0.43676476946389503,-0.31435555055416287,0.4658738826015516,0.9790819450790235,22.366063736176905,89.16463387957299,3.197689627528013,-0.7448451336700702
GUIDED_NOGPS,0.4706454277038574,28.784693198273317,6.660757459400949,24.180712146871866,89.97041096410919,3.0781640638906196,8.577743052971442,-5.574170956941637,64.16388757410549,1.3920725941279348,-0.549777721106782,13.243453347804168,0.8860371059644245,0.5118438711934932,-0.307816406389062,0.46129021491499445,2.169278411718252,22.485705183875673,93.63920728387401,2.780958054269879,-1.604281826366305
GUIDED_NOGPS,0.5085620880126953,26.37976817172651,1.4923156787574523,22.788772438385266,92.4313098723054,3.053210694001016,8.564316376651382,-5.565445749304925,64.17155305676577,1.4396410197156655,-0.5320170948306332,13.237473517185823,0.8965100721769318,0.8310933229410954,-0.3053210694001016,0.45761036477669054,1.328586679475082,23.514548395103205,94.4900884534693,2.6420841001031956,-0.2864788975654116
GUIDED_NOGPS,0.5432326793670654,28.85280905832743,1.2322961807062112,23.67832234311919,94.46752120616947,2.851785633062165,8.549201775827203,-5.555623658759707,64.18025045077873,1.5105145843600085,-0.6310281573693727,13.203290127937201,1.1537041365241736,0.32083000368986087,-0.2851785633062165,0.4545690938669139,0.19902345092530055,25.03471345037867,95.27326788116517,2.532769432453138,-0.2291831180523293
GUIDED_NOGPS,0.5849556922912598,23.971012836192806,0.5813784436985868,24.909255301678666,95.33671821834487,2.7330425241592535,8.532330168064329,-5.544659792692846,64.19003652720714,1.5006782581815439,-0.49990005124935233,13.186431513518317,1.2133071277763632,0.3791925368864935,-0.2733042524159254,0.4532799774632934,0.2165252006953791,26.17850405955409,96.2467983204003,2.5117114064420405,-0.6302535746439055
GUIDED_NOGPS,0.6247885227203369,25.11183355785062,0.21069128410535254,25.79724052316229,95.92228817398855,2.5958468799420586,8.513637426059383,-5.53251247853968,64.20096661435404,1.4704111286482786,-0.2204836290498891,13.181714414122776,1.220213447833404,0.36835184843902347,-0.25958468799420586,0.45241801766054823,0.2165252006953791,26.17850405955409,96.2467983204003,2.5117114064420405,-0.5729577951308232
GUIDED_NOGPS,0.6616024971008301,27.170636591543637,-0.31482380068134735,27.131901792525568,96.4857390502072,2.5474511447997648,8.493064292937092,-5.519143208740459,64.21309460857002,1.436809479417872,-0.16703398369995434,13.169358601914224,1.3185206012781954,0.4082203380446415,-0.2547451144799765,0.45159103333754425,-1.3775218034347991,29.038697258468503,96.96362050982111,2.538979378558409,0.40107045659157625
GUIDED_NOGPS,0.6952154636383057,29.756122477936376,-0.6754738768987525,28.540509684871694,96.84512995834602,2.529029623355179,8.470556297547192,-5.504516585696781,64.2264729850603,1.4099786820890636,0.026982875759546936,13.190032730758206,1.3897374008408867,0.4074425170918766,-0.2529029623355179,0.4510720145400714,-0.8654250279568363,30.404327736592464,97.32497104481672,2.5499764928802677,0.2864788975654116
GUIDED_NOGPS,0.7336814403533936,26.00280219712093,-0.9699442679537803,30.28296925352963,97.40990992445802,2.5271084971266218,8.446063669761331,-5.488600266728024,64.24115280869201,1.3911302414658846,0.0666692630450829,13.205684963014937,1.4662716304076187,0.406617613381824,-0.25271084971266217,0.45024686432635097,-0.6668859724697039,31.40588276552789,97.94113821873631,2.5231638013103512,0.5156620156177409
GUIDED_NOGPS,0.7752704620361328,24.050459872932866,-1.0208435901367132,31.91489936586385,98.01255761678453,2.53242379297552,8.419541255769964,-5.471364909027789,64.25718374480134,1.3962458397108126,0.11484749645964878,13.254530207090637,1.5036350611257985,0.38216595077010496,-0.253242379297552,0.4493669391920252,-1.5302197699835987,33.93448759547116,98.77156358680065,2.538287885686532,1.3750987083139758
GUIDED_NOGPS,0.8064827919006348,32.052576476611875,-1.4625022439735718,33.60387142116993,98.53950532221192,2.5594362246409252,8.390948433379263,-5.452784114620335,64.27461407000075,1.4116134451782238,0.11341102229983047,13.310494215828783,1.6192508309857792,0.45004505879124423,-0.2559436224640925,0.44860266312168323,-2.1904009894674115,35.47124390251071,98.90581416109885,2.6467735647690684,1.948056503444799
GUIDED_NOGPS,0.8416991233825684,28.39610851212197,-2.4230411819888467,35.25790093536336,98.97384151048107,2.5749395824535166,8.360249027308019,-5.432834375317009,64.29349068298612,1.4649805946495895,0.041748037197822,13.364057413073668,1.6499059023722689,0.53846265692056,-0.25749395824535165,0.4479794737587576,-3.548502786515528,36.36797130810818,99.24414678354378,2.6164961676213654,1.7188733853924698
GUIDED_NOGPS,0.8767595291137695,28.532486173563445,-3.095802187499489,36.069062172909035,99.13136924272878,2.5882435174017364,8.327411224484537,-5.411495017672691,64.31385911534396,1.5243700499782025,0.008973587908927378,13.445631216104777,1.596059492296781,0.5333935111812775,-0.25882435174017365,0.4477737348089228,-3.548502786515528,36.36797130810818,99.24414678354378,2.6164961676213654,2.0626480624709638
GUIDED_NOGPS,0.911658525466919,28.661755661550657,-3.2725225508639713,36.733621467751504,99.69951778884608,2.6237200065243607,8.292407489343551,-5.388748147942224,64.33576354235863,1.5333325388297285,0.055344382514378634,13.557742794915013,1.6056000591637674,0.4825819702737832,-0.2623720006524361,0.44695436863026883,-2.7205620795608576,37.46492178703813,100.61025979945074,2.7005462469234724,2.7501974166279517
GUIDED_NOGPS,0.9498846530914307,26.166156149599175,-3.1139602351242304,37.580102710558336,100.15891009283307,2.6721667280374506,8.255214479123117,-5.364578597036854,64.35924679381947,1.5177879887741317,0.09212879317630543,13.695167054789316,1.6477204373114538,0.43841359605313873,-0.26721667280374506,0.4463005050514796,-3.0728158392963065,38.907415036528676,100.62232369550476,2.780521493251984,3.4377467707849396
GUIDED_NOGPS,0.9789564609527588,34.41197850432785,-3.0375319905251743,38.66059940802073,100.70767715023845,2.7115633123778156,8.215812959161516,-5.338973865480663,64.38435036482801,1.5174790294358944,0.12744151151550603,13.770218027163063,1.7403571677589273,0.4386131779423582,-0.27115633123778154,0.44551500982188436,-3.319218052718358,39.60946140049537,100.89044795575995,2.8437564864708933,3.151267873219528
GUIDED_NOGPS,1.0098752975463867,32.35197383644694,-3.625410894347681,39.64896748386343,100.76489001419316,2.765573771410616,8.174187718194162,-5.311924068367011,64.4111144266052,1.5246084662689183,0.12785644550758432,13.805452411770219,1.7580795855613376,0.5480349859765061,-0.2765573771410616,0.44546933661861804,-4.484198791028376,40.43002601456624,100.78189839131491,2.886548462785368,2.5783100780887045
GUIDED_NOGPS,1.0505197048187256,24.60810588815095,-4.137099290654148,40.402784534626356,100.83591679992311,2.8342389007761786,8.1303274836505,-5.283421880314964,64.43957783729854,1.5047438215632882,0.2346665168614206,14.027791290953413,1.7369530644907123,0.5418148889029425,-0.28342389007761787,0.4454054915560631,-4.607881028215708,41.168866188817454,100.83540405269464,2.9598218144491777,3.896113006889598
GUIDED_NOGPS,1.0869638919830322,27.446759501622868,-4.490994053694274,41.21145554333884,100.79783442467273,2.9155296346268287,8.08422483695091,-5.253462480425738,64.46977815278932,1.5039830025227723,0.3955426581377853,14.163516541271674,1.7802041381683127,0.5428673265665547,-0.2915529634626829,0.4455079155921749,-4.380902341838737,42.03547442663283,100.77620083000883,3.106999916176723,4.010704565915763
GUIDED_NOGPS,1.1161515712738037,34.27447006717113,-4.70727843840822,42.033380977087596,100.74051849594882,2.9955963625669564,8.035876128803608,-5.222043497239133,64.50175163749974,1.5615511452205189,0.421769730776988,14.288138465320435,1.8285572369609546,0.538595303073457,-0.2995596362566956,0.4456418497123264,-5.133051945170213,42.8958023158125,100.60995060514314,3.180855132952624,4.1252961249419275
GUIDED_NOGPS,1.159499168395996,23.07148672138001,-4.971218294910344,42.748077278885006,100.8887919774652,3.0786057482186213,7.985281394501554,-5.189164953689964,64.53553327520018,1.576727932277993,0.5645266608457783,14.469127379268372,1.8151953069421918,0.5446051402047863,-0.30786057482186213,0.44547011194660247,-5.399700597722079,43.312955094209684,101.2802244972438,3.258803414729217,4.5263665815335035
GUIDED_NOGPS,1.1974122524261475,26.382091166980118,-5.887077478246334,43.50910180998998,100.93509841566363,3.1724202475312326,7.932444269219345,-5.154829212064509,64.57115677981633,1.6111780190693623,0.6208548040440502,14.662980100744381,1.8556901813230104,0.6512570273073185,-0.3172420247531233,0.44545408754622906,-7.128479891846707,44.31854801994775,100.91512014460415,3.355620959348428,4.583662361046586
GUIDED_NOGPS,1.2286882400512695,31.985358264954396,-6.257036757676297,44.10230952813284,101.180161585005,3.291602404598206,7.877371903310127,-5.119040918956932,64.60865460623641,1.6486087363815014,0.5662794581415328,14.78245718480083,1.8726938002259461,0.6136649920948269,-0.3291602404598206,0.44514273953184713,-6.242929783460104,44.67542547024106,101.34514011316716,3.5557325997840445,3.9534087864026803
GUIDED_NOGPS,1.2640252113342285,28.310051567266935,-6.902783409946498,45.412803069111796,100.96953701526071,3.4566870573702886,7.820074877602492,-5.081806950225729,64.64805796111834,1.6796617645561414,0.47759051898597504,14.916405732161241,1.9845532135444914,0.6634135038313923,-0.3456687057370289,0.44551778141878645,-7.336940554532686,47.24443571714655,100.64835078801097,3.9324231800371323,4.583662361046586
GUIDED_NOGPS,1.3016383647918701,26.592006492189086,-7.5348453210265305,46.67405196515954,100.56399642076964,3.5997055188559512,7.760567118697383,-5.043136355950159,64.68939681369692,1.7029831253120324,0.4743824645101847,15.148413597888235,2.0,0.6813712917545883,-0.3599705518855951,0.4461881005893909,-9.024665625086802,48.102294708090966,99.69849836113094,3.8959474403809358,5.271211715203574
GUIDED_NOGPS,1.3385255336761475,27.11705910495623,-7.615797711965357,47.81383020362622,100.33919579281716,3.7997899525109373,7.698865814264994,-5.003040305386684,64.73269990659107,1.6941764501509473,0.5919436805044441,15.327192091866026,2.0,0.6240334159440712,-0.37997899525109374,0.44659025617066084,-6.485786956276585,48.0947601856411,100.67073822930966,4.259225583004148,4.354479242994256
GUIDED_NOGPS,1.3766276836395264,26.249672998091185,-7.68369487104269,48.131317318167696,100.45584884735877,3.9974340871452165,7.634991328341674,-4.961532031925403,64.77799476661095,1.7268200586285538,0.5503414251567196,15.529522785649315,1.9799997971117782,0.6230862856753966,-0.3997434087145217,0.44648321887887826,-7.540632031764688,48.19689706077099,100.99830995163582,4.343841632519823,4.5263665815335035
GUIDED_NOGPS,1.4072294235229492,32.68552013278991,-7.971661780015587,48.07958153701306,100.94698996047532,4.141057075172094,7.568967116626833,-4.918626778046488,64.8253077155652,1.7714164981536829,0.4443868349964274,15.675482220665193,1.9412285776328992,0.6610236682934549,-0.41410570751720943,0.4458174766326348,-9.888566352005496,47.94708736462706,101.17192170048061,4.273847539918436,5.099324376664327
GUIDED_NOGPS,1.4455289840698242,26.115487590750035,-9.177634981995743,47.92173959886582,101.21363480679736,4.2264886907676855,7.500819641779837,-4.874341740276624,64.87466388106812,1.7680487880060434,0.5873902922055728,15.855531129828607,1.9278670801815383,0.7972102111338851,-0.4226488690767686,0.44549154361140614,-10.103706562217047,47.62123437119935,101.47067276827578,4.359581258015086,4.411775022507339
GUIDED_NOGPS,1.4809954166412354,28.20610348213205,-10.79603205469261,47.36995685660991,102.09777271268915,4.258788118786052,7.430578288716918,-4.8286960141454385,64.92608720734682,1.8391981215381257,0.4276153054894611,16.002807083807006,1.8663160890231822,0.9156297567430548,-0.4258788118786052,0.4442424717419865,-12.395823249855292,46.54154883400327,103.65072366931116,4.0574445804727715,4.297183463481175
GUIDED_NOGPS,1.5178229808807373,27.15621135505759,-11.897447260584078,46.9784726327105,103.05836794716943,4.199771955447732,7.358275279908069,-4.781710539141946,64.97960046604847,1.8122269851662147,0.5147964803857386,16.150928273695197,1.8702449609289222,0.8940932748438246,-0.4199771955447732,0.44288184877831854,-13.192811969679903,46.77263469292886,104.05370740392148,3.9641447663125486,3.896113006889598
GUIDED_NOGPS,1.5578157901763916,25.011055588021325,-13.09807255847285,47.00174430582617,103.71992153646106,4.175288924533094,7.283945590673955,-4.733408043670976,65.03522526704741,1.8850143901603365,0.39099417903737993,16.31940171976273,1.9117021569517723,0.9410170791217565,-0.4175288924533094,0.4419729555958795,-13.705582455883368,47.69104939054635,103.45533353615063,4.2214264779466335,3.8388172273765155
GUIDED_NOGPS,1.5872035026550293,34.03611104348744,-13.744358438646453,47.320258554120585,103.72928343331886,4.167207929956144,7.207626864482812,-4.683812990009619,65.09298206925244,1.875051065151992,0.6204624950535977,16.42992101072271,1.9581950119439364,0.9300748617377397,-0.4167207929956145,0.4420455479539004,-14.3346808903761,47.497091578886526,103.67880935988458,4.233442567033688,3.2658594322456924
GUIDED_NOGPS,1.6227085590362549,28.17465136899804,-14.079776358051632,47.63616776347984,103.57816896755351,4.162261860192604,7.129359328247343,-4.632951519263651,65.15289019141393,1.9273464085321947,0.4897595682094106,16.522207111693334,1.9630206688994638,0.8918364958861436,-0.4162261860192604,0.4423620818357906,-14.199065727895437,47.72036232100661,103.60036400662545,4.3348509091973835,2.6929016371148693
GUIDED_NOGPS,1.66282057762146,24.935816032912417,-14.25980415204337,47.75688766033764,103.55208235714916,4.256935611339179,7.04918570762163,-4.5808513963239825,65.21496782293103,1.9208436415555195,0.5106725402309318,16.656230791134618,1.9467295789763301,0.8777382302544426,-0.4256935611339179,0.4424943281986728,-14.245665837858581,48.05320908111973,103.37707370493757,4.530813336205646,3.151267873219528
GUIDED_NOGPS,1.6998615264892578,27.004622773921888,-13.908050281492178,48.25590214736123,103.40457113051347,4.545653984818763,6.967151142298036,-4.527541954823086,65.27923203465886,1.8789045725043485,0.7725966345225808,16.757273194621202,2.0,0.80426003841154,-0.4545653984818763,0.44281199135621807,-13.279419278722518,48.99413503995729,103.23627567997747,5.4077366337104715,2.177239621497128
GUIDED_NOGPS,1.7411842346191406,24.204796749844185,-13.29502566168273,48.821197585105345,103.12800215591733,4.816236015872773,6.883303101304099,-4.473054042091431,65.3456987897157,1.9343479927616924,0.6713866779579203,16.81245258537844,2.0,0.7567773396376659,-0.48162360158727735,0.44332654495069757,-12.359991868467102,49.41624863423893,102.770657082837,5.574336633216683,1.5469860468532228
GUIDED_NOGPS,1.7750945091247559,29.496638442712875,-12.964187682886026,49.338176458242934,103.05220671285504,5.085574490130126,6.797691298299441,-4.417419964113932,65.41438295429018,1.902085594217137,0.8108271242978462,16.875423514431375,2.0,0.7592013143332367,-0.5085574490130126,0.4435432643621527,-13.253151901468462,49.6041457005325,103.14968737575073,5.580134938320456,1.7188733853924698
GUIDED_NOGPS,1.817875623703003,23.38157594001728,-13.105524127596468,49.7545062962125,102.89703762977793,5.360472469379223,6.710367606872673,-4.36067343048637,65.48529830844848,2.0217383422013016,0.5794465687574364,16.878399769362208,2.0,0.8162653642674497,-0.5360472469379224,0.4438823910180058,-13.70342861285384,50.24312455386598,102.7707684307461,5.709340805442871,0.5729577951308232
GUIDED_NOGPS,1.863361120223999,21.988948654231283,-13.868520306126163,49.859955375446695,102.92261657042188,5.592938725947091,6.62138597583829,-4.302849499371841,65.55845755694149,2.008539428517075,0.7501545539006229,16.914430724781315,2.0,0.898162362027343,-0.5592938725947091,0.4439537614797794,-14.648980404056186,49.73259587194154,102.84739390476884,5.693144619044984,0.11459155902616465
GUIDED_NOGPS,1.909925937652588,21.479950426597565,-16.080496460338647,50.057912916291684,102.35783523246226,5.55457446547823,6.53080234453358,-4.2439845224571835,65.63387234001202,2.0662528194563903,0.5316471973983947,16.915555998447076,2.0,1.1072244880467879,-0.555457446547823,0.44491405566132464,-19.889080364105926,50.198018323067465,101.45534336187187,5.215915331366161,0.17188733853924698
GUIDED_NOGPS,1.9544103145599365,22.48462268348513,-19.65644931246695,50.210778725583545,101.63694612634573,5.302105957282905,6.4386745581155225,-4.184116089909422,65.711553244202,2.0456384547676456,0.6911987088626,16.923193857486442,2.0,1.3797461605029444,-0.5302105957282904,0.4461119106767844,-24.431287169238743,50.701721981741585,100.60810111239651,4.311994092240053,-0.34377467707849396
GUIDED_NOGPS,1.9971656799316406,23.395530963085264,-23.846350743670982,47.45048413986975,104.74787019344153,5.013730125215895,6.345062282857693,-4.123282975332195,65.7915098131596,2.0318884301947637,0.7088933811245759,16.894326062959383,1.692074140221045,1.6131939657057464,-0.5013730125215895,0.44156545942957715,-27.218684697668284,41.451712114800124,112.18016610605623,4.138255777985411,-0.34377467707849396
GUIDED_NOGPS,2.0301513671875,30.324508003528205,-26.79966991269598,44.819616829429435,109.18707824104354,4.716872832443328,6.2500269214471675,-4.061525080722203,65.87375055844655,2.023313341135224,0.7131125170409397,16.886515741643475,1.53989359276076,1.6926117492812058,-0.47168728324433284,0.4350300084761045,-28.74903787118092,42.305416391746505,114.77296750467795,4.225054341580034,0.0
GUIDED_NOGPS,2.0694377422332764,25.459061470011594,-28.238920146676705,42.02084829943108,113.908700371804,4.423254776950339,6.153631528281418,-3.9988833814256313,65.95828297034517,1.9865101474530797,0.7072035496352325,16.8465591349989,1.4703694715851905,1.5377291318751292,-0.4423254776950339,0.4280743738978118,-28.74903787118092,42.305416391746505,114.77296750467795,4.225054341580034,-1.088619810748564
GUIDED_NOGPS,2.1055359840393066,27.714444297608036,-29.15806378291042,42.24255236092202,113.09082848254322,4.20936140537301,6.0559407247652235,-3.935399871094598,66.04511352866568,1.909017382451054,0.977614794300857,16.808830877571044,1.755434624075836,1.5271341766696205,-0.42093614053730105,0.4294314275691837,-29.97611560636943,42.116824299272935,109.7265504382739,4.146448473479521,-0.9740282517223995
GUIDED_NOGPS,2.1417338848114014,27.634101989721966,-28.718523917833096,42.62846956782094,111.12113815421992,4.243061664629483,5.957020614607568,-3.871117506643583,66.13424771355336,1.867853753314091,0.9619939382256262,16.759689374040093,1.7845834257836046,1.3554765401673838,-0.42430616646294833,0.43251966433900013,-27.430418275948934,43.46316801244329,108.86389651970804,4.480495388522416,-1.088619810748564
GUIDED_NOGPS,2.1802079677581787,25.99796692534649,-28.21763708588102,43.62399032872569,108.09758043785295,4.408336287729752,5.856938699118542,-3.8060801532058672,66.22569001629572,1.7958479780931127,1.0281829535946927,16.71450255003858,1.874080207211367,1.330302562546231,-0.4408336287729753,0.43719216436766417,-27.24637737532468,45.29197867446077,105.70229435557698,4.9646288934867595,-1.1459155902616465
GUIDED_NOGPS,2.223731756210327,22.981606184968246,-26.58677850391291,44.236058013695526,107.48150475781301,4.532100381380403,5.755763792506249,-3.7403325290899687,66.31944395012962,1.7618476165699064,1.1916093167524109,16.666761235287485,1.8545598048265346,1.164937518752695,-0.4532100381380403,0.4382569087884749,-25.08353986046511,43.95302735418243,107.87832339815414,4.843874809833284,-1.432394487827058
GUIDED_NOGPS,2.2615833282470703,26.42497401165538,-27.401031484209096,44.72539648661003,106.3542932208664,4.648187836064069,5.653565937173704,-3.673920150736078,66.41551206104866,1.7925165533254388,1.075297811932852,16.59846105113465,1.8663492824960675,1.4292665911433258,-0.4648187836064069,0.4400918282602734,-29.873177216837494,44.931183431186774,105.48226190886815,4.805491614998364,-1.260507149287811
GUIDED_NOGPS,2.3025104999542236,24.436919563266876,-28.27663143138003,44.6051314055187,106.28094907196346,4.779996464367837,5.550416319015739,-3.6068892776724963,66.51389593861013,1.8898881570199637,1.0151998311995563,16.523504847635635,1.8047681543987304,1.4617462887240797,-0.4779996464367837,0.44034942029997,-29.873177216837494,44.931183431186774,105.48226190886815,4.805491614998364,-2.0626480624709638
GUIDED_NOGPS,2.3453097343444824,23.37050203376609,-32.52679893768938,43.31882514820183,105.83419409425231,4.603372232385765,5.446387182715904,-3.5392868574720704,66.61459622674238,1.9392309376880168,0.9955976151684427,16.440719539800497,1.660315204418542,1.9416239980893737,-0.4603372232385765,0.4411706031987351,-37.83404237939316,40.094108582231854,106.53805846502065,3.597374228612056,-1.5469860468532228
GUIDED_NOGPS,2.3785812854766846,30.063678197170177,-35.17377875891922,40.82367843308936,106.63791126022583,4.252409884362358,5.34155174704337,-3.4711604707086283,66.7176126345519,1.9412025144806233,0.98978896616617,16.377495893748275,1.405447040912917,1.9631004246735604,-0.4252409884362358,0.4401195520614891,-37.81411668052703,37.44574328584936,107.89341340678875,3.2098171533697206,-2.0626480624709638
GUIDED_NOGPS,2.4115452766418457,30.344691872494973,-36.32230269539207,40.267449824525166,108.092794831561,4.09737554315266,5.235984120149831,-3.4025582759134165,66.82294394713058,1.980173652894012,0.9505949928311096,16.276265660059515,1.5938901552290812,1.8265317235873,-0.40973755431526604,0.4380952236733544,-33.318749026256036,43.262497605494175,109.84691262287369,4.068703103784797,-2.9220847551671985
GUIDED_NOGPS,2.4442808628082275,30.55736558356404,-36.43847538859995,40.78981994024775,108.74823023441202,3.83547248473786,5.129759214866407,-3.3335289545315385,66.93058803636283,1.9320959513262923,1.0565583341712759,16.205078013435056,1.7297706693145192,1.7029593663573503,-0.383547248473786,0.43727353670292624,-38.18256045901679,41.6612189293996,108.50436467357369,3.4959763229243612,-2.3491269600363753
GUIDED_NOGPS,2.4773459434509277,30.25036602165117,-38.61795426397084,40.475974645758,107.62704395295286,3.391378378858657,5.02295266400055,-3.264121655878388,67.04054187173284,1.862617986428453,1.187909275212968,16.11957941295213,1.6256567691539714,2.0,-0.3391378378858657,0.43912024687817,-44.35255330663973,36.5042074023801,104.52985456241122,2.58502108560235,-2.9220847551671985
GUIDED_NOGPS,2.5130913257598877,27.981800472333784,-42.295889024098734,38.223211244719984,105.85469126613204,3.188907750256716,4.915640735632934,-3.1943859420960843,67.1528015311317,1.8538277464100583,1.1195341724226744,16.0479068228966,1.351643836979425,2.0,-0.3188907750256716,0.4419471653974995,-44.35255330663973,36.5042074023801,104.52985456241122,2.58502108560235,-3.0939720937064457
GUIDED_NOGPS,2.54606032371521,30.33371904651701,-44.35255330663971,36.50420740238014,104.52985456241122,3.063948536703242,4.807900248414376,-3.124371733109913,67.26736221166466,1.7622713017418588,1.2816826498753655,15.891051528607258,1.3269159663939316,2.0,-0.30639485367032426,0.44410626147388016,-44.35255330663973,36.5042074023801,104.52985456241122,2.58502108560235,-3.151267873219528
GUIDED_NOGPS,2.5786266326904297,30.714675922874697,-44.35255330663971,36.50420740238014,104.52985456241122,2.7672121330667525,4.699808486862725,-3.0541292515847576,67.38421824045824,1.6735778802746581,1.4564936577190257,15.76729703858309,1.5125593906186905,1.9941016641580742,-0.27672121330667526,0.44428154551707055,-44.35255330663973,36.5042074023801,104.52985456241122,2.58502108560235,-2.864788975654116
GUIDED_NOGPS,2.6170408725738525,26.043974740293205,-44.35255330663971,36.50420740238014,104.52985456241122,2.5850210856023503,4.591443116659771,-2.983708967881542,67.50336308546748,1.5849362188347618,1.6337165761133465,15.605752819428533,1.5126120447678952,1.9937369540562973,-0.25850210856023503,0.4444602627845844,-44.35255330663973,36.5042074023801,104.52985456241122,2.58502108560235,-4.1252961249419275
GUIDED_NOGPS,2.6486120223999023,31.68549477612504,-44.35255330663971,36.50420740238014,104.52985456241122,2.5850210856023503,4.482882099948138,-2.9131615450136565,67.62478936628314,1.4746043311901376,1.8722566640078104,15.510111388028138,1.5097214807074262,1.988422078469602,-0.25850210856023503,0.44464240220580786,-44.35255330663973,36.5042074023801,104.52985456241122,2.58502108560235,-3.495042550298022
GUIDED_NOGPS,2.6787171363830566,33.225631154099034,-44.35255330663971,36.50420740238014,104.52985456241122,2.5850210856023503,4.374203610628203,-2.842537783603408,67.74848886493879,1.4089599166856739,1.9910110286727065,15.404035135123255,1.5078493803283188,1.984865598441052,-0.25850210856023503,0.4448279514537914,-44.35255330663973,36.5042074023801,104.52985456241122,2.58502108560235,-3.666929888837269
GUIDED_NOGPS,2.7125601768493652,29.58610668284356,-44.35255330663971,36.50420740238014,104.52985456241122,2.5850210856023503,4.2654859496549875,-2.771888566838445,67.87445253671812,1.3517779998411503,1.975602975678804,15.282442399971394,1.5074464607832345,1.983776350018461,-0.25850210856023503,0.44501689696146035,-44.35255330663973,36.5042074023801,104.52985456241122,2.58502108560235,-4.18259190445501
GUIDED_NOGPS,2.7472970485687256,28.773042834014763,-44.35255330663971,36.50420740238014,104.52985456241122,2.5850210856023503,4.156807460335053,-2.701264805428198,68.00267052096206,1.3127991774649452,2.113706839375523,15.169377155998296,1.50632012557965,1.9814399181765285,-0.25850210856023503,0.44520922393782625,-44.35255330663973,36.5042074023801,104.52985456241122,2.58502108560235,-3.6096341093241864
GUIDED_NOGPS,2.776219367980957,34.58677815435107,-44.35255330663971,36.50420740238014,104.52985456241122,2.5850210856023503,4.048246443623418,-2.630717382560313,68.13313215187596,1.3411816016741103,1.899795559854479,15.090514084294037,1.5032825660491487,1.9759062544885528,-0.25850210856023503,0.4454049163841971,-44.35255330663973,36.5042074023801,104.52985456241122,2.58502108560235,-3.4377467707849396
GUIDED_NOGPS,2.807098150253296,32.39520208846632,-44.35255330663971,36.50420740238014,104.52985456241122,2.5850210856023503,3.939881073420466,-2.560297098857096,68.26582596933683,1.2923638917985019,1.9959035785525514,14.969450688802853,1.5024920248986176,1.974188033673296,-0.25850210856023503,0.4456039571103884,-44.35255330663973,36.5042074023801,104.52985456241122,2.58502108560235,-2.7501974166279517
GUIDED_NOGPS,2.8353700637817383,35.38004217629692,-44.35255330663971,36.50420740238014,104.52985456241122,2.5850210856023503,3.831789311868814,-2.490054617331941,68.40073972970049,1.2504701794722881,2.1311767557251233,14.970386424719145,1.5002143249292916,1.9699584544483861,-0.25850210856023503,0.44580632775093393,-44.35255330663973,36.5042074023801,104.52985456241122,2.58502108560235,-2.3491269600363753
GUIDED_NOGPS,2.860985517501831,39.04874688116784,-44.35255330663971,36.50420740238014,104.52985456241122,2.5850210856023503,3.7240488246502554,-2.42004040834577,68.53786041660878,1.2392787010738107,2.063367918305706,14.902251872653682,1.497697481089766,1.9653515576308094,-0.25850210856023503,0.4460120087812963,-44.35255330663973,36.5042074023801,104.52985456241122,2.58502108560235,-2.177239621497128
GUIDED_NOGPS,2.894252061843872,30.066910873913073,-44.35255330663971,36.50420740238014,104.52985456241122,2.5850210856023503,3.6167368962826423,-2.350304694563466,68.67717425179673,1.1996757701621958,2.1328475907508375,14.821600998934173,1.4985984109949853,1.9664996832678447,-0.25850210856023503,0.44622097953407824,-44.35255330663973,36.5042074023801,104.52985456241122,2.58502108560235,-2.177239621497128
GUIDED_NOGPS,2.9347453117370605,24.701582459260656,-44.35255330663971,36.50420740238014,104.52985456241122,2.5850210856023503,3.509930345416782,-2.2808973959103156,68.81866670589973,1.1658799941489728,2.1858421747473202,14.760462268126096,1.4988904520883035,1.9665214154202073,-0.25850210856023503,0.44643321821523274,-44.35255330663973,36.5042074023801,104.52985456241122,2.58502108560235,-0.6302535746439055
GUIDED_NOGPS,2.967071056365967,30.946051233620587,-44.35255330663971,36.50420740238014,104.52985456241122,2.5850210856023503,3.4037054401333577,-2.211868074528436,68.9623225092608,1.2005734064295237,2.0309736117328048,14.72846624695917,1.4960266014897405,1.961242705536481,-0.25850210856023503,0.4466487019202744,-44.35255330663973,36.5042074023801,104.52985456241122,2.58502108560235,-0.9740282517223995
GUIDED_NOGPS,2.9992876052856445,31.049598768173876,-44.35255330663971,36.50420740238014,104.52985456241122,2.5850210856023503,3.298137813239821,-2.143265879733228,69.10812566273768,1.196230686777865,2.1394178058455666,14.722909888069365,1.4945095995995963,1.9582762040813886,-0.25850210856023503,0.4468674066504897,-44.35255330663973,36.5042074023801,104.52985456241122,2.58502108560235,-0.2291831180523293
GUIDED_NOGPS,3.0297441482543945,32.84343726997948,-44.35255330663971,36.50420740238014,104.52985456241122,2.5850210856023503,3.1933023775672886,-2.075139492969785,69.25605944851007,1.2117343624201475,2.086965795001277,14.726278878877475,1.4930958245629795,1.9554907819040526,-0.25850210856023503,0.4470893073291483,-44.35255330663973,36.5042074023801,104.52985456241122,2.58502108560235,0.2864788975654116
GUIDED_NOGPS,3.0650439262390137,28.33204315020839,-44.35255330663971,36.50420740238014,104.52985456241122,2.5850210856023503,3.089273241267451,-2.007537072769357,69.40610644088683,1.303424209220574,1.8071167230065759,14.704587905620807,1.4929162597996237,1.9547639260591065,-0.25850210856023503,0.44731437781771344,-44.35255330663973,36.5042074023801,104.52985456241122,2.58502108560235,-0.4583662361046586
GUIDED_NOGPS,3.0971407890319824,31.163100332857823,-44.35255330663971,36.50420740238014,104.52985456241122,2.5850210856023503,2.986123623109485,-1.9405061997057755,69.55824851711314,1.3331779006273246,1.850329622337954,14.707222651093138,1.4908674691800687,1.950884951691584,-0.25850210856023503,0.4475425909320529,-44.35255330663973,36.5042074023801,104.52985456241122,2.58502108560235,0.0
STABILIZE,3.1262099742889404,34.43995204703332,-44.35255330663971,36.50420740238014,104.52985456241122,2.5850210856023503,2.8839257677769403,-1.8740938213518845,69.71246686817769,1.4048264782990527,1.7798762210492725,14.719090104776036,1.4888568815997965,1.9471031124257323,-0.25850210856023503,0.4477739184586497,-44.35255330663973,36.5042074023801,104.52985456241122,2.58502108560235,0.5156620156177409
STABILIZE,3.150059938430786,42.028778708565476,-44.35255330663971,36.50420740238014,104.52985456241122,2.5850210856023503,2.782750861164647,-1.8083461972359878,69.86874200961988,1.4447954646614978,1.6855022166267368,14.720616652055535,1.4856147976339587,1.9412774540916615,-0.25850210856023503,0.448008331170813,-44.35255330663973,36.5042074023801,104.52985456241122,2.58502108560235,0.6875493541569879
STABILIZE,3.1796576976776123,33.73552429441241,-44.35255330663971,36.50420740238014,104.52985456241122,2.5850210856023503,2.682668945675621,-1.7433088437982711,70.02705379233701,1.3866208225097951,1.7518647614894038,14.763552928725526,1.4862936766138537,1.9420883390651358,-0.25850210856023503,0.4482457988448887,-44.35255330663973,36.5042074023801,104.52985456241122,2.58502108560235,0.8021409131831525
STABILIZE,3.2088849544525146,34.22077900886053,-44.35255330663971,36.50420740238014,104.52985456241122,2.5850210856023503,2.5837488355179623,-1.679026479347252,70.18738141339148,1.2671060656912063,1.5316859296312266,14.764013966494502,1.4850084982123881,1.9395441804018196,-0.25850210856023503,0.4484862902764704,-44.35255330663973,36.5042074023801,104.52985456241122,2.58502108560235,0.5156620156177409
STABILIZE,3.245121479034424,27.617180143936054,-44.35255330663971,36.50420740238014,104.52985456241122,2.5850210856023503,2.486058032001772,-1.6155429690162233,70.34970342681794,1.078639908871104,1.2599613676542556,14.773217646401095,1.4855043772902652,1.939966205393509,-0.25850210856023503,0.44872977329661007,-44.35255330663973,36.5042074023801,104.52985456241122,2.58502108560235,0.8021409131831525
STABILIZE,3.2830960750579834,26.32876557546844,-44.35255330663971,36.50420740238014,104.52985456241122,2.5850210856023503,2.389662638836022,-1.5529012697196514,70.5139977544305,0.6903635047931544,0.8103735570482751,14.830591235429202,1.485010251435482,1.9386690325690974,-0.25850210856023503,0.44897621478802896,-44.35255330663973,36.5042074023801,104.52985456241122,2.58502108560235,1.6615776058793874
STABILIZE,3.3071694374084473,41.56274092057672,-44.35255330663971,36.50420740238014,104.52985456241122,2.5850210856023503,2.2946272774254943,-1.491143375109658,70.68024169662993,0.4656621272090767,0.6185880350132523,14.869856285420312,1.480203917994464,1.9301683081863275,-0.25850210856023503,0.44922558070132806,-44.35255330663973,36.5042074023801,104.52985456241122,2.58502108560235,1.3750987083139758
STABILIZE,3.33284068107605,38.968931172885384,-44.35255330663971,36.50420740238014,104.52985456241122,2.5850210856023503,2.201015002167667,-1.4303102605324316,70.84841194321088,0.387472896355121,0.46638409954868815,14.876432050043743,1.4796831273761704,1.9289734478861673,-0.25850210856023503,0.4494778360711995,-44.35255330663973,36.5042074023801,104.52985456241122,2.58502108560235,0.9740282517223995
STABILIZE,3.363121271133423,33.03043714512966,-44.35255330663971,36.50420740238014,104.52985456241122,2.5850210856023503,2.1088872157496112,-1.3704418279846724,71.01848458416893,0.22638032345943152,-0.16508972766402788,14.910432731732065,1.4799766137166597,1.9291160012069757,-0.25850210856023503,0.44973294503263656,-44.35255330663973,36.5042074023801,104.52985456241122,2.58502108560235,0.9167324722093172
STABILIZE,3.397372007369995,29.206414639750992,-44.35255330663971,36.50420740238014,104.52985456241122,2.5850210856023503,2.0183035844448973,-1.3115768510700114,71.19043512050797,0.14637835773171184,-0.8931528884678909,14.96006259378867,1.4798846333874087,1.928556215559487,-0.25850210856023503,0.4499908708371451,-44.35255330663973,36.5042074023801,104.52985456241122,2.58502108560235,2.0053522829578814
STABILIZE,3.4270265102386475,33.74502389495873,-44.35255330663971,36.50420740238014,104.52985456241122,2.5850210856023503,1.9293219534105184,-1.2537529199554864,71.36423847504726,0.04807247220413646,-1.6434974070048047,15.055184930812146,1.4776602827019776,1.9244173156485693,-0.25850210856023503,0.45025157586895403,-44.35255330663973,36.5042074023801,104.52985456241122,2.58502108560235,2.979380534680281
STABILIZE,3.4591963291168213,31.089184060721063,-44.35255330663971,36.50420740238014,104.52985456241122,2.5850210856023503,1.8419982619837505,-1.1970063863279243,71.53986900322863,0.009581501425484957,-3.0434400866038867,15.140365927498667,1.4779685602042396,1.9245494154438487,-0.25850210856023503,0.45051502166122614,-44.35255330663973,36.5042074023801,104.52985456241122,2.58502108560235,2.119943841984046
STABILIZE,3.483262777328491,41.566036052999294,-44.35255330663971,36.50420740238014,104.52985456241122,2.5850210856023503,1.7563864589790938,-1.141372308350423,71.71730050392375,-0.006769771344327228,-3.657549225068903,15.179117005754735,1.4745782006541857,1.9184678482208097,-0.25850210856023503,0.4507811689122688,-44.35255330663973,36.5042074023801,104.52985456241122,2.58502108560235,2.9220847551671985
STABILIZE,3.5273265838623047,22.699643889291785,-44.35255330663971,36.50420740238014,104.52985456241122,2.5850210856023503,1.6725384179851481,-1.0868843956187675,71.89650623024122,0.00782568924154211,-6.1256841854299084,15.33990307391142,1.4779800500605125,1.9237628821156127,-0.25850210856023503,0.451049977501745,-44.35255330663973,36.5042074023801,104.52985456241122,2.58502108560235,3.8388172273765155
STABILIZE,3.55340313911438,38.367215514087086,-44.35255330663971,36.50420740238014,104.52985456241122,2.5850210856023503,1.5905038526615591,-1.0335749541178707,72.0774589003338,-0.0049861981766679804,-6.822219193024992,15.42871943878368,1.473999091031585,1.9166489994815086,-0.25850210856023503,0.45132140650688385,-44.35255330663973,36.5042074023801,104.52985456241122,2.58502108560235,4.755549699585833
STABILIZE,3.5810210704803467,36.218052449333804,-44.35255330663971,36.50420740238014,104.52985456241122,2.5850210856023503,1.5103302320358516,-0.981474831178204,72.2601307082056,0.09659414940812026,-8.813139081360962,15.590227799445096,1.4736724324697816,1.9157630374616124,-0.25850210856023503,0.45159541421869154,-44.35255330663973,36.5042074023801,104.52985456241122,2.58502108560235,4.5263665815335035
STABILIZE,3.613283395767212,31.005300235812445,-44.35255330663971,36.50420740238014,104.52985456241122,2.5850210856023503,1.4320626958003828,-0.9306133604322362,72.4444933345193,0.16256913439624196,-10.165786329495702,15.771955227597038,1.474015891159785,1.9159693886832163,-0.25850210856023503,0.4518719581581621,-44.35255330663973,36.5042074023801,104.52985456241122,2.58502108560235,5.213915935690491
STABILIZE,3.637932777404785,40.5791739631002,-44.35255330663971,36.50420740238014,104.52985456241122,2.5850210856023503,1.3557439696092324,-0.8810183067708781,72.63051795740326,0.22819341851895256,-10.565683660116193,15.828099382574544,1.4715106859650728,1.9113941335608473,-0.25850210856023503,0.4521509950924881,-44.35255330663973,36.5042074023801,104.52985456241122,2.58502108560235,5.557690612768986
STABILIZE,3.664588451385498,37.53292170022371,-44.35255330663971,36.50420740238014,104.52985456241122,2.5850210856023503,1.2814142803751203,-0.8327158112999058,72.8181752632588,0.3169930280834057,-11.369092345201759,15.97122599663216,1.4713881092425365,1.9108689662625526,-0.25850210856023503,0.4524324810512714,-44.35255330663973,36.5042074023801,104.52985456241122,2.58502108560235,5.7868737308213145
STABILIZE,3.69112229347229,37.707371013997644,-44.35255330663971,36.50420740238014,104.52985456241122,2.5850210856023503,1.2091112715662753,-0.7857303362964174,73.0074354575673,0.320179151248658,-11.613127320283498,16.032472302919665,1.4706996870945053,1.9093793550574218,-0.25850210856023503,0.4527163713427341,-44.35255330663973,36.5042074023801,104.52985456241122,2.58502108560235,5.844169510334397
STABILIZE,3.724087953567505,30.34293568689865,-44.35255330663971,36.50420740238014,104.52985456241122,2.5850210856023503,1.1388699185033566,-0.7400846101652334,73.19826827569746,0.36256373006061343,-12.170980459423351,16.26389447992533,1.4715826910188567,1.9104989161669064,-0.25850210856023503,0.45300262056992935,-44.35255330663973,36.5042074023801,104.52985456241122,2.58502108560235,5.901465289847479
STABILIZE,3.7551681995391846,32.18317143164065,-44.35255330663971,36.50420740238014,104.52985456241122,2.5850210856023503,1.0707224436563543,-0.6957995723953623,73.39064299371245,0.3647494439558704,-12.122474163485213,16.508763591859456,1.4708886287929233,1.9089441264630467,-0.25850210856023503,0.45329118264695184,-44.35255330663973,36.5042074023801,104.52985456241122,2.58502108560235,5.7868737308213145
STABILIZE,3.7923943996429443,26.8719223500016,-44.35255330663971,36.50420740238014,104.52985456241122,2.5850210856023503,1.0046982319415108,-0.6528943185164486,73.58452843917712,0.33278090362818435,-10.944616578852976,16.843432615906327,1.4715333173006022,1.9096085369585563,-0.25850210856023503,0.4535820108151489,-44.35255330663973,36.5042074023801,104.52985456241122,2.58502108560235,6.64631042351755
STABILIZE,3.8260815143585205,29.752745226002325,-44.35255330663971,36.50420740238014,104.52985456241122,2.5850210856023503,0.9408237460181965,-0.6113860450551698,73.77989300196518,0.2347372199915008,-9.719056099283724,17.06089730134307,1.4708921882795893,1.9081145299701066,-0.25850210856023503,0.45387505765933095,-44.35255330663973,36.5042074023801,104.52985456241122,2.58502108560235,6.474423084978302
STABILIZE,3.8519248962402344,38.736795441321796,-44.35255330663971,36.50420740238014,104.52985456241122,2.5850210856023503,0.8791224415858103,-0.5712899944916963,73.97670464506636,0.1667730624695319,-8.398669542146248,17.213970378379518,1.4691821120984256,1.9048843544182714,-0.25850210856023503,0.4541702751239827,-44.35255330663973,36.5042074023801,104.52985456241122,2.58502108560235,5.7868737308213145
STABILIZE,3.880545139312744,34.93739379602172,-44.35255330663971,36.50420740238014,104.52985456241122,2.5850210856023503,0.8196146826806974,-0.5326194002161238,74.17493091539366,0.08456535918650801,-6.587871133733624,17.387930173897864,1.4694812060896634,1.9050556867199246,-0.25850210856023503,0.45446761452947365,-44.35255330663973,36.5042074023801,104.52985456241122,2.58502108560235,5.271211715203574
STABILIZE,3.9108080863952637,33.05672987500197,-44.35255330663971,36.50420740238014,104.52985456241122,2.5850210856023503,0.7623176569730568,-0.49538543148491954,74.37453895459048,-0.043867350181763076,-4.68312432706112,17.556277261465755,1.4694562336911425,1.9046618756502214,-0.25850210856023503,0.4547670265882689,-44.35255330663973,36.5042074023801,104.52985456241122,2.58502108560235,5.67228217179515
STABILIZE,3.939157247543335,35.28628275775039,-44.35255330663971,36.50420740238014,104.52985456241122,2.5850210856023503,0.7072452910638489,-0.45959713837734384,74.57549550983784,-0.24839338282414794,-2.8287851702369573,17.721856414872498,1.4691736168728151,1.9038376799823675,-0.25850210856023503,0.45506846142113994,-44.35255330663973,36.5042074023801,104.52985456241122,2.58502108560235,5.328507494716656
STABILIZE,3.9660520553588867,37.28203943041012,-44.35255330663971,36.50420740238014,104.52985456241122,2.5850210856023503,0.6544081657816356,-0.425261396751889,74.77776694466156,-0.35891411452715233,-1.6640867988143966,17.808814968290513,1.4686505693273304,1.9026283943285882,-0.25850210856023503,0.4553718685733755,-44.35255330663973,36.5042074023801,104.52985456241122,2.58502108560235,4.354479242994256
STABILIZE,3.999840021133423,29.55108712500176,-44.35255330663971,36.50420740238014,104.52985456241122,2.5850210856023503,0.6038134314795833,-0.3923828532027187,74.98131924973949,-0.37243575464966194,-0.1656863019993462,17.906457645117722,1.4697223359495872,1.904061740030987,-0.25850210856023503,0.4556771970309924,-44.35255330663973,36.5042074023801,104.52985456241122,2.58502108560235,3.2658594322456924
STABILIZE,4.034791946411133,28.61970754607548,-44.35255330663971,36.50420740238014,104.52985456241122,2.5850210856023503,0.5554647233322818,-0.36096387001611063,75.18611805370857,-0.3547385744276002,0.8370580389184571,17.999442132930984,1.4700412732116752,1.9041918774438191,-0.25850210856023503,0.455984395236946,-44.35255330663973,36.5042074023801,104.52985456241122,2.58502108560235,2.635605857601787
STABILIZE,4.0608909130096436,38.33039981722641,-44.35255330663971,36.50420740238014,104.52985456241122,2.5850210856023503,0.5093620766326872,-0.33100447012689216,75.39212863397219,-0.28326341952776707,1.467748101923914,18.033741635395497,1.4689289868185678,1.9019807338864037,-0.25850210856023503,0.45629341110734145,-44.35255330663973,36.5042074023801,104.52985456241122,2.58502108560235,1.1459155902616465
STABILIZE,4.0902838706970215,34.02451469502648,-44.35255330663971,36.50420740238014,104.52985456241122,2.5850210856023503,0.46550184208902934,-0.302502282074844,75.59931592750728,-0.2131739926166532,1.65343490536035,18.03564725817393,1.4695273626673213,1.9026548214020775,-0.25850210856023503,0.4566041920476441,-44.35255330663973,36.5042074023801,104.52985456241122,2.58502108560235,0.2291831180523293
STABILIZE,4.117384672164917,36.91389143138773,-44.35255330663971,36.50420740238014,104.52985456241122,2.5850210856023503,0.42387660112167325,-0.275452484961189,75.80764454167148,-0.16083761474057762,1.6759066546165153,18.020243474048257,1.4693072225268835,1.9019598619832414,-0.25850210856023503,0.4569166849688904,-44.35255330663973,36.5042074023801,104.52985456241122,2.58502108560235,-0.8021409131831525
STABILIZE,4.152239084243774,28.698821066172194,-44.35255330663971,36.50420740238014,104.52985456241122,2.5850210856023503,0.38447508116006546,-0.2498477534049961,76.0170787650104,-0.38909282512717763,1.80535965684259,17.952482874839855,1.470509684265742,1.9036035781543121,-0.25850210856023503,0.45723083630389877,-44.35255330663973,36.5042074023801,104.52985456241122,2.58502108560235,-2.521014298575622
STABILIZE,4.182698726654053,32.835980741378634,-44.35255330663971,36.50420740238014,104.52985456241122,2.5850210856023503,0.34728207093963803,-0.22567820249962622,76.22758257806474,-0.8588717421367738,1.370922059589344,17.82836296969509,1.4704391518070767,1.9031223242962672,-0.25850210856023503,0.4575465920234803,-44.35255330663973,36.5042074023801,104.52985456241122,2.58502108560235,-3.896113006889598
STABILIZE,4.212656736373901,33.40078837348198,-44.35255330663971,36.50420740238014,104.52985456241122,2.5850210856023503,0.3122783357986485,-0.20293133276915754,76.43911966417755,-1.5541305715741232,1.0966613629961826,17.674664930349586,1.4706803328253557,1.9031850925596596,-0.25850210856023503,0.4578638976526495,-44.35255330663973,36.5042074023801,104.52985456241122,2.58502108560235,-5.500394833255903
STABILIZE,4.239850759506226,36.77794535442461,-44.35255330663971,36.50420740238014,104.52985456241122,2.5850210856023503,0.2794405329751548,-0.18159197512484226,76.65165342030136,-2.1824678478539226,1.0117747047742063,17.488030011278987,1.4708121121472428,1.903083858703545,-0.25850210856023503,0.4581826982868352,-44.35255330663973,36.5042074023801,104.52985456241122,2.58502108560235,-6.531718864491385
STABILIZE,4.2737627029418945,29.505145791565546,-44.35255330663971,36.50420740238014,104.52985456241122,2.5850210856023503,0.24874112690392636,-0.16164223582151394,76.86514696780539,-2.5389390491748847,0.7415717808782673,17.276765430061324,1.4718681453265765,1.9044895899890846,-0.25850210856023503,0.45850293860809127,-44.35255330663973,36.5042074023801,104.52985456241122,2.58502108560235,-7.448451336700702
STABILIZE,4.303546905517578,33.585599436276866,-44.35255330663971,36.50420740238014,104.52985456241122,2.5850210856023503,0.22014830451321998,-0.14306144141406563,77.07956316328271,-2.556323374716448,0.6908911369065379,17.02704688381649,1.4720527696289807,1.904453830119068,-0.25850210856023503,0.45882456290130724,-44.35255330663973,36.5042074023801,104.52985456241122,2.58502108560235,-7.677634454753031
STABILIZE,4.335283517837524,31.514557708635444,-44.35255330663971,36.50420740238014,104.52985456241122,2.5850210856023503,0.19362589052186863,-0.12582608371382875,77.29486460935752,-2.2353313775957053,0.49193071459182836,16.770066138936635,1.4727843737102344,1.9053282112940648,-0.25850210856023503,0.45914751507041945,-44.35255330663973,36.5042074023801,104.52985456241122,2.58502108560235,-8.708958485988513
STABILIZE,4.367471218109131,31.07950857329164,-44.35255330663971,36.50420740238014,104.52985456241122,2.5850210856023503,0.16913326273599338,-0.10990976474507619,77.51101366549221,-1.6104811263306094,0.4052295739281559,16.496400949461734,1.4734270931767972,1.9060483554240262,-0.25850210856023503,0.4594717386546215,-44.35255330663973,36.5042074023801,104.52985456241122,2.58502108560235,-8.88084582452776
STABILIZE,4.396085500717163,34.96418806268756,-44.35255330663971,36.50420740238014,104.52985456241122,2.5850210856023503,0.14662526734609926,-0.09528314170139396,77.72797245879465,-0.9647630463255374,0.572583509302043,16.220947957971582,1.473661073385196,1.9061254798947473,-0.25850210856023503,0.45979717684457516,-44.35255330663973,36.5042074023801,104.52985456241122,2.58502108560235,-9.167324722093172
STABILIZE,4.427532911300659,31.808525644428602,-44.35255330663971,36.50420740238014,104.52985456241122,2.5850210856023503,0.12605213422380857,-0.08191387190217725,77.94570289482535,-0.43243427075316954,0.6488464133666435,15.92125121002247,1.4746611632376185,1.9074565388293805,-0.25850210856023503,0.4601237724986212,-44.35255330663973,36.5042074023801,104.52985456241122,2.58502108560235,-10.313240312354818
STABILIZE,4.457368612289429,33.52921802804291,-44.35255330663971,36.50420740238014,104.52985456241122,2.5850210856023503,0.10735939221885715,-0.0697665577490092,78.16416666840458,0.0500793071802905,0.5911959882337393,15.569989948934348,1.4752992977426498,1.9081865293550828,-0.25850210856023503,0.46045146815899,-44.35255330663973,36.5042074023801,104.52985456241122,2.58502108560235,-11.802930579694959
STABILIZE,4.487904071807861,32.760065921534625,-44.35255330663971,36.50420740238014,104.52985456241122,2.5850210856023503,0.09048778445597705,-0.05880269168213559,78.38332527441969,0.34998582998232913,0.5747117535587366,15.181283883268922,1.4760475322323678,1.9091050415424087,-0.25850210856023503,0.46078020606801273,-44.35255330663973,36.5042074023801,104.52985456241122,2.58502108560235,-13.120733508495853
STABILIZE,4.523859262466431,27.81848329287543,-44.35255330663971,36.50420740238014,104.52985456241122,2.5850210856023503,0.07537318363180745,-0.04898060113692182,78.6031400186322,0.43459783989447687,0.6814204392920805,14.686943819447372,1.4771879297996557,1.9106295812526417,-0.25850210856023503,0.4611099281843315,-44.35255330663973,36.5042074023801,104.52985456241122,2.58502108560235,-13.34991662654818
STABILIZE,4.561672925949097,26.451638129473718,-44.35255330663971,36.50420740238014,104.52985456241122,2.5850210856023503,0.06194650731174178,-0.0402553935002139,78.82357202848502,0.3665795611274636,0.7423943917864306,14.131776652198626,1.4782673276093414,1.9120286331935157,-0.25850210856023503,0.4614405761991107,-44.35255330663973,36.5042074023801,104.52985456241122,2.58502108560235,-14.094761760218251
STABILIZE,4.597060918807983,28.268075699574055,-44.35255330663971,36.50420740238014,104.52985456241122,2.5850210856023503,0.0501336332269382,-0.03257890106683092,79.04458226390963,0.24641657666795816,0.8055382100027292,13.689962450641765,1.4791874558780165,1.9131873722621675,-0.25850210856023503,0.46177209155224763,-44.35255330663973,36.5042074023801,104.52985456241122,2.58502108560235,-14.667719555349075
STABILIZE,4.626746416091919,33.695413610546524,-44.35255330663971,36.50420740238014,104.52985456241122,2.5850210856023503,0.039855314571074274,-0.02589962599601492,79.26613152813327,0.09986292853450028,0.7969821174068188,13.244486413916134,1.4799183956496154,1.9140828073425011,-0.25850210856023503,0.4621044154485831,-44.35255330663973,36.5042074023801,104.52985456241122,2.58502108560235,-14.381240657783664
STABILIZE,4.656187057495117,33.980961022757654,-44.35255330663971,36.50420740238014,104.52985456241122,2.5850210856023503,0.03102709529741432,-0.02016268526779541,79.48818047848613,-0.20250891903194274,0.7375255341252693,12.812880783847504,1.4807824068248856,1.915211644165534,-0.25850210856023503,0.46243748887411235,-44.35255330663973,36.5042074023801,104.52985456241122,2.58502108560235,-14.094761760218251
STABILIZE,4.69116997718811,28.590054872022087,-44.35255330663971,36.50420740238014,104.52985456241122,2.5850210856023503,0.023559225415620944,-0.015309755639538736,79.71068963720859,-0.8379974033727453,0.7101198269674163,12.275585660335743,1.4819534649868547,1.9168017138056268,-0.25850210856023503,0.46277125261219604,-44.35255330663973,36.5042074023801,104.52985456241122,2.58502108560235,-14.32394487827058
STABILIZE,4.720532655715942,34.071777875257915,-44.35255330663971,36.50420740238014,104.52985456241122,2.5850210856023503,0.017356576288580783,-0.011279018602241564,79.93361940225826,-1.4065936830250876,0.5717039090029923,11.833696326698012,1.4827758075285782,1.9178616920285452,-0.25850210856023503,0.46310564725977055,-44.35255330663973,36.5042074023801,104.52985456241122,2.58502108560235,-14.495832216809829
STABILIZE,4.752590179443359,31.19717356539849,-44.35255330663971,36.50420740238014,104.52985456241122,2.5850210856023503,0.01231855592952158,-0.008005105337115737,80.15693005811738,-1.834927118872752,0.31802342615272555,11.52983401712884,1.4838539411941092,1.9193222487595438,-0.25850210856023503,0.46344061324355923,-44.35255330663973,36.5042074023801,104.52985456241122,2.58502108560235,-14.094761760218251
STABILIZE,4.7863171100616455,29.65933133450246,-44.35255330663971,36.50420740238014,104.52985456241122,2.5850210856023503,0.008339024298674502,-0.005419041671888891,80.38058178659983,-2.479646603876827,-0.19421813659660508,11.052872515876741,1.4849489348448424,1.9207980931266249,-0.25850210856023503,0.4637760908362829,-44.35255330663973,36.5042074023801,104.52985456241122,2.58502108560235,-12.547775713365029
STABILIZE,4.8140692710876465,36.04964417093547,-44.35255330663971,36.50420740238014,104.52985456241122,2.5850210856023503,0.0053062086003556885,-0.003448193037367986,80.60453467765842,-2.954242084911751,-0.6636620541717532,10.656458581732956,1.4858159663960486,1.921951321797857,-0.25850210856023503,0.4641120201728708,-44.35255330663973,36.5042074023801,104.52985456241122,2.58502108560235,-11.917522138721123
STABILIZE,4.838533878326416,40.888923550858856,-44.35255330663971,36.50420740238014,104.52985456241122,2.5850210856023503,0.00310261857981331,-0.0020162094237683448,80.828748740192,-3.0467115337729114,-0.9963129707622957,10.463064336704983,1.4866085571072551,1.9230183519857593,-0.25850210856023503,0.46444834126667117,-44.35255330663973,36.5042074023801,104.52985456241122,2.58502108560235,-11.802930579694959
STABILIZE,4.865908145904541,36.54243372045409,-44.35255330663971,36.50420740238014,104.52985456241122,2.5850210856023503,0.0016049618200320026,-0.0010429703371919175,81.05318391285273,-2.9446401195991827,-1.5549077190356237,10.153676404097268,1.4875580724694573,1.9243177173123214,-0.25850210856023503,0.46478499402566226,-44.35255330663973,36.5042074023801,104.52985456241122,2.58502108560235,-11.058085446024888
STABILIZE,4.892852067947388,37.12890604252607,-44.35255330663971,36.50420740238014,104.52985456241122,2.5850210856023503,0.0006840590388001999,-0.00044452975605580036,81.27780007485325,-2.646117096970255,-1.7947696619778968,9.933623076965091,1.4884711100082075,1.925559822021283,-0.25850210856023503,0.46512191826866306,-44.35255330663973,36.5042074023801,104.52985456241122,2.58502108560235,-9.625690958197831
