Mode,Time,Freq,North-Vision,East-Vision,Down-Vision,Yaw-Vision,North-Desired,East-Desired,Down-Desired,Roll-UAV,Pitch-UAV,Yaw-UAV,Roll-Control,Pitch-Control,Yaw-Control,Thrust-Control,northVraw,eastVraw,downVraw,N-Velocity,E-Velocity,D-Velocity,yawVraw,yawRate,Q-Size
GUIDED_NOGPS,0.006722450256347656,149.2263137296759,-44.12480874103606,34.553091968082775,79.87961527404441,-6.6937985806023015,-45.745065578265006,31.847620492233865,83.06586758602154,-1.140245226976857,-0.08141260656463227,-33.38295254959835,-3.5064801247786797,4.438986048021788,-10.0,0.5063725046239542,-47.888142770685036,31.44951595600034,87.46237754081301,-3.5335171967744827,-20.031368732452393,49.9697208404541,-7.821824051088642,-7.3681912181036076,1
GUIDED_NOGPS,0.011547565460205078,207.38215080346106,-44.8354892463489,31.0366774521829,87.7114633972402,-7.047961961535125,-45.74442757082887,31.84780392876025,83.06564892400522,-1.140245226976857,-0.08141260656463227,-33.38295254959835,3.478974530425964,-4.460575771876031,-10.0,0.49070837105353005,-47.888142770685036,31.44951595600034,87.46237754081301,-4.4537171721458435,-21.439889073371887,52.24168300628662,-7.821824051088642,-9.258224089756611,0
GUIDED_NOGPS,0.03359580039978027,45.37374917513171,-45.00725790844934,30.591013754290092,88.35752770635933,-7.25752571913144,-45.74004783053804,31.849063168543214,83.0641359355906,-1.0848289140327818,-0.05191512062292977,-33.24441582266298,1.0657067427634737,-0.47302150130071496,-6.260666923463148,0.48941321645846253,-46.258374171763705,28.635700030642077,89.40160946615174,-0.9335951879620552,-22.13377207517624,58.31612944602966,-8.362743868493313,-5.190094691318493,0
GUIDED_NOGPS,0.06848764419555664,28.6648897636719,-45.28672254644893,29.27618313780812,90.03972916926038,-7.67277748691509,-45.72841932764956,31.852406534240977,83.06008249770314,-1.062332618784287,-0.12192279870741507,-33.002893503422165,2.030962226998647,-0.655581155600143,-6.9905270521354,0.4860407066568855,-46.679582852054395,22.581545514523697,94.42234350509813,-6.677118688821793,-24.051202833652496,59.60055589675903,-9.601054755475824,-8.307991950725159,0
GUIDED_NOGPS,0.10650181770324707,26.311093267759013,-45.57178261570068,27.887188310586073,92.27988348710129,-8.099807628267644,-45.70628571008958,31.858770274993095,83.05229442149941,-0.6370623626968145,-0.3839943557160276,-32.75066827775193,2.068950269150312,-0.6886308937402751,-7.097144334004689,0.48154482186879627,-46.94621861608741,22.005543635607168,96.210084262783,-4.975313320755959,-24.36538189649582,61.91517114639282,-9.770178526896359,-7.664250036546042,0
GUIDED_NOGPS,0.13697385787963867,32.828013712568286,-45.83731902861531,26.594884143850333,94.55446427405342,-8.496890466927054,-45.670635405155195,31.86902026226795,83.03962873603287,-0.21708849142386386,-0.5896004987323067,-32.5528796597667,2.508322365341402,-0.9024227301773584,-7.771295134227426,0.4769703289239589,-46.94621861608741,22.005543635607168,96.210084262783,-5.0741709768772125,-24.931079149246216,67.02558994293213,-9.770178526896359,-7.791228375858457,0
GUIDED_NOGPS,0.17814373970031738,24.291007650475766,-46.06714468064295,25.46934172580641,96.59760190996204,-8.768766326724842,-45.61869572121643,31.88395368571025,83.0209929719197,0.5780236482542523,-1.09909259017559,-32.32640424726742,1.7931357990949666,-0.6572027704433545,-6.5573249968138,0.47284678212391534,-47.32686186149928,20.4586548255835,100.03513236086516,-4.5271724462509155,-26.070255041122437,70.61938047409058,-10.206322740434748,-3.1701861994845206,0
GUIDED_NOGPS,0.20357322692871094,39.33622815984695,-46.23449130435851,24.360764502278254,98.69554749918063,-9.05695158855293,-45.54792694941808,31.90430074898854,82.99534444500452,1.2001267760908283,-1.2741885449736863,-32.14062651693766,2.7069581220025927,-0.9687020379915523,-7.7032678968361274,0.4685995938916478,-47.49516338794511,20.04105173037052,100.99052500428448,-0.31267511658370495,-25.25556981563568,66.7036235332489,-10.321420480465068,-4.827806516702208,0
GUIDED_NOGPS,0.2374579906463623,29.51926636497357,-46.023210900144505,23.359660067997513,100.64459743103365,-9.2870111519735,-45.456016465381644,31.930726365642677,82.96168954002621,1.6163207246275586,-1.5804190091941503,-32.03614511320397,2.223152948972986,-0.23327945990318372,-6.956754385148599,0.46463418421798514,-44.30257985290089,17.88313924964214,105.91925388453629,5.348613113164902,-23.48930835723877,65.152907371521,-10.619678364767058,-4.0444726113609555,0
GUIDED_NOGPS,0.27110767364501953,29.722595046593206,-45.96480860429164,22.283734451438672,102.77835832785989,-9.50787825553633,-45.34087283090723,31.963831854931353,82.91908299428366,2.5261236933012365,-1.9809411954019922,-31.883107894660665,2.339689591858569,-0.5328958476587214,-6.9961691530806105,0.46028144933284754,-44.30257985290089,17.88313924964214,105.91925388453629,-2.737708017230034,-25.561794638633728,65.1612639427185,-10.619678364767058,-2.5060476328964536,0
GUIDED_NOGPS,0.304227352142334,30.19939951183336,-46.00866457973315,21.73866598735331,104.88670643280187,-9.713655435261217,-45.200619895675445,32.00415663767957,82.86662718130154,2.9414303575761,-2.2634386732473657,-31.86341645928352,1.6210630362366545,-0.6331509427469906,-7.070338284512915,0.4559598414969993,-46.53983412238573,24.306453141488298,107.64624215520219,1.8979180604219437,-23.94280433654785,58.51864814758301,-9.784020938194402,-6.531868705181396,0
GUIDED_NOGPS,0.33956384658813477,28.301264490357756,-46.07628370963351,21.328880135590666,106.88234529788629,-9.84649159037383,-45.03359089894931,32.05217993212616,82.80347139449613,3.4928020740804335,-2.429554636834188,-31.792696680617208,1.408618770011483,-0.6755431699403212,-6.657111947075041,0.45184225219321966,-48.01194395245412,24.143158044084274,108.21731456128802,6.09932467341423,-17.780454456806183,62.12306022644043,-9.86326848521263,-2.941525553337657,0
GUIDED_NOGPS,0.37297916412353516,29.934084129091193,-46.078772747169445,20.571404965641687,109.26810502290625,-9.956975418418025,-44.838322571276166,32.108322449771265,82.72881113084101,3.9028439431656867,-2.6381069926211227,-31.79940392638216,2.0394746909697936,-0.7722869011957338,-6.636496698367184,0.4469214122158695,-46.25422650135606,18.704508648084982,112.59806731056787,1.8400933593511581,-15.998052060604095,67.48109459877014,-10.74845770455997,1.9889656004596994,0
GUIDED_NOGPS,0.40832066535949707,28.301264490357756,-46.29754276224366,20.309467959255837,111.55133971456127,-9.972013989610527,-44.613549236189556,32.17294809122384,82.64188737453296,3.9012619005991827,-2.5133702360169417,-31.86349159136439,1.2549827023123317,-1.0118993172138249,-6.068342573326442,0.4421810953199434,-49.650259708863985,23.78044311859296,115.63032664220748,1.2726019136607647,-11.708828806877136,67.33332872390747,-10.067691391401624,3.2704422774429065,0
GUIDED_NOGPS,0.4398772716522217,31.693635285138924,-46.33168966247058,19.6138598781766,113.89318141158108,-10.032054330267917,-44.35819691191115,32.24636564204915,82.54198588065759,3.894456470864911,-2.4976926039942353,-31.900849311029774,2.090858655508566,-1.0188599813499224,-6.402033429621559,0.437297608938153,-46.96030139839499,16.462291682093984,118.68881029677061,1.2726019136607647,-11.708828806877136,67.33332872390747,-10.916002483175104,3.2704422774429065,0
GUIDED_NOGPS,0.4744265079498291,28.950792741428938,-46.382012679544545,18.997023729802656,115.9390810132965,-10.06571929934928,-44.07137741305267,32.32883046861629,82.42843645885526,3.8869347250414346,-2.634823379177639,-32.05726064302306,1.9235255006856142,-1.0474145165528501,-6.2340052151972944,0.4329787108911175,-47.284630468369116,16.13934296332139,119.60531701461792,1.0474920272827148,-10.985540598630905,60.05551218986511,-10.979301354091444,4.0420555781684175,0
GUIDED_NOGPS,0.5077462196350098,30.018493601671867,-46.48080931315859,18.38076417068803,118.21422789205805,-10.003132070012791,-43.75238245231773,32.42054621394565,82.30061225698674,3.707239278167569,-2.5476520226782937,-32.19264865275106,1.9968391585388856,-1.2354895736646303,-5.62778968283969,0.4281727687298574,-47.327436736538175,15.84633378757879,122.89346253729298,-2.205946296453476,-9.962666034698486,60.99370718002319,-10.936217501650543,9.533218604798726,0
GUIDED_NOGPS,0.5437736511230469,27.760485541634402,-46.57223915166055,17.808834868450507,120.42564175356632,-9.902569715361192,-43.4006777422038,32.521666493556424,82.15792904479906,3.6895379891598346,-2.5502889025847417,-32.4084962909018,1.9243018496531183,-1.2496038815365464,-5.383630826968585,0.42346457458246545,-47.41041246763771,14.419460332421828,123.81606829775919,-1.780451461672783,-5.7465191930532455,64.26246166229248,-11.023119860378568,11.421234863099283,0
GUIDED_NOGPS,0.5743496417999268,32.712286886396605,-46.51547529706955,17.294354532797527,122.53335372197593,-9.848262406086523,-43.01589709670408,32.632296591314116,81.99984449759128,3.596340484821834,-2.5537261952845505,-32.67327198917193,2.0730330126937146,-1.2254716217687807,-5.552745725047815,0.4189329815512307,-47.41041246763771,14.419460332421828,123.81606829775919,7.7102310955524445,-1.6003254801034927,55.15112280845642,-11.023119860378568,8.264645862704965,0
GUIDED_NOGPS,0.612518310546875,26.20309991316245,-46.53110716904302,17.01785941046803,124.24220569852886,-9.775711418179103,-42.59783653300941,32.752495155278034,81.82585747988024,3.395958529386115,-2.4781894257060872,-32.92471174308761,1.5955715030771336,-1.209966159231538,-5.485693900112818,0.41516730356270276,-48.314375248373096,15.542387333858636,126.44431194673672,5.623937025666237,0.3559620585292578,50.19713044166565,-10.664873032073405,7.556640406172491,0
GUIDED_NOGPS,0.6414635181427002,34.560558993416336,-46.50567500303522,16.596365940006837,126.05889638382891,-9.674257399475836,-42.1464483732102,32.882275893548794,81.63550732906634,3.4066443603426,-2.4688354816377545,-33.12078256849658,2.035475294453464,-1.4932028754071685,-5.101845360471909,0.4111532218904749,-48.33343975312653,14.746232753368627,127.0901163303655,7.998142391443253,-0.097266910597682,33.052265644073486,-10.654316195724409,9.018873770671854,0
GUIDED_NOGPS,0.6814801692962646,24.99287331664879,-46.526810641395215,16.33559227510444,127.45050142316931,-9.53189383127379,-41.66183534599827,33.021609270115796,81.42837313909936,3.505892771954998,-2.5426693996787693,-33.37242039789819,1.6434620528506807,-1.379084050477583,-4.987210453365356,0.4079557434318601,-49.31547465757946,14.393808541232655,131.4927616237906,7.998142391443253,-0.097266910597682,33.052265644073486,-9.887112017414902,9.018873770671854,0
GUIDED_NOGPS,0.7177164554595947,27.600642257376748,-46.551020142828165,15.994528753979688,129.38119332995987,-9.372729134059306,-41.14424468836882,33.17042420070475,81.20407304414417,3.4478216498579033,-2.56048765567604,-33.7124340449706,1.804752884199385,-1.525303160469211,-4.772391854151069,0.40364575942836856,-49.31547465757946,14.393808541232655,131.4927616237906,6.940031051635742,1.9855596125125885,38.154035806655884,-9.887112017414902,9.426075988609675,0
GUIDED_NOGPS,0.7538406848907471,27.68718520816693,-46.4273468887631,15.76503972632692,131.1861521657048,-9.155311693117104,-40.5940622473223,33.32860974862516,80.96226350224657,3.497540944703953,-2.3135547593955113,-34.114995149367395,1.7396805754372637,-1.4103830340770593,-4.288893888095457,0.39955222267308355,-46.53241543243769,14.710336155692115,133.23695928108748,6.877561658620834,4.08959835767746,37.9761666059494,-9.777973082905353,12.480775642060328,0
GUIDED_NOGPS,0.776116132736206,44.90401044900756,-46.739829444502796,15.209893699279425,132.57646838425086,-8.95837327231127,-40.011806581566326,33.496016820617825,80.70263857899903,3.2671966569266813,-2.5197837836475836,-34.60434063735837,2.6396694413214075,-3.061593735189554,-3.607399807557929,0.3962523403894963,-55.13481816237935,7.459785051765107,129.05629443214065,6.877561658620834,4.08959835767746,37.9761666059494,-10.133563378619566,12.480775642060328,0
GUIDED_NOGPS,0.8091309070587158,30.30106703462625,-47.08956744066158,14.990609571275058,133.114335312261,-8.808785077439028,-39.39812306321757,33.672459862702325,80.42492923120648,3.372600563085141,-2.378708787661909,-34.99578219378639,1.7404468169090708,-2.449587932837204,-4.3773047011519175,0.3946211878378909,-54.99748463204962,9.396709811476757,129.92538635270262,3.410816565155983,6.764410436153412,30.553439259529114,-9.810724677074177,11.190680120118211,0
GUIDED_NOGPS,0.8427009582519531,29.792899660467956,-46.96135641779486,14.878658680152446,134.3044905269855,-8.650204727105779,-38.75377797950368,33.857718556024544,80.12890259055209,3.082316669585953,-2.5202843084476987,-35.349708936198105,1.7113241522935017,-1.783555917736776,-4.2472451620446945,0.3916488241271332,-47.67509650661106,13.186777375392285,135.78508103889584,9.508265554904938,8.008572459220886,20.92633843421936,-9.200641140985967,8.030863855341062,0
GUIDED_NOGPS,0.8860573768615723,23.067426358976615,-46.98512970719348,14.80762624638109,135.36872065328174,-8.434108809607848,-38.07965263446518,34.05153951270414,79.81436124726305,3.113390615214926,-2.5837903401334197,-35.67114788382266,1.5894545999076632,-1.8598396387997764,-4.063301557127003,0.3888912811879626,-52.512057245974816,12.446272756248762,135.40815586911384,14.716081321239471,11.936939507722855,17.964594066143036,-8.410636569891443,9.211300690158623,0
GUIDED_NOGPS,0.9102096557617188,41.41254529477395,-47.061870402374154,14.685325185116557,136.58437889254301,-8.114822555656346,-37.37673745065736,34.25363797168206,79.48114253377632,2.8629523377862998,-2.6451905391206605,-36.07101447859189,1.8625786934721404,-2.7720066110873756,-2.2321084105927813,0.38579352728246663,-52.56129613224872,12.117978354356087,135.6381980652494,10.536836087703705,13.151715695858002,4.237266257405281,-8.275184795616678,12.957821666903405,0
GUIDED_NOGPS,0.9456720352172852,28.205724123090167,-47.08784518512904,14.739635741312322,137.01636375433728,-7.879842255220451,-36.64612607085221,34.463699494568054,79.12911780840444,2.8408968031826825,-2.6650281832347282,-36.42450408889673,1.506438591591714,-2.2487620551806744,-3.3846516626631216,0.38422550810813433,-51.145415615239386,11.55099198800778,136.72502772948627,10.314032435417175,15.833458304405212,10.234454274177551,-8.073570778849591,12.648677913558519,0
GUIDED_NOGPS,0.9878263473510742,23.725451820007354,-46.962737680575586,14.79878483035361,137.92179640298247,-7.584518376299244,-35.889009459740286,34.68138166148814,78.75819173900132,2.851661821644857,-2.7470103035121562,-36.702520108872925,1.5316369808489256,-1.9573202015529443,-3.164948012942264,0.3816727906720377,-48.491717048997316,12.787704672632778,138.40832291576788,10.314032435417175,15.833458304405212,10.234454274177551,-7.690854547354599,12.648677913558519,0
GUIDED_NOGPS,1.0203969478607178,30.71130246316961,-46.82089242930307,14.903790036317845,139.00376933143184,-7.260793911915511,-35.10667000563265,34.906315766932096,78.36830158662795,2.648796879002427,-2.771969735730087,-37.11562019515905,1.5132406198625938,-2.25959850936155,-2.34295376823874,0.37872906451039223,-49.583569508375646,13.651394953190621,138.1906512943855,13.313114643096924,16.931895911693573,8.84864404797554,-7.28170771768598,10.921776426268455,0
GUIDED_NOGPS,1.0539147853851318,29.838256217631326,-46.76043296615247,15.041144722699942,139.5423627537999,-7.01657748231358,-34.300475622162736,35.13810851560101,77.95941648921826,2.4971011523007944,-2.8514776199806784,-37.45691108760625,1.4626113250595005,-2.416714010086037,-2.7709136750906582,0.37683410747083673,-50.346146632478906,12.17292315182713,138.03317944519168,12.024107575416565,19.85054910182953,4.567139968276024,-6.988456442742432,9.230673667965718,0
GUIDED_NOGPS,1.0865845680236816,30.61401690436915,-46.75412113661368,15.184566416785762,139.95502425694843,-6.71941603443855,-33.471873849988285,35.37634371825473,77.53153674524482,2.3873308342719923,-2.557379492716861,-37.70057125605729,1.4612355266648067,-2.643083965439441,-2.2123744061425756,0.37515302497659275,-52.02815363679994,12.200048221440106,137.16630948274286,13.066160678863525,19.74577009677887,-0.22148021962493658,-6.817007236651796,11.853056497900415,0
GUIDED_NOGPS,1.1203835010528564,29.591742569088254,-46.73955794690911,15.473905105182856,140.19684121613918,-6.384060538603832,-32.62238595849326,35.62058398755939,77.0846930973847,2.2638627853061415,-2.7240730341753725,-38.07840707565864,1.2566783544828657,-2.6628150853836923,-1.8445927986897321,0.37377570376249103,-51.93870549149344,14.639610263078513,137.08803060124808,13.119111955165863,21.02227956056595,-5.875054374337196,-6.305403968116364,13.650747773295784,0
GUIDED_NOGPS,1.1547415256500244,29.113767301098108,-46.52910944727406,15.832622324078828,140.36619121784022,-6.045587539743865,-31.75360104748969,35.87037243393488,76.61894601618519,2.0127109665526604,-2.7496256256340366,-38.36643956805266,1.1950648290177899,-2.4288729809041265,-1.6536855517757592,0.37250550959668993,-49.587241512071614,15.4075864543513,137.58713843436743,18.461033701896667,22.912728786468506,-10.775671154260635,-5.859371264086024,12.791656824775336,0
GUIDED_NOGPS,1.1875829696655273,30.454858337810954,-46.392672961551696,16.132566482059126,140.48796104315167,-5.852110188090856,-30.86717014891964,36.12523436140238,76.13438498372956,2.0050120626975865,-2.4458802830543998,-38.540773316428066,1.2642168339021065,-2.680085248015823,-2.334996057342268,0.3712928478811558,-50.21052895182035,13.404349354884335,136.68681208324125,15.46158492565155,25.028786063194275,-8.421401679515839,-5.668710816467576,3.9968721692614904,0
GUIDED_NOGPS,1.2217521667480469,29.268984382632482,-46.44843375124953,16.398214050232976,140.6049306227546,-5.641999951826361,-29.964800328557075,36.38467896343181,75.63112777730291,1.5463554684211216,-2.5679733295629625,-38.86977328346382,1.2981620598733172,-3.030636788504322,-2.152952806917904,0.3700523943090966,-50.21052895182035,13.404349354884335,136.68681208324125,3.0062900856137276,22.747406363487244,-4.917847737669945,-5.668710816467576,6.194260138470483,0
GUIDED_NOGPS,1.2544982433319092,30.542679463466495,-46.45756541587949,16.819560781614992,140.69750556803373,-5.413109877453951,-29.04824878770978,36.64820101878938,75.10931975305789,1.3861275547856733,-2.429234258273432,-39.043441088395156,1.0592437101960386,-3.0898749609966654,-1.853945878702565,0.36882362837004834,-49.22393742616368,16.675152858236718,136.6061373125435,3.0062900856137276,22.747406363487244,-4.917847737669945,-5.173945314917992,6.194260138470483,0
GUIDED_NOGPS,1.2931864261627197,25.85310288715205,-46.317197779247145,17.30116236970135,140.59108635860758,-5.125599593861402,-28.11931696492127,36.915282587385065,74.56913312968048,1.3236812696383624,-2.327213430188244,-39.19202502359961,1.0490829501459862,-2.762455895662646,-1.5879738844895182,0.36795609354214576,-49.57217191739693,17.134049279307767,135.67033082681286,14.195133745670319,25.65140426158905,-12.055636942386627,-4.84896767300523,9.804755336573521,0
GUIDED_NOGPS,1.3220548629760742,34.64534461111478,-46.12952066019668,17.825221302236056,140.3636441330097,-4.902258044877665,-27.179844637672666,37.18539470612009,74.0107662720558,0.9934325519232544,-2.3451413960990584,-39.365002979424766,0.8481966806821297,-3.0906783858036415,-1.394866094611833,0.3672942442780922,-49.57217191739693,17.134049279307767,135.67033082681286,17.031507194042206,28.30415368080139,-19.24302726984024,-4.84896767300523,6.112890387340828,0
GUIDED_NOGPS,1.3555729389190674,29.839742175994765,-45.851952090640694,18.32914866391698,139.98725137231955,-4.722401513418894,-26.231704024084635,37.45799908473445,73.43444297493387,0.8881193058538559,-2.340127183474623,-39.47025277944008,0.9533754066579355,-2.854565590721129,-1.7599823960290666,0.36689438320522866,-47.57109347679577,17.737218107590106,136.18473471538297,19.200170040130615,28.264647722244263,-22.934456169605255,-4.722354460510937,5.9812376373151865,0
GUIDED_NOGPS,1.3895046710968018,29.476530820209007,-45.4472246040435,19.014361835874872,139.59806558352037,-4.540157589128365,-25.276793884619284,37.732549801654386,72.84041174659538,0.774257277625393,-2.345540108391858,-39.592427788218686,0.677104849971593,-2.693632270520894,-1.6425967562296813,0.36648469232615,-45.63139825195101,20.960473866619356,132.95892198744463,20.493268966674805,28.926149010658264,-18.323156237602234,-4.102673487273022,2.98998339762137,0
GUIDED_NOGPS,1.4226336479187012,30.188966063266996,-45.09638496041376,19.702902747427412,139.0964887641609,-4.363437066331378,-24.317033623782,38.008494999839925,72.22894509251745,0.7708763339862367,-2.4427153441477447,-39.63619905551471,0.6317855886762694,-2.8392071326558033,-1.5584505122578045,0.36626491265671307,-45.63139825195101,20.960473866619356,132.95892198744463,17.342297732830048,29.867330193519592,-24.76901262998581,-4.102673487273022,3.3063310795499157,0
GUIDED_NOGPS,1.4626233577728271,25.011950480643083,-44.588602052015,20.528404391831828,138.65773714414632,-4.191379986418099,-23.354357391823477,38.28527858263231,71.60033879903949,0.5580823773638712,-2.3535301490603033,-39.70988313628081,0.5093463356113415,-2.5567582062945853,-1.6046241102980068,0.36588520330978636,-43.19273931702447,24.297130046606043,133.45580644576756,21.265466511249542,30.070626735687256,-21.273614466190338,-3.8063543505261306,2.9750622090492427,0
GUIDED_NOGPS,1.4932451248168945,32.66057731990874,-44.003051904561644,21.217990380047212,138.16693758212728,-4.086536399805604,-22.39070818644153,38.56234190960156,70.95491121702888,0.5510522984389298,-2.4127276120402152,-39.71249568363834,0.5761697863272094,-2.5698642406634256,-1.8117560653037041,0.3655759472698032,-43.51249426795441,21.040984052095556,132.4020780408379,26.323628425598145,29.670339822769165,-22.321145236492157,-4.0683657832577715,-0.926156575980804,0
GUIDED_NOGPS,1.5266475677490234,29.9477630056978,-43.49072234404714,21.88496025036653,137.674009264842,-3.991375544101666,-21.42803195448301,38.83912549239394,70.29300254554676,0.35703904083699867,-2.268998874118579,-39.71988936341488,0.5834119016569116,-2.708917775678894,-1.8233732533532816,0.3652379865614095,-42.67376280716219,21.526663857535354,132.1002794320633,22.290869057178497,31.123435497283936,-19.197261333465576,-3.9987926511021072,0.44468800365014266,0
GUIDED_NOGPS,1.5599305629730225,30.050754438505738,-42.679486573729015,22.84696346303443,137.05704436323947,-3.9400285156625685,-20.468271693645725,39.11507069057947,69.61497411551389,0.23338993849728934,-2.216989544909871,-39.700112550673104,0.12148350561504259,-2.234905999207824,-2.056653534081642,0.36511585950454883,-36.62448794545933,28.229330693852994,131.24327197472132,25.076153874397278,31.290203332901,-24.598124623298645,-3.5450053568532987,-3.0947271233078664,0
GUIDED_NOGPS,1.5935697555541992,29.731444004168054,-41.98034328596044,23.773544281360312,136.56777621170608,-3.843821792475472,-19.513361554180356,39.38962140749942,68.92120767337634,0.15814155764827376,-2.1864289306857065,-39.638985772696074,0.1183834484818782,-2.415592667411694,-1.73425255423787,0.36470686292334054,-38.08075163658551,28.471896974599318,130.09125290465568,23.035143315792084,29.746848344802856,-13.499206304550171,-3.5321560226555517,0.07452227304330505,0
GUIDED_NOGPS,1.627737283706665,29.272865587683118,-41.22737962484797,24.72443299873617,135.84793552707762,-3.8339929799572126,-18.565220940592333,39.66222578611377,68.2121046647713,0.09831611747111718,-2.2463625599920993,-39.55286391745138,0.04560440538403804,-2.3337395733918536,-2.2428112932989364,0.36472833827538736,-36.94015533557194,29.098084078329794,129.88211271260604,24.426278471946716,30.96834123134613,-27.62654423713684,-3.5119985286604862,-4.768419729416239,0
GUIDED_NOGPS,1.6607639789581299,30.28269015559005,-40.500416680108,25.686242135776656,135.19510887450053,-3.7684708451547855,-17.625748613343724,39.9323379048488,67.48808551819286,0.031053775226580316,-2.0841694728663915,-39.46316987327078,-0.06419913110585197,-2.381389635875402,-1.8642795845774267,0.36458595328738463,-37.20186080616939,29.60028571709017,128.44002519160068,24.699875712394714,31.854793429374695,-19.599728286266327,-3.585335023280936,-0.7172764244745616,0
GUIDED_NOGPS,1.6956164836883545,28.698428337815,-39.75421137961879,26.598209002511467,134.44530212922734,-3.742084896352563,-16.696816790555225,40.199419473444486,66.7495889286578,-0.03718944621579384,-2.1246524309638803,-39.348600280132985,-0.026567601743694658,-2.3507921216026695,-2.0879409955142942,0.3646085735988609,-38.077843559493246,29.799045191594917,127.37950708725737,30.581608414649963,30.976536870002747,-23.339000344276428,-3.6123305161308865,-2.3466907818235936,0
GUIDED_NOGPS,1.7277123928070068,31.161711169556753,-38.89055117431924,27.53460703913959,133.86057051849508,-3.689289705818765,-15.780265249707938,40.462941528802055,65.99707114137132,-0.05094429994586237,-1.9411395486742122,-39.22072206339742,-0.11297603407641135,-2.156378694633067,-1.8971350903994209,0.36427300124575246,-34.07042585600601,31.494542768073714,126.77085525862205,27.66420543193817,28.780707716941833,-11.93189024925232,-3.6623438189655384,-0.35936480029066736,0
GUIDED_NOGPS,1.7623958587646484,28.835948134805506,-38.02620344446647,28.448944539098687,133.1207231880768,-3.660683094103903,-14.877895429345351,40.722386130831495,65.23100523539287,-0.05094429994586237,-1.9411395486742122,-39.22072206339742,-0.09968944612491559,-2.136204897679378,-2.031299561301247,0.36422056409463216,-32.91360087305749,31.680575496380015,126.45591544494302,26.060473918914795,28.997856378555298,-21.707776188850403,-3.729806625179621,-1.232020237698497,0
GUIDED_NOGPS,1.7949633598327637,30.713551353963766,-37.0643827279528,29.412055493847753,132.30082735020378,-3.732795332684338,-13.991464530775325,40.97724805829898,64.45188040730187,-0.21697814118008585,-1.945300627982631,-39.030876955416915,-0.2889634117831974,-1.9461874843162505,-2.682324134671152,0.3643021061141962,-31.491903139747926,32.56957742029221,125.63627224573432,29.43745255470276,30.699422955513,-24.98847097158432,-3.8293973182462806,-6.923326910195514,0
GUIDED_NOGPS,1.8289310932159424,29.443836828102295,-36.03182873566305,30.50055945425491,131.39743675854055,-3.7700725007106186,-13.122679619771738,41.22703650467447,63.660201254863615,-0.23617577522458183,-1.7871676614316727,-38.89428000220583,-0.4934377571480394,-1.7925739073342049,-2.4811816392257855,0.3645255289926461,-31.1505120408506,36.60512312818959,123.3543181043203,36.483171582221985,31.028375029563904,-25.345292687416077,-3.9264000744934093,-3.931577268343461,0
GUIDED_NOGPS,1.8636369705200195,28.819700967458225,-35.007994524270806,31.513278302108336,130.50937855280083,-3.848610164936194,-12.273191728276707,41.47127677397913,62.85648706069486,-0.10520897896285009,-1.7359654684837893,-38.709400441751924,-0.4685522313050851,-1.7586317317357156,-2.777684836551481,0.3646942170157881,-29.528528477369406,35.771543642282296,123.0018773127055,32.09649920463562,29.573869705200195,-24.095971882343292,-4.069969510120613,-5.967473525477141,0
GUIDED_NOGPS,1.8970327377319336,29.947549177108993,-33.889039857352756,32.50127303799127,129.49010095672563,-3.9144516505163716,-11.444589956102256,41.709511976632854,62.04127107592974,-0.20161603188052224,-1.7641847152048145,-38.6449029654195,-0.4577909249911634,-1.5718190723962757,-2.730174860251776,0.36510234023840826,-26.823116952015575,36.55806194345607,120.89941161250715,33.405521512031555,29.137563705444336,-28.24135720729828,-4.394072807090581,-3.9799490949323144,0
GUIDED_NOGPS,1.9355554580688477,25.96674219630276,-32.774511591201865,33.47717843065846,128.53356850005915,-3.9383120509054605,-10.63839557263234,41.94130472530178,61.21509980388552,-0.1628786673636478,-1.675157681685341,-38.517219409075274,-0.41696313059174134,-1.558707878587602,-2.4894606352704103,0.3653630626076527,-26.823116952015575,36.55806194345607,120.89941161250715,34.7863495349884,29.374250769615173,-24.991247057914734,-4.394072807090581,-1.3925630870877064,0
GUIDED_NOGPS,1.9634733200073242,35.82792906686712,-31.46504400109395,34.44226832803596,127.57870488709479,-4.015638880183205,-9.856056118524712,42.166238830745726,60.378532283728354,-0.2107691790594269,-1.6014867276890545,-38.39138000380696,-0.750182881923867,-0.9700038153235241,-2.951949058270868,0.3655996547932671,-23.08182620518091,37.66407069492233,120.3953945891497,40.54061472415924,29.90427017211914,-26.377010345458984,-4.591929736943134,-3.897958223475012,0
GUIDED_NOGPS,1.9991400241851807,28.06831200813748,-30.16293923949925,35.30430570287266,126.6480650289245,-4.080964108894627,-9.098939507412773,42.38392099766582,59.532139374139035,-0.09763240486302832,-1.6750876722463484,-38.33244913164809,-0.44480079200172573,-1.0774056427544143,-2.8270805417368305,0.36576814869042906,-20.011528221791135,38.48084769578526,119.84508468912955,40.58948755264282,29.65279221534729,-28.587177395820618,-4.703181292391859,-2.620192473645237,0
GUIDED_NOGPS,2.029710054397583,32.685010714981495,-28.809968421430803,36.25715298570931,125.73141255649782,-4.129652117455601,-8.368328127607619,42.59398252055181,58.676503036978836,-0.1825606311894065,-1.5603897996182052,-38.19607757467961,-0.7227271019342831,-0.8099376806215832,-2.7844163591510265,0.36589018096096204,-19.105532669312606,38.73735380565908,119.50546442042562,35.69433391094208,28.61320972442627,-23.866263031959534,-4.764994262793891,-1.6588813408932006,0
GUIDED_NOGPS,2.0655343532562256,27.921261624694612,-27.45563164290338,37.17135015582654,124.86234788051613,-4.22036901525708,-7.665412943799858,42.79608097952972,57.81221562095525,-0.17879714359587656,-1.3632392707118433,-38.12538511676998,-0.659179471780073,-0.7737872546642368,-3.0674917526416947,0.36589973548087823,-16.31460290499482,40.07891458118185,118.40422310873592,33.40703547000885,27.364644408226013,-21.492290496826172,-4.921615483992419,-3.7357318391771,0
GUIDED_NOGPS,2.0992894172668457,29.629788707022612,-26.030653367572285,38.109185595055585,124.09454649608398,-4.306287061773957,-6.991287598761339,42.98990193620932,56.93987914528777,-0.16066091027622997,-1.3305072966618496,-38.061003753653445,-0.6991141361097587,-0.6115198598594808,-3.064940830246636,0.36569066529840755,-11.35473725504503,41.45331685600583,117.48075220397034,23.678933084011078,24.150681495666504,-12.375935912132263,-5.140387999163185,-2.862002941491668,0
GUIDED_NOGPS,2.1306674480438232,31.87572862755827,-24.438071142214294,39.113077240397295,123.14386779909009,-4.295746222503817,-6.346942515047452,43.17516062953154,56.06010458337368,-0.3455184060174648,-1.269543376007843,-38.07625556607008,-0.9869572123763676,-0.04158558636303332,-2.51018086704391,0.3658324735685672,-10.39410457519786,42.70199896690745,117.17228005344583,36.19841933250427,27.992403507232666,-23.434168100357056,-5.253190646102968,3.347125238141463,0
GUIDED_NOGPS,2.1648263931274414,29.283288650580875,-22.806207659004794,40.01726132739166,122.26547010983681,-4.337370133335146,-5.7332589966987015,43.35160367161603,55.1735111464538,-0.18299907063718313,-1.0542048003936775,-38.02891894002731,-0.8017003866360332,0.017631829816881925,-2.8466458132255217,0.365816082073234,-7.617706881282278,42.308374750439555,115.63807709188792,38.41349184513092,28.726282715797424,-20.64337730407715,-5.2804845074525515,0.13814890025655885,0
GUIDED_NOGPS,2.198608160018921,29.6044834060334,-21.20830059851485,40.912737277599255,121.38843105185997,-4.396709680428515,-5.151003330942693,43.519010743608696,54.2807255672783,-0.40364123478101055,-0.8977072372621142,-38.10073154896082,-0.8586192103551847,0.11882596542028778,-2.9880646248076106,0.36578458903083666,-7.617706881282278,42.308374750439555,115.63807709188792,35.41693091392517,26.795285940170288,-20.166103541851044,-5.2804845074525515,-1.0435267601217146,0
GUIDED_NOGPS,2.2344167232513428,27.931674247317915,-19.553257503316715,41.83191990114084,120.53054053743898,-4.429007905929566,-4.600820889896163,43.677196291529114,53.38238138377248,-0.2710384481305021,-0.7040110765284862,-38.092398718173406,-0.8997410451351675,0.27176666732644694,-2.8383201829129208,0.365703681692667,-5.705655752824336,43.85336037022007,114.88098700052383,38.124287128448486,26.767513155937195,-19.02690827846527,-5.3725461695877925,0.8103385523287787,0
GUIDED_NOGPS,2.267632246017456,30.1118090903217,-17.813972403671396,42.73748816255864,119.725171021092,-4.433481895876681,-4.083230232266764,43.82601122211806,52.47911822270254,-0.2888892542480362,-0.49506294329566103,-38.15462515660681,-1.0018786122615273,0.6819968996421554,-2.6870170780760994,0.36550789440322107,-3.4311329581751018,44.31526746007647,114.87179614228256,39.64862525463104,26.151227951049805,-17.308984696865082,-5.265429461345046,2.1123775138083096,0
GUIDED_NOGPS,2.3001341819763184,30.77236410591265,-16.060564230870813,43.60465480596684,119.2017796200935,-4.449819734610532,-3.5986172050547722,43.96534459868507,51.57158108334127,-0.18329242192594988,-0.47100397547026135,-38.26592991932134,-1.0215944836979316,0.909229606266339,-2.770268091118232,0.36473960292649554,1.4553573634856984,45.48210916406299,114.16144588546518,34.49122607707977,25.948801636695862,-0.9727982804179192,-5.19251691695376,1.0940950261372562,0
GUIDED_NOGPS,2.335094451904297,28.608580587954435,-14.196097482753544,44.47912076220098,118.40300720483272,-4.460790456790006,-3.14722904525555,44.095125336955824,50.660419621134004,-0.2598846958550184,-0.20840673401939586,-38.390884815092136,-1.0126752476745384,1.10886672344359,-2.739240494586964,0.36451482483260256,4.561456824843136,46.51996618018933,113.07363300990218,38.19907605648041,26.07564628124237,-18.150627613067627,-5.1058576154723845,1.111456619955488,0
GUIDED_NOGPS,2.3676445484161377,30.726601418273457,-12.098064334514353,45.392984728239554,117.71959127131603,-4.488340379845006,-2.72916848156094,44.21532390091975,49.74628743136422,-0.1097272558205193,-0.14817249634824345,-38.51388969185489,-1.172092491497559,1.8314879097669645,-2.862068292911033,0.36405339232009637,10.417224339876071,47.72890594640756,112.00337746957791,36.7689847946167,24.48553442955017,-7.492602616548538,-5.099725910382141,0.012611944302428544,0
GUIDED_NOGPS,2.4014954566955566,29.552961070988196,-9.909602832300793,46.23596574018396,116.92805080428545,-4.487482756357293,-2.3443878360611947,44.32595399867744,48.82984133281947,-0.27977676803903423,0.10258808063184281,-38.69365685571505,-1.0779186717673477,2.0811899453745557,-2.687408920723029,0.363803581057068,15.466808538651343,48.329202126159096,110.52471479706884,37.39203214645386,23.055772483348846,-14.15824443101883,-5.058430284986341,1.5951851311277774,0
GUIDED_NOGPS,2.4351565837860107,29.711436019494503,-7.968296475555149,47.08023828036396,116.20960521065628,-4.399700113690396,-1.9926831259472735,44.42707427828821,47.91174065145703,-0.1239635578457944,0.30399371066941694,-38.811149769817604,-1.172708329097835,1.9198682870555817,-2.1180610334479706,0.36340427088160154,12.112418316308316,48.41780411359635,110.44579766587434,33.111757040023804,24.039840698242188,-10.589270293712616,-4.951600112257966,6.53886836842019,0
GUIDED_NOGPS,2.470501661300659,28.301073527526434,-5.795469467934936,47.99749869342254,115.33100194834884,-4.367650273790973,-1.6736881652123756,44.518790023617576,46.99264650406975,-0.15546644469072948,0.5311261820307697,-39.03017686102699,-1.2698675382613858,2.3534315028429678,-2.439348730150938,0.3633232891114418,16.744806801871945,50.47144280117753,108.71500744371987,40.73609411716461,25.7623553276062,-18.128487467765808,-4.809916032056929,2.680704107710142,0
GUIDED_NOGPS,2.5026304721832275,31.126560296846012,-3.8595835431624943,48.8616721902098,114.44362529234792,-4.267146543579086,-1.3868686663538412,44.601254850184695,46.07322108195184,-0.24348124951129227,0.6723662764952881,-39.2421142158779,-1.377190555364035,2.449402678566291,-1.9355481000746253,0.36325919157920783,17.614768965787274,50.831648295989595,107.75035279847214,27.51692533493042,23.846031725406647,-18.217308819293976,-4.587907539300536,6.230016605662322,0
GUIDED_NOGPS,2.535571575164795,30.363144102274536,-1.930711235683282,49.64403170476756,113.58139468884382,-4.191191692357599,-1.131516342075507,44.67467240101002,45.15412693456457,-0.24219834788609348,1.091244809540951,-39.45571813688629,-1.2901533357305868,2.5718769772575287,-2.053111844680899,0.36314546449144147,17.614768965787274,50.831648295989595,107.75035279847214,36.6719126701355,23.820853233337402,-20.48124670982361,-4.587907539300536,4.814391171398657,0
GUIDED_NOGPS,2.571807622909546,27.60482029208706,0.06358686089620069,50.47266148545344,112.6748208779062,-4.099877662286324,-0.9067430069888687,44.739298042462586,44.23602625320213,-0.49455233329434967,1.1993643562247256,-39.781675254646814,-1.3687710219711704,2.746870622487392,-1.9326088336135503,0.3631224107505918,19.680683823379695,51.91123169047851,106.47633652145491,36.6719126701355,23.820853233337402,-20.48124670982361,-4.258612248655189,4.814391171398657,0
GUIDED_NOGPS,2.605043649673462,30.093445069452418,2.0651601048928643,51.33675536254467,111.82430386322025,-3.9875966483093666,-0.7114746793156641,44.795440560107714,43.31958015465737,-0.46372139298944104,1.5123097501729583,-39.99818542114705,-1.4827313994726983,2.95677879944337,-1.7469296133394199,0.36299055258287427,20.88249627532307,52.52640223434223,106.07177170020448,35.22227108478546,24.57432746887207,-16.49255007505417,-4.10937316706325,5.629759090834092,0
GUIDED_NOGPS,2.6391327381134033,29.3375674106612,3.963353096151369,52.136137277852725,111.01098785432164,-3.8864437019581475,-0.5444456825896609,44.843463854554294,42.405447964887614,-0.6192436798127207,1.8234831369183957,-40.3564322582088,-1.4790523363498846,3.044090371541612,-1.740282346371559,0.36278892022113196,20.248835778399425,52.82121045129324,105.91471077979939,37.58825957775116,23.25773984193802,-16.58194810152054,-4.013590689166433,4.80579196323361,0
GUIDED_NOGPS,2.6707749366760254,31.61337101940833,5.756697675065424,52.884432538543834,110.22002560627757,-3.716359103257285,-0.4041927473577047,44.88378863730252,41.494286502680325,-0.8174742323815909,1.9804321328654146,-40.6918457728752,-1.5529268796966842,3.282792743184714,-1.1512310549006195,0.3625485217928055,22.15500215801646,53.6731224805926,105.0187526448394,33.49213004112244,22.202947735786438,-16.694052517414093,-3.80082840518058,8.721146678524645,0
GUIDED_NOGPS,2.7054359912872314,28.854595487066593,7.561847312017152,53.8547232556377,109.41762163413942,-3.505192941829734,-0.28904911288335455,44.91689412659118,40.58674936331907,-0.9588418059236653,2.270625739801512,-41.02352658916019,-1.8706556800872334,3.264592354764425,-0.884836557196623,0.3623382554583593,26.684677162975973,60.20171192198707,105.60167665880701,28.637275099754333,21.84447944164276,-22.329320013523102,-4.456008160180146,13.391470377307515,0
GUIDED_NOGPS,2.7394680976867676,29.389988228039687,9.297639638948393,54.607478729632625,108.48506956663464,-3.225479518937663,-0.19713862884687927,44.94331974324532,39.6834862022491,-1.0320373147206954,2.266777355091033,-41.25920909666065,-1.652809603740989,3.366597804725948,-0.2924566941320961,0.36239683327122896,23.84296312611705,54.36148308330967,103.35119229611935,28.637275099754333,21.84447944164276,-22.329320013523102,-3.114302583566556,13.391470377307515,0
GUIDED_NOGPS,2.7850935459136963,21.9202274437662,10.88853773174545,55.33997339154018,107.74461669512135,-2.947391142166935,-0.12636985704855164,44.96366680652361,38.78514201874329,-1.3198019356332067,2.5642478882575435,-41.962257543402984,-1.7427985004866795,3.4021557459897713,-0.0731907063703523,0.36208105064724383,25.007530217650647,55.4474870300661,102.24795190926622,22.44052141904831,20.851637423038483,-10.091790556907654,-2.587293411117226,12.06804950863126,0
GUIDED_NOGPS,2.805513858795166,48.992010465822545,12.429990540327205,56.06370447631114,106.79946858222075,-2.626577952768332,-0.07443017310995259,44.978600229965885,37.892356439567806,-1.3761947521851823,2.5532988815746016,-42.12210104545421,-1.798090479902935,3.455232737825429,0.3571471881529866,0.3621857757146941,25.816368635980535,57.0388585170441,100.92031071038375,24.32573437690735,19.521263241767883,-22.738313674926758,-1.9148734228398463,13.354931426568886,0
GUIDED_NOGPS,2.846931219100952,24.146410827677126,13.842080150171483,56.762404378458044,105.89154597940384,-2.323240545634701,-0.0387798681754461,44.98885021724076,37.00576300264794,-1.5835787187372217,2.808836535548877,-42.570345870114636,-1.6522754450721067,2.977622587441581,0.06841514515182623,0.3622284340464882,25.793532655926818,57.746260678036876,100.40617022553207,18.662534654140472,17.584174871444702,-20.919840037822723,-1.5749154455894452,11.675289725693432,0
GUIDED_NOGPS,2.8817288875579834,28.74307173597215,15.25167994548372,57.4940991508626,104.75263007963405,-1.9383707283879783,-0.016646250615529823,44.99521395799287,36.125988440733806,-1.767227564480055,2.8682886365187836,-42.95924318107682,-1.9286592657367734,3.4382832428679255,1.052695103228278,0.3627467167221995,26.312033524915947,58.36561099246445,99.71811022070806,16.784468293190002,17.139223217964172,-25.12633502483368,-1.192648273750847,13.401905198812003,0
GUIDED_NOGPS,2.915114402770996,29.95781639489454,16.560631970057546,58.144542657545166,103.83320917742593,-1.650790975598223,-0.005017747726888899,44.99855732369067,35.25365196506634,-1.9925693790205274,2.9273309261384894,-43.40314400542512,-1.9197628331921968,3.4878603500501937,0.729874430800695,0.3628408855752808,26.312033524915947,58.36561099246445,99.71811022070806,17.87058413028717,16.322629153728485,-23.058021068572998,-1.192648273750847,10.122587090542664,0
GUIDED_NOGPS,2.947816848754883,30.58744940747493,17.810264113417663,58.72093103600737,102.92211370480607,-1.347889147460173,-0.0006380074362013488,44.99981656347361,34.38936454904274,-2.093610715290053,2.885659301682007,-43.85621094363958,-1.893560680424264,3.5514480922085556,1.042793610299325,0.36293450168847335,28.235359552773208,58.80788767449844,98.35995494583617,16.191287338733673,14.38676118850708,-22.77091145515442,-0.5094131057497013,10.072823186023596,0
GUIDED_NOGPS,2.9914934635162354,22.899547392730984,18.870558504423315,59.24883633398261,102.12425888633977,-0.9938653973767118,-2.1316282072803006e-14,45.00000000000002,33.53372821188255,-2.1491403666856685,2.9512214337513134,-44.213825988203105,-1.69530641072251,2.9455092107608083,1.0304597937232565,0.36281893865108555,27.04365407384269,59.63691560937801,98.00107187417896,10.57744100689888,10.8107790350914,-17.11486130952835,-0.17845061513933622,12.934427415222466,0
GUIDED_NOGPS,3.025480270385742,29.429375320128262,20.25216806763909,59.98660751661466,101.04657638341361,-0.5940580755351188,0.0,45.0,32.68733530229321,-2.0883719601966533,2.9467397624387273,-44.70419600456959,-2.2551875666317778,3.899814283394183,2.0205474209791507,0.3632815178377592,28.376787229926276,60.55830971409025,96.73565713023658,8.963535726070404,9.953359514474869,-20.010696351528168,0.4220309919711347,10.572051957743584,0
GUIDED_NOGPS,3.0582778453826904,30.494936055430745,21.185578365673518,60.473161649906366,100.15662031016942,-0.2631417676389883,0.0,45.0,31.85076778213603,-2.1220089343116735,2.7092210012685913,-45.09894337255589,-1.9539961361525096,3.318768292414859,1.8317844332760964,0.3633882949439332,28.547524900511803,61.03196887934148,96.08725223813835,6.991416960954666,9.118571132421494,-22.08799123764038,0.7950548345017425,9.998050543858529,0
GUIDED_NOGPS,3.0919995307922363,29.659121604898985,22.10292264952573,60.94085998781454,99.27441566408842,0.05727819169489372,0.0,45.0,31.02459651009184,-2.2170924246342443,2.8048938088504873,-45.49348583486709,-1.9721876106137208,3.347664793213116,1.9350283826008914,0.36350036169200683,28.36345881460427,61.497428088321215,95.50594146046507,10.459382832050323,8.705354481935501,-22.492273151874542,1.236450017509512,8.916408980290615,0
GUIDED_NOGPS,3.125732898712158,29.650315639160464,22.992101667927507,61.405452591059344,98.39973030358533,0.37675328478521464,0.0,45.0,30.209380525326765,-2.2189653905707085,2.7233402829434774,-45.81219612191823,-2.02814386245828,3.38315130997992,2.133354882904586,0.3636193004434829,28.61076070782353,61.88813591856719,95.06204119352152,10.459382832050323,8.705354481935501,-22.492273151874542,1.4263187741581,8.916408980290615,0
GUIDED_NOGPS,3.1588871479034424,30.167686808167844,23.846992400765714,61.850131631435424,97.4724864537108,0.7281404151739406,0.0,45.0,29.40566633115799,-2.072158585210924,2.7209977415015745,-46.02860383558091,-2.057174186975233,3.400327276701532,2.541310562618354,0.36386635975489434,29.340617789781408,62.71787557191366,93.88756919028944,9.32943969964981,6.976847350597382,-24.85499680042267,1.9813312020496145,10.102199829643823,0
GUIDED_NOGPS,3.1937437057495117,28.69685753186598,24.468939970271087,62.234860886743235,96.61346516731486,1.0610553546740977,0.0,45.0,28.613987178719697,-2.095440992544205,2.777279780922949,-46.43861667636219,-1.9914569878689914,3.0640074346035995,2.5596840761795217,0.36400104402280964,29.340617789781408,62.71787557191366,93.88756919028944,-1.9427457824349403,5.356165394186974,-23.362044990062714,1.9813312020496145,9.909471528059926,0
GUIDED_NOGPS,3.22594952583313,31.054426452840527,25.07705286660659,62.609174471903316,95.75235953432527,1.3559211156364193,0.0,45.0,27.834862350628754,-2.1395091596257156,2.7502838851152966,-46.689424637779645,-2.065568978212244,3.1538556261755164,2.646259875942529,0.364165005632607,29.431344344543596,63.24525163736206,93.08569556157823,-2.439170889556408,3.4406159073114395,-21.76462709903717,2.320488973234799,6.885615728240581,0
GUIDED_NOGPS,3.25976824760437,29.573798695575533,25.604944065020206,62.91712122593408,94.80651353858642,1.7063301447013939,0.0,45.0,27.068796444650246,-2.0967987060851567,2.6651701231034175,-46.99711782969955,-1.9763425603711662,3.02196044516373,3.0816125995982766,0.36452456581212767,29.544454234719726,63.6630833446406,91.91273367282577,-0.8319838903844357,2.3546049371361732,-29.20222580432892,2.8923985183666394,10.564817079865248,0
GUIDED_NOGPS,3.2936453819274902,29.52238301706177,26.136523124644956,63.24970790618033,93.84151670958926,2.0364743431789987,0.0,45.0,26.316278657363796,-2.0409945664622713,2.711198554476722,-47.198799655511685,-2.06054735024772,3.06475252471911,3.1689246332577206,0.3649495238955491,29.718011057088006,64.44183140105149,90.62952082650432,-1.049255020916462,1.6848571598529816,-26.905882358551025,3.25276790649444,8.285702482142469,0
GUIDED_NOGPS,3.326322317123413,30.61133573691048,26.579487294641954,63.53919537160724,92.94286176183417,2.3347588798361265,0.0,45.0,25.577782067828736,-2.0220527443465337,2.6394440021511527,-47.45848686285015,-2.051306623100296,2.9913909652980952,3.2333186744745115,0.36526984061198914,29.89994652449716,64.50739956206864,90.18281953376061,-3.717738389968872,0.7011131849139929,-23.93408864736557,3.4044045539374093,6.852293796601028,0
GUIDED_NOGPS,3.3606696128845215,29.118618180808376,26.939651750538243,63.79726055598984,91.96790526136527,2.5726599828426036,0.0,45.0,24.853762921250308,-1.9941112942256578,2.5956582207031396,-47.621376629271204,-2.012284894203086,2.8645380597711863,2.937076442656361,0.36577171531977004,29.79461082007711,64.66768382828478,89.82118832887384,-5.860330164432526,0.38533350452780724,-31.65152072906494,3.5615206449082626,4.239367790459038,0
GUIDED_NOGPS,3.3951568603515625,29.004045335417086,27.287550506924607,64.04479544852134,90.9596272077979,2.8247294634173366,0.0,45.0,24.14465991264524,-2.0036419694387644,2.5901799821019664,-47.715496636033976,-2.023600681620419,2.8607823458517063,3.1472720536033814,0.3663700654096947,29.83937666611032,64.84184990595371,87.41180874636206,-6.391484290361404,-0.5489375442266464,-27.011412382125854,4.320997735007932,3.0511496626295385,0
GUIDED_NOGPS,3.4333224296569824,26.20424585473129,27.48910790593551,64.24778027586134,90.00234109698691,3.0906507782410744,0.0,45.0,23.450893470507708,-1.9718540555981134,2.4893565715556463,-47.85718208017672,-1.9499536319103765,2.636026931531513,3.2439463671906523,0.3668971047470416,29.39923645486093,65.04861612770378,86.56335464764521,-11.691255867481232,-2.2537996992468834,-23.50960522890091,4.527643986710764,3.934020768519033,0
GUIDED_NOGPS,3.4696080684661865,27.563096779281203,27.671874489891255,64.49393774535093,88.93924724338763,3.327010764524625,0.0,45.0,22.77286504047484,-1.880915636328094,2.520729551404219,-47.942115482505834,-2.0552719647379534,2.62790269297925,3.301244517161867,0.3676672355941744,28.437040577316232,65.36124448228671,86.41765944824604,-13.276860117912292,-2.36527007073164,-26.723766326904297,4.534145192891026,1.5899238577544577,0
GUIDED_NOGPS,3.5007407665252686,32.126474463065655,27.73602662932784,64.65538267918885,87.91573414836844,3.509701637745018,0.0,45.0,22.11095636899273,-1.9084735286383916,2.4437972888009574,-47.96687491824713,-1.9872046059017328,2.4821997851902617,3.278576800903914,0.3683904444412486,28.31322130725828,65.40586954116921,86.08715410388777,-12.756133079528809,-2.675224654376507,-32.93130695819855,4.632977509291779,0.6733214357620322,0
GUIDED_NOGPS,3.5355799198150635,28.707856785966065,27.728560156892275,64.75322257329765,87.04154354437519,3.699269699360693,0.0,45.0,21.465528786982105,-1.8097728128200645,2.3591383746991186,-47.99330775033508,-1.8773776768539707,2.3686649642930586,3.3075484632585264,0.36884797048521384,28.448359806278116,65.28404501582315,85.14015176085405,-14.073964953422546,-3.678334504365921,-27.419227361679077,4.801162201328021,2.672386217961536,0
GUIDED_NOGPS,3.567686080932617,31.157544422654066,27.76470414712366,64.82886655064442,86.11444613486587,3.833272791638984,0.0,45.0,20.836922493504176,-1.7421165874399147,2.3529461678862673,-47.954799143794546,-1.871153574632159,2.4354841251318873,3.134961715370554,0.3694449527172766,27.848487021876196,64.96726172511632,83.93621683758113,-10.932935774326324,-5.223114043474197,-24.116097390651703,4.984674040061508,-1.8860399857528962,0
GUIDED_NOGPS,3.6011228561401367,29.912735882696943,27.67683821413688,64.86725712079848,85.2495764820516,3.939953243655958,0.0,45.0,20.225455839426218,-1.7544079397381758,2.2893396043537004,-47.89993564928642,-1.8050948653375236,2.240589986281595,3.003045075167305,0.3699517587147493,27.122886123604943,65.04569834488989,82.7689268543342,-14.324331283569336,-5.7974811643362045,-23.566870391368866,5.071879401734462,-2.030083339263176,0
GUIDED_NOGPS,3.634399175643921,30.055707232481314,27.559121622772047,64.98075019822424,84.36260440158698,4.025715570898067,0.0,45.0,19.631424611087738,-1.6409187971497134,2.2377791466395087,-47.78002143312309,-1.925976126924835,2.174001831536286,2.9297021704359154,0.3705376404190015,26.350534771414047,66.74011645493823,82.07270049171487,-14.324331283569336,-5.7974811643362045,-23.566870391368866,4.704041738675285,-2.030083339263176,0
GUIDED_NOGPS,3.6682262420654297,29.567335889916535,27.270644693697065,65.0680183207623,83.57701425453587,4.103370151322216,0.0,45.0,19.05510131396582,-1.5444285013015318,2.089093398927736,-47.59524091041215,-1.8752390095222256,1.8980341779976415,2.9218003478392474,0.3709561741188599,26.350534771414047,66.74011645493823,82.07270049171487,-24.69261735677719,-6.5666839480400085,-19.737431406974792,4.704041738675285,-1.8837934938461969,0
GUIDED_NOGPS,3.704216957092285,27.789914463091918,27.003672709610214,65.14097826486578,82.64971705274624,4.0781844255683115,0.0,45.0,18.49673445634113,-1.2946258583525396,1.9742644720448932,-47.35571983659814,-1.8550075802337789,1.931196287097364,2.306497150176989,0.37169403480718977,25.179172501511363,66.8706652632511,80.95877239146024,-19.205300509929657,-7.1954600512981415,-26.91141366958618,4.502900271050535,-7.152995009244955,0
GUIDED_NOGPS,3.736240863800049,31.232251627027267,26.699786397950827,65.18283669126151,81.70087112892946,4.092649202663515,0.0,45.0,17.956547832963707,-1.2844574142256833,1.8323514972254227,-47.19238269278646,-1.813246207693801,1.8050474608035822,2.545671366941461,0.3725113534080685,23.73736973403058,66.63245072002029,80.39592691775641,-17.42991954088211,-8.154738694429398,-26.4626681804657,4.431829143563087,-4.443286076337531,0
GUIDED_NOGPS,3.770820379257202,28.924040245222777,26.366571291138897,65.10636301753368,80.84836183739762,4.060920588514774,0.0,45.0,17.43473980871866,-1.1610728216337531,1.7857692869208184,-47.01237305721077,-1.6279680974146007,1.779923374105794,2.25287414567845,0.3731727559426421,23.172968266748697,64.9238877999426,79.4481118154807,-16.309665143489838,-8.865338563919067,-25.870195031166077,4.613866243126386,-6.472604861300488,0
GUIDED_NOGPS,3.803859233856201,30.274384126227957,25.829253696073692,65.03247998654784,79.9600857072216,3.973854107665655,0.0,45.0,16.93148260229202,-0.9451402330052082,1.5283222749084069,-46.59225153645787,-1.5920892500627155,1.4051974461764383,1.8576982086038567,0.37394279379014084,22.36581269671644,64.67909448209284,78.6630126496149,-27.78223752975464,-8.193180710077286,-24.900786578655243,4.388430832868222,-9.195324877689965,0
GUIDED_NOGPS,3.842036724090576,26.197044458046545,25.232925213267293,64.93366724264087,79.15051242932844,3.886026743399675,0.0,45.0,16.44692156983635,-0.7098755943437355,1.4798429795618315,-46.047205855785435,-1.5624275070808193,1.3852793592783494,1.870346258220648,0.3745928182810158,21.46142899990344,64.55009129175383,78.45845693525689,-28.82087230682373,-8.656883984804153,-23.551160097122192,4.315903720955296,-8.480578878220333,0
GUIDED_NOGPS,3.871114492416382,34.398149818754405,24.702340873956416,64.81379347281376,78.20907360357405,3.7663942600397617,0.0,45.0,15.981174488636867,-0.6262827233609477,1.3045250436157096,-45.6980431703198,-1.4601040020536424,1.2106779301764534,1.4307852648229828,0.3755442017701256,19.252299327611702,63.86368063226227,76.93191793878408,-18.421155214309692,-7.92626217007637,-28.117558360099792,3.8002385406646058,-8.774337630459765,0
GUIDED_NOGPS,3.9054532051086426,29.125088535518366,24.055585494536757,64.73707688772727,77.51572594758768,3.5825691720644715,0.0,45.0,15.534330840776732,-0.5528128330583535,1.1252944764922281,-45.323772709465196,-1.5426938758715494,1.1393975477542966,1.090588616877546,0.3760372097863781,18.659234389023446,65.51157507190906,77.57803342387518,-25.41721761226654,-8.815040439367294,-25.006160140037537,3.226821726652763,-10.544761936914798,0
GUIDED_NOGPS,3.938098907470703,30.63749716948744,23.31134294106179,64.67599849839712,76.72586091189005,3.361526928443785,0.0,45.0,15.10645109680334,-0.46681189350631314,1.0479843123287942,-44.91278656672719,-1.533775066734256,0.8669123510387664,0.6594159131468322,0.3767611803698266,18.659234389023446,65.51157507190906,77.57803342387518,-32.0687860250473,-8.310925960540771,-25.519827008247375,3.226821726652763,-13.065690844465417,0
GUIDED_NOGPS,3.9720895290374756,29.425865383266217,22.542492366856127,64.538417323915,75.88771426014122,3.132507591072693,0.0,45.0,14.697565999393618,-0.31286023002701907,0.8747351766492456,-44.25302444384981,-1.407351793301472,0.8205818003075096,0.530067223221417,0.3776197034785048,17.608787740912103,63.37857967015586,75.3882880982692,-31.564471125602722,-6.720831245183945,-27.220535278320312,3.069530679915586,-13.046679866684332,0
GUIDED_NOGPS,4.019792795181274,20.965125636680813,21.757684152158056,64.38850332738033,75.02537675545052,2.895614304148732,0.0,45.0,14.307675847020306,-0.27199750273950707,0.8115778581371658,-43.752685766389696,-1.450010163747287,1.0656776718300465,0.7465503208860277,0.3785645981831396,17.09618346852973,63.084589935102485,75.01341423123137,-31.564471125602722,-6.720831245183945,-27.220535278320312,2.9259559858076596,-13.046679866684332,0
GUIDED_NOGPS,4.059311389923096,25.308971543047477,20.78991478108693,64.23657139315775,73.8638010558459,2.5644959699841463,0.0,45.0,13.936749777617166,-0.35799876245666484,0.5798277253296349,-43.1117852109053,-1.373786612749162,0.5833022926147995,-0.140425326781505,0.38014589744354255,15.756537556444082,63.039908716409045,74.38491082495997,-32.98112750053406,-6.9756872951984406,-25.660565495491028,2.454309220662009,-15.669295776824455,0
GUIDED_NOGPS,4.08125114440918,45.5986867138493,19.90504156564348,64.0365483847673,72.94114796995675,2.1756626595570157,0.0,45.0,13.584725052245318,-0.34070194871384224,0.4435912513602532,-42.40929000948574,-1.055129156540912,-0.2753751032420755,-2.2566924331134484,0.38128715416457715,13.182626932796556,62.41845470644313,72.67590573048184,-31.166791915893555,-7.639094442129135,-22.370287775993347,1.220633052452465,-16.02675201948978,0
GUIDED_NOGPS,4.115255117416382,29.410802813247226,19.079920500693746,63.848629503236914,72.50034310308747,1.8069885514353676,0.0,45.0,13.251506338758503,-0.24044549722948608,0.39489229606275317,-41.822709948470454,-1.2483606309142083,0.4706242102399559,-1.073799621163817,0.3815023264713421,13.182626932796556,62.41845470644313,72.67590573048184,-34.308797121047974,-7.583355158567429,-21.456533670425415,1.220633052452465,-18.80699418152181,0
GUIDED_NOGPS,4.148789405822754,29.826373876436456,18.09848232613499,63.66033520912752,71.75800603968149,1.3751303851062677,0.0,45.0,12.93696499546948,-0.2527409583134197,0.2404505131496578,-41.25159343573608,-1.215174981502491,0.13396603564836132,-1.754835362490971,0.382357917911576,11.894837060628635,62.10339564085433,71.9687222614755,-34.1173380613327,-6.616555154323578,-20.91665267944336,0.6912975096107673,-18.874078592002384,0
GUIDED_NOGPS,4.183650016784668,28.68998727717964,17.08965437580101,63.45714239442927,70.90929001556071,0.8459809857820288,0.0,45.0,12.640938354815063,-0.2683919099096808,-0.02074872731632358,-40.40759379018678,-1.1866485564651872,0.0749855761656995,-2.5253292346156484,0.3834632966785087,9.259224728756836,61.7283699553586,71.005506097428,-30.24909496307373,-6.698589026927948,-28.434571623802185,-0.23226576707319832,-22.776717202606147,0
GUIDED_NOGPS,4.217921495437622,29.184263627381398,15.92401548851155,63.241956446955164,70.17951973806176,0.30903942524272715,0.0,45.0,12.363229007022511,-0.13381445153709817,-0.28298431558672216,-39.569092446919335,-1.1441204446940252,-0.2727347736122289,-2.9464242024201037,0.3843674185379215,8.614337330804254,61.57894714325177,70.64307942353065,-39.51257765293121,-7.160267233848572,-20.618176460266113,-0.503375157454472,-22.53936471385362,0
GUIDED_NOGPS,4.2499048709869385,31.27393654699325,14.70049791340525,63.021317086155825,69.48571084369274,-0.26323038325894543,0.0,45.0,12.103604083775025,-0.014602517558664136,-0.41339885370146134,-39.123152811103786,-1.0992867512340334,-0.5857208901292372,-3.738485464488494,0.38523578648016454,5.738173747938447,61.26801113541429,69.30432664663374,-39.51257765293121,-7.160267233848572,-20.618176460266113,-1.8484775717978903,-22.53936471385362,0
GUIDED_NOGPS,4.282715320587158,30.482746591470683,13.650351285567826,62.82517419389424,68.77947782080635,-0.8569452360684662,0.0,45.0,11.861794541877458,0.0037598590555333474,-0.7109441454228722,-38.27489795770156,-1.1326850666542467,-0.3540774269667018,-4.131386751333185,0.38616463344214225,5.205130023821324,61.18007748187762,68.95204692746348,-29.482734203338623,-5.756697803735733,-23.15089702606201,-2.2012734772722857,-23.929550681666747,0
GUIDED_NOGPS,4.317567825317383,28.69646485724646,12.518460038719128,62.62864141747588,68.20169583732601,-1.3859222211603857,0.0,45.0,11.637494446922318,0.04715661320554651,-0.966742413802666,-37.45478348367979,-1.139986954817261,-0.47006763936445267,-3.867694178499202,0.3868715972191926,4.279676416110499,61.1284605564106,68.6394424930475,-32.62339234352112,-5.76883852481842,-14.49950635433197,-2.5346510524949126,-19.52194081779831,0
