E-kp,E-ki,E-kd,E-I-Tot,E-P,E-I,E-D,E-PID,N-kp,N-ki,N-kd,N-I-Tot,N-P,N-I,N-D,N-PID,D-kp,D-ki,D-kd,D-I-Tot,D-P,D-I,D-D,D-PID,Y-kp,Y-ki,Y-kd,Y-I-Tot,Y-P,Y-I,Y-D,Y-PID,errorN,desiredN,actualN,errorE,desiredE,actualE,errorD,desiredD,actualD,errorY,desiredY,actualY,roll,pitch,yaw-rate,thrust,dt,Time,Mode
0.16,0.015,0.11,1.3251927649002073,6.397354297658652,0.01987789147350311,13.75,20.167232189132157,0.17,0.015,0.08,-0.331504371844009,-1.7003547785351003,-0.004972565577660135,-10.0,-11.70532734411276,0.002,8e-05,0,0.3096224869017925,0.018683741713814955,2.4769798952143403e-05,0.0,0.0187085115127671,0.2,0.02,0.0,-0.0005634901327474546,-0.0034003034482040367,-1.1269802654949091e-05,-0.0,-0.0034115732508589857,-10.002086932559413,-10.0,0.0020869325594131305,39.983464360366575,40.0,0.016535639633425282,9.341870856907477,10.0,0.658129143092524,-0.017001517241020184,0,0.017001517241020184,3.9988128941023597,4.001186753697047,0.0034115732508589857,0.5187085115127671,0.03314352035522461,0.03342938423156738,STABILIZE
0.16,0.015,0.11,2.6614582409850165,6.397196306327674,0.03992187361477525,6.873375001697311,13.31049318163976,0.17,0.015,0.08,-0.6659078434423695,-1.7009699680523567,-0.009988617651635542,-5.004331087358451,-6.715289673062443,0.002,8e-05,0,0.6219601721600425,0.018690948039712354,4.9756813772803405e-05,0.0,0.018740704853485158,0.2,0.02,0.0,-0.0010798169343363296,-0.0030898088432809827,-2.159633868672659e-05,-0.0,-0.0031114051819677094,-10.005705694425627,-10.0,0.0057056944256272096,39.982476914547966,40.0,0.017523085452033977,9.345474019856177,10.0,0.6545259801438241,-0.015449044216404913,0,0.015449044216404913,3.998921307853733,4.001078401330495,0.0031114051819677094,0.5187407048534851,0.03342127799987793,0.06681227684020996,STABILIZE
0.16,0.015,0.11,4.000559477242906,6.397036072484523,0.060008392158643585,4.58115364638028,11.038198111023448,0.17,0.015,0.08,-1.0011517982060152,-1.7015914028684955,-0.015017276973090228,-3.3391311792973783,-5.055739859138964,0.002,8e-05,0,0.9350951894324677,0.01869851160999149,7.480761515459742e-05,0.0,0.018773319225146086,0.2,0.02,0.0,-0.0015429369377484856,-0.0027654699356372717,-3.085873875496971e-05,-0.0,-0.0027963286743922415,-10.009361193344091,-10.0,0.009361193344090555,39.98147545302827,40.0,0.018524546971735497,9.349255804995744,10.0,0.6507441950042558,-0.013827349678186357,0,0.013827349678186357,3.999034552411515,4.000965214622446,0.0027963286743922415,0.5187733192251461,0.0334930419921875,0.1002969741821289,STABILIZE
0.16,0.015,0.11,5.532388934228447,6.396931861036119,0.0829858340134267,3.435397747860371,9.915315442909918,0.17,0.015,0.08,-1.3846690158943737,-1.7016690999885256,-0.020770035238415606,-2.504586960785074,-4.227026096012015,0.002,8e-05,0,1.2930936306640244,0.0186875538304215,0.00010344749045312196,0.0,0.018791001320874624,0.2,0.02,0.0,-0.0020164011458921926,-0.0024714878215742067,-4.032802291784385e-05,-0.0,-0.0025118158444920506,-10.00981823522662,-10.0,0.009818235226619367,39.98082413147574,40.0,0.019175868524257296,9.34377691521075,10.0,0.6562230847892495,-0.012357439107871033,0,0.012357439107871033,3.9991371949745016,4.000862618957501,0.0025118158444920506,0.5187910013208746,0.038314104080200195,0.13863706588745117,STABILIZE
0.16,0.015,0.11,6.873310965737732,6.397218554967426,0.10309966448606597,2.7494936069245997,9.249811826378092,0.17,0.015,0.08,-1.7203805630059887,-1.7016995345915813,-0.02580570844508983,-2.0037549781679598,-3.731260221204631,0.002,8e-05,0,1.6064633953639338,0.018687653217313065,0.00012851707162911472,0.0,0.01881617028894218,0.2,0.02,0.0,-0.002443758659712867,-0.002548525709154402,-4.8875173194257346e-05,-0.0,-0.0025974008823486596,-10.009997262303418,-10.0,0.009997262303418745,39.98261596854641,40.0,0.017384031453585448,9.343826608656533,10.0,0.6561733913434676,-0.01274262854577201,0,0.01274262854577201,3.9991700657367657,3.7321497322131947,0.0025974008823486596,0.5188161702889422,0.03353762626647949,0.17214632034301758,STABILIZE
0.16,0.015,0.11,8.211975118383691,6.396906125991931,0.12317962677575536,-0.0017894099368749323,6.518296342830811,0.17,0.015,0.08,-2.0556324391954446,-1.7021526271746024,-0.030834486587931666,-0.005028587918589892,-1.738015701681124,0.002,8e-05,0,1.919409482871519,0.018692951666831596,0.00015355275862972154,0.0,0.01884650442546132,0.2,0.02,0.0,-0.002853418183794796,-0.0024469855956691347,-5.7068363675895927e-05,0.0,-0.0025040539593450305,-10.012662512791778,-10.0,0.01266251279177818,39.980663287449566,40.0,0.01933671255043554,9.346475833415798,10.0,0.6535241665842006,-0.012234927978345673,0,0.012234927978345673,3.999628773319047,1.7388698211564042,0.0025040539593450305,0.5188465044254613,0.03348278999328613,0.20565295219421387,STABILIZE
0.16,0.015,0.11,9.549307927956901,6.396647658309976,0.14323961891935352,-0.0022018444514298606,6.5376854327778995,0.17,0.015,0.08,-2.3906371602805163,-1.7025222488700884,-0.035859557404207744,-0.004336124536499093,-1.7427179308107952,0.002,8e-05,0,2.232462340957171,0.018717188582996556,0.0001785969872765737,0.0,0.01889578557027313,0.2,0.02,0.0,-0.0032380304604412947,-0.002299567094627364,-6.476060920882589e-05,0.0,-0.0023643277038361897,-10.014836758059342,-10.0,0.014836758059341556,39.97904786443735,40.0,0.020952135562652803,9.358594291498278,10.0,0.6414057085017221,-0.01149783547313682,0,0.01149783547313682,3.999650199390974,1.7435205960587903,0.0023643277038361897,0.5188957855702732,0.03345084190368652,0.2391197681427002,STABILIZE
0.16,0.015,0.11,10.887826617820291,6.39671205613636,0.16331739926730438,-0.0012795555893957112,6.558749899814269,0.17,0.015,0.08,-2.7259671935545637,-1.7026828150046986,-0.04088950790331845,-0.0030412267888988574,-1.746613549696916,0.002,8e-05,0,2.546080984911108,0.018734592351994275,0.00020368647879288868,0.0,0.018938278830787164,0.2,0.02,0.0,-0.0035251959669942673,-0.0017154365043470007,-7.050391933988535e-05,0.0,-0.001785940423686886,-10.015781264733521,-10.0,0.01578126473352057,39.979450350852254,40.0,0.020549649147747012,9.367296175997138,10.0,0.6327038240028613,-0.008577182521735003,0,0.008577182521735003,3.999738487000407,1.7472123304259715,0.001785940423686886,0.5189382788307871,0.033480167388916016,0.272599458694458,STABILIZE
0.16,0.015,0.11,12.2268995149635,6.396718554459559,0.1834034927244525,-0.0008788890460203253,6.5792431581379915,0.17,0.015,0.08,-3.061364816766191,-1.7023229032957028,-0.04592047225149286,-0.0018390190030672608,-1.7500823945502628,0.002,8e-05,0,2.859939467632643,0.018741178917355217,0.00022879515741061146,0.0,0.01896997407476583,0.2,0.02,0.0,-0.0038868003795932836,-0.0021592193191846826,-7.773600759186567e-05,0.0,-0.002236955326776548,-10.013664137033546,-10.0,0.013664137033546577,39.97949096537224,40.0,0.020509034627754368,9.370589458677609,10.0,0.6294105413223909,-0.010796096595923413,0,0.010796096595923413,3.99967016546083,1.750836073205404,0.002236955326776548,0.5189699740747659,0.033493995666503906,0.30608034133911133,STABILIZE
0.16,0.015,0.11,13.562936373406279,6.396695049600025,0.20344404560109416,-0.002151009062938153,6.59798808613818,0.17,0.015,0.08,-3.3959568678893044,-1.702087041985642,-0.050939353018339566,-0.0010893389226169677,-1.7541157339265985,0.002,8e-05,0,3.172907924170016,0.01873043176131915,0.0002538326339336013,0.0,0.01898426439525275,0.2,0.02,0.0,-0.00442652863801417,-0.003230147672342445,-8.85305727602834e-05,-0.0,-0.0033186782451027283,-10.0122767175626,-10.0,0.012276717562599362,39.97934406000015,40.0,0.020655939999849843,9.365215880659575,10.0,0.634784119340425,-0.016150738361712224,0,0.016150738361712224,3.9995053847003095,1.755243198466263,0.0033186782451027283,0.5189842643952528,0.03341817855834961,0.3395044803619385,STABILIZE
0.16,0.015,0.11,14.899453324622119,6.396392482890713,0.22349179986933176,-0.002112405060843268,6.617771877699202,0.17,0.015,0.08,-3.7305403498218332,-1.7013515772918906,-0.0559581052473275,0.002254762750743459,-1.7550549197884746,0.002,8e-05,0,3.4857574037265975,0.01871570032736551,0.00027886059229812783,0.0,0.01899456091966364,0.2,0.02,0.0,-0.004915497407099922,-0.0029251744208174755,-9.830994814199844e-05,-0.0,-0.003023484368959474,-10.007950454658179,-10.0,0.007950454658179035,39.97745301806695,40.0,0.02254698193304533,9.357850163682755,10.0,0.6421498363172455,-0.014625872104087376,0,0.014625872104087376,3.9995518574698936,1.756075941092199,0.003023484368959474,0.5189945609196637,0.0334317684173584,0.37293243408203125,STABILIZE
0.16,0.015,0.11,16.242142651535072,6.396555292158763,0.24363213977302609,-0.00038342164241171047,6.639804010289377,0.17,0.015,0.08,-4.066650777260258,-1.7013025246646725,-0.06099976165890387,0.0034321967281384647,-1.758870089595438,0.002,8e-05,0,3.7998617048176158,0.018704862408985248,0.0003039889363854093,-0.0,0.019008851345370656,0.2,0.02,0.0,-0.005355214501647366,-0.002618508477540831,-0.00010710429003294732,-0.0,-0.0027256127675737785,-10.00766190979219,-10.0,0.007661909792191144,39.97847057599227,40.0,0.021529424007728875,9.352431204492623,10.0,0.6475687955073773,-0.013092542387704154,0,0.013092542387704154,3.999597979734311,1.7597840755554865,0.0027256127675737785,0.5190088513453707,0.033585309982299805,0.40652012825012207,STABILIZE
0.16,0.015,0.11,17.795349416080917,6.396800280200754,0.26693024124121373,0.00021918624239471943,6.663949707684362,0.17,0.015,0.08,-4.455598833083815,-1.7019784695428897,-0.06683398249625723,0.002246016679686282,-1.7665664353594606,0.002,8e-05,0,4.163503083930592,0.018720473417480166,0.00033308024671444735,-0.0,0.019053553664194613,0.2,0.02,0.0,-0.0059132439218761365,-0.0028727684822466397,-0.00011826487843752273,-0.0,-0.0029910333606841624,-10.011638056134645,-10.0,0.01163805613464534,39.98000175125471,40.0,0.019998248745290728,9.360236708740082,10.0,0.6397632912599183,-0.014363842411233198,0,0.014363842411233198,3.9995570025617613,1.7675691652090477,0.0029910333606841624,0.5190535536641946,0.038849592208862305,0.4453768730163574,STABILIZE
0.16,0.015,0.11,19.13222370237591,6.39700775517963,0.28698335553563864,0.0010456776196606401,6.685036788334929,0.17,0.015,0.08,-4.7905004008834755,-1.702677615370208,-0.07185750601325212,-0.0007332397084200267,-1.77526836109188,0.002,8e-05,0,4.476524218814317,0.01872276480961948,0.00035812193750514544,-0.0,0.019080886747124624,0.2,0.02,0.0,-0.00644198072743899,-0.0031625388044229097,-0.00012883961454877982,-0.0,-0.0032913784189716896,-10.015750678648281,-10.0,0.015750678648281367,39.98129846987269,40.0,0.018701530127308234,9.361382404809738,10.0,0.638617595190261,-0.01581269402211455,0,0.01581269402211455,3.999509902764725,1.7763722277666785,0.0032913784189716896,0.5190808867471246,0.033437490463256836,0.47880983352661133,STABILIZE
0.16,0.015,0.11,20.469564770958094,6.396732754564901,0.3070434715643714,1.198833225555411e-05,6.703788214461529,0.17,0.015,0.08,-5.125623948246733,-1.703138273039464,-0.07688435922370099,-0.002693630839119564,-1.7827162631022846,0.002,8e-05,0,4.7895070207876085,0.018713133358723093,0.0003831605616630087,-0.0,0.0190962939203861,0.2,0.02,0.0,-0.00684284690550868,-0.002396764998563687,-0.0001368569381101736,0.0,-0.0025336219366738607,-10.018460429643905,-10.0,0.018460429643905697,39.979579716030635,40.0,0.020420283969364295,9.356566679361546,10.0,0.6434333206384537,-0.011983824992818434,0,0.011983824992818434,3.9996270445617235,1.7835528529146063,0.0025336219366738607,0.5190962939203861,0.03345060348510742,0.5122647285461426,STABILIZE
0.16,0.015,0.11,21.80757531837749,6.396561225375697,0.3271136297756624,0.0005516955075810298,6.7242265506589405,0.17,0.015,0.08,-5.460736676034921,-1.7021854966959786,-0.08191105014052381,-0.0020847751082631906,-1.7861813219447655,0.002,8e-05,0,5.1027314550333935,0.018717708118978087,0.0004082185164026715,-0.0,0.01912592663538076,0.2,0.02,0.0,-0.00716241109847862,-0.0019096560278546082,-0.0001432482219695724,0.0,-0.002052904249824181,-10.01285586291752,-10.0,0.012855862917520828,39.978507658598105,40.0,0.02149234140189258,9.358854059489044,10.0,0.6411459405109566,-0.00954828013927304,0,0.00954828013927304,3.9997022792581105,1.7868478928442195,0.002052904249824181,0.5191259266353807,0.03346824645996094,0.545762300491333,STABILIZE
0.16,0.015,0.11,23.144503551862826,6.396536149856164,0.34716755327794235,-0.0002179566281616539,6.743485746505945,0.17,0.015,0.08,-5.795718764785299,-1.7028927194740646,-0.08693578147177948,-0.00421265457000541,-1.7940411555158495,0.002,8e-05,0,5.41587851129053,0.018728159965885963,0.00043327028090324243,0.0,0.019161430246789204,0.2,0.02,0.0,-0.0074958414512812325,-0.001994122844201834,-0.00014991682902562464,0.0,-0.0021440396732274585,-10.017015996906261,-10.0,0.01701599690626192,39.978350936601025,40.0,0.02164906339897781,9.36407998294298,10.0,0.6359200170570197,-0.009970614221009168,0,0.009970614221009168,3.9996877403101325,1.7947372085342943,0.0021440396732274585,0.5191614302467892,0.03344130516052246,0.5793054103851318,STABILIZE
0.16,0.015,0.11,24.495595755647038,6.396491213771782,0.36743393633470556,-0.001267865178845132,6.762657284927642,0.17,0.015,0.08,-6.134397590209901,-1.7036242107437822,-0.09201596385314852,-0.004612221664884729,-1.8002523962618155,0.002,8e-05,0,5.732414274604756,0.018732235883060458,0.00045859314196838055,0.0,0.01919082902502884,0.2,0.02,0.0,-0.007848187398282509,-0.0020851442890881763,-0.00015696374796565017,0.0,-0.0022421080370538266,-10.02131888672813,-10.0,0.021318886728129247,39.978070086073636,40.0,0.021929913926366357,9.366117941530229,10.0,0.6338820584697709,-0.010425721445440881,0,0.010425721445440881,3.9996723541547836,1.800980219118561,0.0022421080370538266,0.5191908290250289,0.033795833587646484,0.6129920482635498,STABILIZE
0.16,0.015,0.11,25.98385834860917,6.3965423304331415,0.3897578752291376,-0.0019322296825447663,6.784367975979734,0.17,0.015,0.08,-6.5074281842625075,-1.703488095098807,-0.09761142276393761,-0.0023001801890897957,-1.8033996980518343,0.002,8e-05,0,6.081057616214724,0.018730833383989447,0.00048648460929717795,0.0,0.019217317993286624,0.2,0.02,0.0,-0.008245557844912398,-0.0021348692888196867,-0.00016491115689824795,0.0,-0.0022997804457179347,-10.020518206463569,-10.0,0.02051820646356982,39.97838956520713,40.0,0.021610434792872186,9.365416691994723,10.0,0.6345833080052772,-0.010674346444098433,0,0.010674346444098433,3.9996639527287856,1.80414487671456,0.0022997804457179347,0.5192173179932866,0.03722667694091797,0.650252103805542,STABILIZE
0.16,0.015,0.11,27.319305648998498,6.396656169372574,0.40978958473497745,-0.0003332316849147792,6.806112522422636,0.17,0.015,0.08,-6.842200845848131,-1.7037472845970443,-0.10263301268772196,-0.00173434855396516,-1.8081146458387314,0.002,8e-05,0,6.3939925604141425,0.018736580253315673,0.0005115194048331314,0.0,0.019248099658148804,0.2,0.02,0.0,-0.008690018486336097,-0.002661151345299578,-0.00017380036972672194,-0.0,-0.0028349517150263,-10.022042850570848,-10.0,0.022042850570848968,39.979101058578586,40.0,0.020898941421414415,9.368290126657836,10.0,0.6317098733421644,-0.01330575672649789,0,0.01330575672649789,3.9995799950088546,1.809043514131568,0.0028349517150263,0.5192480996581488,0.033403635025024414,0.6836175918579102,STABILIZE
0.16,0.015,0.11,28.659066227803923,6.396816204136107,0.4298859934170588,0.0010281236620019775,6.827730321215168,0.17,0.015,0.08,-7.177982154189994,-1.703421534780913,-0.1076697323128499,-0.0034987997721528685,-1.8145900668659158,0.002,8e-05,0,6.707908115277054,0.01873525146810094,0.0005366326492221644,0.0,0.019271884117323106,0.2,0.02,0.0,-0.008934965038803071,-0.0014619011978292146,-0.00017869930077606144,0.0,-0.001640600498605276,-10.02012667518184,-10.0,0.02012667518184029,39.98010127585067,40.0,0.019898724149327394,9.36762573405047,10.0,0.6323742659495295,-0.007309505989146072,0,0.007309505989146072,3.99976847121973,1.8151003518827915,0.001640600498605276,0.5192718841173231,0.033510684967041016,0.7171330451965332,STABILIZE
0.16,0.015,0.11,30.00353775426918,6.396871739308838,0.45005306631403763,0.0013582999357916567,6.848283105558667,0.17,0.015,0.08,-7.514901998660056,-1.7032232002653527,-0.11272352997990083,-0.0009532901590718379,-1.8169000204043253,0.002,8e-05,0,7.0229083957358664,0.018734279159847704,0.0005618326716588693,0.0,0.019296111831506573,0.2,0.02,0.0,-0.009226546107437745,-0.0017341448488782968,-0.0001845309221487549,0.0,-0.0019186757710270518,-10.018960001560897,-10.0,0.018960001560897922,39.980448370680236,40.0,0.01955162931976388,9.367139579923851,10.0,0.6328604200761483,-0.008670724244391484,0,0.008670724244391484,3.9997249978365192,1.817505330343461,0.0019186757710270518,0.5192961118315066,0.033628225326538086,0.7507550716400146,STABILIZE
0.16,0.015,0.11,31.42188930848297,6.396814599286415,0.4713283396272445,0.001319660663325133,6.869462599576985,0.17,0.015,0.08,-7.870277282498599,-1.7029270066725801,-0.11805415923747899,0.0018696220804099814,-1.8191115438296492,0.002,8e-05,0,7.355259007979628,0.018736409550285407,0.0005884207206383702,0.0,0.019324830270923778,0.2,0.02,0.0,-0.009476099127254901,-0.0014068659456463804,-0.00018952198254509802,0.0,-0.0015963879281914784,-10.017217686309294,-10.0,0.017217686309295193,39.980091245540095,40.0,0.01990875445990825,9.368204775142702,10.0,0.6317952248572981,-0.007034329728231902,0,0.007034329728231902,3.9997766335019995,1.8196026189763805,0.0015963879281914784,0.5193248302709238,0.0354764461517334,0.7862277030944824,STABILIZE
0.16,0.015,0.11,32.76475151623149,6.39687937580993,0.49147127274347235,0.001396034524130839,6.889746683077533,0.17,0.015,0.08,-8.206742271546835,-1.7029642414162973,-0.12310113407320251,0.0014211537821507798,-1.824644221707349,0.002,8e-05,0,7.669809952714275,0.018729997383612917,0.000613584796217142,-0.0,0.01934358217983006,0.2,0.02,0.0,-0.009767420155325194,-0.0017346767462901804,-0.00019534840310650388,0.0,-0.0019300251493966842,-10.017436714213513,-10.0,0.01743671421351292,39.98049609881206,40.0,0.019503901187939973,9.36499869180646,10.0,0.6350013081935406,-0.008673383731450901,0,0.008673383731450901,3.999723741163478,1.8252497172122089,0.0019300251493966842,0.51934358217983,0.03358793258666992,0.8198144435882568,STABILIZE
0.16,0.015,0.11,34.1030781915614,6.396796590003633,0.511546172873421,0.0005873901496127812,6.908930153026666,0.17,0.015,0.08,-8.542024011781377,-1.7027043568043558,-0.12813036017672066,0.0028821308639797793,-1.8279525861170969,0.002,8e-05,0,7.983192767073127,0.018723437961832838,0.0006386554213658502,-0.0,0.01936209338319869,0.2,0.02,0.0,-0.009967604390410093,-0.0011960250960849077,-0.00019935208780820187,0.0,-0.0013953771838931097,-10.015907981202092,-10.0,0.015907981202092244,39.9799786875227,40.0,0.020021312477293742,9.361718980916418,10.0,0.6382810190835827,-0.005980125480424538,0,0.005980125480424538,3.9998091895382846,1.8283700676770205,0.0013953771838931097,0.5193620933831987,0.03347492218017578,0.8533003330230713,STABILIZE
0.16,0.015,0.11,35.44035252260433,6.39641353741578,0.5316052878390649,-0.0016438119978765087,6.926375013256969,0.17,0.015,0.08,-8.877146061673379,-1.7031306627100005,-0.13315719092510067,0.0007677670173448121,-1.8355200866177563,0.002,8e-05,0,8.296604157156708,0.018738758493437393,0.0006637283325725366,0.0,0.01940248682600993,0.2,0.02,0.0,-0.010142406443878036,-0.0010451354251098455,-0.00020284812887756074,0.0,-0.0012479835539874063,-10.018415663000003,-10.0,0.018415663000002396,39.97758460884862,40.0,0.02241539115137697,9.369379246718696,10.0,0.6306207532813042,-0.005225677125549228,0,0.005225677125549228,3.9998325742556093,1.835884900068902,0.0012479835539874063,0.51940248682601,0.03345060348510742,0.8867595195770264,STABILIZE
0.16,0.015,0.11,36.78442783359364,6.3969367713638725,0.5517664175039045,0.0002691798694527175,6.94897236873723,0.17,0.015,0.08,-9.213848510843064,-1.7026432795635253,-0.13820772766264597,0.0015771634544970597,-1.8392738437716742,0.002,8e-05,0,8.61160562737126,0.018740063069512643,0.0006889284501897008,0.0,0.019428991519702343,0.2,0.02,0.0,-0.01006954001243546,0.0004334968722381212,-0.00020139080024870923,0.0,0.00023210607198941198,-10.015548703314854,-10.0,0.015548703314854116,39.9808548210242,40.0,0.019145178975798052,9.370031534756322,10.0,0.6299684652436778,0.002167484361190606,0,-0.002167484361190606,4.000069576386507,1.839122523501275,-0.00023210607198941198,0.5194289915197023,0.03361797332763672,0.9203870296478271,STABILIZE
0.16,0.015,0.11,38.121843194324846,6.39686013918204,0.5718276479148726,0.00017565547317596863,6.968863442570089,0.17,0.015,0.08,-9.54889875709454,-1.702705067951726,-0.14323348135641809,0.0006175297311922223,-1.8453210195769518,0.002,8e-05,0,8.925030445640926,0.01873889355438769,0.0007140024356512742,0.0,0.019452895990038965,0.2,0.02,0.0,-0.009937796692542945,0.000787660677797197,-0.00019875593385085892,0.0,0.000588904743946338,-10.015912164421916,-10.0,0.015912164421915936,39.98037586988775,40.0,0.019624130112249505,9.369446777193845,10.0,0.630553222806155,0.003938303388985985,0,-0.003938303388985985,4.0001268312024365,1.845046069773565,-0.000588904743946338,0.519452895990039,0.03345179557800293,0.9538640975952148,STABILIZE
0.16,0.015,0.11,39.45793024262751,6.39711790761442,0.5918689536394126,0.0009711031934341822,6.9899579644472665,0.17,0.015,0.08,-9.883622628574054,-1.7028062129331918,-0.1482543394286108,0.00043699731832270517,-1.85062355504348,0.002,8e-05,0,9.238217664577952,0.01874405909071565,0.0007390574131662362,0.0,0.019483116503881886,0.2,0.02,0.0,-0.0097617661347488,0.0010535318740860038,-0.000195235322694976,0.0,0.0008582965513910278,-10.016507134901127,-10.0,0.016507134901127565,39.981986922590124,40.0,0.0180130774098761,9.372029545357826,10.0,0.6279704546421749,0.005267659370430018,0,-0.005267659370430018,4.000170125722764,1.8502557952231615,-0.0008582965513910278,0.5194831165038819,0.0334172248840332,0.9872410297393799,STABILIZE
0.16,0.015,0.11,40.79617520668851,6.39713503232856,0.6119426281003276,0.0013814989172850302,7.010459159346172,0.17,0.015,0.08,-10.21888683087396,-1.7028093384745202,-0.1532833024631094,-0.00030247954054693423,-1.8563951204781763,0.002,8e-05,0,9.551940969972836,0.018745917239521716,0.000764155277597827,0.0,0.01951007251711954,0.2,0.02,0.0,-0.009531679305111132,0.0013748384618294887,-0.00019063358610222264,0.0,0.001184204875727266,-10.016525520438353,-10.0,0.01652552043835357,39.982093952053496,40.0,0.017906047946506427,9.372958619760858,10.0,0.6270413802391424,0.006874192309147443,0,-0.006874192309147443,4.000222696464623,1.855915197961502,-0.001184204875727266,0.5195100725171196,0.033471107482910156,1.020752191543579,STABILIZE
0.16,0.015,0.11,42.134678858626295,6.397141298393766,0.6320201828793944,0.002981787577352767,7.032143268850513,0.17,0.015,0.08,-10.554218644751204,-1.7028252437869138,-0.15831327967126804,0.0008522722086579448,-1.860286251249524,0.002,8e-05,0,9.86566287719064,0.01874222911129528,0.0007892530301752513,0.0,0.019531482141470533,0.2,0.02,0.0,-0.009243166618807596,0.0017236191492556608,-0.00018486333237615192,0.0,0.0015387558168795089,-10.016619081099492,-10.0,0.016619081099492432,39.98213311496104,40.0,0.017866885038960688,9.37111455564764,10.0,0.6288854443523593,0.008618095746278304,0,-0.008618095746278304,4.000279768117958,1.8596845736237495,-0.0015387558168795089,0.5195314821414705,0.0334775447845459,1.0542104244232178,STABILIZE
0.16,0.015,0.11,43.47181334242425,6.397294908525613,0.6520772001363637,0.0014732954320590143,7.050845404094036,0.17,0.015,0.08,-10.88923259912362,-1.7029940022642858,-0.1633384889868543,-0.0009871559337401204,-1.8673196471848803,0.002,8e-05,0,10.17896742969956,0.01873691130986927,0.0008143173943759649,-0.0,0.019551228704245235,0.2,0.02,0.0,-0.008976663187230696,0.0015938010224380728,-0.0001795332637446139,0.0,0.0014142677586934588,-10.01761177802521,-10.0,0.0176117780252091,39.98309317828508,40.0,0.01690682171491823,9.368455654934635,10.0,0.6315443450653654,0.007969005112190364,0,-0.007969005112190364,4.000259678167376,1.8667632876160014,-0.0014142677586934588,0.5195512287042452,0.03344249725341797,1.0878651142120361,STABILIZE
0.16,0.015,0.11,44.82254403841957,6.397171611126247,0.6723381605762936,0.0012864546297976787,7.070796226332337,0.17,0.015,0.08,-11.22767568314856,-1.703075158871989,-0.1684151352472284,-0.001039409104695626,-1.8725297032239132,0.002,8e-05,0,10.495799283272653,0.018756771290416058,0.0008396639426618124,0.0,0.019596435233077872,0.2,0.02,0.0,-0.008565728176100957,0.0024327774912969303,-0.00017131456352201913,0.0,0.0022614629277749113,-10.018089169835228,-10.0,0.01808916983522799,39.98232256953904,40.0,0.017677430460953276,9.378385645208029,10.0,0.6216143547919717,0.01216388745648465,0,-0.01216388745648465,4.000397447696978,1.8716804614878424,-0.0022614629277749113,0.5195964352330779,0.0337831974029541,1.1214537620544434,STABILIZE
0.16,0.015,0.11,46.177088276264165,6.397219136323074,0.6926563241439625,0.00041871693369412876,7.0902941774007315,0.17,0.015,0.08,-11.567102346455352,-1.7032285495329698,-0.17350653519683026,-0.0011806760281510684,-1.877915760757951,0.002,8e-05,0,10.813808718915633,0.018773621325795124,0.0008651046975132507,0.0,0.019638726023308375,0.2,0.02,0.0,-0.008055964066598427,0.0030093818876575,-0.00016111928133196853,0.0,0.0028482626063255313,-10.018991467840998,-10.0,0.018991467840997072,39.98261960201921,40.0,0.017380397980788595,9.386810662897561,10.0,0.6131893371024391,0.015046909438287499,0,-0.015046909438287499,4.000493036749273,1.876865223563933,-0.0028482626063255313,0.5196387260233084,0.033878326416015625,1.1553337574005127,STABILIZE
0.16,0.015,0.11,47.51720571764776,6.397518717123835,0.7127580857647164,0.0015774065027893591,7.11185420939134,0.17,0.015,0.08,-11.902930812778012,-1.7033941464678906,-0.17854396219167018,-0.0016369077742029229,-1.8835750164337637,0.002,8e-05,0,11.12847401908193,0.018777059059138103,0.0008902779215265545,0.0,0.019667336980664658,0.2,0.02,0.0,-0.007541221000875567,0.0030716322836524777,-0.00015082442001751134,0.0,0.0029208078636349666,-10.01996556745818,-10.0,0.019965567458179196,39.98449198202397,40.0,0.015508017976034879,9.388529529569052,10.0,0.6114704704309487,0.015358161418262389,0,-0.015358161418262389,4.000504749486262,1.8825027468429656,-0.0029208078636349666,0.5196673369806647,0.03351593017578125,1.1888327598571777,STABILIZE
0.16,0.015,0.11,48.85492604291897,6.397543640336734,0.7328238906437845,0.0016541020966019647,7.13202163307712,0.17,0.015,0.08,-12.23823142568764,-1.7037709823549927,-0.1835734713853146,-0.002652302927052919,-1.8899967566673601,0.002,8e-05,0,11.442672535764832,0.01878287527888544,0.0009154138028611866,0.0,0.019698289081746628,0.2,0.02,0.0,-0.006986591889861296,0.0033155883510213495,-0.00013973183779722592,0.0,0.0031758565132241237,-10.022182249147015,-10.0,0.022182249147015495,39.984647752104586,40.0,0.015352247895417268,9.391437639442719,10.0,0.6085623605572807,0.016577941755106747,0,-0.016577941755106747,4.00054668358937,1.8888393189033397,-0.0031758565132241237,0.5196982890817466,0.033455848693847656,1.2223060131072998,STABILIZE
0.16,0.015,0.11,50.19286702223037,6.397504718317012,0.7528930053334555,0.0008625906235091465,7.151260314273976,0.17,0.015,0.08,-12.573574084364772,-1.7036932431685636,-0.18860361126547157,-0.0019587061127221647,-1.8942555605467575,0.002,8e-05,0,11.756230674170904,0.018741387895077146,0.0009404984539336725,0.0,0.01968188634901082,0.2,0.02,0.0,-0.00645151472550309,0.0031981592766213694,-0.0001290302945100618,0.0,0.0030691289821113076,-10.02172495981508,-10.0,0.021724959815079627,39.98440448948132,40.0,0.015595510518675724,9.370693947538573,10.0,0.6293060524614269,0.015990796383106846,0,-0.015990796383106846,4.000528515870143,1.8931391185996178,-0.0030691289821113076,0.5196818863490108,0.033461570739746094,1.2557647228240967,STABILIZE
0.16,0.015,0.11,51.61377539890874,6.397511389186904,0.7742066309836311,0.0013902310669666605,7.173108251237501,0.17,0.015,0.08,-12.92965035457239,-1.7034012596646215,-0.19394475531858585,-0.0009592980711910355,-1.8983053130543983,0.002,8e-05,0,12.089245241154051,0.018742099420408845,0.0009671396192923242,-0.0,0.01970923903970117,0.2,0.02,0.0,-0.005963936492051,0.002744096094465702,-0.00011927872984102001,0.0,0.002624817364624682,-10.02000740979189,-10.0,0.020007409791891584,39.98444618241815,40.0,0.015553817581855967,9.371049710204423,10.0,0.6289502897955778,0.013720480472328508,0,-0.013720480472328508,4.000454467846161,1.8973473883978769,-0.002624817364624682,0.5197092390397011,0.03553652763366699,1.291290283203125,STABILIZE
0.16,0.015,0.11,52.958854015502446,6.396902979965613,0.7943828102325367,-0.0012892261741449783,7.189996564024005,0.17,0.015,0.08,-13.266464693739252,-1.701929658452537,-0.19899697040608877,0.003583671315480934,-1.8973429575431449,0.002,8e-05,0,12.404309766534551,0.018729734236574754,0.0009923447813227641,-0.0,0.019722079017897517,0.2,0.02,0.0,-0.007782388799521993,-0.01081020733758744,-0.00015564777599043987,-0.0,-0.01096585511357788,-10.011350932073746,-10.0,0.01135093207374605,39.98064362478508,40.0,0.019356375214921784,9.364867118287377,10.0,0.6351328817126236,-0.0540510366879372,0,0.0540510366879372,3.9982083266942494,1.9011155869360856,0.01096585511357788,0.5197220790178975,0.033643245697021484,1.3249423503875732,STABILIZE
0.16,0.015,0.11,54.29760066562367,6.3977103478964885,0.814464009984355,0.0007974749568382496,7.212971832837682,0.17,0.015,0.08,-13.601596268979995,-1.7016508824091576,-0.20402394403469992,0.004832360861674853,-1.9008424655821827,0.002,8e-05,0,12.71813742537874,0.018746811245632208,0.0010174509940302993,-0.0,0.019764262239662506,0.2,0.02,0.0,-0.012570720091321323,-0.028603579187226325,-0.00025141440182642645,-0.0,-0.028854993589052753,-10.009711072995044,-10.0,0.009711072995044565,39.985689674353054,40.0,0.014310325646944348,9.373405622816104,10.0,0.6265943771838953,-0.14301789593613162,0,0.14301789593613162,3.9952427876363354,1.9108210661389498,0.028854993589052753,0.5197642622396625,0.03348064422607422,1.3584470748901367,STABILIZE
0.16,0.015,0.11,55.63327398733426,6.397693124855772,0.834499109810014,0.0006241481728928469,7.232816382838679,0.17,0.015,0.08,-13.936036902648503,-1.7020453576929022,-0.20904055353972753,0.004781011187053402,-1.9063049000455763,0.002,8e-05,0,13.033066062795418,0.018855815505850186,0.0010426452850236336,0.0,0.01989846079087382,0.2,0.02,0.0,-0.00839369959948808,0.02500919840260679,-0.0001678739919897616,0.0,0.02484132441061703,-10.0120315158406,-10.0,0.012031515840601126,39.985582030348574,40.0,0.014417969651426641,9.427907752925092,10.0,0.5720922470749085,0.12504599201303396,0,-0.12504599201303396,4.004150912745854,1.8975705098610491,-0.02484132441061703,0.5198984607908739,0.033403873443603516,1.3918046951293945,STABILIZE
0.16,0.015,0.11,56.97180650047914,6.399922795743538,0.854577097507187,0.009945643228727081,7.264445536479452,0.17,0.015,0.08,-14.268666650186042,-1.6898020597808912,-0.2140299997527906,0.03899697440743194,-1.8648350851262498,0.002,8e-05,0,13.348688991662387,0.018863590886645357,0.001067895119332991,0.0,0.019931486005978348,0.2,0.02,0.0,-0.004182266084462352,0.02517014817616004,-8.364532168924703e-05,0.0,0.025086502854470793,-9.940012116358183,-10.0,-0.059987883641816855,39.99951747339711,40.0,0.0004825266028864166,9.43179544332268,10.0,0.568204556677321,0.1258507408808002,0,-0.1258507408808002,4.004086475929094,1.856044554421998,-0.025086502854470793,0.5199314860059784,0.03346371650695801,1.4253044128417969,STABILIZE
0.16,0.015,0.11,58.30917844537846,6.397336410320169,0.8746376766806768,-0.0007123632601429412,7.271261723740703,0.17,0.015,0.08,-14.601778881825346,-1.6930371949528358,-0.2190266832273802,0.029120538380575562,-1.8829433397996405,0.002,8e-05,0,13.66284962863335,0.018784894595413246,0.001093027970290668,0.0,0.019877922565703914,0.2,0.02,0.0,0.0005166981176327242,0.0280969468661138,1.0333962352654484e-05,0.0,0.028107280828466454,-9.959042323251975,-10.0,-0.0409576767480255,39.983352564501054,40.0,0.016647435498949145,9.392447297706623,10.0,0.6075527022933778,0.140484734330569,0,-0.140484734330569,4.004604800168566,1.873130004928303,-0.028107280828466454,0.5198779225657039,0.033448219299316406,1.458752155303955,STABILIZE
0.16,0.015,0.11,59.66718126493503,6.387928905922823,0.8950077189740254,-0.03625493759965611,7.246681687297192,0.17,0.015,0.08,-14.940098959154401,-1.6908929465721725,-0.224101484387316,0.030936858132699863,-1.8840575728267885,0.002,8e-05,0,13.982181702365962,0.018776383920275214,0.001118574536189277,0.0,0.019894958456464492,0.2,0.02,0.0,0.00767819750359538,0.042108849369213004,0.0001535639500719076,0.0,0.04226241331928491,-9.946429097483367,-10.0,-0.05357090251663291,39.92455566201764,40.0,0.07544433798236408,9.388191960137608,10.0,0.6118080398623917,0.21054424684606501,0,-0.21054424684606501,4.006896305892409,1.8693461240636344,-0.04226241331928491,0.5198949584564645,0.034014225006103516,1.492750644683838,STABILIZE
0.16,0.015,0.11,61.00573514423682,6.394239218895836,0.9150860271635524,-0.013665495571575691,7.295659750487814,0.17,0.015,0.08,-15.272143908023512,-1.6853062820510283,-0.22908215862035267,0.045851636179518,-1.8685368044918629,0.002,8e-05,0,14.295890137291526,0.01873221923410543,0.0011436712109833221,-0.0,0.019875890445088754,0.2,0.02,0.0,0.013789847306818807,0.03649400247182489,0.00027579694613637614,0.0,0.03676979941796127,-9.913566365006048,-10.0,-0.08643363499395214,39.96399511809898,40.0,0.03600488190102341,9.366109617052714,10.0,0.6338903829472851,0.18247001235912444,0,-0.18247001235912444,4.005930439134059,1.855788540367643,-0.03676979941796127,0.5198758904450888,0.033493995666503906,1.5262506008148193,STABILIZE
0.16,0.015,0.11,62.34316614259602,6.396615803004091,0.9351474921389402,-0.003826395090262113,7.327936900052769,0.17,0.015,0.08,-15.604012852349545,-1.6864537459741578,-0.23406019278524315,0.04373483298638098,-1.87677910577302,0.002,8e-05,0,14.608530795695232,0.018691078069263282,0.0011686824636556188,-0.0,0.0198597605329189,0.2,0.02,0.0,0.024707582716191563,0.06527117935270006,0.0004941516543238313,0.0,0.06576533100702389,-9.920316152789162,-10.0,-0.07968384721083738,39.97884876877557,40.0,0.02115123122442831,9.34553903463164,10.0,0.6544609653683594,0.3263558967635003,0,-0.3263558967635003,4.010625159388287,1.853964843989189,-0.06576533100702389,0.5198597605329189,0.03345346450805664,1.5597507953643799,STABILIZE
0.16,0.015,0.11,63.68051364528156,6.395715067056021,0.9552077046792233,-0.016689855223785657,7.334232916511459,0.17,0.015,0.08,-15.93707882283659,-1.6924039799551618,-0.23905618234254883,-0.007438805233731347,-1.9388989675314419,0.002,8e-05,0,14.920363510001796,0.01864131410578121,0.0011936290808001438,-0.0,0.019834943186581352,0.2,0.02,0.0,0.03647098134744277,0.07032142516679343,0.0007294196269488554,0.0,0.07105084479374228,-9.95531752914801,-10.0,-0.04468247085198988,39.97321916910013,40.0,0.02678083089986419,9.320657052890605,10.0,0.6793429471093962,0.35160712583396714,0,-0.35160712583396714,4.011823052541573,1.9143158050307452,-0.07105084479374228,0.5198349431865813,0.03345608711242676,1.5931851863861084,STABILIZE
0.16,0.015,0.11,65.01660550047418,6.399423789656111,0.9752490825071127,0.009207860602214967,7.383880732765439,0.17,0.015,0.08,-16.269439530361673,-1.6913877016429661,-0.24404159295542507,0.0045276289172674926,-1.9309016656811238,0.002,8e-05,0,15.230652412632313,0.0185772237275721,0.0012184521930105852,-0.0,0.019795675920582685,0.2,0.02,0.0,0.04955218953274729,0.07831815093133418,0.0009910437906549459,0.0,0.07930919472198912,-9.949339421429212,-10.0,-0.05066057857078871,39.99639868535069,40.0,0.0036013146493058396,9.28861186378605,10.0,0.7113881362139497,0.39159075465667087,0,-0.39159075465667087,4.013103315628146,1.903518589513778,-0.07930919472198912,0.5197956759205827,0.033405303955078125,1.62656569480896,STABILIZE
0.16,0.015,0.11,66.36384077029898,6.3984535603654,0.9954576115544846,0.0432770637844077,7.437188235704292,0.17,0.015,0.08,-16.60420616516414,-1.6892840584078679,-0.24906309247746208,0.004471462791743205,-1.9338756880935868,0.002,8e-05,0,15.543916647129173,0.018597407422500958,0.001243513331770334,-0.0,0.019840920754271293,0.2,0.02,0.0,0.06030130764304445,0.06381377345896284,0.0012060261528608891,0.0,0.06501979961182373,-9.936965049458045,-10.0,-0.06303495054195472,39.99033475228375,40.0,0.00966524771625226,9.298703711250479,10.0,0.7012962887495215,0.3190688672948142,0,-0.3190688672948142,4.0107072927115555,1.9115706079529966,-0.06501979961182373,0.5198409207542712,0.033689022064208984,1.6602599620819092,STABILIZE
0.16,0.015,0.11,67.70073010135678,6.393022766860211,1.0155109515203518,-0.00494619603289321,7.403587522347669,0.17,0.015,0.08,-16.93650924678604,-1.6883951698640507,-0.2540476387017906,-0.00872658610248661,-1.9511693946683277,0.002,8e-05,0,15.85485276909941,0.01858625898022245,0.0012683882215279527,-0.0,0.019854647201750404,0.2,0.02,0.0,0.0685902887112649,0.04954752372928013,0.0013718057742252978,0.0,0.05091932950350543,-9.931736293317945,-10.0,-0.06826370668205464,39.956392292876316,40.0,0.04360770712368443,9.293129490111225,10.0,0.7068705098887744,0.24773761864640065,0,-0.24773761864640065,4.008399121304261,1.9338558609724763,-0.05091932950350543,0.5198546472017505,0.033458709716796875,1.6937282085418701,STABILIZE
0.16,0.015,0.11,69.0379258711286,6.397223263779471,1.0355688880669291,0.0025551039161340367,7.435347255762534,0.17,0.015,0.08,-17.27218721897812,-1.7062721238922656,-0.25908280828467184,-0.05580679314116923,-2.0211617253181067,0.002,8e-05,0,16.16296486172328,0.0184253298146607,0.0012930371889378627,-0.0,0.019718367003598563,0.2,0.02,0.0,0.07940466398914173,0.06467075976717317,0.0015880932797828345,-0.0,0.066258853046956,-10.03689484642509,-10.0,0.03689484642509086,39.98264539862169,40.0,0.017354601378308146,9.21266490733035,10.0,0.7873350926696502,0.32335379883586585,0,-0.32335379883586585,4.011342844383386,1.9985553043899154,-0.066258853046956,0.5197183670035985,0.03344440460205078,1.7271640300750732,STABILIZE
0.16,0.015,0.11,70.37768383844326,6.406877585559713,1.055665257576649,0.045932703854226806,7.5084755469905895,0.17,0.015,0.08,-17.61043403499586,-1.7186313659636632,-0.2641565105249379,-0.0738344377750703,-2.0566223142636715,0.002,8e-05,0,16.472417129494755,0.01849795678169722,0.0013177933703595805,-0.0,0.0198157501520568,0.2,0.02,0.0,0.09105731017851078,0.06965537759850549,0.0018211462035702156,-0.0,0.0714765238020757,-10.109596270374489,-10.0,0.10959627037448941,40.042984909748206,40.0,-0.04298490974820608,9.24897839084861,10.0,0.7510216091513909,0.34827688799252743,0,-0.34827688799252743,4.012427364996086,2.032270155308545,-0.0714765238020757,0.5198157501520568,0.03345799446105957,1.7606463432312012,STABILIZE
0.16,0.015,0.11,71.7192502334862,6.411231227036634,1.075788753502293,0.04854706513731113,7.535567045676237,0.17,0.015,0.08,-17.94886814975268,-1.7184319640408796,-0.2692330222462902,-0.07613720327912847,-2.063802189566298,0.002,8e-05,0,16.781113654124486,0.018440429091849557,0.0013424890923299589,-0.0,0.019782918184179515,0.2,0.02,0.0,0.10077956151498454,0.058077261024699324,0.002015591230299691,-0.0,0.06009285225499902,-10.108423317887526,-10.0,0.10842331788752625,40.07019516897896,40.0,-0.07019516897896179,9.220214545924778,10.0,0.7797854540752224,0.2903863051234966,0,-0.2903863051234966,4.0104083384145595,2.0435029818509243,-0.06009285225499902,0.5197829181841795,0.03348040580749512,1.7941179275512695,STABILIZE
0.16,0.015,0.11,73.32803703035772,6.415727023784544,1.0999205554553657,0.06791466868020554,7.583562247920114,0.17,0.015,0.08,-18.354446739716415,-1.7185071510213474,-0.27531670109574624,-0.08219056713849472,-2.0760144192555883,0.002,8e-05,0,17.149693215412732,0.01837336258889395,0.0013719754572330187,-0.0,0.01974533804612697,0.2,0.02,0.0,0.11021492713936791,0.04703445659592781,0.0022042985427873584,-0.0,0.049238755138715166,-10.10886559424322,-10.0,0.10886559424322026,40.098293898653395,40.0,-0.09829389865339518,9.186681294446975,10.0,0.8133187055530249,0.23517228297963905,0,-0.23517228297963905,4.008487346586014,2.0595788553043897,-0.049238755138715166,0.519745338046127,0.04012107849121094,1.834238052368164,STABILIZE
0.16,0.015,0.11,74.69953278391522,6.425276936324051,1.1204929917587283,0.1286812552516427,7.674451183334422,0.17,0.015,0.08,-18.703004253276433,-1.7350051622406293,-0.28054506379914645,-0.13015626492137916,-2.1457064909611545,0.002,8e-05,0,17.46009972430504,0.01817767004835094,0.001396807977944403,-0.0,0.019574478026295344,0.2,0.02,0.0,0.11686508970835789,0.03894391950039086,0.0023373017941671578,-0.0,0.04128122129455802,-10.205912719062525,-10.0,0.2059127190625239,40.15798085202532,40.0,-0.1579808520253198,9.08883502417547,10.0,0.9111649758245304,0.1947195975019543,0,-0.1947195975019543,4.0072690658274865,2.1321001335338208,-0.04128122129455802,0.5195744780262953,0.03415250778198242,1.8683865070343018,STABILIZE
0.16,0.015,0.11,76.04111679455063,6.421650267423686,1.1406167519182595,0.09649344766355535,7.658760467005502,0.17,0.015,0.08,-19.04244937959409,-1.7263438112858707,-0.2856367406939113,-0.05546039479495181,-2.067440946774734,0.002,8e-05,0,17.76565581134341,0.01828225359433089,0.001421252464907473,-0.0,0.01970350605923836,0.2,0.02,0.0,0.1224744445801393,0.0335622992362854,0.002449488891602786,-0.0,0.03601178812788818,-10.154963595799238,-10.0,0.15496359579923788,40.135314171398036,40.0,-0.13531417139803756,9.141126797165445,10.0,0.8588732028345555,0.167811496181427,0,-0.167811496181427,4.006038086441214,2.055716643504941,-0.03601178812788818,0.5197035060592383,0.033426523208618164,1.901848554611206,STABILIZE
0.16,0.015,0.11,77.38401810733187,6.419942266830307,1.160760271609978,0.049800649358666335,7.6305031877989515,0.17,0.015,0.08,-19.381988901002412,-1.7246711359219025,-0.2907298335150362,-0.015989922922430316,-2.031390892359369,0.002,8e-05,0,18.072304673259737,0.018324764178080186,0.001445784373860779,-0.0,0.019770548551940964,0.2,0.02,0.0,0.1275299392936848,0.030210693706905475,0.0025505987858736963,-0.0,0.03276129249277917,-10.145124328952367,-10.0,0.145124328952367,40.124639167689416,40.0,-0.12463916768941656,9.162382089040094,10.0,0.837617910959906,0.15105346853452736,0,-0.15105346853452736,4.005341611878654,2.0208383234969336,-0.03276129249277917,0.5197705485519409,0.03346824645996094,1.9352927207946777,STABILIZE
0.16,0.015,0.11,78.7261741673234,6.4210451328648155,1.1808926125098511,0.036455045834633264,7.6383927912092995,0.17,0.015,0.08,-19.72152297720492,-1.7258975488823376,-0.2958228446580738,-0.020001828920619177,-2.0417222224610305,0.002,8e-05,0,18.379561960257163,0.018374473785340833,0.0014703649568205731,-0.0,0.019844838742161405,0.2,0.02,0.0,0.1311896812374067,0.02188583810759018,0.002623793624748134,-0.0,0.024509631732338315,-10.15233852283728,-10.0,0.15233852283727992,40.131532080405094,40.0,-0.13153208040509515,9.187236892670416,10.0,0.8127631073295833,0.1094291905379509,0,-0.1094291905379509,4.003892186802377,2.034078904603774,-0.024509631732338315,0.5198448387421614,0.03344392776489258,1.9687471389770508,STABILIZE
0.16,0.015,0.11,80.0705663168731,6.421854219289505,1.2010584947530965,0.024368713512315197,7.647281427554917,0.17,0.015,0.08,-20.061755098971265,-1.726786827340184,-0.30092632648456896,-0.02232420524544129,-2.0500373590701946,0.002,8e-05,0,18.68828101266989,0.018433504967056945,0.0014950624810135913,0.0,0.019928567448070537,0.2,0.02,0.0,0.1334908580659328,0.013740245108682915,0.002669817161318656,-0.0,0.016410062270001573,-10.157569572589317,-10.0,0.15756957258931678,40.13658887055941,40.0,-0.1365888705594068,9.216752483528472,10.0,0.7832475164715279,0.06870122554341457,0,-0.06870122554341457,4.00245524700608,2.045239636154404,-0.016410062270001573,0.5199285674480706,0.033495426177978516,2.002234697341919,STABILIZE
0.16,0.015,0.11,81.41318854838481,6.415454643304918,1.221197828225772,-0.040358715103109025,7.596293756427581,0.17,0.015,0.08,-20.40018084053595,-1.7181692125964751,-0.30600271260803924,0.04736319238908068,-1.9768087328154336,0.002,8e-05,0,18.99807378862413,0.01850354344200168,0.0015198459030899304,0.0,0.02002338934509161,0.2,0.02,0.0,0.13517360473723047,0.010050839964983412,0.0027034720947446095,-0.0,0.012754312059728021,-10.106877721155735,-10.0,0.10687772115573474,40.096591520655736,40.0,-0.09659152065573458,9.25177172100084,10.0,0.748228278999161,0.05025419982491706,0,-0.05025419982491706,4.001732322574947,1.9732995678797172,-0.012754312059728021,0.5200233893450916,0.033484697341918945,2.035759687423706,STABILIZE
0.16,0.015,0.11,82.76904493735186,6.417507053738191,1.2415356740602779,-0.01709208323646057,7.641950644562009,0.17,0.015,0.08,-20.74150163027631,-1.7165021167938364,-0.3111225244541446,0.02761735651782847,-2.0000072847301524,0.002,8e-05,0,19.309522520819947,0.018426771190597605,0.0015447618016655958,0.0,0.019971532992263202,0.2,0.02,0.0,0.1427327348485219,0.04472336746362086,0.002854654696970438,0.0,0.047578022160591295,-10.09707127525786,-10.0,0.0970712752578598,40.10941908586369,40.0,-0.10941908586369556,9.213385595298803,10.0,0.7866144047011969,0.22361683731810428,0,-0.22361683731810428,4.007775244324234,1.9843806917916478,-0.047578022160591295,0.5199715329922632,0.03380393981933594,2.0695338249206543,STABILIZE
0.16,0.015,0.11,84.40835864404741,6.419513140767886,1.266125379660711,-0.0033239133708555493,7.682314607057742,0.17,0.015,0.08,-21.154179616846452,-1.7170394117074306,-0.31731269425269676,0.02167587954978545,-2.012676226410342,0.002,8e-05,0,19.684757833323264,0.018367656001842956,0.0015747806266658611,0.0,0.019942436628508815,0.2,0.02,0.0,0.14138153881833354,-0.006614064041037118,0.002827630776366671,-0.0,-0.0037864332646704475,-10.10023183357312,-10.0,0.10023183357312028,40.121957129799284,40.0,-0.12195712979928716,9.183828000921478,10.0,0.8161719990785212,-0.03307032020518559,0,0.03307032020518559,3.998837645292623,2.0149846349160887,0.0037864332646704475,0.5199424366285088,0.04085826873779297,2.110408306121826,STABILIZE
0.16,0.015,0.11,85.75100653188673,6.413339680334801,1.286265097978301,-0.033199760434766745,7.666405017878335,0.17,0.015,0.08,-21.49273786454885,-1.7182424597285018,-0.32239106796823275,0.02174693451959262,-2.018886593177142,0.002,8e-05,0,19.992930690892127,0.01840036797574997,0.0015994344552713704,0.0,0.01999980243102134,0.2,0.02,0.0,0.14044064308279605,-0.005617895066191945,0.002808812861655921,-0.0,-0.0028090822045360236,-10.107308586638245,-10.0,0.10730858663824444,40.0833730020925,40.0,-0.0833730020925027,9.200183987874986,10.0,0.7998160121250143,-0.02808947533095972,0,0.02808947533095972,3.999009752458022,2.0208473657988213,0.0028090822045360236,0.5199998024310213,0.03349637985229492,2.143934965133667,STABILIZE
0.16,0.015,0.11,87.09000606368434,6.40740559001363,1.306350090955265,-0.060923834711533224,7.652831846257361,0.17,0.015,0.08,-21.83099986536142,-1.7198237526529014,-0.3274649979804213,0.019794609582628055,-2.0274941410506946,0.002,8e-05,0,20.300651401865544,0.01840638623120965,0.0016240521121492436,-0.0,0.02003043834335889,0.2,0.02,0.0,0.13946900957290223,-0.0058118485433489965,0.0027893801914580445,-0.0,-0.003022468351890952,-10.11661030972295,-10.0,0.11661030972294954,40.046284937585185,40.0,-0.046284937585182276,9.203193115604824,10.0,0.7968068843951764,-0.029059242716744982,0,0.029059242716744982,3.9989711821912843,2.029522598050718,0.003022468351890952,0.5200304383433589,0.03343629837036133,2.177342414855957,STABILIZE
0.16,0.015,0.11,88.44876329443201,6.409628306031265,1.3267314494164801,-0.02563423207236983,7.710725523375376,0.17,0.015,0.08,-22.174222928953196,-1.7202690644556515,-0.3326133439342979,-0.005663169185207171,-2.0585455775751567,0.002,8e-05,0,20.614310621388586,0.018495200673157568,0.001649144849711087,0.0,0.020144345522868656,0.2,0.02,0.0,0.1392968020897539,-0.0010154370603520009,0.002785936041795078,-0.0,0.001770498981443077,-10.119229790915597,-10.0,0.11922979091559727,40.060176912695404,40.0,-0.06017691269540644,9.247600336578783,10.0,0.7523996634212169,-0.005077185301760004,0,0.005077185301760004,3.9998175691605917,2.05890002389346,-0.001770498981443077,0.5201443455228687,0.033917903900146484,2.211273193359375,STABILIZE
0.16,0.015,0.11,89.79103058995648,6.412571519174695,1.3468654588493472,-0.02189892552993876,7.737538052494103,0.17,0.015,0.08,-22.512865663958486,-1.7189526540041424,-0.3376929849593773,-0.006605295910101441,-2.063250934873621,0.002,8e-05,0,20.924144748108812,0.018502587965333127,0.001673931579848705,0.0,0.02017651954518183,0.2,0.02,0.0,0.14030604716147171,0.00602698157098094,0.0028061209432294343,-0.0,0.008833102514210375,-10.111486200024366,-10.0,0.11148620002436618,40.078571994841845,40.0,-0.07857199484184134,9.251293982666564,10.0,0.7487060173334371,0.030134907854904698,0,-0.030134907854904698,4.001084620461647,2.061146836147815,-0.008833102514210375,0.5201765195451818,0.033490896224975586,2.2447445392608643,STABILIZE
0.16,0.015,0.11,91.13004986030707,6.409968193236003,1.366950747904606,-0.039359767972260845,7.737559173168348,0.17,0.015,0.08,-22.850064742993585,-1.7150799342229732,-0.34275097114490377,0.005537635548163715,-2.0522932698197134,0.002,8e-05,0,21.237086455309882,0.01872589172083595,0.0016989669164247908,0.0,0.02042485863726074,0.2,0.02,0.0,0.14577311738394558,0.03271400476845817,0.0029154623476789114,0.0,0.035629467116137084,-10.088705495429254,-10.0,0.08870549542925388,40.06230120772502,40.0,-0.062301207725020284,9.362945860417975,10.0,0.6370541395820258,0.16357002384229086,0,-0.16357002384229086,4.005842651510347,2.040865580259475,-0.035629467116137084,0.5204248586372607,0.033423423767089844,2.278155565261841,STABILIZE
0.16,0.015,0.11,92.47205834980528,6.410741807506956,1.3870808752470791,-0.010842347646903634,7.786980335107132,0.17,0.015,0.08,-23.18523283969434,-1.701157933095178,-0.3477784925954151,0.048038565936828856,-2.0008978597537643,0.002,8e-05,0,21.553394005488276,0.01888741811086592,0.0017242715204390622,0.0,0.020611689631304983,0.2,0.02,0.0,0.1509906234112345,0.031154873722676002,0.00301981246822469,0.0,0.034174686190900694,-10.006811371148105,-10.0,0.006811371148104595,40.06713629691848,40.0,-0.06713629691847811,9.44370905543296,10.0,0.5562909445670396,0.15577436861338,0,-0.15577436861338,4.005425202149751,1.9900153756066372,-0.034174686190900694,0.520611689631305,0.033493995666503906,2.3117074966430664,STABILIZE
0.16,0.015,0.11,93.81098045759047,6.408771621205534,1.407164706863857,0.0054562082966931255,7.821392536366084,0.17,0.015,0.08,-23.51941833047836,-1.6995580862554212,-0.3527912749571754,0.05699416852240631,-1.9953551926901905,0.002,8e-05,0,21.871517773715276,0.01903380493523113,0.001749721421897222,0.0,0.02078352635712835,0.2,0.02,0.0,0.15670743749177185,0.03420452507097391,0.003134148749835437,0.0,0.03733867382080935,-9.99740050738483,-10.0,-0.0025994926151696783,40.05482263253459,40.0,-0.054822632534585095,9.516902467615564,10.0,0.48309753238443537,0.17102262535486953,0,-0.17102262535486953,4.005938123312157,1.9834066898117442,-0.03733867382080935,0.5207835263571283,0.03342723846435547,2.3450872898101807,STABILIZE
0.16,0.015,0.11,95.15750480133619,6.405367290953035,1.4273625720200427,-0.01747142904947189,7.8152584339236055,0.17,0.015,0.08,-23.855857988659242,-1.700458158364981,-0.35783786982988863,0.05571125494536303,-2.0025847732495063,0.002,8e-05,0,22.192442372631636,0.019082832946068228,0.001775395389810531,0.0,0.02085822833587876,0.2,0.02,0.0,0.16104170244298774,0.025772425762104634,0.003220834048859755,0.0,0.02899325981096439,-10.00269504920577,-10.0,0.0026950492057698644,40.03354556845647,40.0,-0.03354556845646821,9.541416473034113,10.0,0.45858352696588656,0.12886212881052317,0,-0.12886212881052317,4.004493829779265,1.993583442274382,-0.02899325981096439,0.5208582283358788,0.03363490104675293,2.3787174224853516,STABILIZE
0.16,0.015,0.11,96.49834836877527,6.40681879503759,1.447475225531629,-0.023594803902316337,7.830699216666902,0.17,0.015,0.08,-24.1895458795935,-1.6940792141469379,-0.3628431881939025,0.06994115434424698,-1.9869812479965934,0.002,8e-05,0,22.51206482569916,0.019090250247649376,0.0018009651860559329,0.0,0.02089121543370531,0.2,0.02,0.0,0.16385473684529558,0.016801551386616244,0.0032770947369059117,0.0,0.020078646123522156,-9.965171847923163,-10.0,-0.03482815207683786,40.042617468984936,40.0,-0.04261746898493686,9.545125123824688,10.0,0.4548748761753124,0.08400775693308121,0,-0.08400775693308121,4.002909035063494,1.9811142664917503,-0.020078646123522156,0.5208912154337053,0.03348541259765625,2.4122533798217773,STABILIZE
0.16,0.015,0.11,97.83812672567441,6.408619111120587,1.4675719008851162,-0.005484497192510856,7.870706514813192,0.17,0.015,0.08,-24.522886562031733,-1.6941379132218028,-0.367843298430476,0.05887072652972152,-2.003110485122557,0.002,8e-05,0,22.831081747464967,0.01907459106082126,0.0018264865397971976,0.0,0.02090107760061846,0.2,0.02,0.0,0.16614281053249944,0.013680800898855795,0.0033228562106499887,-0.0,0.017003657109505785,-9.965517136598839,-10.0,-0.03448286340116033,40.05386944450367,40.0,-0.05386944450366929,9.53729553041063,10.0,0.46270446958936984,0.06840400449427897,0,-0.06840400449427897,4.002388612487407,1.99833355830278,-0.017003657109505785,0.5209010776006184,0.033449411392211914,2.4456629753112793,STABILIZE
0.16,0.015,0.11,99.1779439286071,6.410449836837781,1.4876691589291064,-0.0011328802395208421,7.896986115527367,0.17,0.015,0.08,-24.856122285660497,-1.694039168799826,-0.37284183428490747,0.020028014750077563,-2.046852988334656,0.002,8e-05,0,23.149726202282853,0.01905721064901105,0.0018519780961826285,0.0,0.02090918874519368,0.2,0.02,0.0,0.16791111818101961,0.01057574071683329,0.003358222363620392,-0.0,0.013933963080453683,-9.9649362870578,-10.0,-0.03506371294220026,40.06531148023613,40.0,-0.06531148023613556,9.528605324505525,10.0,0.47139467549447395,0.05287870358416645,0,-0.05287870358416645,4.001887352152447,2.0431604872199323,-0.013933963080453683,0.5209091887451937,0.03344082832336426,2.4791014194488525,STABILIZE
0.16,0.015,0.11,100.51765518239574,6.408435166847556,1.5077648277359361,-0.001310543673175254,7.914889450910317,0.17,0.015,0.08,-25.19005916954377,-1.6972042805056196,-0.37785088754315654,0.006617526597619137,-2.068437641451157,0.002,8e-05,0,23.46860037227584,0.01906646337973497,0.0018774880297820675,0.0,0.02094395140951704,0.2,0.02,0.0,0.16987074835731036,0.011717229085972345,0.0033974149671462074,-0.0,0.015114644053118551,-9.983554591209526,-10.0,-0.016445408790474823,40.05271979279723,40.0,-0.05271979279722606,9.533231689867485,10.0,0.46676831013251446,0.05858614542986172,0,-0.05858614542986172,4.002112929735023,2.06434647630183,-0.015114644053118551,0.520943951409517,0.03344869613647461,2.512587308883667,STABILIZE
0.16,0.015,0.11,101.94669236467008,6.411570243435898,1.5292003854700513,0.02469433619323273,7.965464965099183,0.17,0.015,0.08,-25.54574849599493,-1.6955892227814693,-0.3831862274399239,0.013398577798635639,-2.0653768724227577,0.002,8e-05,0,23.808327652833615,0.01905290980113777,0.0019046662122266893,-0.0,0.02095757601336446,0.2,0.02,0.0,0.1719479965183571,0.011649821522140712,0.003438959930367142,-0.0,0.015088781452507853,-9.974054251655701,-10.0,-0.025945748344299448,40.07231402147436,40.0,-0.07231402147436324,9.526454900568885,10.0,0.47354509943111533,0.05824910761070356,0,-0.05824910761070356,4.002097674617755,2.0613092509271813,-0.015088781452507853,0.5209575760133645,0.03566145896911621,2.5482447147369385,STABILIZE
0.16,0.015,0.11,103.288217283035,6.414778816428223,1.5493232592455248,0.03191899731255196,7.9960210729862995,0.17,0.015,0.08,-25.879152372738435,-1.6938795564710885,-0.3881872855910765,0.0002781374800716847,-2.0817887045820935,0.002,8e-05,0,24.126811424842494,0.01903620020480852,0.0019301449139873996,-0.0,0.020966345118795922,0.2,0.02,0.0,0.17388791390118566,0.011595145161519584,0.003477758278023713,-0.0,0.015072903439543296,-9.963997391006401,-10.0,-0.03600260899359785,40.09236760267639,40.0,-0.0923676026763926,9.51810010240426,10.0,0.4818998975957403,0.05797572580759791,0,-0.05797572580759791,4.002104445808795,2.0777401703204057,-0.015072903439543296,0.5209663451187959,0.03346085548400879,2.581685781478882,STABILIZE
0.16,0.015,0.11,104.6281057341581,6.4137630061906625,1.5694215860123715,0.020339780314998113,8.003524372518031,0.17,0.015,0.08,-26.212488569090613,-1.6953355879611718,-0.3931873285363592,-0.0036565315828792286,-2.0921794480804103,0.002,8e-05,0,24.445003218550696,0.019038961355780384,0.001955600257484056,-0.0,0.02099456161326444,0.2,0.02,0.0,0.17556623103668575,0.010042187044846704,0.003511324620733715,-0.0,0.013553511665580418,-9.972562282124539,-10.0,-0.027437717875461093,40.08601878869164,40.0,-0.08601878869163816,9.519480677890192,10.0,0.48051932210980863,0.05021093522423351,0,-0.05021093522423351,4.0018319371841695,2.0886732605898053,-0.013553511665580418,0.5209945616132644,0.033425331115722656,2.615116596221924,STABILIZE
0.16,0.015,0.11,105.96882629306853,6.413217409738387,1.589532394396028,0.010569504458560237,8.013319308592974,0.17,0.015,0.08,-26.54627015819252,-1.696402916927928,-0.3981940523728878,-0.0069376625941013,-2.101534631894917,0.002,8e-05,0,24.763169531232684,0.01902400282187272,0.001981053562498615,-0.0,0.021005056384371334,0.2,0.02,0.0,0.1769494537919313,0.008270653601650071,0.0035389890758386264,-0.0,0.011809642677488697,-9.97884068781134,-10.0,-0.021159312188658883,40.08260881086492,40.0,-0.08260881086491784,9.51200141093636,10.0,0.4879985890636392,0.04135326800825035,0,-0.04135326800825035,4.001515742076606,2.098647082042813,-0.011809642677488697,0.5210050563843713,0.03344893455505371,2.6485698223114014,STABILIZE
0.16,0.015,0.11,107.31984703435486,6.417294875403505,1.609797705515323,0.035495558768952475,8.062588139687781,0.17,0.015,0.08,-26.881727621456807,-1.6929977322103351,-0.4032259143218521,0.011482708066101872,-2.0847409384660853,0.002,8e-05,0,25.08354767140376,0.019022293054820623,0.002006683813712301,-0.0,0.021028976868532924,0.2,0.02,0.0,0.1781434603301807,0.007089354557031672,0.0035628692066036137,-0.0,0.010652223763635286,-9.958810189472558,-10.0,-0.0411898105274426,40.10809297127191,40.0,-0.10809297127190573,9.511146527410311,10.0,0.4888534725896896,0.035446772785158356,0,-0.035446772785158356,4.001288986293069,2.0822658880859177,-0.010652223763635286,0.5210289768685329,0.033684492111206055,2.6822404861450195,STABILIZE
0.16,0.015,0.11,108.67757499023529,6.408872466267894,1.6301636248535292,-0.01075787679980841,8.028278214321615,0.17,0.015,0.08,-27.220877413102887,-1.7009414417078956,-0.40831316119654326,-0.01483658929216428,-2.124091192196603,0.002,8e-05,0,25.406148693474034,0.019034637967988422,0.0020324918954779227,-0.0,0.021067129863466344,0.2,0.02,0.0,0.1811326374461683,0.01763723619345067,0.003622652748923366,0.0,0.021259888942374034,-10.005537892399385,-10.0,0.005537892399384965,40.05545291417434,40.0,-0.05545291417434226,9.51731898399421,10.0,0.48268101600578944,0.08818618096725335,0,-0.08818618096725335,4.003264532856242,2.117932121844908,-0.021259888942374034,0.5210671298634664,0.03389620780944824,2.7161612510681152,STABILIZE
0.16,0.015,0.11,110.01763750039466,6.410389537649933,1.6502645625059198,-0.017706196365960134,8.042947903789893,0.17,0.015,0.08,-27.554711602894514,-1.696754912669395,-0.4133206740434177,-0.007864962765505927,-2.117940549478319,0.002,8e-05,0,25.724169136966363,0.019016229730577833,0.0020579335309573094,-0.0,0.021074163261535144,0.2,0.02,0.0,0.18364150566390605,0.015001933167669701,0.003672830113278121,0.0,0.01867476328094782,-9.98091125099644,-10.0,-0.019088749003559682,40.06493461031208,40.0,-0.0649346103120766,9.508114865288917,10.0,0.49188513471108297,0.0750096658383485,0,-0.0750096658383485,4.002769306373411,2.1127020734309525,-0.01867476328094782,0.5210741632615351,0.033447265625,2.7495946884155273,STABILIZE
