E-kp,E-ki,E-kd,E-I-Tot,E-P,E-I,E-D,E-PID,N-kp,N-ki,N-kd,N-I-Tot,N-P,N-I,N-D,N-PID,D-kp,D-ki,D-kd,D-I-Tot,D-P,D-I,D-D,D-PID,Y-kp,Y-ki,Y-kd,Y-I-Tot,Y-P,Y-I,Y-D,Y-PID,errorN,desiredN,actualN,errorE,desiredE,actualE,errorD,desiredD,actualD,errorY,desiredY,actualY,roll,pitch,yaw-rate,thrust,dt,Time,Mode
0.16,0.015,0.11,1.33741281643893,6.397759935721565,0.02006119224658395,13.75,20.16782112796815,0.17,0.015,0.08,-0.3342746942558657,-1.699005943720703,-0.005014120413837985,-10.0,-11.704020064134541,0.002,8e-05,0,0.3135947577015253,0.018751726768788817,2.5087580616122024e-05,0.0,0.01877681434940494,0.2,0.02,0.0,-0.00022907340934424635,-0.0013697684277320205,-4.581468186884927e-06,-0.0,-0.0013743498959189054,-9.994152610121782,-10.0,-0.005847389878217166,39.98599959825978,40.0,0.014000401740216446,9.375863384394409,10.0,0.6241366156055914,-0.0068488421386601024,0,0.0068488421386601024,3.9995218320429045,4.000478110802779,0.0013743498959189054,0.5187768143494049,0.0334470272064209,0.033736228942871094,STABILIZE
0.16,0.015,0.11,2.6801439794727067,6.39779919688418,0.0402021596920906,6.875401908708704,13.313403265284975,0.17,0.015,0.08,-0.6699512385361517,-1.699383788480636,-0.010049268578042276,-5.002647561320185,-6.712080618378863,0.002,8e-05,0,0.628765159336675,0.018771413425632825,5.0301212746934e-05,0.0,0.01882171463837976,0.2,0.02,0.0,-0.000480175129573407,-0.0014955510345688128,-9.603502591468141e-06,-0.0,-0.001505154537160281,-9.996375226356681,-10.0,-0.003624773643318551,39.98624498052612,40.0,0.013755019473876995,9.385706712816413,10.0,0.6142932871835863,-0.007477755172844064,0,0.007477755172844064,3.999477920141309,4.000522011725739,0.001505154537160281,0.5188217146383798,0.03357982635498047,0.06725740432739258,STABILIZE
0.16,0.015,0.11,4.018190034339226,6.397779222515642,0.06027285051508839,4.583464479838833,11.041516552869563,0.17,0.015,0.08,-1.0043877014708318,-1.69902882745344,-0.015065815522062476,-3.3334344302824883,-5.047529073257991,0.002,8e-05,0,0.9427494614433609,0.018766191164610396,7.541995691546888e-05,0.0,0.018841611121525863,0.2,0.02,0.0,-0.0007326106485648876,-0.0015087547926272231,-1.4652212971297752e-05,-0.0,-0.0015234070055985208,-9.994287220314352,-10.0,-0.005712779685647652,39.98612014072276,40.0,0.013879859277238416,9.383095582305199,10.0,0.6169044176948006,-0.007543773963136115,0,0.007543773963136115,3.9994733105561333,4.000526620102554,0.0015234070055985208,0.5188416111215258,0.0334627628326416,0.10073494911193848,STABILIZE
0.16,0.015,0.11,5.355211290135127,6.397893486328467,0.0803281693520269,3.4381857141542773,9.916407369834772,0.17,0.015,0.08,-1.3386340662750322,-1.6993949575396416,-0.02007951099412548,-2.5013640580354086,-4.2208385265691755,0.002,8e-05,0,1.2564543784263584,0.018764199113274163,0.00010051635027410868,0.0,0.018864715463548273,0.2,0.02,0.0,-0.0009574391605916826,-0.0013448074090086982,-1.9148783211833652e-05,-0.0,-0.0013639561922205317,-9.996440926703773,-10.0,-0.003559073296227179,39.98683428955292,40.0,0.013165710447082857,9.382099556637082,10.0,0.6179004433629188,-0.00672403704504349,0,0.00672403704504349,3.9995305461140926,4.000469398795635,0.0013639561922205317,0.5188647154635483,0.03343653678894043,0.13415884971618652,STABILIZE
0.16,0.015,0.11,6.693259464434311,6.39801728236186,0.10039889196651466,2.751057272923954,9.24947344725233,0.17,0.015,0.08,-1.6732041820322046,-1.6997683737290947,-0.025098062730483067,-2.00214155734763,-3.727007993807208,0.002,8e-05,0,1.5704567485717604,0.01876793965158521,0.00012563653988574084,0.0,0.018893576191470952,0.2,0.02,0.0,-0.0011545154745941724,-0.001177926257767691,-2.309030949188345e-05,-0.0,-0.0012010165672595744,-9.998637492524086,-10.0,-0.0013625074759148524,39.987608014761626,40.0,0.012391985238370871,9.383969825792605,10.0,0.6160301742073955,-0.005889631288838454,0,0.005889631288838454,3.999616866829056,3.7274191479466534,0.0012010165672595744,0.5188935761914709,0.033461570739746094,0.16762447357177734,STABILIZE
0.16,0.015,0.11,8.028855457466273,6.397870705049958,0.12043283186199409,0.0004538666519288484,6.518757403563882,0.17,0.015,0.08,-2.007226696537735,-1.7000630624844932,-0.030108400448066022,-0.0029719337423182424,-1.7331433966748775,0.002,8e-05,0,1.8839106815686817,0.018769127656926333,0.00015071285452549456,0.0,0.01891984051145183,0.2,0.02,0.0,-0.0013208077701192104,-0.0009957320660268802,-2.6416155402384208e-05,0.0,-0.0010221482214292643,-10.000370955791135,-10.0,0.00037095579113465005,39.986691906562235,40.0,0.013308093437768006,9.384563828463167,10.0,0.6154361715368339,-0.004978660330134401,0,0.004978660330134401,3.99984938511057,1.7334909661917268,0.0010221482214292643,0.5189198405114518,0.0334010124206543,0.20105504989624023,STABILIZE
0.16,0.015,0.11,9.384563204480056,6.397671496546914,0.14076844806720085,-0.0005147760676601013,6.537925168546455,0.17,0.015,0.08,-2.3463440737413395,-1.7003363607158515,-0.03519516110612009,-0.0026715632255873314,-1.738203085047559,0.002,8e-05,0,2.202035747741629,0.018765656468686113,0.00017616285981933034,-0.0,0.018941819328505444,0.2,0.02,0.0,-0.0016080795699972962,-0.0016945674776606874,-3.216159139994593e-05,-0.0,-0.0017267290690606333,-10.001978592446184,-10.0,0.001978592446183098,39.98544685341821,40.0,0.014553146581788978,9.382828234343057,10.0,0.6171717656569423,-0.008472837388303437,0,0.008472837388303437,3.99974291268804,1.7387945816773893,0.0017267290690606333,0.5189418193285055,0.033905029296875,0.2349393367767334,STABILIZE
0.16,0.015,0.11,10.722028285042901,6.397645118945154,0.1608304242756435,-0.0005411320501032369,6.557934411170694,0.17,0.015,0.08,-2.680811647552444,-1.6998893478745214,-0.040212174713286655,-0.002412137747426046,-1.742513660335234,0.002,8e-05,0,2.5159713256027922,0.018771036030726527,0.0002012777060482234,0.0,0.01897231373677475,0.2,0.02,0.0,-0.0019789550379851004,-0.0022175622208676273,-3.957910075970201e-05,-0.0,-0.002257141321627329,-9.999349105144242,-10.0,-0.0006508948557577414,39.98528199340721,40.0,0.014718006592785377,9.385518015363264,10.0,0.6144819846367359,-0.011087811104338137,0,0.011087811104338137,3.9996627159320255,1.7432877029446834,0.002257141321627329,0.5189723137367748,0.03344893455505371,0.26839518547058105,STABILIZE
0.16,0.015,0.11,12.059319470074064,6.39767973599583,0.18088979205111094,-0.0008686943697429338,6.577700833677198,0.17,0.015,0.08,-3.0153057505808456,-1.7002544429013826,-0.045229586258712685,-0.002408982486426532,-1.7478930116465219,0.002,8e-05,0,2.8298413665077704,0.018769659357950243,0.00022638730932062165,0.0,0.018996046667270866,0.2,0.02,0.0,-0.0021923885958753733,-0.0012763483783304387,-4.384777191750747e-05,0.0,-0.001320196150247946,-10.001496722949309,-10.0,0.001496722949307951,39.98549834997394,40.0,0.01450165002606125,9.384829678975121,10.0,0.6151703210248786,-0.006381741891652193,0,0.006381741891652193,3.9998052906557193,1.7483385304354717,0.001320196150247946,0.5189960466672708,0.03344440460205078,0.30187129974365234,STABILIZE
0.16,0.015,0.11,13.396875738017773,6.397670891619763,0.20095313607026657,-0.0014137506020986492,6.59721027708793,0.17,0.015,0.08,-3.349931824518082,-1.7005858113187942,-0.05024897736777123,-0.0022910066503525083,-1.753125795336918,0.002,8e-05,0,3.143895287261366,0.018776907515573166,0.0002515116229809093,0.0,0.019028419138554076,0.2,0.02,0.0,-0.0024565813655791657,-0.0015795769054904995,-4.9131627311583315e-05,-0.0,-0.0016287085328020828,-10.003445948934083,-10.0,0.003445948934083144,39.98544307262352,40.0,0.014556927376479775,9.388453757786584,10.0,0.6115462422134162,-0.007897884527452497,0,0.007897884527452497,3.999758303970713,1.7536771550353918,0.0016287085328020828,0.5190284191385541,0.033451080322265625,0.3352987766265869,STABILIZE
0.16,0.015,0.11,14.733950802840463,6.3976491710024,0.22100926204260693,-0.0008996583242508912,6.617758774720756,0.17,0.015,0.08,-3.6845058069252192,-1.7009272374410098,-0.05526758710387829,-0.002421606065175413,-1.7586164306100636,0.002,8e-05,0,3.457855137872614,0.018777975063216185,0.00027662841102980916,0.0,0.019054603474245993,0.2,0.02,0.0,-0.0027728787289109896,-0.0018917781970027568,-5.5457574578219796e-05,-0.0,-0.0019472357715809765,-10.005454337888292,-10.0,0.0054543378882909764,39.985307318765,40.0,0.014692681234998693,9.388987531608093,10.0,0.6110124683919073,-0.009458890985013783,0,0.009458890985013783,3.999709617631854,1.759276761807229,0.0019472357715809765,0.519054603474246,0.03343915939331055,0.36873698234558105,STABILIZE
0.16,0.015,0.11,16.07153283486094,6.397292568556874,0.2410729925229141,-0.001557471432200614,6.636808089647587,0.17,0.015,0.08,-4.019283904423307,-1.7012250243114801,-0.0602892585663496,-0.0025007367270312264,-1.7640150196048612,0.002,8e-05,0,3.7718384495680235,0.018771214199156224,0.0003017470759654419,0.0,0.019072961275121664,0.2,0.02,0.0,-0.0030892893229135317,-0.0018916327122078737,-6.178578645827064e-05,-0.0,-0.001953418498666144,-10.007206025361647,-10.0,0.00720602536164774,39.98307855348046,40.0,0.016921446519540372,9.385607099578111,10.0,0.6143929004218893,-0.009458163561039368,0,0.009458163561039368,3.999708748789544,1.7646752999483832,0.001953418498666144,0.5190729612751217,0.03345370292663574,0.402219295501709,STABILIZE
0.16,0.015,0.11,17.409833763731555,6.397356988556924,0.26114750645597334,-0.001184403065518386,6.657320091947379,0.17,0.015,0.08,-4.354315139137417,-1.701613973606738,-0.06531472708706125,-0.0048522100847552515,-1.7717809107785545,0.002,8e-05,0,4.086043243289185,0.018774553891314046,0.00032688345946313484,0.0,0.01910143735077718,0.2,0.02,0.0,-0.0034493963974562927,-0.0021517334594348576,-6.898792794912586e-05,0.0,-0.0022207213873839836,-10.009493962392575,-10.0,0.00949396239257478,39.98348117848077,40.0,0.016518821519230894,9.387276945657023,10.0,0.6127230543429775,-0.010758667297174288,0,0.010758667297174288,3.9996672347982325,1.772531976208256,0.0022207213873839836,0.5191014373507772,0.03347134590148926,0.4357280731201172,STABILIZE
0.16,0.015,0.11,18.78375759922493,6.397085159609471,0.28175636398837395,-0.002414396027364647,6.676427127570481,0.17,0.015,0.08,-4.698360756953314,-1.7020191551349273,-0.07047541135429972,-0.004934514405758617,-1.7774290808949857,0.002,8e-05,0,4.408596092217233,0.018772856887718282,0.00035268768737737867,0.0,0.01912554457509566,0.2,0.02,0.0,-0.0038632324993265795,-0.0024085621755320836,-7.72646499865316e-05,-0.0,-0.0024858268255186153,-10.011877383146631,-10.0,0.011877383146631582,39.981782247559195,40.0,0.01821775244080637,9.38642844385914,10.0,0.6135715561408602,-0.012042810877660418,0,0.012042810877660418,3.9996263196910595,1.7782697884308059,0.0024858268255186153,0.5191255445750956,0.034363746643066406,0.47002696990966797,STABILIZE
0.16,0.015,0.11,20.121617189015392,6.397389039798761,0.30182425783523087,-0.001129286138022138,6.69808401149597,0.17,0.015,0.08,-5.033439559245346,-1.7024255128947494,-0.07550159338868018,-0.005145194144272957,-1.7830723004277027,0.002,8e-05,0,4.722453294940183,0.018760064995648914,0.0003777962635952147,-0.0,0.01913786125924413,0.2,0.02,0.0,-0.0042064279943687085,-0.002051369137730945,-8.412855988737417e-05,-0.0,-0.002135497697618319,-10.01426772291029,-10.0,0.01426772291028923,39.98368149874226,40.0,0.016318501257740956,9.380032497824457,10.0,0.6199675021755426,-0.010256845688654724,0,0.010256845688654724,3.999680737922263,1.7837883347656922,0.002135497697618319,0.5191378612592441,0.033460140228271484,0.5035400390625,STABILIZE
0.16,0.015,0.11,21.459222848179287,6.397314385745151,0.3218883427226893,-0.0013468077154799789,6.71785592075236,0.17,0.015,0.08,-5.368437311460942,-1.7023169684251391,-0.08052655967191412,-0.003878846923682638,-1.7867223750207357,0.002,8e-05,0,5.03616240736296,0.01875455411776628,0.00040289299258903686,-0.0,0.019157447110355316,0.2,0.02,0.0,-0.004423121895943704,-0.0012954668331729008,-8.846243791887409e-05,0.0,-0.0013839292710917748,-10.013629226030229,-10.0,0.013629226030229322,39.98321491090719,40.0,0.016785089092803882,9.37727705888314,10.0,0.6227229411168611,-0.006477334165864503,0,0.006477334165864503,3.9997979840313884,1.7871745668339682,0.0013839292710917748,0.5191574471103553,0.033454179763793945,0.5369510650634766,STABILIZE
0.16,0.015,0.11,22.79711401967649,6.397403304343326,0.3419567102951473,0.0004842759813139067,6.739844290619787,0.17,0.015,0.08,-5.703623971920056,-1.702937102289014,-0.08555435957880084,-0.004785355374050472,-1.7932768172418654,0.002,8e-05,0,5.350144134455605,0.018767106970274516,0.00042801153075644845,-0.0,0.019195118501030964,0.2,0.02,0.0,-0.004678670122303369,-0.0015274458627143816,-9.357340244606738e-05,0.0,-0.001621019265160449,-10.017277072288318,-10.0,0.017277072288317787,39.983770652145786,40.0,0.0162293478542156,9.383553485137258,10.0,0.616446514862742,-0.007637229313571908,0,0.007637229313571908,3.9997609299959316,1.7938099804982675,0.001621019265160449,0.519195118501031,0.03346085548400879,0.5704176425933838,STABILIZE
0.16,0.015,0.11,24.134725324913788,6.397478168110983,0.3620208798737068,0.0005273432732091097,6.760026391257899,0.17,0.015,0.08,-6.0388646932241965,-1.7035880576129456,-0.09058297039836294,-0.005523065140332768,-1.7996940931516414,0.002,8e-05,0,5.664161057798575,0.018773357436109188,0.000453132884623886,-0.0,0.019226490320733074,0.2,0.02,0.0,-0.004974017511049564,-0.0017657207890983337,-9.948035022099128e-05,0.0,-0.0018652011393193249,-10.021106221252621,-10.0,0.021106221252620884,39.98423855069365,40.0,0.01576144930635221,9.386678718054593,10.0,0.6133212819454068,-0.008828603945491668,0,0.008828603945491668,3.9997226408784177,1.8003104246127895,0.0018652011393193249,0.5192264903207331,0.03345346450805664,0.6038720607757568,STABILIZE
0.16,0.015,0.11,25.47269725069471,6.397424779167531,0.38209045876042064,0.0013956375607203767,6.780910875488672,0.17,0.015,0.08,-6.374169919470532,-1.7034423830142895,-0.09561254879205798,-0.004003602225006852,-1.8030585340313545,0.002,8e-05,0,5.978251273034813,0.018772521372912757,0.00047826010184278506,-0.0,0.019250781474755542,0.2,0.02,0.0,-0.005171690166162674,-0.0011814485020363516,-0.0001034338033232535,0.0,-0.001284882305359605,-10.020249311848762,-10.0,0.0202493118487608,39.98390486979707,40.0,0.016095130202924357,9.386260686456378,10.0,0.6137393135436215,-0.005907242510181758,0,0.005907242510181758,3.999814081906635,1.8034709277736307,0.001284882305359605,0.5192507814747556,0.0334627628326416,0.6373434066772461,STABILIZE
0.16,0.015,0.11,26.82880260057093,6.397343504679259,0.40243203900856395,-0.00018260842694376315,6.799592935260878,0.17,0.015,0.08,-6.714041982960534,-1.7035333826479073,-0.100710629744408,-0.003113108091234827,-1.8073571204835501,0.002,8e-05,0,6.296683226075445,0.01877728919302581,0.0005037346580860357,0.0,0.019281023851111845,0.2,0.02,0.0,-0.0053755020483158165,-0.0012018375089625864,-0.00010751004096631634,0.0,-0.0013093475499289027,-10.020784603811219,-10.0,0.020784603811218803,39.98339690424537,40.0,0.01660309575463243,9.388644596512904,10.0,0.6113554034870966,-0.006009187544812932,0,0.006009187544812932,3.999810422190634,1.8077766309745715,0.0013093475499289027,0.5192810238511119,0.03391671180725098,0.6712427139282227,STABILIZE
0.16,0.015,0.11,28.166893451528168,6.397218560699108,0.4225034017729225,-0.0003891111214038297,6.819332851350627,0.17,0.015,0.08,-7.049275606174954,-1.7028723627061682,-0.10573913409262431,-0.0015595144405882017,-1.8101710112393807,0.002,8e-05,0,6.611216982759498,0.0187967542038178,0.0005288973586207599,0.0,0.019325651562438557,0.2,0.02,0.0,-0.00561669527739423,-0.001441387369803384,-0.0001123339055478846,-0.0,-0.0015537212753512686,-10.016896251212753,-10.0,0.016896251212752744,39.982616004369426,40.0,0.017383995630571414,9.398377101908899,10.0,0.6016228980911015,-0.00720693684901692,0,0.00720693684901692,3.999772276400002,1.8106741360259577,0.0015537212753512686,0.5193256515624386,0.03346681594848633,0.7047486305236816,STABILIZE
0.16,0.015,0.11,29.504320270561468,6.397142913747365,0.442564804058422,-0.001065452196447746,6.838642265609339,0.17,0.015,0.08,-7.384253199926651,-1.7023965191881105,-0.11076379799889977,0.0015236266445024533,-1.8116366905425079,0.002,8e-05,0,6.925499993067918,0.01879087236487926,0.0005540399994454335,0.0,0.01934491236432469,0.2,0.02,0.0,-0.0057693019873233395,-0.0009124302346117735,-0.00011538603974646679,0.0,-0.0010278162743582403,-10.014097171694766,-10.0,0.014097171694766954,39.98214321092103,40.0,0.01785678907897155,9.39543618243963,10.0,0.604563817560371,-0.004562151173058867,0,0.004562151173058867,3.999855736547561,1.8119551830349936,0.0010278162743582403,0.5193449123643247,0.03345060348510742,0.7381696701049805,STABILIZE
0.16,0.015,0.11,30.8428345006784,6.396964067154394,0.462642517510176,-0.00210769435527792,6.857498890309292,0.17,0.015,0.08,-7.719424904417123,-1.7019515990692524,-0.11579137356625684,0.004605806898786245,-1.813137165736723,0.002,8e-05,0,7.239389304555771,0.01875156238044081,0.0005791511443644618,-0.0,0.01933071352480527,0.2,0.02,0.0,-0.005822792748265918,-0.00031955065173693193,-0.00011645585496531837,0.0,-0.0004360065067022503,-10.011479994525013,-10.0,0.011479994525013807,39.98102541971496,40.0,0.018974580285041027,9.375781190220405,10.0,0.6242188097795951,-0.0015977532586846596,0,0.0015977532586846596,3.999949437202019,1.8132487092517258,0.0004360065067022503,0.5193307135248053,0.033478736877441406,0.771655797958374,STABILIZE
0.16,0.015,0.11,32.179635129656134,6.3968833591350265,0.482694526944842,-0.0022202121527381134,6.87735767392713,0.17,0.015,0.08,-8.05420711005638,-1.702131447933327,-0.1208131066508457,0.0036898365103236242,-1.819254718073849,0.002,8e-05,0,7.552478250406845,0.018727488454798748,0.0006041982600325477,-0.0,0.019331686714831296,0.2,0.02,0.0,-0.005678576283841641,0.0008626341518241396,-0.00011357152567683282,0.0,0.0007490626261473067,-10.012537929019569,-10.0,0.01253792901956907,39.98052099459392,40.0,0.019479005406080125,9.363744227399375,10.0,0.6362557726006259,0.004313170759120698,0,-0.004313170759120698,4.000136940398229,1.818953596795547,-0.0007490626261473067,0.5193316867148313,0.03343629837036133,0.8050985336303711,STABILIZE
0.16,0.015,0.11,33.56958817015964,6.396933797947865,0.5035438225523946,-0.001691232263334276,6.898786388236926,0.17,0.015,0.08,-8.402256008376803,-1.7019270091385823,-0.12603384012565202,0.004495817045542931,-1.8234650322186914,0.002,8e-05,0,7.878093175152692,0.01873208173698823,0.0006302474540122154,-0.0,0.019362329191000442,0.2,0.02,0.0,-0.005375988510243534,0.0017407368265066954,-0.00010751977020487068,0.0,0.0016332170563018247,-10.011335347874013,-10.0,0.011335347874013413,39.98083623717415,40.0,0.01916376282585109,9.366040868494114,10.0,0.6339591315058867,0.008703684132533477,0,-0.008703684132533477,4.000276952673014,1.822857379401202,-0.0016332170563018247,0.5193623291910004,0.03476548194885254,0.8398482799530029,STABILIZE
0.16,0.015,0.11,34.90722099727156,6.396669337194778,0.5236083149590733,-0.0022647222729637157,6.918012929880888,0.17,0.015,0.08,-8.73722995728443,-1.7019898067883745,-0.13105844935926644,0.0024602028744474024,-1.8305880532731935,0.002,8e-05,0,8.191485044645203,0.018733318679434986,0.0006553188035716163,-0.0,0.019388637483006604,0.2,0.02,0.0,-0.005101987677462591,0.0016378679278527507,-0.00010203975354925182,0.0,0.0015358281743034989,-10.011704745813967,-10.0,0.011704745813967268,39.97918335746736,40.0,0.020816642532634936,9.366659339717494,10.0,0.633340660282507,0.008189339639263753,0,-0.008189339639263753,4.000261606812302,1.8300163108152894,-0.0015358281743034989,0.5193886374830066,0.03345823287963867,0.8733153343200684,STABILIZE
0.16,0.015,0.11,36.24592353377574,6.3964063494086165,0.543688853006636,-0.00303363951213875,6.937061562903114,0.17,0.015,0.08,-9.072498248189321,-1.7020541730601364,-0.1360874737228398,0.0009404454048873718,-1.837201201378089,0.002,8e-05,0,8.505153950733321,0.01873412621366757,0.0006804123160586658,-0.0,0.019414538529726237,0.2,0.02,0.0,-0.004846716325617677,0.0015246285594061012,-9.693432651235354e-05,0.0,0.0014276942328937477,-10.012083370941978,-10.0,0.012083370941978524,39.977539683803855,40.0,0.022460316196144425,9.367063106833784,10.0,0.6329368931662155,0.007623142797030505,0,-0.007623142797030505,4.000244402269774,1.8366689893539407,-0.0014276942328937477,0.5194145385297262,0.033486366271972656,0.9068074226379395,STABILIZE
0.16,0.015,0.11,37.58108160182047,6.396366474176839,0.563716224027307,-0.0024632687244103254,6.9576194294797356,0.17,0.015,0.08,-9.40678601399207,-1.7015710000198512,-0.14110179020988103,0.0010512717490498064,-1.8416215184806823,0.002,8e-05,0,8.817986983893574,0.018733687542438777,0.000705438958711486,-0.0,0.01943912650115026,0.2,0.02,0.0,-0.004602299065255767,0.0014636678675980334,-9.204598130511534e-05,0.0,0.0013716218862929181,-10.00924117658736,-10.0,0.009241176587358913,39.97729046360524,40.0,0.022709536394753538,9.366843771219388,10.0,0.6331562287806124,0.007318339337990166,0,-0.007318339337990166,4.000235196060726,1.8411105869903903,-0.0013716218862929181,0.5194391265011502,0.03339791297912598,0.9402031898498535,STABILIZE
0.16,0.015,0.11,38.92653876545365,6.396391482922661,0.5838980814818048,-0.0020291994958526525,6.978260364908613,0.17,0.015,0.08,-9.743670502889488,-1.7016691089215004,-0.14615505754334232,0.0012831541030586158,-1.846541012361784,0.002,8e-05,0,9.132961481887381,0.018717617427383135,0.0007306369185509906,-0.0,0.019448254345934127,0.2,0.02,0.0,-0.004382266247149431,0.0013075630366952262,-8.764532494298863e-05,0.0,0.0012199177117522375,-10.00981828777353,-10.0,0.009818287773531099,39.97744676826663,40.0,0.022553231733371547,9.358808713691568,10.0,0.6411912863084314,0.006537815183476131,0,-0.006537815183476131,4.000210676107923,1.8460845747381887,-0.0012199177117522375,0.5194482543459341,0.033655405044555664,0.9738552570343018,STABILIZE
0.16,0.015,0.11,40.27900732727617,6.396599440392917,0.6041851099091425,-0.0013834502570205858,6.999401100045039,0.17,0.015,0.08,-10.08228171940954,-1.7015795434706447,-0.1512342257911431,0.0009788744798990292,-1.8518348947818888,0.002,8e-05,0,9.449767934556396,0.01872949245419696,0.0007559814347645118,-0.0,0.019485473888961474,0.2,0.02,0.0,-0.004189013367122704,0.001142504620003413,-8.378026734245408e-05,-0.0,0.0010587243526609588,-10.009291432180262,-10.0,0.009291432180261959,39.97874650245573,40.0,0.02125349754427357,9.36474622709848,10.0,0.6352537729015195,0.005712523100017065,0,-0.005712523100017065,4.000184612384759,1.8514360762316493,-0.0010587243526609588,0.5194854738889615,0.033829689025878906,1.0076851844787598,STABILIZE
0.16,0.015,0.11,41.61488234072119,6.396559064321602,0.6242232351108178,-0.0004627670141522004,7.0203195324182674,0.17,0.015,0.08,-10.41676002123293,-1.7016783597285736,-0.15625140031849394,0.0008771935570707765,-1.8570525664899966,0.002,8e-05,0,9.762734533383696,0.018732191582392494,0.0007810187626706958,-0.0,0.01951321034506319,0.2,0.02,0.0,-0.0039888679211823866,0.0011979434392506078,-7.977735842364773e-05,-0.0,0.00111816608082696,-10.009872704285726,-10.0,0.00987270428572674,39.978494152010015,40.0,0.021505847989984422,9.366095791196248,10.0,0.6339042088037515,0.005989717196253038,0,-0.005989717196253038,4.000194114949349,1.8566343951978477,-0.00111816608082696,0.5195132103450631,0.03341484069824219,1.0411128997802734,STABILIZE
0.16,0.015,0.11,42.95241010668511,6.396577156051773,0.6442861516002766,0.0006914545151561962,7.041554762167205,0.17,0.015,0.08,-10.75159441272631,-1.7013898356551047,-0.16127391619089465,0.0018697702162436265,-1.8607939816297558,0.002,8e-05,0,10.076287403735241,0.018744144782853592,0.0008061029922988193,0.0,0.01955024777515241,0.2,0.02,0.0,-0.0038134375164292104,0.0010487203967616118,-7.626875032858421e-05,-0.0,0.0009724516464330276,-10.008175503853556,-10.0,0.00817550385355529,39.97860722532358,40.0,0.021392774676418896,9.372072391426796,10.0,0.6279276085732035,0.005243601983808059,0,-0.005243601983808059,4.000170279614199,1.860427901360539,-0.0009724516464330276,0.5195502477751525,0.03345608711242676,1.0745809078216553,STABILIZE
0.16,0.015,0.11,44.29089063774053,6.396575248370759,0.6643633595661079,0.000847787062233959,7.0617863949991015,0.17,0.015,0.08,-11.0866126053222,-1.7011115164479995,-0.166299189079833,0.0012905564724966325,-1.866120149055336,0.002,8e-05,0,10.39014810771746,0.018749185773978022,0.0008312118486173968,0.0,0.01958039762259542,0.2,0.02,0.0,-0.003660478562647586,0.0009137352347261282,-7.320957125295172e-05,-0.0,0.0008405256634731765,-10.006538332047056,-10.0,0.0065383320470560405,39.978595302317245,40.0,0.021404697682751852,9.37459288698901,10.0,0.6254071130109903,0.004568676173630641,0,-0.004568676173630641,4.000148788796091,1.8658011893563247,-0.0008405256634731765,0.5195803976225954,0.033479928970336914,1.1080436706542969,STABILIZE
0.16,0.015,0.11,45.62920856592798,6.397347111388428,0.6844381284889197,0.003916374646879945,7.085701614524228,0.17,0.015,0.08,-11.42173279519751,-1.7020415267980986,-0.17132599192796263,-0.0010501279776363363,-1.8744176467036975,0.002,8e-05,0,10.704015716225909,0.018754139023689845,0.0008563212572980728,0.0,0.019610460280987917,0.2,0.02,0.0,-0.003416655284855752,0.0014568867652989162,-6.833310569711504e-05,0.0,0.0013885536596018012,-10.012008981165286,-10.0,0.012008981165286349,39.98341944617768,40.0,0.01658055382232007,9.377069511844923,10.0,0.622930488155077,0.00728443382649458,0,-0.00728443382649458,4.000238276172217,1.8739090821384474,-0.0013885536596018012,0.5196104602809879,0.03347182273864746,1.1415252685546875,STABILIZE
0.16,0.015,0.11,46.97254012404343,6.3972533753771685,0.7045881018606514,0.002687517769674842,7.104528995007495,0.17,0.015,0.08,-11.758183830494284,-1.7023981644448116,-0.17637275745741426,-0.002298361363700397,-1.8810692832659264,0.002,8e-05,0,11.019182599265038,0.018761213437486105,0.0008815346079412031,0.0,0.01964274804542731,0.2,0.02,0.0,-0.003191721473706518,0.00133898308083151,-6.383442947413036e-05,0.0,0.0012751486513573797,-10.014106849675361,-10.0,0.01410684967536037,39.982833596107305,40.0,0.017166403892696008,9.380606718743053,10.0,0.6193932812569471,0.0066949154041575495,0,-0.0066949154041575495,4.000219772472248,1.8806018771575927,-0.0012751486513573797,0.5196427480454273,0.033597707748413086,1.1751482486724854,STABILIZE
0.16,0.015,0.11,48.30910525375471,6.397353022098517,0.7246365788063206,0.0032635420401293663,7.125253142944967,0.17,0.015,0.08,-12.092868789429593,-1.7020617982010529,-0.1813930318414439,-0.0010729796609858851,-1.8845278097034825,0.002,8e-05,0,11.332801272834736,0.0187638571116717,0.000906624101826779,0.0,0.01967048121349848,0.2,0.02,0.0,-0.003059043574993703,0.0007938140624687134,-6.118087149987406e-05,-0.0,0.0007326331909688393,-10.012128224712075,-10.0,0.012128224712074588,39.98345638811573,40.0,0.016543611884271864,9.38192855583585,10.0,0.6180714441641499,0.003969070312343567,0,-0.003969070312343567,4.000130537947792,1.8842507118011973,-0.0007326331909688393,0.5196704812134985,0.03342795372009277,1.2085518836975098,STABILIZE
0.16,0.015,0.11,49.64679813918407,6.397047709862809,0.744701972087761,0.001934458005196561,7.1436841399557665,0.17,0.015,0.08,-12.427894883044475,-1.7022790124423282,-0.18641842324566713,-0.0024956768307091756,-1.8911931125187045,0.002,8e-05,0,11.646909453652533,0.018776404515531843,0.0009317527562922027,0.0,0.019708157271824046,0.2,0.02,0.0,-0.002980290089807382,0.0004707637002692559,-5.960580179614764e-05,-0.0,0.00041115789847310824,-10.013405955543107,-10.0,0.01340595554310702,39.981548186642556,40.0,0.018451813357446303,9.388202257765922,10.0,0.6117977422340772,0.0023538185013462793,0,-0.0023538185013462793,4.000077690398418,1.891028783391476,-0.00041115789847310824,0.5197081572718241,0.03345775604248047,1.2420108318328857,STABILIZE
0.16,0.015,0.11,50.983989012370465,6.397108630769406,0.7647598351855569,0.0021927533208542815,7.164061219275817,0.17,0.015,0.08,-12.762712742862977,-1.7018758542350927,-0.19144069114294465,-0.0021435459906535333,-1.895460091368691,0.002,8e-05,0,11.960862604124856,0.018774361693760476,0.0009568690083299886,0.0,0.019731230702090465,0.2,0.02,0.0,-0.002775796300364301,0.0012228704701182978,-5.5515926007286014e-05,0.0,0.001167354544111012,-10.011034436677015,-10.0,0.011034436677014252,39.981928942308784,40.0,0.018071057691219167,9.387180846880238,10.0,0.6128191531197613,0.006114352350591489,0,-0.006114352350591489,4.000202252346478,1.895033218255968,-0.001167354544111012,0.5197312307020905,0.033444881439208984,1.2755837440490723,STABILIZE
0.16,0.015,0.11,52.32351135034004,6.397089615490873,0.7848526702551006,-0.0010560482325250198,7.180886237513449,0.17,0.015,0.08,-13.098041196198686,-1.7014994729244497,-0.1964706179429803,0.0015288334500008459,-1.8964412574174292,0.002,8e-05,0,12.274651595020028,0.018731829233187308,0.0009819721276016023,-0.0,0.01971380136078891,0.2,0.02,0.0,-0.002422133858325926,0.0021112099731593024,-4.844267716651852e-05,0.0,0.0020627672959927837,-10.00882042896735,-10.0,0.008820428967350604,39.98181009681795,40.0,0.018189903182045084,9.365914616593654,10.0,0.634085383406346,0.010556049865796512,0,-0.010556049865796512,4.000349328325583,1.8957042739309475,-0.0020627672959927837,0.5197138013607889,0.03350329399108887,1.3089580535888672,STABILIZE
0.16,0.015,0.11,53.66556687506583,6.397032579676924,0.8049835031259874,-0.0009060650407592635,7.201110017762152,0.17,0.015,0.08,-13.434010069457594,-1.7015160886959753,-0.2015101510418639,0.0024812980110336573,-1.9005449417268057,0.002,8e-05,0,12.588612420455949,0.01870654373136136,0.001007088993636476,-0.0,0.019713632724997834,0.2,0.02,0.0,-0.0020279495980057285,0.0023486449602927,-4.0558991960114574e-05,0.0,0.002308085968332585,-10.008918168799854,-10.0,0.008918168799853915,39.98145362298077,40.0,0.01854637701922813,9.35327186568068,10.0,0.6467281343193201,0.011743224801463498,0,-0.011743224801463498,4.000389447753309,1.8997250700633819,-0.002308085968332585,0.5197136327249978,0.033566951751708984,1.342524528503418,STABILIZE
0.16,0.015,0.11,55.00303610919509,6.396981037514396,0.8250455416379263,-0.0015277982519740414,7.220498780900348,0.17,0.015,0.08,-13.768822206497509,-1.7014586313018396,-0.20653233309746263,0.0016959010147819798,-1.9062950633845204,0.002,8e-05,0,12.901703012810241,0.018718510781469255,0.0010321362410248194,-0.0,0.019750647022494072,0.2,0.02,0.0,-0.001548187895213996,0.002868315058179995,-3.096375790427992e-05,0.0,0.002837351300275715,-10.008580184128467,-10.0,0.00858018412846798,39.981131484464974,40.0,0.018868515535026324,9.359255390734628,10.0,0.6407446092653728,0.014341575290899973,0,-0.014341575290899973,4.000477035036635,1.9052937728415233,-0.002837351300275715,0.5197506470224941,0.033452510833740234,1.375992774963379,STABILIZE
0.16,0.015,0.11,56.339783403676115,6.396856206828106,0.8450967510551417,-0.0007864279835012295,7.241166529899747,0.17,0.015,0.08,-14.103617845855785,-1.7022604390303975,-0.21155426768783678,4.9894486835747714e-05,-1.9137648122313986,0.002,8e-05,0,13.214818187636785,0.01872972511157074,0.001057185455010943,-0.0,0.019786910566581686,0.2,0.02,0.0,-0.0012278282265697203,0.001916307165203705,-2.4556564531394406e-05,0.0,0.0018917506006723107,-10.013296700178808,-10.0,0.01329670017880741,39.980351292675664,40.0,0.01964870732433334,9.36486255578537,10.0,0.6351374442146299,0.009581535826018525,0,-0.009581535826018525,4.000319981708135,1.913095868084426,-0.0018917506006723107,0.5197869105665817,0.03343510627746582,1.409425973892212,STABILIZE
0.16,0.015,0.11,57.67930593432604,6.3965443010155,0.8651895890148905,-0.0023168638238540698,7.2594170262065365,0.17,0.015,0.08,-14.439116815649989,-1.702219333764761,-0.21658675223474982,-0.0009691746309457429,-1.9197752606304566,0.002,8e-05,0,13.528979629838707,0.018752461574316526,0.0010823183703870967,-0.0,0.019834779944703625,0.2,0.02,0.0,-0.0009531193932346308,0.0016397514619030122,-1.906238786469262e-05,0.0,0.0016206890740383196,-10.013054904498594,-10.0,0.013054904498594524,39.978401881346876,40.0,0.021598118653123374,9.376230787158264,10.0,0.6237692128417368,0.00819875730951506,0,-0.00819875730951506,4.000274669881854,1.919202859739002,-0.0016206890740383196,0.5198347799447036,0.033506155014038086,1.442932367324829,STABILIZE
0.16,0.015,0.11,59.01678298266394,6.396836049149039,0.885251744739959,-0.0010396842823708436,7.281048109606627,0.17,0.015,0.08,-14.77401734545192,-1.7018593112416494,-0.2216102601817788,-0.001013623368275733,-1.924483194791704,0.002,8e-05,0,13.842864246331033,0.018765447531853177,0.0011074291397064828,0.0,0.01987287667155966,0.2,0.02,0.0,-0.0008676398948652094,0.0005110352522611543,-1.735279789730419e-05,-0.0,0.0004936824543638501,-10.010937124950878,-10.0,0.01093712495087904,39.98022530718149,40.0,0.01977469281850766,9.382723765926588,10.0,0.6172762340734124,0.0025551762613057714,0,-0.0025551762613057714,4.000085820734307,1.9243048079231193,-0.0004936824543638501,0.5198728766715597,0.03345346450805664,1.4764246940612793,STABILIZE
0.16,0.015,0.11,60.35328088278227,6.396985608191163,0.905299213241734,-0.00019086860456508787,7.302093952828332,0.17,0.015,0.08,-15.108633664836919,-1.7017005903122715,-0.22662950497255377,-0.0005201532743078078,-1.928850248559133,0.002,8e-05,0,14.15657578722348,0.018769279510603587,0.0011325260629778784,0.0,0.019901805573581465,0.2,0.02,0.0,-0.0006983624895858043,0.0010127822921274538,-1.3967249791716086e-05,-0.0,0.0009988150423357377,-10.010003472425126,-10.0,0.010003472425125136,39.98116005119477,40.0,0.018839948805229143,9.384639755301793,10.0,0.6153602446982069,0.005063911460637269,0,-0.005063911460637269,4.000170459880873,1.928496713314046,-0.0009988150423357377,0.5199018055735815,0.033428192138671875,1.509814739227295,STABILIZE
0.16,0.015,0.11,61.691346133664915,6.397187317950621,0.9253701920049737,0.0008497312869484054,7.323407241242543,0.17,0.015,0.08,-15.44352898525912,-1.7011781384986566,-0.2316529347788868,0.0007874873703883042,-1.932043585907155,0.002,8e-05,0,14.4709706409978,0.01878872097294325,0.001157677651279824,0.0,0.019946398624223073,0.2,0.02,0.0,-0.0005230852480742946,0.0010474838071080179,-1.0461704961485892e-05,-0.0,0.001037022102146532,-10.006930226462686,-10.0,0.006930226462685518,39.98242073719138,40.0,0.017579262808619465,9.394360486471625,10.0,0.6056395135283762,0.005237419035540089,0,-0.005237419035540089,4.000176591791212,1.9316779370098471,-0.001037022102146532,0.5199463986242231,0.033466339111328125,1.5432915687561035,STABILIZE
0.16,0.015,0.11,63.02903743495106,6.396948965467729,0.9454355615242658,0.00038355679306249096,7.3427680837850575,0.17,0.015,0.08,-15.77838643680261,-1.7013978881423844,-0.23667579655203913,0.0024263705468947575,-1.9356473141475288,0.002,8e-05,0,14.785292403766075,0.018788903998546654,0.001182823392301286,0.0,0.01997172739084794,0.2,0.02,0.0,-0.0004123660873104535,0.0006618350775555768,-8.247321746209071e-06,-0.0,0.0006535877558093677,-10.00822287142579,-10.0,0.008222871425790881,39.9809310341733,40.0,0.019068965826697506,9.394451999273327,10.0,0.605548000726672,0.0033091753877778837,0,-0.0033091753877778837,4.0001117885863975,1.9354162868950624,-0.0006535877558093677,0.519971727390848,0.03345823287963867,1.5767951011657715,STABILIZE
0.16,0.015,0.11,64.36768708423307,6.396654627730801,0.965515306263496,0.000454842861331371,7.362624776855629,0.17,0.015,0.08,-16.11347935963943,-1.701297126383679,-0.24170219039459145,0.002594133043913908,-1.9404051837343566,0.002,8e-05,0,15.100083576102108,0.018802627057536124,0.0012080066860881687,0.0,0.020010633743624294,0.2,0.02,0.0,-0.00028514551596279966,0.0007598945482953696,-5.702910319255994e-06,-0.0,0.0007541916379761136,-10.007630155198111,-10.0,0.0076301551981114366,39.979091423317506,40.0,0.020908576682496013,9.401313528768062,10.0,0.5986864712319382,0.0037994727414768477,0,-0.0037994727414768477,4.000128665893876,1.9401399262314145,-0.0007541916379761136,0.5200106337436243,0.03348374366760254,1.610236644744873,STABILIZE
0.16,0.015,0.11,65.78580300138603,6.396654627730801,0.9867870450207904,-0.000744296568663375,7.382697376182929,0.17,0.015,0.08,-16.46846440584258,-1.701297126383679,-0.24702696608763872,0.0015812492286879482,-1.9467428432426297,0.002,8e-05,0,15.433561698856932,0.018802627057536124,0.0012346849359085546,0.0,0.02003731199344468,0.2,0.02,0.0,-0.00015037274900755692,0.0007598945482953696,-3.0074549801511384e-06,0.0,0.0007568870933152184,-10.007630155198111,-10.0,0.0076301551981114366,39.979091423317506,40.0,0.020908576682496013,9.401313528768062,10.0,0.5986864712319382,0.0037994727414768477,0,-0.0037994727414768477,4.0001290861650505,1.9464775857257528,-0.0007568870933152184,0.5200373119934447,0.035471439361572266,1.645707368850708,STABILIZE
0.16,0.015,0.11,67.16140421712016,6.39686202247453,1.0074210632568024,-0.0005306671295108468,7.4037524186018215,0.17,0.015,0.08,-16.812905276083086,-1.7018373422231443,-0.2521935791412463,-0.0003433545559289478,-1.9543742759203195,0.002,8e-05,0,15.757020388551645,0.018801966226483967,0.0012605616310841317,0.0,0.0200625278575681,0.2,0.02,0.0,-4.147938560691784e-06,0.0008499737478349536,-8.295877121383569e-08,-0.0,0.0008498907890637398,-10.01080789543026,-10.0,0.010807895430260147,39.980387640465814,40.0,0.019612359534184106,9.400983113241983,10.0,0.5990168867580175,0.004249868739174768,0,-0.004249868739174768,4.000144953149108,1.9540775737351865,-0.0008498907890637398,0.5200625278575681,0.03440690040588379,1.6801087856292725,STABILIZE
0.16,0.015,0.11,68.499048642948,6.39718065713909,1.02748572964422,-4.985827335570371e-05,7.424616528509954,0.17,0.015,0.08,-17.147787460226112,-1.7016448103073634,-0.2572168119033917,-0.0012710210833789632,-1.9601326432941342,0.002,8e-05,0,16.07164292946087,0.01880822356582954,0.0012857314343568697,0.0,0.020093955000186407,0.2,0.02,0.0,0.0001452458885493781,0.0008930804803498684,2.9049177709875623e-06,-0.0,0.0008959853981208559,-10.009675354749195,-10.0,0.009675354749194646,39.982379107119314,40.0,0.017620892880688455,9.40411178291477,10.0,0.5958882170852301,0.0044654024017493415,0,-0.0044654024017493415,4.000152752699198,1.9598208934441632,-0.0008959853981208559,0.5200939550001864,0.033455848693847656,1.7135820388793945,STABILIZE
0.16,0.015,0.11,69.83649120678719,6.396899067379531,1.0475473681018077,-0.00022775243682652928,7.444218683044512,0.17,0.015,0.08,-17.48263962800416,-1.70167418870083,-0.2622395944200624,-0.000735523541128295,-1.9646493066620208,0.002,8e-05,0,16.38647449918454,0.01882273143160106,0.0013109179599347634,0.0,0.02013364939153582,0.2,0.02,0.0,0.0002934239679827238,0.0008859074061957529,5.868479359654475e-06,0.0,0.0008917758855554075,-10.00984816882841,-10.0,0.009848168828410001,39.980619171122065,40.0,0.01938082887793695,9.41136571580053,10.0,0.5886342841994694,0.004429537030978765,0,-0.004429537030978765,4.000151875094937,1.964340060769016,-0.0008917758855554075,0.5201336493915358,0.03345227241516113,1.747028112411499,STABILIZE
0.16,0.015,0.11,71.17371893826507,6.3964641877728114,1.0676057840739759,-0.0008067291527974193,7.46326324269399,0.17,0.015,0.08,-17.81748025250471,-1.7017732010882214,-0.2672622037875706,-0.0012973455412309137,-1.9703327504170227,0.002,8e-05,0,16.70076715101097,0.018792252476566747,0.0013360613720808778,-0.0,0.020128313848647626,0.2,0.02,0.0,0.0004437567291379602,0.0008988728138285522,8.875134582759204e-06,0.0,0.0009077479484113114,-10.010430594636595,-10.0,0.010430594636595491,39.97790117358007,40.0,0.022098826419924576,9.396126238283372,10.0,0.6038737617166274,0.004494364069142761,0,-0.004494364069142761,4.000154543453201,1.9700189785523958,-0.0009077479484113114,0.5201283138486477,0.03344917297363281,1.7804865837097168,STABILIZE
0.16,0.015,0.11,72.51981720991786,6.396584563741468,1.0877972581487678,-0.00031514951024081794,7.484066672379996,0.17,0.015,0.08,-18.154572847416865,-1.7019607096936376,-0.27231859271125297,-0.0018214811447322525,-1.976100783549623,0.002,8e-05,0,17.01670494505638,0.018766486621478395,0.0013613363956045104,-0.0,0.020127823017082908,0.2,0.02,0.0,0.0005397491844479951,0.0005701885504966587,1.0794983688959904e-05,-0.0,0.0005809835341856186,-10.011533586433162,-10.0,0.011533586433161503,39.978653523384175,40.0,0.021346476615825668,9.383243310739198,10.0,0.6167566892608016,0.0028509427524832935,0,-0.0028509427524832935,4.0000983225385225,1.975901747752132,-0.0005809835341856186,0.5201278230170829,0.03367042541503906,1.8141565322875977,STABILIZE
0.16,0.015,0.11,73.85840516498968,6.396223194223498,1.107876077474845,-0.0026278808460841845,7.501471390852259,0.17,0.015,0.08,-18.48992594062706,-1.7025816656095156,-0.2773488891094059,-0.0020891330239904446,-1.982019687742912,0.002,8e-05,0,17.330719601049445,0.0187558447166178,0.0013864575680839558,-0.0,0.020142302284701756,0.2,0.02,0.0,0.0005273328840448336,-7.416157108339552e-05,1.0546657680896672e-05,-0.0,-6.361491340249885e-05,-10.015186268291268,-10.0,0.015186268291267414,39.97639496389686,40.0,0.023605036103142883,9.3779223583089,10.0,0.6220776416910995,-0.0003708078554169776,0,0.0003708078554169776,3.9999871726456004,1.982045574973281,6.361491340249885e-05,0.5201423022847017,0.033484458923339844,1.847639799118042,STABILIZE
0.16,0.015,0.11,75.19767211280099,6.396370663029776,1.1279650816920148,-0.003332165336767347,7.521003579385023,0.17,0.015,0.08,-18.825371488380526,-1.7022268735992148,-0.2823805723257079,-0.0016340000246909015,-1.9862414459496136,0.002,8e-05,0,17.64518007555652,0.018773383427279126,0.0014116144060445218,-0.0,0.02018499783332365,0.2,0.02,0.0,0.0004930330241377479,-0.00020477117912737555,9.860660482754959e-06,-0.0,-0.0001949105186446206,-10.013099256465969,-10.0,0.013099256465968004,39.9773166439361,40.0,0.022683356063903544,9.386691713639562,10.0,0.6133082863604371,-0.0010238558956368778,0,0.0010238558956368778,3.999964505909097,1.9863129242582611,0.0001949105186446206,0.5201849978333236,0.03350067138671875,1.8811438083648682,STABILIZE
0.16,0.015,0.11,76.53487538516829,6.3964383755294,1.1480231307775244,-0.0018963867594116825,7.542565119547513,0.17,0.015,0.08,-19.160220839654336,-1.7018418142306484,-0.28740331259481505,-0.0004678675316496301,-1.989712994357113,0.002,8e-05,0,17.959333657053882,0.018784204933763527,0.0014367466925643106,-0.0,0.020220951626327838,0.2,0.02,0.0,0.00046901224513052177,-0.00014362759558231235,9.380244902610436e-06,-0.0,-0.0001342473506797019,-10.010834201356754,-10.0,0.010834201356755186,39.97773984705875,40.0,0.02226015294124825,9.392102466881763,10.0,0.6078975331182367,-0.0007181379779115617,0,0.0007181379779115617,3.9999750608774227,1.9897631296896146,0.0001342473506797019,0.5202209516263279,0.03344869613647461,1.914595365524292,STABILIZE
0.16,0.015,0.11,77.87266341354778,6.396773367440025,1.1680899512032168,0.0012678250321364064,7.566131143675378,0.17,0.015,0.08,-19.49519713907477,-1.701831971498938,-0.2924279570861215,-0.00016158658236085523,-1.9944215151674203,0.002,8e-05,0,18.273671364782583,0.01878798279814924,0.0014618937091826067,-0.0,0.020249876507331847,0.2,0.02,0.0,0.0006117259074047384,0.0008530003769649669,1.2234518148094768e-05,-0.0,0.0008652348951130617,-10.010776302934929,-10.0,0.010776302934929217,39.97983354650015,40.0,0.020166453499846783,9.39399139907462,10.0,0.6060086009253806,0.004265001884824834,0,-0.004265001884824834,4.000148450315653,1.9941237563401106,-0.0008652348951130617,0.5202498765073319,0.033461570739746094,1.9480912685394287,STABILIZE
0.16,0.015,0.11,79.20970472598195,6.39675793815686,1.1881455708897293,0.0007128082553895766,7.585616317301978,0.17,0.015,0.08,-19.830085822379022,-1.7023329326970917,-0.2974512873356853,-0.0010472923736561924,-2.000831512406433,0.002,8e-05,0,18.587952249560537,0.018795032040318082,0.0014870361799648431,0.0,0.020282068220282924,0.2,0.02,0.0,0.0008445781043423196,0.0013925328310031865,1.6891562086846392e-05,0.0,0.001409424393090033,-10.013723133512304,-10.0,0.013723133512304798,39.979737113480375,40.0,0.020262886519623716,9.39751602015904,10.0,0.6024839798409606,0.006962664155015933,0,-0.006962664155015933,4.000243114339488,2.000345411977173,-0.001409424393090033,0.5202820682202829,0.03344297409057617,1.9815702438354492,STABILIZE
0.16,0.015,0.11,80.64270081529295,6.396319159684205,1.2096405122293943,0.0005136172508403275,7.606473289164439,0.17,0.015,0.08,-20.189142758227064,-1.7028538659459826,-0.30283714137340595,-0.0006697045884526449,-2.0063607119078415,0.002,8e-05,0,18.925055184390356,0.018808651825024045,0.0015140044147512286,0.0,0.020322656239775274,0.2,0.02,0.0,0.0010396646424671496,0.0010884849677121947,2.0793292849342994e-05,0.0,0.0011092782605615376,-10.016787446741073,-10.0,0.016787446741072715,39.97699474802628,40.0,0.02300525197372255,9.404325912512022,10.0,0.5956740874879778,0.005442424838560973,0,-0.005442424838560973,4.000190562612418,2.005980749926052,-0.0011092782605615376,0.5203226562397752,0.03584551811218262,2.0173535346984863,STABILIZE
0.16,0.015,0.11,81.98030807169194,6.396319159684205,1.229704621075379,-9.165303252891427e-05,7.625932127727054,0.17,0.015,0.08,-20.524298706267118,-1.7028538659459826,-0.30786448059400673,-0.0016664663792634387,-2.0123848129192528,0.002,8e-05,0,19.23971852167731,0.018808651825024045,0.001539177481734185,0.0,0.02034782930675823,0.2,0.02,0.0,0.0012217650480216369,0.0010884849677121947,2.443530096043274e-05,0.0,0.0011129202686726274,-10.016787446741073,-10.0,0.016787446741072715,39.97699474802628,40.0,0.02300525197372255,9.404325912512022,10.0,0.5956740874879778,0.005442424838560973,0,-0.005442424838560973,4.000191134831126,2.0120048509102864,-0.0011129202686726274,0.5203478293067583,0.03345942497253418,2.050812244415283,STABILIZE
0.16,0.015,0.11,83.31664790078388,6.396730875005505,1.249749718511758,0.0013236355009511951,7.647804229018215,0.17,0.015,0.08,-20.858943070206635,-1.7019767400324222,-0.3128841460530995,-0.00028018625926559394,-2.015141072344787,0.002,8e-05,0,19.554380281142333,0.018827607956963185,0.0015643504224913867,0.0,0.020391958379454574,0.2,0.02,0.0,0.001495696387284913,0.0016390526359298938,2.991392774569826e-05,0.0,0.0016689665636755921,-10.011627882543658,-10.0,0.011627882543657892,39.97956796878441,40.0,0.02043203121559179,9.413803978481592,10.0,0.5861960215184084,0.008195263179649468,0,-0.008195263179649468,4.000288193425557,2.0145689144308263,-0.0016689665636755921,0.5203919583794546,0.03342556953430176,2.084233522415161,STABILIZE
0.16,0.015,0.11,84.65407705417958,6.396652567108377,1.2698111558126937,-0.00037477279665483704,7.666088950124416,0.17,0.015,0.08,-21.193669226307744,-1.7009853215647626,-0.31790503839461615,0.0024813958210369398,-2.016408964138342,0.002,8e-05,0,19.86935598412498,0.01883081184099737,0.0015895484787299984,0.0,0.020420360319727368,0.2,0.02,0.0,0.0018068078325812764,0.0018599787324799812,3.613615665162553e-05,0.0,0.0018961148891316066,-10.005796009204484,-10.0,0.005796009204485186,39.97907854442735,40.0,0.020921455572650217,9.415405920498683,10.0,0.5845940795013173,0.009299893662399906,0,-0.009299893662399906,4.000327238236776,2.0157596825213044,-0.0018961148891316066,0.5204203603197274,0.03345322608947754,2.117701768875122,STABILIZE
0.16,0.015,0.11,85.99145876771692,6.396653614181989,1.2898718815157537,-0.00030703180991603597,7.686218463887827,0.17,0.015,0.08,-21.528382140341346,-1.70097864277927,-0.32292573210512016,0.003910028048577597,-2.0199943468358126,0.002,8e-05,0,20.184482193549588,0.0188404812369141,0.0016147585754839671,0.0,0.020455239812398066,0.2,0.02,0.0,0.0021594994613510676,0.0021086408605577025,4.318998922702135e-05,0.0,0.002151830849784724,-10.005756722230998,-10.0,0.005756722230998148,39.97908508863743,40.0,0.020914911362564022,9.420240618457049,10.0,0.5797593815429504,0.010543204302788512,0,-0.010543204302788512,4.000371638765776,2.01925825812526,-0.002151830849784724,0.520455239812398,0.03345203399658203,2.1511893272399902,STABILIZE
0.16,0.015,0.11,87.32898556695507,6.39661811710241,1.309934783504326,0.0012301914577973346,7.707783092064534,0.17,0.015,0.08,-21.863130325813604,-1.700963919673285,-0.32794695488720405,0.005319233323500633,-2.0235916412369885,0.002,8e-05,0,20.49960777519967,0.01883829548213089,0.0016399686220159738,0.0,0.02047826410414686,0.2,0.02,0.0,0.002560731955003116,0.002398579078496568,5.121463910006232e-05,0.0,0.00244979371759663,-10.005670115725206,-10.0,0.005670115725205433,39.97886323189006,40.0,0.02113676810993763,9.419147741065444,10.0,0.5808522589345556,0.011992895392482838,0,-0.011992895392482838,4.000423481490284,2.0227543348675248,-0.00244979371759663,0.5204782641041469,0.033455848693847656,2.1846277713775635,STABILIZE
0.16,0.015,0.11,88.66676227503343,6.397220630681799,1.3300014341255015,0.0037062291631909643,7.730928293970491,0.17,0.015,0.08,-22.197934001347576,-1.7010882891622534,-0.3329690100202136,0.0049693907755448035,-2.029087908406922,0.002,8e-05,0,20.814920844104062,0.018847757414765447,0.001665193667528325,0.0,0.020512951082293774,0.2,0.02,0.0,0.0028361688133733344,0.0016464167209070167,5.6723376267466686e-05,0.0,0.0017031400971744834,-10.00640170095443,-10.0,0.006401700954430991,39.98262894176124,40.0,0.01737105823875686,9.423878707382723,10.0,0.5761212926172773,0.008232083604535083,0,-0.008232083604535083,4.0002914919016,2.0285131796128035,-0.0017031400971744834,0.5205129510822938,0.03345894813537598,2.218092203140259,STABILIZE
0.16,0.015,0.11,90.04490775141618,6.397123780678755,1.3506736162712425,0.0016262478009464098,7.749423644750944,0.17,0.015,0.08,-22.542947339308252,-1.7015883906408331,-0.33814421008962375,0.001134111342721623,-2.038598489387735,0.002,8e-05,0,21.139868453236936,0.018854414442105106,0.001691189476258955,0.0,0.02054560391836406,0.2,0.02,0.0,0.0029809452085303124,0.0008400351561311073,5.961890417060625e-05,-0.0,0.0008996540603017135,-10.009343474357841,-10.0,0.009343474357841892,39.98202362924222,40.0,0.017976370757776392,9.427207221052553,10.0,0.5727927789474467,0.004200175780655536,0,-0.004200175780655536,4.000149432580602,2.0383052563242443,-0.0008996540603017135,0.520545603918364,0.0344691276550293,2.2525293827056885,STABILIZE
0.16,0.015,0.11,91.38100205102775,6.397198267978149,1.3707150307654161,0.002254601149653512,7.770167899893218,0.17,0.015,0.08,-22.87740786758657,-1.701478673610893,-0.3431611180137985,-0.001346141711560126,-2.045985933336252,0.002,8e-05,0,21.45483754221749,0.018850837391107305,0.0017163870033773993,0.0,0.020567224394484704,0.2,0.02,0.0,0.0030667756967340427,0.0005136937664469565,6.133551393468086e-05,-0.0,0.0005750292803816374,-10.008698080064077,-10.0,0.00869808006407711,39.98248917486343,40.0,0.01751082513656948,9.425418695553653,10.0,0.5745813044463474,0.002568468832234783,0,-0.002568468832234783,4.0000917139249,2.0458066183291055,-0.0005750292803816374,0.5205672243944847,0.0334169864654541,2.285950183868408,STABILIZE
0.16,0.015,0.11,92.71841844554625,6.39732103545424,1.3907762766831937,0.0027549557427980083,7.790852267880232,0.17,0.015,0.08,-23.21210308300905,-1.7010220584948557,-0.34818154624513575,-8.014041959267995e-05,-2.049283745159584,0.002,8e-05,0,21.770075571245183,0.018848644320305783,0.0017416060456996148,0.0,0.020590250366005397,0.2,0.02,0.0,0.0030967738514474583,0.000179364320416114,6.193547702894916e-05,-0.0,0.00024129979744506316,-10.006012108793268,-10.0,0.006012108793267523,39.983256471589,40.0,0.01674352841099959,9.424322160152892,10.0,0.5756778398471087,0.00089682160208057,0,-0.00089682160208057,4.0000320759028325,2.0492211349495113,-0.00024129979744506316,0.5205902503660054,0.033449411392211914,2.319476842880249,STABILIZE
0.16,0.015,0.11,94.06733574972394,6.397794089694019,1.411010036245859,0.004828985087437677,7.813633111027316,0.17,0.015,0.08,-23.549465219062228,-1.7000833301886729,-0.3532419782859334,0.002497443262140801,-2.0508278652124656,0.002,8e-05,0,22.088169911757973,0.018858662475036213,0.001767053592940638,0.0,0.020625716067976852,0.2,0.02,0.0,0.0028280767529192535,-0.0015930078733863056,5.656153505838507e-05,-0.0,-0.0015364463383279205,-10.000490177580428,-10.0,0.000490177580427846,39.986213060587616,40.0,0.01378693941238173,9.429331237518106,10.0,0.5706687624818944,-0.007965039366931527,0,0.007965039366931527,3.9997148631311794,2.0513839100420603,0.0015364463383279205,0.5206257160679768,0.03373456001281738,2.3531320095062256,STABILIZE
0.16,0.015,0.11,95.40659986173222,6.397449828657593,1.4310989979259832,0.0009397225992016025,7.829488549182778,0.17,0.015,0.08,-23.884436308511955,-1.7001096083777203,-0.3582665446276793,0.0027734465784872426,-2.055602706426912,0.002,8e-05,0,22.403993160655023,0.018857962475683245,0.001792319452852402,0.0,0.020650281928535647,0.2,0.02,0.0,0.0026616149222634207,-0.0009939518281519885,5.323229844526841e-05,-0.0,-0.00094071952970672,-10.00064475516306,-10.0,0.0006447551630598016,39.98406142910996,40.0,0.015938570890041984,9.428981237841622,10.0,0.5710187621583783,-0.004969759140759943,0,0.004969759140759943,3.9998216847287087,2.0559496533338653,0.00094071952970672,0.5206502819285357,0.03349494934082031,2.3866546154022217,STABILIZE
0.16,0.015,0.11,96.78101811478027,6.397434220877204,1.451715271721704,0.001263632199380907,7.850413124798289,0.17,0.015,0.08,-24.22817172250878,-1.6999655956445787,-0.36342257583763166,0.004533280220235392,-2.058854891261975,0.002,8e-05,0,22.72826859014111,0.018867352832582514,0.001818261487211289,0.0,0.020685614319793804,0.2,0.02,0.0,0.0026543129572281685,-4.248510314506914e-05,5.308625914456337e-05,-0.0,1.0601155999494229e-05,-9.999797621438697,-10.0,-0.0002023785613033536,39.98396388048253,40.0,0.016036119517470523,9.433676416291256,10.0,0.5663235837087441,-0.0002124255157253457,0,0.0002124255157253457,3.9999923667172186,2.0588697213464835,-1.0601155999494229e-05,0.5206856143197938,0.034374237060546875,2.4210259914398193,STABILIZE
0.16,0.015,0.11,98.11882811052104,6.397835702466925,1.4717824216578155,0.0026071528564137036,7.872225276981155,0.17,0.015,0.08,-24.56273473399036,-1.6999866464940512,-0.3684410210098554,0.0041650476926213785,-2.0642626198112852,0.002,8e-05,0,23.044025550189936,0.018875635915549256,0.001843522044015195,0.0,0.02071915795956445,0.2,0.02,0.0,0.0026610141998700057,4.005935966368436e-05,5.3220283997400116e-05,-0.0,9.327964366108447e-05,-9.999921449965006,-10.0,-7.85500349944683e-05,39.98647314041828,40.0,0.013526859581719144,9.437817957774628,10.0,0.5621820422253719,0.00020029679831842177,0,-0.00020029679831842177,4.00000721630453,2.0642486364442245,-9.327964366108447e-05,0.5207191579595645,0.03345656394958496,2.4545023441314697,STABILIZE
0.16,0.015,0.11,99.45593340235204,6.398158748425435,1.4918390010352807,0.0034309175489539447,7.89342866700967,0.17,0.015,0.08,-24.89719473503748,-1.7004447644811964,-0.3734579210255622,0.0015907660199107154,-2.0723119194868476,0.002,8e-05,0,23.359618981796228,0.0188767564502374,0.0018687695185436984,0.0,0.020745525968781098,0.2,0.02,0.0,0.0025535221804299357,-0.0006429476877851246,5.107044360859871e-05,-0.0,-0.0005918772441765259,-10.002616261654095,-10.0,0.002616261654094944,39.98849217765897,40.0,0.011507822341029272,9.4383782251187,10.0,0.5616217748812993,-0.003214738438925623,0,0.003214738438925623,3.999883720902626,2.072536347306225,0.0005918772441765259,0.5207455259687811,0.033437252044677734,2.487945079803467,STABILIZE
0.16,0.015,0.11,100.79562245111921,6.398477700946917,1.5119343367667881,0.00281190332839498,7.9132239410421,0.17,0.015,0.08,-25.232373945529105,-1.7008995484870624,-0.37848560918293656,-0.0023059366100872435,-2.081691094280086,0.002,8e-05,0,23.675726005938355,0.018871951544906597,0.0018940580804750686,0.0,0.020766009625381665,0.2,0.02,0.0,0.002330045729822869,-0.0013341800166351476,4.660091459645738e-05,0.0,-0.0012875791020386903,-10.005291461688602,-10.0,0.005291461688601515,39.99048563091823,40.0,0.009514369081771003,9.435975772453299,10.0,0.5640242275467018,-0.006670900083175738,0,0.006670900083175738,3.9997576033216524,2.082156796851682,0.0012875791020386903,0.5207660096253817,0.03350019454956055,2.5214078426361084,STABILIZE
0.16,0.015,0.11,102.13393379800438,6.398135978270286,1.5320090069700656,0.002821174298511394,7.932966159538863,0.17,0.015,0.08,-25.56708277615086,-1.7001702593024601,-0.3835062416422629,-0.00018118475927772872,-2.0838576857040008,0.002,8e-05,0,23.9913793655978,0.018863259302473456,0.0019193103492478243,0.0,0.020782569651721282,0.2,0.02,0.0,0.0019848237612624963,-0.002063026199654699,3.969647522524993e-05,-0.0,-0.002023329724429449,-10.001001525308588,-10.0,0.0010015253085883273,39.98834986418929,40.0,0.011650135810712644,9.431629651236728,10.0,0.5683703487632716,-0.010315130998273494,0,0.010315130998273494,3.999624772030256,2.084577783924015,0.002023329724429449,0.5207825696517213,0.03346753120422363,2.554889678955078,STABILIZE
0.16,0.015,0.11,103.48935123731297,6.397966153279387,1.5523402685596945,0.002194711564706373,7.952501133403787,0.17,0.015,0.08,-25.90618709777793,-1.700713395453454,-0.38859280646666894,-0.00208359060736512,-2.091389792527488,0.002,8e-05,0,24.31113404401845,0.0188666933019875,0.0019448907235214761,-0.0,0.020811584025508978,0.2,0.02,0.0,0.001784748264287565,-0.0011805184703827685,3.56949652857513e-05,-0.0,-0.0011448235050970173,-10.004196443843846,-10.0,0.004196443843846303,39.987288457996165,40.0,0.012711542003837428,9.43334665099375,10.0,0.5666533490062495,-0.005902592351913842,0,0.005902592351913842,3.999784524486034,2.09180186011252,0.0011448235050970173,0.520811584025509,0.03389620780944824,2.588806390762329,STABILIZE
0.16,0.015,0.11,104.82738005410977,6.398152661301042,1.5724107008116464,0.0013111244357088588,7.971874486548398,0.17,0.015,0.08,-26.24064629674757,-1.6992654035668058,-0.3936096944512135,0.002048552459916428,-2.090826545558103,0.002,8e-05,0,24.6262960916773,0.01883792475782498,0.0019701036873341843,-0.0,0.020808028445159162,0.2,0.02,0.0,0.0016557695477644697,-0.0007709339926147856,3.311539095528939e-05,-0.0,-0.0007378186016594962,-9.995678844510621,-10.0,-0.004321155489378307,39.98845413313151,40.0,0.011545866868491244,9.41896237891249,10.0,0.5810376210875113,-0.0038546699630739277,0,0.0038546699630739277,3.9998593270742737,2.091095647555934,0.0007378186016594962,0.5208080284451592,0.033460378646850586,2.622252941131592,STABILIZE
0.16,0.015,0.11,106.16640673843372,6.3985929485372015,1.5924961010765057,0.0017907663932385384,7.992879816006946,0.17,0.015,0.08,-26.575224787000256,-1.6987215924232475,-0.3986283718050038,0.004866644040160219,-2.0924833201880912,0.002,8e-05,0,24.941582219165728,0.018832593253524283,0.0019953265775332586,-0.0,0.020827919831057543,0.2,0.02,0.0,0.0014428954508863756,-0.0012715343084238996,2.8857909017727513e-05,-0.0,-0.001242676399406172,-9.992479955430866,-10.0,-0.0075200445691341235,39.99120592835751,40.0,0.008794071642487576,9.416296626762142,10.0,0.583703373237859,-0.006357671542119497,0,0.006357671542119497,3.9997677886108436,2.092927156509873,0.001242676399406172,0.5208279198310576,0.033483028411865234,2.65574049949646,STABILIZE
0.16,0.015,0.11,107.50283032223822,6.397861945051665,1.6125424548335734,-0.0025257712694517105,8.007878628615787,0.17,0.015,0.08,-26.909337944442083,-1.6994690147798195,-0.4036400691666312,0.004039558342005547,-2.099069525604445,0.002,8e-05,0,25.256430974409366,0.018840946968753446,0.0020205144779527496,-0.0,0.020861461446706198,0.2,0.02,0.0,0.0012789030498173868,-0.0009813512298717576,2.5578060996347738e-05,0.0,-0.0009557731688754098,-9.99687655752835,-10.0,-0.0031234424716503253,39.986637156572904,40.0,0.013362843427093186,9.420473484376723,10.0,0.5795265156232765,-0.0049067561493587875,0,0.0049067561493587875,3.999820223011232,2.0994120741082845,0.0009557731688754098,0.5208614614467062,0.03342175483703613,2.6891791820526123,STABILIZE
