Mode,Time,Freq,time2delay,actualDelay,North-Desired,East-Desired,Down-Desired,Roll-UAV,Pitch-UAV,Yaw-UAV,Roll-Control,Pitch-Control,Yaw-Control,Thrust-Control,North-Pos,East-Pos,Down-Pos,Yaw-Ang,North-Vel,East-Vel,Down-Vel,Yaw-Vel,North-Acc,East-Acc,Down-Acc,North-Avg,East-Avg,Down-Avg,Yaw-Avg,North-Dif,East-Dif,Down-Dif,Yaw-Dif,North-One,East-One,Down-One,Yaw-One,North-Two,East-Two,Down-Two,Yaw-Two,Landing-State,Q-Size,Kalman-Time,Kalman-Dt
STABILIZE,0.03437447547912598,29.102252936727655,0.033309014638264973,0.03343343734741211,0.0,0.0,0.0,-1.0477462162031959,-0.8755523447504142,-5.8749163513738285,-0.004432475869888322,0.005392462566678565,0.004977877599339004,0.4,0.02582367567339877,0.025447552596162087,0.02889036704576743,0.024889387996695017,0.20894564222544432,-0.06426342879422009,1.9124127924442291,-0.27110947142569963,-4.675374925136566,-8.884933590888977,20.651184022426605,0.0,0.0,0.0,0.0,0.0,0.0,0.0,0.0,0.0,0.0,0.0,0.0,0.0,0.0,0.0,0.0,False,0,0.05891275405883789,0.03492724609375
STABILIZE,0.0676264762878418,30.071222191154224,0.03228953679402669,0.03242921829223633,0.0,0.0,0.0,-1.0614181204874458,-0.8877005298803695,-5.863530426027418,-0.008775538431397658,0.010654862116916469,0.014759539184362448,0.4,0.07301425900145911,0.07196064378330298,0.09445907503655675,0.07379769592181223,-0.1813428709283471,-0.1688187476247549,1.7416775226593018,0.37510278343799325,-6.78609162569046,9.598460048437119,22.653692960739136,0.0,0.0,0.0,0.0,0.0,0.0,0.0,0.0,0.0,0.0,0.0,0.0,0.0,0.0,0.0,0.0,False,0,0.11612725257873535,0.03492578125
STABILIZE,0.10905933380126953,24.13557293374995,0.032537253697713216,0.040640830993652344,0.0,0.0,0.0,-1.0625214094818143,-0.8879684013618809,-5.866068268190901,-0.004774081641344517,0.00558964826398797,0.01809946923914021,0.4,0.09242036672507141,0.09222481575096726,0.1271291298381185,0.09049734619570104,0.20506554283201694,0.4719788208603859,1.8751312047243118,-0.5258421235732657,7.630166411399841,10.130255669355392,36.23846173286438,0.0,0.0,0.0,0.0,0.0,0.0,0.0,0.0,0.0,0.0,0.0,0.0,0.0,0.0,0.0,0.0,False,0,0.14476370811462402,0.029937255859375
STABILIZE,0.14269089698791504,29.735238027719685,0.03252867062886556,0.032811641693115234,0.0,0.0,0.0,-1.0832351320786415,-0.9069338623354494,-5.8802370687372685,-0.004482724085123556,0.005704485051962431,0.02020083646597074,0.4,0.10640974493979186,0.10456845202087411,0.1550914459073809,0.1010041823298537,0.3351339604705572,-9.475083970755804e-05,2.029605954885483,-0.2913692532469855,2.2660698741674423,-12.153742462396622,30.961275100708008,0.0,0.0,0.0,0.0,0.0,0.0,0.0,0.0,0.0,0.0,0.0,0.0,0.0,0.0,0.0,0.0,False,0,0.17343759536743164,0.03492578125
STABILIZE,0.18117713928222656,25.982184228458156,0.032454522450764973,0.03767895698547363,0.0,0.0,0.0,-1.1539564048488347,-0.986422963565823,-5.8627056806851385,-0.00435488318403717,0.005825735093233282,0.023533266930453357,0.4,0.12047733375925491,0.11554778012264638,0.18757292123907301,0.11766633465226678,-0.013810949167236686,-0.4811386577785015,1.7711533233523369,0.5844960529056328,0.5759938154369593,-10.407134145498276,18.652307987213135,0.0,0.0,0.0,0.0,0.0,0.0,0.0,0.0,0.0,0.0,0.0,0.0,0.0,0.0,0.0,0.0,False,1,0.20205116271972656,0.034927001953125
STABILIZE,0.214738130569458,29.797767815912305,0.0325653870900472,0.03271198272705078,0.0,0.0,0.0,-1.1385974438395916,-0.9603256645208506,-5.845857311550009,-0.00521523664247625,0.008495252679316598,0.0232121392612232,0.4,0.1436632347138103,0.12857059721611247,0.2507711162993245,0.11606069630611598,0.7583105936646461,-0.3695406951010227,3.4035786986351013,-2.628869588655504,23.278816044330597,-13.134226202964783,134.40096378326416,0.0,0.0,0.0,0.0,0.0,0.0,0.0,0.0,0.0,0.0,0.0,0.0,0.0,0.0,0.0,0.0,False,0,0.2596321105957031,0.034927001953125
STABILIZE,0.24823665618896484,29.851210259987045,0.03245976765950521,0.03259730339050293,0.0,0.0,0.0,-1.1204939207227669,-0.9338418194575377,-5.8563010976777825,-0.004011602511548061,0.0075414656239569024,0.019967094603021054,0.4,0.15889186210214565,0.13279351352141855,0.29708767697355426,0.09983547301510526,0.7583105936646461,-0.3695406951010227,3.4035786986351013,-2.628869588655504,23.278816044330597,-13.134226202964783,134.40096378326416,0.0,0.0,0.0,0.0,0.0,0.0,0.0,0.0,0.0,0.0,0.0,0.0,0.0,0.0,0.0,0.0,False,0,0.28806471824645996,0.034927001953125
STABILIZE,0.2816352844238281,29.943059481995487,0.03238108952840169,0.03249955177307129,0.0,0.0,0.0,-1.0839641480508346,-0.901465869018031,-5.8575774892789285,-0.0047199278670066475,0.006622356020040051,0.020673500694463207,0.4,0.16749435572153298,0.14041945701036446,0.33771716569575283,0.10336750347231602,0.09367438615299761,0.22849519737064838,2.548348531126976,0.12316047700978898,16.556981205940247,6.995439529418945,78.44051122665405,0.0,0.0,0.0,0.0,0.0,0.0,0.0,0.0,0.0,0.0,0.0,0.0,0.0,0.0,0.0,0.0,False,0,0.31681323051452637,0.034926025390625
STABILIZE,0.32114219665527344,25.31095702759624,0.03243854840596517,0.03864121437072754,0.0,0.0,0.0,-0.9397399012492553,-0.8097860006970953,-5.860542218265537,-0.006019655196621869,0.0032501492099740042,0.01897975780910814,0.4,0.15737749034613419,0.1564876614079951,0.35853541636957315,0.09489878904554071,-1.6348222270607948,1.1711366474628448,0.5134229082614183,-1.031387592975898,-23.56787621974945,31.007850170135498,-5.9211984276771545,0.0,0.0,0.0,0.0,0.0,0.0,0.0,0.0,0.0,0.0,0.0,0.0,0.0,0.0,0.0,0.0,False,0,0.3455066680908203,0.034927001953125
STABILIZE,0.3545491695404053,29.93365686554382,0.03247812589009603,0.03259897232055664,0.0,0.0,0.0,-0.9795581965631371,-0.7740091496594511,-5.850005797697146,-0.005358498467649054,0.005363935386619396,0.021771659164697522,0.4,0.16008571701269364,0.16425200756138558,0.42973164461893837,0.1088582958234876,0.6023351103067398,-0.4284545313566923,2.574383094906807,-1.7962419946308577,2.6212478056550026,-23.392274975776672,33.455273509025574,0.0,0.0,0.0,0.0,0.0,0.0,0.0,0.0,0.0,0.0,0.0,0.0,0.0,0.0,0.0,0.0,False,0,0.4033358097076416,0.03492578125
STABILIZE,0.38805603981018066,29.845687489771088,0.032520325978597005,0.03266644477844238,0.0,0.0,0.0,-0.9619267035509839,-0.7956358764492387,-5.8407436342957855,-0.005801088303259859,0.004906532828947135,0.02609769879726208,0.4,0.16018673724167143,0.17338429602989688,0.47752728791284144,0.13048849398631038,-0.12368818279355764,0.5880905780941248,3.1984634697437286,1.8259678316723995,-0.9776346385478973,6.4954593777656555,79.52180504798889,0.0,0.0,0.0,0.0,0.0,0.0,0.0,0.0,0.0,0.0,0.0,0.0,0.0,0.0,0.0,0.0,False,0,0.4324073791503906,0.03492724609375
STABILIZE,0.42148876190185547,29.909322988718856,0.03246668179829915,0.03260207176208496,0.0,0.0,0.0,-0.9592398778862301,-0.7992675093752757,-5.842396113188106,-0.005994384407966925,0.004699168201870182,0.030767293811539878,0.4,0.15924569855684265,0.1822272979091423,0.5259819880255882,0.15383646905769938,-0.12368818279355764,0.5880905780941248,3.1984634697437286,1.8259678316723995,-0.9776346385478973,6.4954593777656555,79.52180504798889,0.0,0.0,0.0,0.0,0.0,0.0,0.0,0.0,0.0,0.0,0.0,0.0,0.0,0.0,0.0,0.0,False,0,0.460308313369751,0.03492724609375
STABILIZE,0.4550011157989502,29.840803665442955,0.03249958356221517,0.03266453742980957,0.0,0.0,0.0,-0.9625828285981283,-0.8009086224059299,-5.855061845230248,-0.003834813465926517,0.0039059489911700274,0.03027490298449852,0.4,0.15456895802602766,0.17736740996318326,0.5565171714558301,0.1513745149224926,-0.3441889304667711,-0.45895883813500404,1.7726944759488106,-0.2986206729897176,1.7943695187568665,-11.185487359762192,96.030592918396,0.0,0.0,0.0,0.0,0.0,0.0,0.0,0.0,0.0,0.0,0.0,0.0,0.0,0.0,0.0,0.0,False,0,0.48914575576782227,0.029936767578125
STABILIZE,0.48901939392089844,29.394931599013233,0.03246358235677083,0.03327465057373047,0.0,0.0,0.0,-0.9596654840488865,-0.7989959026340618,-5.889345125995481,-0.0050121706648331285,0.0019503789701514128,0.026230272077585715,0.4,0.14095995447626686,0.17996238924489083,0.5649747445661708,0.13115136038792857,-0.8488600142300129,0.3553848946467042,0.7798510603606701,-1.44539118522317,-47.54440486431122,21.683228015899658,-11.887320876121521,0.0,0.0,0.0,0.0,0.0,0.0,0.0,0.0,0.0,0.0,0.0,0.0,0.0,0.0,0.0,0.0,False,0,0.5178380012512207,0.034926025390625
STABILIZE,0.5227274894714355,29.669401844830514,0.03259089787801107,0.03279733657836914,0.0,0.0,0.0,-0.9534234381994354,-0.7993567820821618,-5.889174798153054,-0.005249479140090606,0.0007466811917680657,0.029724336679122873,0.4,0.12370553291621762,0.18345517246074922,0.6037039417632243,0.14862168339561435,-1.135258935391903,0.29476964846253395,2.593008428812027,1.360311467435435,1.1557942256331444,-4.736102744936943,46.42142355442047,0.0,0.0,0.0,0.0,0.0,0.0,0.0,0.0,0.0,0.0,0.0,0.0,0.0,0.0,0.0,0.0,False,0,0.5464863777160645,0.03492626953125
STABILIZE,0.559037446975708,27.539208026105854,0.032392056783040364,0.03547048568725586,0.0,0.0,0.0,-0.9613254334606112,-0.8024455216908886,-5.870036608098678,-0.005234657827237335,0.00019756502948524898,0.033378918664976436,0.4,0.10502582805056168,0.18649350872821613,0.6418775408980636,0.16689459332488216,-1.135258935391903,0.29476964846253395,2.593008428812027,1.360311467435435,1.1557942256331444,-4.736102744936943,46.42142355442047,0.0,0.0,0.0,0.0,0.0,0.0,0.0,0.0,0.0,0.0,0.0,0.0,0.0,0.0,0.0,0.0,False,0,0.5752139091491699,0.03492626953125
STABILIZE,0.5925166606903076,29.869917888604817,0.03249028523763021,0.03261113166809082,0.0,0.0,0.0,-1.0023434941908882,-0.8314664618657438,-5.879417019150044,-0.004428063902796103,0.001091269847990917,0.030609338759433776,0.4,0.09453699561652354,0.18418035034583366,0.6961934939396528,0.15304669379716887,0.2701791701838374,0.3792570671066642,2.3259691894054413,-1.0221582998599181,0.009350106120109558,16.745561361312866,40.69862961769104,0.0,0.0,0.0,0.0,0.0,0.0,0.0,0.0,0.0,0.0,0.0,0.0,0.0,0.0,0.0,0.0,False,0,0.6388044357299805,0.03492724609375
STABILIZE,0.6267385482788086,29.219843531206678,0.03244760831197103,0.03340315818786621,0.0,0.0,0.0,-1.0906765164576648,-0.9177808430676643,-5.971791058806235,-0.005703340879134704,0.0009314623165283572,0.027106513405765288,0.4,0.08456167250058685,0.18954651229660688,0.7185877566235589,0.13553256702882643,-0.43395357206463814,0.5271994043141603,1.681714691221714,-1.0522872247841966,-14.832015335559845,6.112022697925568,41.60778522491455,0.0,0.0,0.0,0.0,0.0,0.0,0.0,0.0,0.0,0.0,0.0,0.0,0.0,0.0,0.0,0.0,False,0,0.6677706241607666,0.03492578125
STABILIZE,0.6602301597595215,29.858860547728714,0.032509597142537434,0.032624006271362305,0.0,0.0,0.0,-1.107123825422467,-0.9440839015613834,-5.955985574180002,-0.001173523255670128,0.0017321893827565984,0.031625466588078535,0.4,0.07997012642391868,0.16799607265438543,0.744302061398958,0.15812733294039266,-0.05943137803114951,-1.245963666588068,2.005296014249325,1.680105299965369,-26.169511675834656,-56.27056956291199,22.2567155957222,0.0,0.0,0.0,0.0,0.0,0.0,0.0,0.0,0.0,0.0,0.0,0.0,0.0,0.0,0.0,0.0,False,0,0.6961662769317627,0.039829345703125
STABILIZE,0.693673849105835,29.900581001603992,0.032399686177571614,0.03255486488342285,0.0,0.0,0.0,-1.0848538869119346,-0.9154884608274788,-5.924415159175735,0.001516082190550901,-0.003302111550380988,0.042226266418152594,0.4,0.05191057744486153,0.1341342881791798,0.7497414097170514,0.21113133209076296,-1.5645280480384827,-1.996481604874134,0.32218731939792633,3.4722822648230114,-48.768481612205505,-18.700970709323883,-17.351655662059784,0.0,0.0,0.0,0.0,0.0,0.0,0.0,0.0,0.0,0.0,0.0,0.0,0.0,0.0,0.0,0.0,False,0,0.7259883880615234,0.024947998046875
STABILIZE,0.7271113395690918,29.906337345274085,0.03248480161031087,0.032598257064819336,0.0,0.0,0.0,-1.079029122932089,-0.8984791553600314,-5.8794588540587105,-0.005241208652315933,-0.0024689370659496048,0.03760358015819745,0.4,0.03198151693478867,0.1437960678934533,0.7484876717263804,0.18801790079098726,-1.0882049798965454,0.9872824884951115,1.392047479748726,-1.1166866238690139,8.290740102529526,59.92404222488403,42.151203751564026,0.0,0.0,0.0,0.0,0.0,0.0,0.0,0.0,0.0,0.0,0.0,0.0,0.0,0.0,0.0,0.0,False,0,0.7548873424530029,0.03492626953125
STABILIZE,0.7605719566345215,29.885454519544552,0.032485040028889973,0.032598018646240234,0.0,0.0,0.0,-1.0137377438303503,-0.8367405418437572,-5.881305566455553,-0.0030361223131029156,0.007075808810532962,0.025686498818006033,0.4,0.060404324253506135,0.13925141698570354,0.7606799920360444,0.12843249409003016,2.0889461040496826,-0.01835831644712016,1.3861571438610554,-3.665215258638596,78.86224389076233,-3.95168736577034,17.69845336675644,0.0,0.0,0.0,0.0,0.0,0.0,0.0,0.0,0.0,0.0,0.0,0.0,0.0,0.0,0.0,0.0,False,0,0.7835738658905029,0.02993701171875
STABILIZE,0.7939443588256836,29.964665118771208,0.03246262868245443,0.03256702423095703,0.0,0.0,0.0,-0.9454057566091925,-0.8249667364576833,-5.9301550793994835,-0.004387819289605344,0.0048420241291044,0.028071600208038058,0.4,0.07407927004378084,0.14306754350490922,0.7752302988075319,0.14035800104019028,1.0736794210970402,0.5571587476879358,2.0339593291282654,1.050681489999009,1.3136951252818108,21.618559956550598,16.17516577243805,0.0,0.0,0.0,0.0,0.0,0.0,0.0,0.0,0.0,0.0,0.0,0.0,0.0,0.0,0.0,0.0,False,0,0.8197543621063232,0.03492578125
STABILIZE,0.8273868560791016,29.90228635388224,0.032517226537068684,0.03264665603637695,0.0,0.0,0.0,-0.9780096646122483,-0.7667110391704396,-5.946655962660588,-0.004640553136314883,0.005374283430656195,0.03066753892195472,0.4,0.08833241179497728,0.1477187736972125,0.7959229078615268,0.1533376946097736,1.0736794210970402,0.5571587476879358,2.0339593291282654,1.050681489999009,1.3136951252818108,21.618559956550598,16.17516577243805,0.0,0.0,0.0,0.0,0.0,0.0,0.0,0.0,0.0,0.0,0.0,0.0,0.0,0.0,0.0,0.0,False,1,0.8482635021209717,0.03492578125
STABILIZE,0.860999584197998,29.751056887501772,0.03252604802449544,0.032660484313964844,0.0,0.0,0.0,-0.9545782737776964,-0.7745364082468644,-5.906803516400856,-0.006052214905688963,-0.003045734879346589,0.034167990224835465,0.4,0.06031940382031348,0.15987268636082477,0.8879380201404756,0.17083995112417732,-0.04160448152106255,0.7167958188802004,3.3081408590078354,-3.4259063475756824,51.73314809799194,-7.70220011472702,153.6500334739685,0.0,0.0,0.0,0.0,0.0,0.0,0.0,0.0,0.0,0.0,0.0,0.0,0.0,0.0,0.0,0.0,False,0,0.9055588245391846,0.029936767578125
STABILIZE,0.894270658493042,30.056568754613142,0.03236106236775716,0.03246903419494629,0.0,0.0,0.0,-0.9398596430031421,-0.7764441120985607,-5.851367566662917,-0.005432018179599773,0.0012073857429726685,0.020762520637968115,0.4,0.05659394808911177,0.16658982362250516,0.917815093954512,0.10381260318984058,-0.04160448152106255,0.7167958188802004,3.3081408590078354,-3.4259063475756824,51.73314809799194,-7.70220011472702,153.6500334739685,0.0,0.0,0.0,0.0,0.0,0.0,0.0,0.0,0.0,0.0,0.0,0.0,0.0,0.0,0.0,0.0,False,0,0.9342544078826904,0.029936767578125
STABILIZE,0.9277827739715576,29.840379060601318,0.03252890904744466,0.032653093338012695,0.0,0.0,0.0,-0.9589517292806202,-0.7847589602785521,-5.863890718506136,-9.422318673720569e-05,0.004042118590320111,0.011590700220900384,0.4,0.06687011257797876,0.14169236581105504,0.9153019948586698,0.05795350110450192,0.7527756970375776,-1.095250342041254,1.4749083667993546,-2.2764685397496347,-0.34783591981977224,-32.42432177066803,25.384235382080078,0.0,0.0,0.0,0.0,0.0,0.0,0.0,0.0,0.0,0.0,0.0,0.0,0.0,0.0,0.0,0.0,False,0,0.9629504680633545,0.06985302734375
STABILIZE,0.9623205661773682,28.95319090187416,0.03245356877644857,0.03374505043029785,0.0,0.0,0.0,-1.0717552916311426,-0.8913222376877687,-5.939837726321623,5.670740621728356e-05,0.0048543577071163,-0.00011781124149969069,0.4,0.07989542645040983,0.11882615311281057,0.9656007001572856,-0.0005890562074984534,0.7527756970375776,-1.095250342041254,1.4749083667993546,-2.2764685397496347,-0.34783591981977224,-32.42432177066803,25.384235382080078,0.0,0.0,0.0,0.0,0.0,0.0,0.0,0.0,0.0,0.0,0.0,0.0,0.0,0.0,0.0,0.0,False,0,0.9918951988220215,0.06985302734375
STABILIZE,0.9958174228668213,29.854822407288776,0.03254297574361165,0.03266406059265137,0.0,0.0,0.0,-1.2284308665679495,-0.9933074740840786,-5.935191490138722,-0.004492668887094895,0.0062885929684389445,-0.01569501863635522,0.4,0.0974788053312279,0.1259610446929851,1.033251718041351,-0.07847509318177609,0.8373884484171867,0.6113891955465078,2.7200711891055107,-2.802331847581498,22.11688607931137,14.094962179660797,-2.87082027643919,0.0,0.0,0.0,0.0,0.0,0.0,0.0,0.0,0.0,0.0,0.0,0.0,0.0,0.0,0.0,0.0,False,0,1.0246949195861816,0.029937255859375
STABILIZE,1.0292420387268066,29.916789706060673,0.03247550328572591,0.032593488693237305,0.0,0.0,0.0,-1.2268194755323554,-1.005165536256867,-5.794666751268057,0.007487844522817841,0.01995994341288047,-0.011733083418980265,0.4,0.1778240374770424,0.06346636272649973,1.0209918200281,-0.05866541709490133,4.085291549563408,-2.7032913640141487,1.6382241621613503,0.9718757278507537,79.0626049041748,-87.02012300491333,17.911270260810852,0.0,0.0,0.0,0.0,0.0,0.0,0.0,0.0,0.0,0.0,0.0,0.0,0.0,0.0,0.0,0.0,False,0,1.0531587600708008,0.0349267578125
STABILIZE,1.06272554397583,29.865664096155626,0.032482179005940755,0.0326085090637207,0.0,0.0,0.0,-1.2104937225904382,-1.0199108474578666,-5.754794241327637,0.0052214058579198004,0.025621722448937293,-0.007351876592935795,0.4,0.27358900932379276,0.022877794531670714,0.9783272077875701,-0.036759382964678976,1.0116259567439556,1.2527752667665482,0.009927479550242424,0.34888691657789755,-106.06604814529419,194.26122903823853,-171.40525579452515,0.0,0.0,0.0,0.0,0.0,0.0,0.0,0.0,0.0,0.0,0.0,0.0,0.0,0.0,0.0,0.0,False,0,1.1104774475097656,0.064863037109375
STABILIZE,1.0961344242095947,29.931093540376217,0.03246048291524251,0.03257465362548828,0.0,0.0,0.0,-1.17090808059516,-0.9859740920713063,-5.908318110849307,-0.0033903124446977347,0.004403291679645125,-0.014361573116648119,0.4,0.2542008470514892,0.03737088797220417,1.0380575015813867,-0.0718078655832406,-1.5277636237442493,1.1822853237390518,3.1277894973754883,-1.1594489441585827,-95.60749530792236,-20.133312046527863,-1.2993667274713516,0.0,0.0,0.0,0.0,0.0,0.0,0.0,0.0,0.0,0.0,0.0,0.0,0.0,0.0,0.0,0.0,False,0,1.1399788856506348,0.034926025390625
STABILIZE,1.1300177574157715,29.5138657265697,0.0324886163075765,0.03306221961975098,0.0,0.0,0.0,-1.1937670161999,-1.0132815085381346,-5.909466009516692,-0.00496041480248025,-0.0005826210359533722,-0.019351484268932545,0.4,0.21323727351752814,0.058965340162412665,1.060569436765213,-0.09675742134466271,-1.5277636237442493,1.1822853237390518,3.1277894973754883,-1.1594489441585827,-95.60749530792236,-20.133312046527863,-1.2993667274713516,0.0,0.0,0.0,0.0,0.0,0.0,0.0,0.0,0.0,0.0,0.0,0.0,0.0,0.0,0.0,0.0,False,0,1.168581247329712,0.034926025390625
STABILIZE,1.163616418838501,29.764568963070197,0.032502206166585286,0.03263258934020996,0.0,0.0,0.0,-1.2042127233183768,-1.0138120221375742,-5.8038076788116495,0.005636060003666193,0.0222293518968779,0.012698380668066831,0.4,0.28752180102360164,0.016321220167401222,1.0707276303758444,0.06349190334033415,3.9094924926757812,-1.8545489758253098,2.559666708111763,7.611758325227202,133.7283730506897,-53.052306175231934,-16.866397857666016,0.0,0.0,0.0,0.0,0.0,0.0,0.0,0.0,0.0,0.0,0.0,0.0,0.0,0.0,0.0,0.0,False,0,1.197289228439331,0.034911865234375
STABILIZE,1.1969971656799316,29.95546286905969,0.03234914143880208,0.03249168395996094,0.0,0.0,0.0,-1.2240165366517115,-1.0357715072059883,-5.734580723365808,-0.00315457973047269,0.02021190674669858,0.0023038512234973873,0.4,0.3414531715794864,0.030328765515100956,1.0401949046323264,0.011519256117486935,3.025997243821621,0.8247812278568745,0.5979337729513645,-2.458296072861602,25.244906544685364,53.45301032066345,-3.1322304159402847,0.0,0.0,0.0,0.0,0.0,0.0,0.0,0.0,0.0,0.0,0.0,0.0,0.0,0.0,0.0,0.0,False,0,1.2274186611175537,0.029936767578125
STABILIZE,1.2304246425628662,29.916149555641148,0.03243735631306966,0.032579660415649414,0.0,0.0,0.0,-1.2122168512519855,-1.0260705041504545,-5.766320612438857,0.0013311118328403159,0.003475505259546766,-0.01046697075003667,0.4,0.3075971367975371,0.016652846583704486,1.0311401877926025,-0.05233485375018335,-1.0643884539604187,-0.5575528368353844,1.8910881131887436,-3.1492292581202177,-14.350283145904541,-45.67418694496155,42.816558480262756,0.0,0.0,0.0,0.0,0.0,0.0,0.0,0.0,0.0,0.0,0.0,0.0,0.0,0.0,0.0,0.0,False,0,1.2546918392181396,0.034926025390625
STABILIZE,1.2639663219451904,29.816832422211007,0.03247049649556478,0.0325925350189209,0.0,0.0,0.0,-1.1981594681664531,-1.0079517198297032,-5.85941993280754,-1.979117397352794e-07,0.015931834018057332,-0.01739840305109575,0.4,0.3379247323132167,0.012669144399134897,0.9899229002869187,-0.08699201525547874,0.292140431702137,1.1070238426327705,0.7053020410239697,0.2769833807510577,-4.278788343071938,43.46029460430145,9.403255581855774,0.0,0.0,0.0,0.0,0.0,0.0,0.0,0.0,0.0,0.0,0.0,0.0,0.0,0.0,0.0,0.0,False,0,1.3120055198669434,0.02993701171875
STABILIZE,1.2974157333374023,29.891844123264633,0.032353909810384114,0.03266739845275879,0.0,0.0,0.0,-1.1344361510877612,-1.0058853741623628,-5.97443434201503,-0.003984931593387852,0.009174314934607377,-0.015967395588318795,0.4,0.3314813923715687,0.03210074772343555,0.9604904674347787,-0.07983697794159397,0.292140431702137,1.1070238426327705,0.7053020410239697,0.2769833807510577,-4.278788343071938,43.46029460430145,9.403255581855774,0.0,0.0,0.0,0.0,0.0,0.0,0.0,0.0,0.0,0.0,0.0,0.0,0.0,0.0,0.0,0.0,False,0,1.3406248092651367,0.02993701171875
STABILIZE,1.331049919128418,29.731865514528145,0.032561333974202473,0.032807111740112305,0.0,0.0,0.0,-0.9942761870074568,-0.8581228225664523,-6.220241324299565,0.0011192367630523054,0.004755809115576573,-0.0034270635615620913,0.4,0.30473308181870695,0.01929597441016296,0.9539130212188318,-0.017135317807810455,-0.817402359098196,-0.5814713425934315,1.8379049375653267,3.2743438095628647,-38.19569945335388,-34.99231040477753,26.674628257751465,0.0,0.0,0.0,0.0,0.0,0.0,0.0,0.0,0.0,0.0,0.0,0.0,0.0,0.0,0.0,0.0,False,0,1.3693768978118896,0.03492578125
STABILIZE,1.3645944595336914,29.813653293906913,0.032479317982991536,0.03260540962219238,0.0,0.0,0.0,-0.9708266534829221,-0.8644482180681189,-6.305095752566395,-0.0028813053072176903,-0.024124964916750154,0.011411053107333813,0.4,0.14391678743342123,0.031412918371144606,0.9223282323341029,0.057055265536669064,-8.234056830406189,0.7616689428687096,0.1923818141222,3.9876134209547147,-276.2509346008301,105.90293407440186,-104.98740673065186,0.0,0.0,0.0,0.0,0.0,0.0,0.0,0.0,0.0,0.0,0.0,0.0,0.0,0.0,0.0,0.0,False,0,1.3982954025268555,0.03492724609375
STABILIZE,1.4051578044891357,24.65250944826816,0.032386096318562825,0.03969120979309082,0.0,0.0,0.0,-1.168985595787213,-1.0444921646722136,-5.949160934538691,-0.006798421204311608,0.006067651635820144,0.035245882543288636,0.4,0.1515385964929108,0.06976538986572203,0.9174925232635072,0.17622941271644316,0.873094704002142,2.1896297112107277,1.6246788203716278,6.473535901461726,168.09364557266235,6.323331594467163,14.677773416042328,0.0,0.0,0.0,0.0,0.0,0.0,0.0,0.0,0.0,0.0,0.0,0.0,0.0,0.0,0.0,0.0,False,0,1.4268181324005127,0.029936767578125
STABILIZE,1.4386687278747559,29.839954467842915,0.03244760831197103,0.03257465362548828,0.0,0.0,0.0,-1.2031869142824057,-1.0275429435251213,-5.58869940863856,0.030814968916669384,0.0016653395626492237,0.02173304557656719,0.4,0.13545802169181032,-0.11872975776435535,0.8636925354177243,0.10866522788283595,-0.014866620767861605,-5.134706944227219,0.473151495680213,-1.7956204474163866,-76.92619562149048,-66.17491841316223,5.6924402713775635,0.0,0.0,0.0,0.0,0.0,0.0,0.0,0.0,0.0,0.0,0.0,0.0,0.0,0.0,0.0,0.0,False,0,1.4842097759246826,0.034926025390625
STABILIZE,1.4733319282531738,28.847847916695326,0.03239324887593587,0.033818960189819336,0.0,0.0,0.0,-1.089953263457584,-0.9315376978297162,-5.716696299910953,-0.009954890933480507,-0.005876937256511648,-0.012964875309616368,0.4,0.0842595532068223,-0.044099731818010135,0.8057450296307447,-0.06482437654808183,-2.4609552696347237,4.272181913256645,-1.4289209619164467,-9.680018153082518,23.40790629386902,270.7902669906616,-130.89680671691895,0.0,0.0,0.0,0.0,0.0,0.0,0.0,0.0,0.0,0.0,0.0,0.0,0.0,0.0,0.0,0.0,False,0,1.512812614440918,0.0349267578125
STABILIZE,1.5068731307983398,29.819164213908913,0.03247979482014974,0.03262066841125488,0.0,0.0,0.0,-0.9275309381078575,-0.7922317741999279,-6.059734013238381,-0.008755450583450052,-0.0038554265913045256,-0.03098857584114764,0.4,0.05157448236534005,0.010608780597619202,0.8016327446596923,-0.15494287920573818,-1.4428694732487202,3.127928450703621,1.5721941366791725,-4.995750196222243,-55.36782145500183,-36.99362576007843,-16.171082854270935,0.0,0.0,0.0,0.0,0.0,0.0,0.0,0.0,0.0,0.0,0.0,0.0,0.0,0.0,0.0,0.0,False,0,1.541450023651123,0.029937255859375
STABILIZE,1.5403046607971191,29.931307134038864,0.032378466924031575,0.032527923583984375,0.0,0.0,0.0,-0.9751747092198699,-0.7665639232990199,-6.0138120901274466,-0.010031599243379978,-0.004388723729840453,-0.04815549748846096,0.4,0.020924672281417166,0.06473281921437639,0.795251361639006,-0.24077748744230476,-1.4428694732487202,3.127928450703621,1.5721941366791725,-4.995750196222243,-55.36782145500183,-36.99362576007843,-16.171082854270935,0.0,0.0,0.0,0.0,0.0,0.0,0.0,0.0,0.0,0.0,0.0,0.0,0.0,0.0,0.0,0.0,False,0,1.5701406002044678,0.029937255859375
STABILIZE,1.5736987590789795,29.9212715262024,0.03241685231526693,0.03253436088562012,0.0,0.0,0.0,-0.9714836323037127,-0.7679389257563081,-5.728509965854136,-0.00011516044156365527,-0.005174229301246631,0.01571839907092354,0.4,-0.008855301593868242,0.05437250107744762,0.8174789902478398,0.0785919953546177,-1.4541620388627052,-0.5353717133402824,3.193257749080658,18.40988698317727,-23.832644522190094,-71.40044569969177,46.70413136482239,0.0,0.0,0.0,0.0,0.0,0.0,0.0,0.0,0.0,0.0,0.0,0.0,0.0,0.0,0.0,0.0,True,0,1.5988836288452148,0.0349267578125
STABILIZE,1.6073439121246338,29.723226940302737,0.03247502644856771,0.032842397689819336,0.0,0.0,0.0,-0.9429210618551888,-0.868821513488484,-5.5891151964042844,-0.0011759782356493844,-0.0013445216283444643,-0.05453017567744718,0.4,-0.016150541138825913,0.05145942515333168,0.7361951386169943,-0.2726508783872359,0.18647079123184085,1.4256471768021584,-1.910923793911934,-18.653507878040575,59.90228056907654,55.18487095832825,-121.23825550079346,0.0,0.0,0.0,0.0,0.0,0.0,0.0,0.0,0.0,0.0,0.0,0.0,0.0,0.0,0.0,0.0,True,0,1.6561388969421387,0.02993701171875
STABILIZE,1.640942096710205,29.76309048203629,0.032523425420125325,0.03272104263305664,0.0,0.0,0.0,-1.1665623727357393,-1.0273918255897347,-5.958642517767138,0.0019052638587014829,0.004556470620748358,-0.07985723095741504,0.4,0.00595915804039629,0.03148343421641727,0.7374153682745559,-0.3992861547870752,1.484531071037054,-1.1095449328422546,1.8793713301420212,-7.624474429914472,21.610218286514282,-37.63079047203064,170.3595757484436,0.0,0.0,0.0,0.0,0.0,0.0,0.0,0.0,0.0,0.0,0.0,0.0,0.0,0.0,0.0,0.0,True,0,1.6849024295806885,0.034869384765625
STABILIZE,1.6745524406433105,29.755489184798417,0.03243830998738607,0.03257107734680176,0.0,0.0,0.0,-1.1066710052248363,-1.0361963663167042,-6.047069134969885,0.006867550534476518,-0.003196073236158736,-0.028526369340236626,0.4,-0.012157700335140334,-0.014264910163564848,0.6735692480107965,-0.14263184670118312,-0.8316634222865105,-2.6477549225091934,-2.135934680700302,15.210546121220549,-140.75852632522583,-36.81246638298035,-91.4220929145813,0.0,0.0,0.0,0.0,0.0,0.0,0.0,0.0,0.0,0.0,0.0,0.0,0.0,0.0,0.0,0.0,True,0,1.7135183811187744,0.03492724609375
STABILIZE,1.7077550888061523,30.11397103696843,0.032273324330647786,0.03239774703979492,0.0,0.0,0.0,-1.0927884322933739,-0.9212290213814629,-5.7831527598747074,0.006605902804088352,0.016614423410946,0.004565973536985352,0.4,0.06681103906098707,-0.051907386544474576,0.6279435621478645,0.022829867684926758,4.86215278506279,-2.1491317078471184,-1.0655974969267845,9.635221503637343,147.784686088562,3.4979239106178284,34.068748354911804,0.0,0.0,0.0,0.0,0.0,0.0,0.0,0.0,0.0,0.0,0.0,0.0,0.0,0.0,0.0,0.0,True,0,1.742260217666626,0.029936767578125
STABILIZE,1.7412750720977783,29.83337482484654,0.03254106839497884,0.03268027305603027,0.0,0.0,0.0,-1.0713773900709707,-0.9023597700256565,-5.698364072178639,-0.0050562739756050525,0.005776922454264627,-0.04577049950258882,0.4,0.08261785173557111,-0.017133620916337765,0.6312538007529043,-0.22885249751294406,1.1103755794465542,2.08012405782938,1.861312985420227,-15.104442547558985,-18.068379163742065,63.6538028717041,199.0938901901245,0.0,0.0,0.0,0.0,0.0,0.0,0.0,0.0,0.0,0.0,0.0,0.0,0.0,0.0,0.0,0.0,True,0,1.7709195613861084,0.034926025390625
STABILIZE,1.7747611999511719,29.862687162253565,0.0324743111928304,0.032604217529296875,0.0,0.0,0.0,-0.9829214243991338,-0.8320174126718405,-5.774705523418694,-0.004315556937096414,0.006164821476939421,-0.03430525410019154,0.4,0.09800970135721786,0.008368709049159907,0.6725770178512597,-0.1715262705009577,1.061265543103218,1.5572900883853436,3.9946291595697403,3.3517129908295957,87.6213788986206,-2.678939327597618,-65.3016209602356,0.0,0.0,0.0,0.0,0.0,0.0,0.0,0.0,0.0,0.0,0.0,0.0,0.0,0.0,0.0,0.0,True,0,1.7997198104858398,0.034927001953125
STABILIZE,1.8083429336547852,29.7787275735007,0.03241756757100423,0.032733917236328125,0.0,0.0,0.0,-0.9556378068726946,-0.7962852780289188,-5.944031462472011,0.0032368450533428205,0.005273070660675781,-0.005541573655236107,0.4,0.10700779997144633,-0.013242161452333322,0.6660086120298119,-0.027707868276180533,1.2402629479765892,0.009159181354334578,0.49135289154946804,4.0020170092538025,123.5724687576294,34.946027398109436,-22.019822895526886,0.0,0.0,0.0,0.0,0.0,0.0,0.0,0.0,0.0,0.0,0.0,0.0,0.0,0.0,0.0,0.0,True,0,1.8570590019226074,0.034926025390625
STABILIZE,1.841822624206543,29.868641623642514,0.032497437795003255,0.032637596130371094,0.0,0.0,0.0,-0.9554572337465125,-0.7828693991168386,-5.906091896066706,6.547163015617396e-05,0.007530382526170445,0.008569215908599763,0.4,0.1254306672377684,-0.01353523984786716,0.6504505983196678,0.042846079542998815,1.2402629479765892,0.009159181354334578,0.49135289154946804,4.0020170092538025,123.5724687576294,34.946027398109436,-22.019822895526886,0.0,0.0,0.0,0.0,0.0,0.0,0.0,0.0,0.0,0.0,0.0,0.0,0.0,0.0,0.0,0.0,True,0,1.8858990669250488,0.034926025390625
STABILIZE,1.875363826751709,29.814500995166334,0.03247955640157064,0.03270459175109863,0.0,0.0,0.0,-0.9821822698648914,-0.8316100559208728,-5.79836145672221,-0.0015948192944800123,0.008134386329804358,0.03862334169406176,0.4,0.1441001015186676,-0.004374521569471284,0.6214800069288837,0.19311670847030876,1.2496769428253174,0.5659000016748905,-0.31778377015143633,8.719217150084116,86.96005940437317,-6.967100501060486,10.243745148181915,0.0,0.0,0.0,0.0,0.0,0.0,0.0,0.0,0.0,0.0,0.0,0.0,0.0,0.0,0.0,0.0,True,0,1.9144320487976074,0.02993701171875
STABILIZE,1.9089210033416748,29.79967317939609,0.03248742421468099,0.032624244689941406,0.0,0.0,0.0,-1.0235616902909443,-0.840551467235507,-5.818796955832065,0.003459806114775652,0.0035586885857042875,0.015769240908410448,0.4,0.13810533445093154,-0.02538992151407396,0.6103759739077392,0.07884620454205224,-0.14480005484074354,-1.260327734053135,0.8437560871243477,-6.9186409735380625,-40.12790322303772,-31.227001547813416,-47.86463677883148,0.0,0.0,0.0,0.0,0.0,0.0,0.0,0.0,0.0,0.0,0.0,0.0,0.0,0.0,0.0,0.0,True,0,1.9479832649230957,0.03492724609375
STABILIZE,1.9423422813415527,29.922765764673148,0.032384427388509114,0.032521724700927734,0.0,0.0,0.0,-1.0455703740657236,-0.8711756342354641,-5.864660395448231,0.0022152482359922283,0.0026949149471453718,0.010702983152690497,0.4,0.12881882637056277,-0.03622100432407439,0.6056574371358049,0.05351491576345248,-0.4064701497554779,-0.6288074422627687,1.0822826996445656,-1.674812543688844,-0.1330006867647171,-19.498609006404877,130.40467500686646,0.0,0.0,0.0,0.0,0.0,0.0,0.0,0.0,0.0,0.0,0.0,0.0,0.0,0.0,0.0,0.0,True,0,1.9763836860656738,0.03492578125
STABILIZE,1.9811487197875977,25.76717840972619,0.032402785619099934,0.03792691230773926,0.0,0.0,0.0,-1.0878545811133917,-0.9163865239816297,-5.913931245686588,0.0008785819572283024,0.007324182168911274,0.027373217970595373,0.4,0.14482362201738916,-0.03813491123518836,0.5665564137825664,0.13686608985297685,1.123904436826706,-0.09665778488852084,-0.99427355453372,4.8703743900438425,11.922422051429749,43.694499135017395,-56.79924488067627,0.0,0.0,0.0,0.0,0.0,0.0,0.0,0.0,0.0,0.0,0.0,0.0,0.0,0.0,0.0,0.0,True,0,2.00512957572937,0.034927001953125
STABILIZE,2.0145955085754395,29.8978102189781,0.032463820775349934,0.03260946273803711,0.0,0.0,0.0,-1.0816243813732822,-0.9082458989863265,-5.870210777922513,0.0019735263866893786,0.002436269301423499,0.022792397521392754,0.4,0.13322717832117525,-0.045737298734462035,0.5547826799858712,0.11396198760696377,-0.5204870365560055,-0.44415416195988655,0.6343103479593992,-1.4851865353703086,-34.95778143405914,-30.760446190834045,73.98432493209839,0.0,0.0,0.0,0.0,0.0,0.0,0.0,0.0,0.0,0.0,0.0,0.0,0.0,0.0,0.0,0.0,True,0,2.03825044631958,0.02993701171875
STABILIZE,2.0480360984802246,29.905697642084547,0.032480748494466145,0.03259873390197754,0.0,0.0,0.0,-1.025539456942486,-0.8557184892569021,-5.805032417107197,0.001421231929715143,0.004420755135211643,0.019924792708833197,0.4,0.13274289981515527,-0.049075229223765296,0.5640664794951241,0.09962396354416599,1.4036093838512897,0.2532229758799076,2.113044448196888,-0.43470493512622854,41.604313254356384,19.143041968345642,67.61313676834106,0.0,0.0,0.0,0.0,0.0,0.0,0.0,0.0,0.0,0.0,0.0,0.0,0.0,0.0,0.0,0.0,True,0,2.095912218093872,0.0349267578125
STABILIZE,2.0814805030822754,29.900581001603992,0.03247836430867513,0.032593488693237305,0.0,0.0,0.0,-0.9774014576109998,-0.8252790041687998,-5.845406092177965,0.00013464913074524065,0.00877934633057785,0.01849163778027575,0.4,0.15309793694840737,-0.04458534719083901,0.5788376537495815,0.09245818890137873,1.4036093838512897,0.2532229758799076,2.113044448196888,-0.43470493512622854,41.604313254356384,19.143041968345642,67.61313676834106,0.0,0.0,0.0,0.0,0.0,0.0,0.0,0.0,0.0,0.0,0.0,0.0,0.0,0.0,0.0,0.0,True,0,2.1246235370635986,0.0349267578125
STABILIZE,2.115440845489502,29.446110643077787,0.03246930440266927,0.033129215240478516,0.0,0.0,0.0,-0.9310383469683648,-0.814110150771948,-5.906267346551011,-0.00036805474006144006,0.005774401799352158,0.013936914177353855,0.4,0.1561869491388182,-0.03770825973914563,0.5954991135054614,0.06968457088676927,0.3705705516040325,0.38193303626030684,2.192389965057373,-1.3317761110218853,-10.128995776176453,-26.37915313243866,74.69459176063538,0.0,0.0,0.0,0.0,0.0,0.0,0.0,0.0,0.0,0.0,0.0,0.0,0.0,0.0,0.0,0.0,True,0,2.153987407684326,0.03492626953125
STABILIZE,2.1611452102661133,21.87872117345741,0.03249171574910482,0.04484915733337402,0.0,0.0,0.0,-0.9492718571228312,-0.772255658672609,-5.867281907429047,0.0025362720852122136,0.00408857342156744,0.0214012467646719,0.4,0.14900106654119863,-0.05175482917752279,0.6198347112802298,0.1070062338233595,-0.22704200819134712,-0.8678277023136616,2.6198184117674828,2.2584477259547904,-12.78110146522522,-23.185032606124878,22.98962026834488,0.0,0.0,0.0,0.0,0.0,0.0,0.0,0.0,0.0,0.0,0.0,0.0,0.0,0.0,0.0,0.0,True,0,2.1903862953186035,0.029893310546875
STABILIZE,2.194613456726074,29.879280498664293,0.032419474919637044,0.03255748748779297,0.0,0.0,0.0,-0.9501762168576232,-0.8091487120310213,-5.835904018382008,0.000814537117905683,0.0021457779022830705,0.028864750674413055,0.4,0.13518182985796148,-0.050664046032798477,0.5979283483130936,0.14432375337206527,-0.5538692232221365,-0.00027318619686411694,0.02326105604879558,2.345888874926352,33.32812786102295,10.411570966243744,-60.46925187110901,0.0,0.0,0.0,0.0,0.0,0.0,0.0,0.0,0.0,0.0,0.0,0.0,0.0,0.0,0.0,0.0,True,0,2.2288148403167725,0.0349267578125
STABILIZE,2.228147268295288,29.8244650970967,0.03245595296223958,0.032576799392700195,0.0,0.0,0.0,-0.955303127603364,-0.7959952617934577,-5.860106793705949,-0.00214055253067642,0.0066283906821076625,-0.0021954777276365577,0.4,0.14470847847188775,-0.03275827778494504,0.6573861945107721,-0.010977388638182789,0.4798558074980974,0.4935608245432377,2.8105145320296288,-4.529413481110922,14.42408561706543,-3.906043991446495,50.163471698760986,0.0,0.0,0.0,0.0,0.0,0.0,0.0,0.0,0.0,0.0,0.0,0.0,0.0,0.0,0.0,0.0,True,0,2.276545286178589,0.039916015625
STABILIZE,2.2614805698394775,29.995737681470356,0.032341750462849934,0.032489776611328125,0.0,0.0,0.0,-0.9670862711386938,-0.8223151823166903,-5.884911052563673,0.003848393798651566,0.005714532641062671,0.009044662069107146,0.4,0.1484566083760369,-0.05175417157802088,0.6402646832772331,0.04522331034553573,0.3983104135841131,-1.1445731855928898,-0.03689122386276722,3.4246903604600085,11.173682659864426,-13.712237775325775,-7.482918351888657,0.0,0.0,0.0,0.0,0.0,0.0,0.0,0.0,0.0,0.0,0.0,0.0,0.0,0.0,0.0,0.0,True,0,2.305392265319824,0.0598740234375
STABILIZE,2.2949628829956055,29.86779084092317,0.032505305608113606,0.032634735107421875,0.0,0.0,0.0,-0.9594795748374153,-0.8167640527904683,-5.8688208344264154,0.00200965759742979,0.006437402686160371,0.009389713642138219,0.4,0.1550758879383813,-0.057459367950284966,0.6760100450619809,0.046948568210691086,0.36399855744093657,-0.24206326343119144,2.2928740829229355,0.1435142272930154,8.847764134407043,6.272455304861069,17.362260818481445,0.0,0.0,0.0,0.0,0.0,0.0,0.0,0.0,0.0,0.0,0.0,0.0,0.0,0.0,0.0,0.0,True,0,2.3339476585388184,0.039916015625
STABILIZE,2.3289332389831543,29.436810892374638,0.03247526486714681,0.033158063888549805,0.0,0.0,0.0,-0.951548017663738,-0.8033459327225666,-5.856257982108646,-0.0007974296018079124,0.005900480183583452,0.011297239127397272,0.4,0.15818486786053906,-0.04608289210572923,0.6713849995466905,0.056486195636986355,0.3919175360351801,0.5564131308346987,0.8522877469658852,0.5956601038257244,8.382092416286469,7.858087867498398,3.258996456861496,0.0,0.0,0.0,0.0,0.0,0.0,0.0,0.0,0.0,0.0,0.0,0.0,0.0,0.0,0.0,0.0,True,0,2.362502098083496,0.024947021484375
STABILIZE,2.3624448776245117,29.840379060601318,0.032509597142537434,0.03269457817077637,0.0,0.0,0.0,-0.9488997185347713,-0.808743543075022,-5.865951728088187,0.0015258878562955192,0.002553391976394447,0.0056924150169847375,0.4,0.14475046597612323,-0.0497708091111743,0.654339287040572,0.028462075084923686,-0.3581577446311712,-0.3143418813124299,0.7223491091281176,-1.407844568138552,-19.725966453552246,-9.364298731088638,21.207861602306366,0.0,0.0,0.0,0.0,0.0,0.0,0.0,0.0,0.0,0.0,0.0,0.0,0.0,0.0,0.0,0.0,True,0,2.39147686958313,0.03492724609375
STABILIZE,2.3959968090057373,29.804755340164576,0.032506736119588216,0.03264927864074707,0.0,0.0,0.0,-0.951967007080636,-0.8083669221753194,-5.871830813416276,0.002562419930595871,0.00227782714608684,0.0007360418952920604,0.4,0.13188352225620903,-0.05884963601210953,0.6585628456387868,0.003680209476460302,-0.4353400319814682,-0.5791325587779284,1.4911236241459846,-1.2665801411251154,-8.348444104194641,-10.663381963968277,36.30995750427246,0.0,0.0,0.0,0.0,0.0,0.0,0.0,0.0,0.0,0.0,0.0,0.0,0.0,0.0,0.0,0.0,True,0,2.420001983642578,0.029936767578125
STABILIZE,2.4594578742980957,15.757930052485056,0.03241852124532064,0.06263589859008789,0.0,0.0,0.0,-0.9514549563362965,-0.8126042541425189,-5.856713043462099,0.002413363788894808,0.005003047969376129,-0.007040865124828601,0.4,0.13513731395987336,-0.07035531291052463,0.65595321839919,-0.035204325624143,0.8990163914859295,-0.29181987047195435,1.441385317593813,-1.7113535221398832,14.35810774564743,-9.42668542265892,6.301206350326538,0.0,0.0,0.0,0.0,0.0,0.0,0.0,0.0,0.0,0.0,0.0,0.0,0.0,0.0,0.0,0.0,True,0,2.5059757232666016,0.034927001953125
STABILIZE,2.4920053482055664,30.72345038749469,0.03148988087972005,0.03177523612976074,0.0,0.0,0.0,-0.9513458867529879,-0.8120434849394903,-5.867795879164091,0.0029806044349547853,0.002251483980643422,-0.009539746946649401,0.4,0.12368399980386247,-0.07859538309796074,0.6647035188705419,-0.047698734733247004,-0.39345771074295044,-0.551871070638299,1.713077537715435,-0.6287675248366572,-9.244655072689056,-14.600755274295807,30.434513092041016,0.0,0.0,0.0,0.0,0.0,0.0,0.0,0.0,0.0,0.0,0.0,0.0,0.0,0.0,0.0,0.0,True,0,2.5348992347717285,0.02993701171875
STABILIZE,2.5255303382873535,29.828495028944488,0.03255489667256673,0.03267621994018555,0.0,0.0,0.0,-0.9538468032062704,-0.8041000816564712,-5.863702034530315,0.002393042033122632,0.004209326027517136,-0.007303319872284275,0.4,0.12292522588549533,-0.0824340664531108,0.6652039487477056,-0.036516599361421376,0.24318809155374765,-0.3470400581136346,1.4387196861207485,0.6551570812729122,8.63424688577652,0.9670752100646496,26.193585991859436,0.0,0.0,0.0,0.0,0.0,0.0,0.0,0.0,0.0,0.0,0.0,0.0,0.0,0.0,0.0,0.0,True,0,2.56423020362854,0.03492578125
STABILIZE,2.5588631629943848,29.999170326290642,0.0324735959370931,0.0325772762298584,0.0,0.0,0.0,-0.9534024140233964,-0.8065522796510645,-5.854784368795216,0.001301954278848312,0.0036300461405630803,-0.010416330189795316,0.4,0.11947209443245996,-0.07943747642211026,0.6629657924296071,-0.05208165094897658,0.05589568754658103,0.0846034090500325,1.0696148499846458,-0.8430602810950173,2.1352214738726616,-1.3101771473884583,10.201206058263779,0.0,0.0,0.0,0.0,0.0,0.0,0.0,0.0,0.0,0.0,0.0,0.0,0.0,0.0,0.0,0.0,True,0,2.5927059650421143,0.03492724609375
STABILIZE,2.592353343963623,29.861198917841378,0.03255799611409505,0.03268313407897949,0.0,0.0,0.0,-0.9528722205890742,-0.8068959769045336,-5.857589442109976,0.002187743792423493,0.003572448944733116,-0.01240597362282184,0.4,0.11620402675711981,-0.08190944268413641,0.6681139170640744,-0.062029868114109196,0.06510348757728934,-0.23925588466227055,1.5023952350020409,-0.5286304949410705,-3.20957750082016,-6.974419951438904,18.182094395160675,0.0,0.0,0.0,0.0,0.0,0.0,0.0,0.0,0.0,0.0,0.0,0.0,0.0,0.0,0.0,0.0,True,0,2.6213579177856445,0.029936767578125
STABILIZE,2.625816583633423,29.882899442853276,0.032520564397176106,0.03264212608337402,0.0,0.0,0.0,-0.9529235537295551,-0.8062328615856605,-5.872117681361416,0.002123228939158133,0.0034153358630360296,-0.014125560659911702,0.4,0.11261826733669175,-0.08362381642428951,0.6697395110447696,-0.0706278032995585,0.06510348757728934,-0.23925588466227055,1.5023952350020409,-0.5286304949410705,-3.20957750082016,-6.974419951438904,18.182094395160675,0.0,0.0,0.0,0.0,0.0,0.0,0.0,0.0,0.0,0.0,0.0,0.0,0.0,0.0,0.0,0.0,True,0,2.6500229835510254,0.029936767578125
STABILIZE,2.6682546138763428,23.565359073185533,0.032505305608113606,0.04154610633850098,0.0,0.0,0.0,-0.9531851286304254,-0.8066192475214423,-5.865321216250431,0.002725112939226517,0.0031775224303371217,-0.01231541344333729,0.4,0.10743599796707962,-0.0895744059020114,0.6692930806606511,-0.061577067216686446,-0.03787920577451587,-0.4923587664961815,1.3694550842046738,0.49684674324694506,-0.6729762069880962,-8.794505149126053,23.32606017589569,0.0,0.0,0.0,0.0,0.0,0.0,0.0,0.0,0.0,0.0,0.0,0.0,0.0,0.0,0.0,0.0,True,0,2.678962469100952,0.03492626953125
STABILIZE,2.70174241065979,29.862687162253565,0.03234866460164388,0.03249669075012207,0.0,0.0,0.0,-0.9529459652877692,-0.8056329255166101,-5.859110866747597,0.001979357443497011,0.003293604034605115,-0.013721609868945614,0.4,0.10444588526899107,-0.08928923140938519,0.6770603253218855,-0.06860804934472807,0.08823679527267814,-0.00997185125015676,1.6410253942012787,-0.1870143280748647,1.308908686041832,-4.87348772585392,24.178363382816315,0.0,0.0,0.0,0.0,0.0,0.0,0.0,0.0,0.0,0.0,0.0,0.0,0.0,0.0,0.0,0.0,True,0,2.736274003982544,0.03492578125
STABILIZE,2.7352213859558105,29.868003532059134,0.03238800366719564,0.03252887725830078,0.0,0.0,0.0,-0.9524893031087304,-0.8054676669552076,-5.868817846218653,0.0024454175691107577,0.0027846042575155575,-0.01379927350198571,0.4,0.09942519012773143,-0.09168486036105508,0.6738481773680727,-0.06899636750992855,-0.05978891858831048,-0.2584524219855666,1.0055553168058395,-0.03914662891833306,-3.6785945296287537,-7.032065838575363,16.586731374263763,0.0,0.0,0.0,0.0,0.0,0.0,0.0,0.0,0.0,0.0,0.0,0.0,0.0,0.0,0.0,0.0,True,0,2.7649059295654297,0.029937255859375
STABILIZE,2.768608331680298,29.949901459541287,0.03237131436665853,0.032520294189453125,0.0,0.0,0.0,-0.9534410472808893,-0.8083588646865328,-5.866055461586207,0.0023782987539223577,0.0026081170544276586,-0.01367623636375856,0.4,0.09424877526810259,-0.09331848791702163,0.6670805180242791,-0.0683811818187928,-0.05978891858831048,-0.2584524219855666,1.0055553168058395,-0.03914662891833306,-3.6785945296287537,-7.032065838575363,16.586731374263763,0.0,0.0,0.0,0.0,0.0,0.0,0.0,0.0,0.0,0.0,0.0,0.0,0.0,0.0,0.0,0.0,True,0,2.7936646938323975,0.029937255859375
STABILIZE,2.8021938800811768,29.77428835096188,0.032471688588460286,0.03272533416748047,0.0,0.0,0.0,-0.9528885490100587,-0.8076725373966523,-5.860077338515153,0.0027838413796423406,0.004665116787392656,-0.012500860905999759,0.4,0.099626826147191,-0.09700455443190976,0.6698074707552172,-0.06250430452999879,0.5629785358905792,-0.3839318407699466,1.5557946637272835,0.27324091733356676,8.757703006267548,-6.989715248346329,19.774992763996124,0.0,0.0,0.0,0.0,0.0,0.0,0.0,0.0,0.0,0.0,0.0,0.0,0.0,0.0,0.0,0.0,True,1,2.8222923278808594,0.0349267578125
STABILIZE,2.8375511169433594,28.283515964799893,0.0324585755666097,0.034467458724975586,0.0,0.0,0.0,-0.9503053501216188,-0.8083370400977006,-5.868751678761069,0.0036951140800411883,0.0029259093288881983,-0.012388391478501667,0.4,0.09569920130337863,-0.10575095335181786,0.6760843523950508,-0.06194195739250834,0.099786720238626,-0.38624280132353306,1.3677424751222134,-0.03206891209197346,-2.1707002073526382,-3.09977438300848,20.45309841632843,0.0,0.0,0.0,0.0,0.0,0.0,0.0,0.0,0.0,0.0,0.0,0.0,0.0,0.0,0.0,0.0,True,0,2.8797032833099365,0.034926025390625
STABILIZE,2.8710758686065674,29.828495028944488,0.03243091901143392,0.03256821632385254,0.0,0.0,0.0,-0.950736932699799,-0.809353991232092,-5.870768719000338,0.002328238572078161,0.003053358819920719,-0.01187789128739312,0.4,0.09309292496655638,-0.10496181317708324,0.6786671998834536,-0.059389456436965596,0.0579485553316772,-0.0866648624651134,1.3465589843690395,0.0900351534327114,-1.2748204171657562,-2.975713089108467,21.049509942531586,0.0,0.0,0.0,0.0,0.0,0.0,0.0,0.0,0.0,0.0,0.0,0.0,0.0,0.0,0.0,0.0,True,0,2.9084866046905518,0.064864013671875
STABILIZE,2.9047462940216064,29.700075059126764,0.032360347112019856,0.03270435333251953,0.0,0.0,0.0,-0.9511248661003145,-0.8100982150473589,-5.863462124135718,0.003734356223604699,0.004310969693439553,-0.010947986076822232,0.4,0.09685634330173847,-0.11233163110759105,0.702246327181547,-0.05473993038411116,0.32973592169582844,-0.31013102270662785,1.383565180003643,0.33550937743861936,2.5065086781978607,-5.084288120269775,15.094736218452454,0.0,0.0,0.0,0.0,0.0,0.0,0.0,0.0,0.0,0.0,0.0,0.0,0.0,0.0,0.0,0.0,True,0,2.9370412826538086,0.034926025390625
STABILIZE,2.9382057189941406,29.888010033206495,0.032355340321858723,0.032476186752319336,0.0,0.0,0.0,-0.9526020012300356,-0.8100178002420526,-5.865823235154426,0.0026551181125200113,0.004308207004909918,-0.01072175050840385,0.4,0.10002216786407739,-0.11238063758998322,0.6933955119568621,-0.05360875254201925,0.38637411780655384,-0.1802240265533328,0.8532799780368805,-0.03394945526954838,4.475944861769676,-3.3134542405605316,6.234083324670792,0.0,0.0,0.0,0.0,0.0,0.0,0.0,0.0,0.0,0.0,0.0,0.0,0.0,0.0,0.0,0.0,True,0,2.966006278991699,0.02993701171875
STABILIZE,2.9730722904205322,28.679982221614413,0.03232434590657552,0.033989667892456055,0.0,0.0,0.0,-0.9520184469428226,-0.8109994264918303,-5.870308535005009,0.002799336337165389,0.0030094181243002006,-0.01092932254641961,0.4,0.09636154616801072,-0.11324037466069443,0.6890862521772573,-0.054646612732098046,0.026219719438813627,-0.26941285468637943,1.2817015871405602,-0.17095545943868046,-0.7364889606833458,-3.1896255910396576,13.767360150814056,0.0,0.0,0.0,0.0,0.0,0.0,0.0,0.0,0.0,0.0,0.0,0.0,0.0,0.0,0.0,0.0,True,0,2.9944937229156494,0.034927001953125
STABILIZE,3.007162094116211,29.33448965604062,0.032439263661702473,0.033280134201049805,0.0,0.0,0.0,-0.9522008343380031,-0.8098621466341703,-5.866810624376316,0.0032350548180014723,0.0035042051514692896,-0.008755220973164637,0.4,0.09567259638524263,-0.11645324299726015,0.7013462652233534,-0.04377610486582318,0.18351064063608646,-0.2709450898692012,1.652204617857933,0.20643510386593647,0.2756126690655947,-4.729533940553665,24.46058988571167,0.0,0.0,0.0,0.0,0.0,0.0,0.0,0.0,0.0,0.0,0.0,0.0,0.0,0.0,0.0,0.0,True,0,3.055898904800415,0.034926025390625
STABILIZE,3.0407979488372803,29.72933663162819,0.03251818021138509,0.0327301025390625,0.0,0.0,0.0,-0.9522671085172933,-0.8099414942224188,-5.865509046452606,0.002865944548601151,0.003063686858027535,-0.008533227948664318,0.4,0.09295079964841871,-0.11699559287905137,0.6997538053894982,-0.04266613974332159,0.04713972448371351,-0.21697590127587318,1.2181036174297333,-0.036265849893534735,0.884711928665638,-4.867665469646454,16.576197743415833,0.0,0.0,0.0,0.0,0.0,0.0,0.0,0.0,0.0,0.0,0.0,0.0,0.0,0.0,0.0,0.0,True,0,3.084505558013916,0.02993701171875
STABILIZE,3.074233293533325,29.909322988718856,0.03241089185078939,0.032652854919433594,0.0,0.0,0.0,-0.9520314669909279,-0.8100978415213886,-5.870893369952691,0.0027770959547205997,0.003419225964630493,-0.009394881681063097,0.4,0.0922943470083694,-0.11690133712003513,0.6998165888998373,-0.046974408405315485,0.17955824732780457,-0.2259685890749097,1.5087032690644264,-0.3476738909895592,4.199124127626419,-2.8023624792695045,19.50216144323349,0.0,0.0,0.0,0.0,0.0,0.0,0.0,0.0,0.0,0.0,0.0,0.0,0.0,0.0,0.0,0.0,True,0,3.1132826805114746,0.034927001953125
STABILIZE,3.1077373027801514,29.84632462819327,0.032540353139241536,0.032665252685546875,0.0,0.0,0.0,-0.9521830118131376,-0.8102037094535238,-5.871191763842056,0.002920451069724604,0.0036325582306889134,-0.008995337101822072,0.4,0.09272290463717564,-0.11759721799839672,0.7045471182413261,-0.04497668550911036,0.21727296989411116,-0.22847182117402554,1.5559879131615162,0.020200751377775505,2.220739424228668,-4.689281061291695,20.93031406402588,0.0,0.0,0.0,0.0,0.0,0.0,0.0,0.0,0.0,0.0,0.0,0.0,0.0,0.0,0.0,0.0,True,0,3.1418545246124268,0.034927001953125
STABILIZE,3.141576051712036,29.55108712500176,0.032482417424519856,0.033005475997924805,0.0,0.0,0.0,-0.9521170577989646,-0.8094609797421378,-5.8686820962089,0.002935133640809672,0.003200943900092432,-0.0077053958777263875,0.4,0.09098081078734103,-0.1182417266053491,0.70485039123807,-0.038526979388631935,0.0920261547435075,-0.22911604028195143,1.3080062344670296,0.27236718672833404,-2.6343870908021927,-4.6592675149440765,21.00987583398819,0.0,0.0,0.0,0.0,0.0,0.0,0.0,0.0,0.0,0.0,0.0,0.0,0.0,0.0,0.0,0.0,True,0,3.1705338954925537,0.029935791015625
STABILIZE,3.1750993728637695,29.8321016806902,0.03249696095784505,0.03263354301452637,0.0,0.0,0.0,-0.9515808879491187,-0.8087970640104715,-5.868361504204732,0.0025903352334068755,0.001984000950988514,-0.007934188061490382,0.4,0.08365943077099998,-0.11677000891205225,0.6998318817130587,-0.03967094030745191,-0.2112379064783454,-0.15148153761401772,1.2108216062188148,-0.16413192703506582,-4.615676403045654,-2.6823826134204865,21.23495191335678,0.0,0.0,0.0,0.0,0.0,0.0,0.0,0.0,0.0,0.0,0.0,0.0,0.0,0.0,0.0,0.0,True,0,3.1994941234588623,0.03492724609375
STABILIZE,3.208481788635254,29.954821062554903,0.03242019017537435,0.03254079818725586,0.0,0.0,0.0,-0.9509196402600968,-0.8101052586799404,-5.870743532677774,0.0029794256181775395,0.002036155316592299,-0.008018560854803802,0.4,0.07762365213699646,-0.11769418826844706,0.7057950202560057,-0.040092804274019005,0.23828428238630295,-0.2944187028333545,1.693687029182911,-0.03903421761161214,-0.9505204856395721,-4.617530852556229,21.530340611934662,0.0,0.0,0.0,0.0,0.0,0.0,0.0,0.0,0.0,0.0,0.0,0.0,0.0,0.0,0.0,0.0,True,0,3.256563186645508,0.034926025390625
STABILIZE,3.2422549724578857,29.609290176838094,0.0324895699818929,0.032982587814331055,0.0,0.0,0.0,-0.9490120964909592,-0.8094014290303119,-5.870244075094717,0.0031417264140745187,0.0029736367860825497,-0.008079799569832282,0.4,0.0768943371654078,-0.11938211513719009,0.7068656148962991,-0.04039899784916141,0.1392308622598648,-0.2969585591927171,1.3476517982780933,-0.10489870561361035,-0.8121759630739689,-6.482688337564468,20.67505419254303,0.0,0.0,0.0,0.0,0.0,0.0,0.0,0.0,0.0,0.0,0.0,0.0,0.0,0.0,0.0,0.0,True,0,3.2852580547332764,0.02993798828125
STABILIZE,3.275848150253296,29.767948899929028,0.032520564397176106,0.03268003463745117,0.0,0.0,0.0,-0.9495211590275366,-0.8086365545649762,-5.868705574984172,0.002946722936775654,0.0023071164508596063,-0.007402544094922872,0.4,0.07306117619473063,-0.11965323171738833,0.7002217428805485,-0.03701272047461436,-0.03341863921377808,-0.2571446355432272,1.1109905317425728,0.10266049130921552,1.0941632091999054,-2.5762664154171944,17.58638620376587,0.0,0.0,0.0,0.0,0.0,0.0,0.0,0.0,0.0,0.0,0.0,0.0,0.0,0.0,0.0,0.0,True,0,3.3141160011291504,0.034926025390625
STABILIZE,3.309208869934082,29.9743014364325,0.032408984502156575,0.032521963119506836,0.0,0.0,0.0,-0.9503940358591232,-0.8079836311690053,-5.870010141115644,0.0024715918142899076,0.002712170561464208,-0.007424919020794738,0.4,0.07169554167357614,-0.11711798892537284,0.7007029549535666,-0.03712459510397369,0.09456794941797853,-0.052942708134651184,1.3037721626460552,-0.09164791851026743,4.961954429745674,-0.6410696543753147,16.790345311164856,0.0,0.0,0.0,0.0,0.0,0.0,0.0,0.0,0.0,0.0,0.0,0.0,0.0,0.0,0.0,0.0,True,0,3.3425397872924805,0.0349267578125
STABILIZE,3.3426949977874756,29.86502613178394,0.032468589146931966,0.03261089324951172,0.0,0.0,0.0,-0.9506163371722659,-0.8103166210182406,-5.872367410152945,0.002992565106532646,0.0030489170184280164,-0.006661797722202444,0.4,0.07211032360666904,-0.11788433231559649,0.7045791179074228,-0.03330898861101222,0.1942209550179541,-0.24868487380445004,1.5062089078128338,0.13814560522389283,-1.4714650809764862,-4.457894712686539,19.944673776626587,0.0,0.0,0.0,0.0,0.0,0.0,0.0,0.0,0.0,0.0,0.0,0.0,0.0,0.0,0.0,0.0,True,0,3.3712666034698486,0.029937255859375
STABILIZE,3.3761343955993652,29.903991900697996,0.03246310551961263,0.03259086608886719,0.0,0.0,0.0,-0.9505121767874232,-0.8111253581046525,-5.873830351295797,0.0028763997296300152,0.002362271934121015,-0.005870372886819063,0.4,0.0691623197044329,-0.11783288186582146,0.7006658165934516,-0.029351864434095314,0.004298829298932105,-0.23976820521056652,1.260395161807537,0.14587600532238534,0.9801585227251053,-6.40636682510376,14.809916913509369,0.0,0.0,0.0,0.0,0.0,0.0,0.0,0.0,0.0,0.0,0.0,0.0,0.0,0.0,0.0,0.0,True,0,3.399885654449463,0.03492578125
STABILIZE,3.4101710319519043,29.380312274532603,0.03247645696004232,0.033199310302734375,0.0,0.0,0.0,-0.9513472741351631,-0.8098991257052236,-5.873236124838006,0.0029535651068859385,0.001964467479674673,-0.005141522410720119,0.4,0.06465046823839121,-0.11819203203275774,0.6962846338231109,-0.025707612053600594,0.02894655044656247,-0.21527986973524094,1.1438668705523014,0.025897049104286803,6.121155992150307,-2.367142401635647,19.3252295255661,0.0,0.0,0.0,0.0,0.0,0.0,0.0,0.0,0.0,0.0,0.0,0.0,0.0,0.0,0.0,0.0,True,0,3.457408905029297,0.034927001953125
STABILIZE,3.443694591522217,29.830828645192494,0.032485278447469075,0.032624244689941406,0.0,0.0,0.0,-0.9521996603992395,-0.810259311462236,-5.873781686197961,0.0028673545474205073,0.002963657014841165,-0.004975809865450389,0.4,0.0656016640151686,-0.11795266751986734,0.6988722687475284,-0.02487904932725194,0.2121382625773549,-0.19380589947104454,1.4330324716866016,-0.0286232417382607,-1.3867353089153767,-2.232310362160206,23.177020251750946,0.0,0.0,0.0,0.0,0.0,0.0,0.0,0.0,0.0,0.0,0.0,0.0,0.0,0.0,0.0,0.0,True,0,3.486176013946533,0.02993701171875
STABILIZE,3.477047920227051,29.97965762481684,0.03241542180379232,0.0325465202331543,0.0,0.0,0.0,-0.9517762953924045,-0.8112650034566675,-5.8758738585181,0.0024599124058961815,0.0029754350475272224,-0.0046125888256517995,0.4,0.06644935628563486,-0.11536968721125347,0.7025021904488477,-0.023062944128258996,0.2124966587871313,-0.09267984423786402,1.6996927559375763,0.033944065823406415,2.1821649745106697,-4.021994769573212,27.30380892753601,0.0,0.0,0.0,0.0,0.0,0.0,0.0,0.0,0.0,0.0,0.0,0.0,0.0,0.0,0.0,0.0,True,0,3.5147249698638916,0.034926025390625
STABILIZE,3.5106685161590576,29.74536015942471,0.03252437909444173,0.03266716003417969,0.0,0.0,0.0,-0.9510197452201198,-0.8115571007653913,-5.8752736556447855,0.0031066228099370925,0.002655766568345899,-0.0030747721887523817,0.4,0.06562649601091305,-0.1168219438299394,0.7021923068565498,-0.015373860943761907,0.09892018279060721,-0.29392747674137354,1.2460867874324322,0.38166798261255064,6.807951629161835,-2.1479088813066483,25.490716099739075,0.0,0.0,0.0,0.0,0.0,0.0,0.0,0.0,0.0,0.0,0.0,0.0,0.0,0.0,0.0,0.0,True,0,3.5434153079986572,0.03492724609375
STABILIZE,3.5439860820770264,30.01247924895529,0.03235581715901693,0.032497406005859375,0.0,0.0,0.0,-0.9516198413717288,-0.8118346305612759,-5.8742935234988884,0.0031500841058934603,0.0026434549889422913,-0.0015332652668615518,0.4,0.06484117077534003,-0.11826995293814842,0.7017571996155567,-0.007666326334307758,0.09892018279060721,-0.29392747674137354,1.2460867874324322,0.38166798261255064,6.807951629161835,-2.1479088813066483,25.490716099739075,0.0,0.0,0.0,0.0,0.0,0.0,0.0,0.0,0.0,0.0,0.0,0.0,0.0,0.0,0.0,0.0,True,0,3.572277784347534,0.03492724609375
STABILIZE,3.5776758193969727,29.682629772477974,0.03250935872395833,0.03288984298706055,0.0,0.0,0.0,-0.9506489940142351,-0.812623250606148,-5.876617495363985,0.002934234850434007,0.0030716853790895907,-0.0020518416442089553,0.4,0.06620102725429242,-0.11822683061952742,0.7051941306237746,-0.010259208221044775,0.22268116008490324,-0.20696241408586502,1.479859184473753,-0.22212971798007541,1.984701119363308,-2.4023376405239105,14.104989171028137,0.0,0.0,0.0,0.0,0.0,0.0,0.0,0.0,0.0,0.0,0.0,0.0,0.0,0.0,0.0,0.0,True,0,3.600792646408081,0.03492578125
STABILIZE,3.6111538410186768,29.870981526058657,0.03252414067586263,0.03264212608337402,0.0,0.0,0.0,-0.9510402357876299,-0.8130453349525136,-5.877791861014404,0.0025461365718636923,0.0017690056628102482,-0.0015872449882111115,0.4,0.061117223694280645,-0.11592394088207178,0.7054112580973295,-0.007936224941055557,-0.16573983011767268,-0.1671656034886837,1.3252262957394123,0.1313911751247717,-2.6359155774116516,-2.0557716488838196,17.343805730342865,0.0,0.0,0.0,0.0,0.0,0.0,0.0,0.0,0.0,0.0,0.0,0.0,0.0,0.0,0.0,0.0,True,0,3.658884048461914,0.034927001953125
STABILIZE,3.644615650177002,29.884815709410113,0.03248599370320638,0.03261065483093262,0.0,0.0,0.0,-0.9511520801352887,-0.8134906312698867,-5.877279596826654,0.0026004048589207697,0.003249349520310071,-0.001319341205066519,0.4,0.06380994516549447,-0.11421659724646505,0.7088890526823034,-0.0065967060253325945,0.29641117434948683,-0.10978907812386751,1.4755516313016415,0.02420783126475158,2.3747581988573074,-1.8111590296030045,21.370427310466766,0.0,0.0,0.0,0.0,0.0,0.0,0.0,0.0,0.0,0.0,0.0,0.0,0.0,0.0,0.0,0.0,True,0,3.6868841648101807,0.064765869140625
STABILIZE,3.6780598163604736,29.90079416000114,0.032470019658406575,0.032594919204711914,0.0,0.0,0.0,-0.9506509150049391,-0.8155482791182059,-5.877855894037873,0.003085527576227173,0.0036803903596539828,-0.0008762600001139851,0.4,0.06815273999289309,-0.11549051335635863,0.7332210916549861,-0.0043813000005699255,0.29641117434948683,-0.10978907812386751,1.4755516313016415,0.02420783126475158,2.3747581988573074,-1.8111590296030045,21.370427310466766,0.0,0.0,0.0,0.0,0.0,0.0,0.0,0.0,0.0,0.0,0.0,0.0,0.0,0.0,0.0,0.0,True,0,3.715603828430176,0.064765869140625
STABILIZE,3.7115519046783447,29.858860547728714,0.032444032033284505,0.03257274627685547,0.0,0.0,0.0,-0.9508476031086943,-0.8159566497253786,-5.878293879918401,0.002711044226942813,0.0030136222370184393,-0.001185344611042405,0.4,0.0686675911149655,-0.11439158400063709,0.7549332910148995,-0.005926723055212024,0.0779100926592946,-0.0268631090875715,1.4512349851429462,-0.15865244779406276,1.53154619038105,-3.6920133978128433,22.686217725276947,0.0,0.0,0.0,0.0,0.0,0.0,0.0,0.0,0.0,0.0,0.0,0.0,0.0,0.0,0.0,0.0,True,0,3.7441470623016357,0.034926025390625
