Mode,Time,Freq,North-Vision,East-Vision,Down-Vision,Yaw-Vision,North-Desired,East-Desired,Down-Desired,Roll-UAV,Pitch-UAV,Yaw-UAV,Roll-Control,Pitch-Control,Yaw-Control,Thrust-Control,northVraw,eastVraw,downVraw,N-Velocity,E-Velocity,D-Velocity,yawVraw,yawRate,Q-Size
GUIDED_NOGPS,0.009448528289794922,109.01941621396824,11.378078893485679,-14.190220254988704,56.39497383906276,7.187192004133116,12.16981123564981,-12.575234232591301,63.302022092159845,-0.7011284698944763,1.8825000267721257,48.04055216882406,2.212130005994615,-0.7661390906413015,3.593596002066558,0.5103605723796456,13.254039404915211,-12.401390226900302,68.89086317684699,1.3655640184879303,3.933388739824295,44.148313999176025,10.14768663137756,-3.33103566033444,1
GUIDED_NOGPS,0.020190954208374023,93.10330743618202,13.981972914141583,-14.030246802325323,66.57833579331353,9.069556339640613,12.169641503024737,-12.574431229532644,63.301998529585966,-0.7424897476305463,2.0032652418173558,48.04915820717827,-0.424214413095511,2.4830546014220714,4.5347781698203065,0.49508549410440866,13.254039404915211,-12.401390226900302,68.89086317684699,0.4555096849799156,4.637904465198517,48.638761043548584,10.14768663137756,-3.1581189627684005,0
GUIDED_NOGPS,0.03840327262878418,54.92802514405448,13.873450990028132,-13.729226440025025,67.51657023501087,9.150207136915789,12.168476336641723,-12.568918841039267,63.30183453817115,-0.9473314430683129,2.2550595252396413,48.10651472073345,-0.08472218491844248,0.0816465824103158,4.5751035684578945,0.4936778964547404,13.435152150312122,-12.072317176392334,70.828731099905,0.4555096849799156,4.637904465198517,48.638761043548584,10.045738313304092,-3.1581189627684005,0
GUIDED_NOGPS,0.07205557823181152,29.720067740404033,13.880411120179998,-13.482242574299535,68.64580068459858,9.181681703777603,12.1653827421017,-12.554283081551006,63.30139228364859,-1.0514943892319462,2.334536246752144,48.192308726897984,-0.019689937211050324,0.15629322625395442,4.590840851888801,0.491983387398575,13.807578066270834,-12.053432269267375,71.37569797738604,0.8147348649799824,4.079117998480797,48.77370893955231,9.913775426013359,-4.824840933941953,0
GUIDED_NOGPS,0.10525298118591309,30.12824767446037,13.991222778054544,-13.232428589256,70.2702385084947,9.216185106888254,12.159494414163767,-12.526425471132884,63.30053674485787,-1.011539063247841,2.528629092066162,48.333891718203176,-0.04212355304610169,0.1959165145059544,4.608092553444127,0.48954544735454475,13.85729867412197,-11.831697327342209,72.93632725774074,5.95744326710701,2.4433819577097893,41.06707572937012,9.800827662790955,-1.2189266583378768,0
GUIDED_NOGPS,0.1383986473083496,30.17398060487468,14.024602227085532,-13.04162585105061,71.98722290882287,9.201488863370576,12.150010167588526,-12.481555611813334,63.29913569467306,-1.1142245541166358,2.404429785972296,48.40489153462546,-0.028177659797225935,0.1796725068506328,4.600744431685288,0.48696786917877527,13.986335409427252,-11.726061636463651,74.43287140575713,-0.5858977325260639,0.4119821358472109,50.42458176612854,9.660116148187594,-2.878962728087633,0
GUIDED_NOGPS,0.17211103439331055,29.66709341557091,14.049917074992502,-12.818930610986948,73.68910967149063,9.174234669291316,12.136192367981426,-12.416183763922442,63.297059680930815,-1.1869814367029041,2.22989518734661,48.49943501311677,-0.04345244630223108,0.17949336126598156,4.587117334645658,0.4844119250141603,14.038517746535256,-11.00432418688398,75.95103439657171,-0.5858977325260639,0.4119821358472109,50.42458176612854,9.596203667402508,-2.878962728087633,0
GUIDED_NOGPS,0.2235722541809082,19.434359347416123,13.87409332386041,-12.612477193865283,75.28224943628759,9.164921124348657,12.117365362636091,-12.327113422430159,63.294182007358465,-1.0112852790314926,1.5640385080171673,48.69302647985703,-0.020218020708427993,0.12636581021365298,4.582460562174329,0.48201789885660634,14.038517746535256,-11.00432418688398,75.95103439657171,-13.403555750846863,1.4247559010982513,50.65754055976868,9.596203667402508,-1.5295107278239892,0
GUIDED_NOGPS,0.2503201961517334,37.39638723943009,13.799091834311762,-12.422510760958751,77.29278726606744,9.127886164878728,12.09291391137766,-12.211433893284552,63.290378714502104,-0.8484430571303692,1.1963950382047683,48.7484500498771,-0.03225193489584968,0.13145367969899588,4.563943082439364,0.478996387172652,15.629266068589782,-10.693852324153147,77.97487182309678,-13.467438519001007,-0.5813081283122301,52.5160551071167,9.329951422330513,-1.1572077883371723,0
GUIDED_NOGPS,0.28264665603637695,30.9369209889656,13.856114764199173,-12.222792210187816,78.70053474050847,9.07277408376834,12.062281617406132,-12.066512869750024,63.28552856065468,-0.8578654098121076,0.8194352970861779,48.83989603757982,-0.03387195981468933,0.18580737609585124,4.53638704188417,0.4768774907302193,17.42212815742668,-9.762154666041432,81.85341092782869,-13.467438519001007,-0.5813081283122301,52.5160551071167,8.75981049965682,-1.1572077883371723,0
GUIDED_NOGPS,0.3164055347442627,29.626440069787318,13.882921246251003,-12.035952797934348,80.08003839662263,8.975667164479441,12.02496935813969,-11.889989008745545,63.2795130027841,-0.6801899913852734,0.09819852349155923,48.939104535274254,-0.02045684042050122,0.1858445483047442,4.487833582239721,0.47479921190924224,17.42212815742668,-9.762154666041432,81.85341092782869,-13.102567195892334,-0.7194613572210073,37.489426136016846,8.75981049965682,-3.3244276657558642,0
GUIDED_NOGPS,0.3501608371734619,29.636278846289727,13.806551128478775,-11.864207673931404,81.64718362367883,8.825290315190406,11.980533716058048,-11.679764507182886,63.2722161774613,-0.714569962015944,-0.15856620331557814,49.00491682302191,0.002412653307186312,0.15753653917831478,4.412645157595203,0.47243754883067374,17.325699554616506,-9.743903928998144,82.74494982401711,-17.46048480272293,-0.5514096468687057,47.32867479324341,8.911229751782233,-7.311151454571185,0
GUIDED_NOGPS,0.3832669258117676,30.209840174590713,14.000651016241182,-11.61060588965293,83.20584707849241,8.718126759519079,11.928585409545786,-11.433997678304852,63.26352488178836,-0.5094665315947485,-0.748120704992693,49.1328121152304,-0.027612779909277102,0.25910342139722936,4.359063379759539,0.47008651670494395,21.293952647095225,-7.571935989589647,86.42907657025194,-15.540118515491486,-3.2054897397756577,39.79654908180237,8.581997827049932,-3.68291099811763,0
GUIDED_NOGPS,0.4167795181274414,29.841440595362602,14.22622574212655,-11.388324142640728,84.69337725448828,8.545997234108974,11.868787723735686,-11.151095528023506,63.25332855432659,-0.3775688018934852,-0.9148128057081765,49.27069997419461,-0.007471919448590013,0.3000168369276901,4.272998617054487,0.46783992694975746,21.89706935207529,-7.8107027819688675,86.88498932610446,-13.44662457704544,-2.465367503464222,38.91043663024902,8.525147022439587,-7.587665686703628,0
GUIDED_NOGPS,0.4532299041748047,27.437782109821676,14.587528442885677,-11.229588157024276,85.97437890254724,8.454592776013689,11.80085494135207,-10.829706331258407,63.24151925602462,-0.48725139468013495,-0.970072237744753,49.3925607942714,0.021774798693412686,0.3771888686543035,4.227296388006844,0.4659007105302161,21.89706935207529,-7.8107027819688675,86.88498932610446,-2.5767264887690544,-4.946852475404739,32.84146785736084,8.525147022439587,-3.083839801770866,0
GUIDED_NOGPS,0.4850625991821289,31.422244197719543,14.8506162779598,-10.989552388870704,87.45506188856068,8.404743600985936,11.724550773554135,-10.468712208274836,63.22799165114646,-0.41802652030755655,-1.135183416471643,49.49719587726141,0.022276297182063337,0.3969066994090799,4.202371800492968,0.4636593946438787,23.103871320415543,-6.2148453698098205,88.49627361251618,-11.353781819343567,-4.704932868480682,37.77150511741638,8.066801256330251,1.127427950112505,0
GUIDED_NOGPS,0.5204799175262451,28.238196225754546,15.219692137224555,-10.840380922665247,88.7569462424178,8.370626422984783,11.639686790779297,-10.067221701022032,63.212642988199676,-0.7223816707140288,-1.1170802135199358,49.570517958001496,0.06584810129012447,0.465125202998775,4.185313211492391,0.4616835451186728,23.877499397980444,-6.751302258293553,92.49293140932889,-6.1965033411979675,-6.75559863448143,29.852303862571716,7.721323341698323,2.2014950473342854,0
GUIDED_NOGPS,0.5521209239959717,31.60932083320773,15.596235516501443,-10.724953719178629,90.10962350835665,8.270751754150702,11.546120853586519,-9.624562349471416,63.195373080863384,-0.7040656646809934,-0.9385431240406221,49.67040264442376,0.1157103336373547,0.5364389025297966,4.135375877075351,0.4596286243587601,23.877499397980444,-6.751302258293553,92.49293140932889,-3.0417151749134064,-7.797766476869583,31.44720196723938,7.721323341698323,-1.701547184760743,0
GUIDED_NOGPS,0.5868563652038574,28.793585413405825,15.973614257294697,-10.513527374567834,91.10964792625798,8.166679064852914,11.443755543499654,-9.140273267954829,63.17608428891642,-1.0025012288720332,-0.7645697215047877,49.724470421893585,0.10910097764980975,0.5684302613556058,4.083339532426457,0.45809965454398766,25.623880136399187,-5.181565691070102,93.60568057962138,-8.166290074586868,-6.216895580291748,18.208496272563934,7.651960609668178,-2.4869209687863023,0
GUIDED_NOGPS,0.6223571300506592,28.172001988151692,16.373542746563356,-10.305536548921618,92.36296928175578,7.999530450760169,11.332536593850781,-8.614097721502759,63.15468149916538,-1.097728580053997,-0.5104493317832899,49.85239303485875,0.13978971370519963,0.6248421348384056,3.9997652253800844,0.4561875683261144,26.632115821079758,-4.352618936176609,95.74143869741158,-7.696940004825592,-8.048173785209656,24.8018279671669,7.218508918256716,-4.801642623312827,0
GUIDED_NOGPS,0.6549406051635742,30.694895532218524,16.803107984065953,-10.170428838605895,93.37894285962471,7.878298964287813,11.212451320623545,-8.045975702182574,63.131072106372734,-1.1221684910081837,-0.6147717201753605,49.94028049400389,0.2080031378565922,0.7086000125235253,3.9391494821439066,0.45462819387012204,26.632115821079758,-4.352618936176609,95.74143869741158,-3.915906324982643,-11.331244558095932,13.251757621765137,7.218508918256716,-2.307222320261263,0
GUIDED_NOGPS,0.6888344287872314,29.508051863994204,17.25092531599231,-10.05742944463761,94.29212138426934,7.754871426853895,11.08352705329649,-7.43603650543675,63.10516599418493,-0.9192013089716153,-0.15583767614429025,50.12202499762876,0.25565776922081024,0.7689286327829763,3.8774357134269475,0.4532195669148734,27.36342437293551,-4.458259577184226,97.31796878382085,-3.915906324982643,-11.331244558095932,13.251757621765137,6.921695614111125,-2.307222320261263,0
GUIDED_NOGPS,0.7222211360931396,29.95910029214077,17.600498915307345,-9.983777034609943,95.39836130147381,7.609194226023229,10.94582956568639,-6.7845913064211025,63.07687551606046,-1.0924543933542779,-0.2309941429242016,50.1877280023497,0.32845616421375234,0.7990030703461883,3.8045971130116145,0.45151777132188,26.701509525323573,-5.084223919719993,98.33676462701278,-6.2336452305316925,-10.725685954093933,23.19600284099579,6.951065342214978,-3.9948606785509218,0
GUIDED_NOGPS,0.7555837631225586,29.977300666113955,17.925442264330677,-9.91456476360026,96.42353371065019,7.409049832304494,10.799461506791609,-6.092125736343029,63.04611547619797,-0.8716356047873821,-0.046974439253777575,50.40373273485135,0.3862794798843432,0.840345727848643,3.704524916152247,0.4499338726483217,27.062491667393715,-4.656247260596798,98.64508407565458,-7.634573429822922,-11.663832515478134,22.975820302963257,6.743157767402135,-7.071930909080659,0
GUIDED_NOGPS,0.7902915477752686,28.815741020638104,18.250597966814745,-9.864580414770455,97.20758091117311,7.2447764269366886,10.64456083163541,-5.3592924587997155,63.01280311046435,-0.6499421784807545,0.07113196457446642,50.61334099519529,0.4502354674284451,0.8899431026621017,3.6223882134683443,0.4487078332989369,28.36736413401902,-4.348929515420092,99.12796100964266,-10.41414886713028,-13.072395324707031,9.67203751206398,6.572809765821544,-4.736689231853299,0
GUIDED_NOGPS,0.8232154846191406,30.38007837115478,18.490937114214066,-9.80385194292524,97.92477228769431,7.021501606089406,10.481299232109311,-4.5869037461163895,62.976858067322816,-0.6252592622025036,0.29974354541709713,50.75530306199942,0.5258479928736566,0.9172032776331185,3.510750803044703,0.44757812866944274,28.36736413401902,-4.348929515420092,99.12796100964266,-14.545631408691406,-11.651113629341125,8.66597294807434,6.572809765821544,-8.623756718696725,0
GUIDED_NOGPS,0.8561444282531738,30.370839156281907,18.673629156810946,-9.84042999800404,98.80207874308316,6.794460597803996,10.309880567816418,-3.7759240556845466,62.938202388761006,-0.14286778724067073,0.2508121502444051,51.02281766612672,0.6360212304861651,0.9451597201113171,3.397230298901998,0.44620418546851676,27.70792882545983,-5.288530598042176,100.83220008788734,-15.002316236495972,-14.380978047847748,18.106064200401306,6.448801062464179,-9.057906594231184,0
GUIDED_NOGPS,0.8903157711029053,29.268780137191825,18.886350597415163,-9.89994099228384,99.56378953554137,6.524713132564687,10.130539296914757,-2.9274626063001694,62.8967604912191,-0.06637548486949302,0.2000911921483169,51.16274775165277,0.7172931699579006,0.9944634018210391,3.2623565662823437,0.44499945643351657,27.79423428371196,-5.574366300214958,102.06739151978054,-12.051787227392197,-14.438323676586151,9.95863601565361,5.909178071774952,-10.376516448410813,0
GUIDED_NOGPS,0.9233272075653076,30.298221535171994,19.01905102626605,-9.963895092514425,100.30677669590541,6.238874743709758,9.943538906960619,-2.042765954501972,62.852459146517866,0.47013510070264164,0.6961127631661598,51.53859940130023,0.8184242080363371,1.0126352335278521,3.119437371854879,0.4438185236759187,26.026207528520388,-5.57236605751476,102.94927225228102,-10.529164224863052,-14.143742620944977,7.68246203660965,5.985672130844975,-11.812118905336296,0
GUIDED_NOGPS,0.9581809043884277,28.69489426622608,18.907379938555042,-10.070125577781944,100.9679317809091,6.011842582780534,9.749170345751889,-1.1232105709096345,62.805227462786775,0.4883693045481956,0.7532033262305344,51.74696798230981,0.9191839417950844,0.9537466750157001,3.005921291390267,0.4427559435228165,26.04992143628721,-7.400794722987833,103.03046791992057,-26.344460248947144,-11.207112669944763,7.840651273727417,5.815541640879559,-8.497701308695909,0
GUIDED_NOGPS,0.9924468994140625,29.191575841093528,19.006958272842194,-10.234622363618309,101.65672949542909,5.781109159289589,9.547750452171393,-0.17029541656200564,62.754996865392094,0.9030444964899502,0.9258227504851196,52.05075430602447,1.034867238867923,1.0537597868736863,2.8905545796447947,0.4416474010549445,26.203808367374336,-7.492632235165054,103.78667967861537,-11.93700060248375,-14.392246305942535,8.048824220895767,5.39235932613281,-7.461224371014706,0
GUIDED_NOGPS,1.025101661682129,30.62675886643933,19.00714354045559,-10.33727648758324,102.34112582172807,5.558372548646492,9.339620387030225,0.8143654807446197,62.701701077864996,1.1229217328075891,1.1427153008571687,52.31453279667578,1.1262190322266428,1.051675099328258,2.779186274323246,0.4405408628842054,25.40394958741929,-6.826202610903337,104.43693057434528,-15.718236565589905,-12.747558951377869,10.405902564525604,5.058608700577892,-6.799213408353097,0
GUIDED_NOGPS,1.0589213371276855,29.574424278320713,18.9465307512531,-10.405867453797729,102.86275051164293,5.25521770989456,9.12514406391109,1.8290504501183253,62.645276102829605,1.2787872899975148,1.4669090558730604,52.611222553842794,1.213929605325646,1.0504957081752173,2.62760885494728,0.43967378838678,25.194333534735094,-6.667511973825899,104.64243146589025,-18.687811493873596,-11.062566936016083,2.8156666085124016,4.917574541246629,-11.931683074304662,0
GUIDED_NOGPS,1.0921435356140137,30.10532511250996,18.81102204055996,-10.45671686373603,103.448407009525,4.968179679392387,8.904706580011645,2.8719376012332862,62.58566020293114,1.634057231798201,1.7435026889546041,52.82391122950241,1.311740369475383,1.0398794378864544,2.4840898396961935,0.4387058797901092,26.404339848505032,-6.7275779753582245,104.79438869862614,-26.76492929458618,-9.56292599439621,8.489256352186203,4.771313570966543,-10.988865105617258,0
GUIDED_NOGPS,1.1262946128845215,29.28451538128552,18.65326629639249,-10.61893119102587,103.86315433016478,4.767129782272661,8.678712646987826,3.9411122479915743,62.52279388176395,1.9461243061078521,1.7226908891101638,53.071324586902364,1.4471366035345086,1.047320682251033,2.3835648911363303,0.43798945932739874,22.670096876215098,-8.8939877717691,106.24708805367047,-16.645528376102448,-10.322477668523788,-3.6834418773651123,4.302496878626645,-4.921002313492916,0
GUIDED_NOGPS,1.160074234008789,29.609081154345738,18.44933066536137,-10.803323291299652,104.30944844234845,4.517051071755137,8.447585021797188,5.034574332184944,62.45661986479969,1.8385806297484741,1.7685508069100393,53.25936652494198,1.572812552175749,1.0414077512426065,2.2585255358775687,0.43722075713367686,21.626349865009075,-9.94205587355873,106.66053938737375,-16.51037633419037,-8.828786015510559,-1.55483428388834,4.06600330885293,-7.571015393054429,0
GUIDED_NOGPS,1.196091651916504,27.76857227978417,18.26846727778122,-10.953469292243089,104.59649860091197,4.3100139917452625,8.211762937542257,6.150245847156521,62.38708308031532,1.9162943086814677,1.8558292052802836,53.522868392931905,1.6503252303919838,1.0538223549751582,2.1550069958726312,0.436685876719105,22.82185850921765,-9.688483489828268,106.46098152337298,-19.041720032691956,-8.035049587488174,-6.9496676325798035,3.701417608305933,-4.879138376522616,0
GUIDED_NOGPS,1.2268147468566895,32.55562541234913,17.98124129724721,-11.115939311459938,104.78339038499554,4.080774007629809,7.971700534313843,7.285978261462672,62.31413064032126,1.9853178525560895,1.6575639681570344,53.7207560486601,1.8336522877499546,1.0253142371895558,2.0403870038149043,0.43629611038298854,21.798285856935664,-10.371497626934568,106.40244282682266,-23.266278207302094,-7.238956540822983,-10.44204905629158,3.33727772394618,-4.901115790837601,0
GUIDED_NOGPS,1.2681920528411865,24.170762067216817,17.60749134635154,-11.19408621696121,104.94410747733643,3.8283786970902893,7.727865290034398,8.439559942534698,62.237711821489455,2.305721386191153,1.687681046971971,54.0527988649711,1.8787334908807771,0.9856130058030098,1.9141893485451447,0.43594040651622956,19.872971808449307,-9.795946315435037,106.93626718349975,-24.743203818798065,-4.677071049809456,-9.510823339223862,3.082303487094252,-8.128842065211249,0
GUIDED_NOGPS,1.2950611114501953,37.22942278161919,17.134888727269495,-11.40790111639864,105.09718876828916,3.572067630568756,7.480736451301339,9.60872358034066,62.15777804608148,2.247979820721511,1.5699239966476026,54.24991812441767,2.05010811634776,0.9380329548514768,1.786033815284378,0.4355908839166885,18.009075420048177,-12.561276422800717,106.37410367272224,-24.743203818798065,-4.677071049809456,-9.510823339223862,3.1755354484897462,-8.128842065211249,0
GUIDED_NOGPS,1.3273522853851318,30.970043786134635,16.621154311623147,-11.649060434897004,105.14524357983831,3.4098771593949473,7.230803464230392,10.791153611047099,62.07428286287663,2.502024651475316,1.467587485756713,54.577538393241085,2.178560265618935,0.9052376684957288,1.7049385796974736,0.4353935589245575,16.501139086390268,-13.367332790426328,106.35516936870991,-23.48836362361908,-4.627420008182526,-14.472365379333496,3.3376090973055828,-3.609056589509105,0
GUIDED_NOGPS,1.3611531257629395,29.590072453032516,16.134574924415986,-11.853152436506804,105.20245712815833,3.1419740225665875,6.978564405298933,11.984493640680826,61.987181928099986,2.578045510711204,1.4072050916775096,54.88636539656321,2.2846930896077313,0.8891981686051356,1.5709870112832938,0.4351770871999125,16.343182658007343,-13.382975190945249,106.13375207928793,-22.129037976264954,-2.9047995805740356,-11.569379270076752,2.9970069457905506,-9.677479030258565,0
GUIDED_NOGPS,1.4019389152526855,24.521640503960946,15.543349044031599,-11.934561174694512,105.26071315910906,2.7991635190261936,6.7245244121893135,13.186353868790702,61.89643298635056,2.697169559364927,1.6041006624287597,55.29957818097064,2.298663258480695,0.8320431281467212,1.3995817595130968,0.43495357974086224,14.947036384572707,-11.63320400825113,106.35433706727923,-25.69311559200287,-0.634937547147274,-10.97068265080452,2.220210247222081,-12.473431481155272,0
GUIDED_NOGPS,1.4346928596496582,30.534007935063517,14.806748896177174,-12.11407671440452,105.26824816564213,2.338395592573247,6.469194114632208,14.394318512109399,61.80199585152935,2.706234714497415,1.3486401682477642,55.5782635594855,2.524410140213029,0.7169124990238215,1.1691977962866236,0.4348006215288308,12.429395618035972,-13.731417137620596,106.12782450666013,-23.81010204553604,0.7002727128565311,-15.95430076122284,2.0623789127884,-17.03799226196143,0
GUIDED_NOGPS,1.4696946144104004,28.574472868481113,14.188234442498846,-12.257386992920738,105.1604913190109,1.9168047472144614,6.213088065249947,15.605953228215162,61.70383238776742,2.8338019441823317,1.3845203258966048,56.12454550439771,2.604605394223216,0.7109516647938066,0.9584023736072307,0.4348150116031348,12.80648482526201,-13.991818445095719,105.7168083910947,-23.81010204553604,0.7002727128565311,-15.95430076122284,1.605513521279946,-17.03799226196143,0
GUIDED_NOGPS,1.5127849578857422,23.211293794721666,13.533126551767312,-12.349792786592698,105.09250635525915,1.538589386340973,5.95672317039986,16.81881253919355,61.60190649035404,2.948314974816061,1.4180971089695642,56.606968595664874,2.634347221748095,0.6689817637176799,0.7692946931704865,0.43476410020264233,12.80648482526201,-13.991818445095719,105.7168083910947,-26.758277416229248,3.558586537837982,-13.057714700698853,1.605513521279946,-14.558474791348601,0
GUIDED_NOGPS,1.5363750457763672,42.39711308109857,12.777793746990456,-12.448971686680132,104.99588000190818,1.1782419540859748,5.700617121017601,18.0304472552993,61.49618406666473,2.9928232622122146,1.3898171375979496,57.01882217242748,2.993062645741138,0.4983301185617336,0.5891209770429874,0.4347504560971348,12.029730131997184,-14.090841544853316,105.00801886702135,-25.13129413127899,4.742622748017311,-14.454697072505951,1.3806070868654885,-9.886907998136788,0
GUIDED_NOGPS,1.5696196556091309,30.086537357970847,12.09808231268365,-12.426031452219776,104.73855870174434,0.911766638959889,5.445286823460496,19.238411898618004,61.38663301708939,3.085907641542087,1.4042539163475352,57.548838021831294,2.896248363044814,0.5269477710219928,0.4558833194799445,0.43497211147301756,8.22541874435732,-14.251170392644656,104.33049551156387,-28.332898020744324,7.706117630004883,-15.749263763427734,0.45491876594848213,-11.500175628205351,0
GUIDED_NOGPS,1.6031639575958252,29.81471292801342,11.112812250186073,-12.486174443298141,104.46524123490121,0.6009066278561518,5.191246830350877,20.440272126727876,61.27322321596036,3.00088843496153,1.152372014404803,57.92694363390486,3.022211105294881,0.3567554966182379,0.3004533139280759,0.4352119729715887,5.761736525400783,-15.795721294583576,103.770624941988,-33.59662592411041,8.824733644723892,-18.014466762542725,0.3074578639749144,-9.54707961994562,0
GUIDED_NOGPS,1.6407008171081543,26.64437357862506,10.154499577488073,-12.554105429604194,104.09402775696454,0.28906682044962695,4.939007771419417,21.633612156361608,61.15592649248052,3.0066706169807693,1.0622760562802227,58.395112120374215,3.087985910840975,0.3061803596167907,0.14453341022481347,0.435592848103274,5.300336345319395,-16.32885557057089,103.46333770715958,-31.984743475914,9.25113707780838,-22.923298180103302,0.04104815854914547,-9.626155281287797,0
GUIDED_NOGPS,1.6710450649261475,32.962944916419765,9.106228709808969,-12.519369484185846,103.8100540895821,-0.1739670415716531,4.689074784348467,22.81604218706805,61.034716611651405,3.3006562595666926,0.9251876496140142,58.96472940658577,3.225320631063877,0.13369484830367329,-0.08698352078582655,0.435836993783104,2.815704983979731,-15.079479310714941,103.44015474305732,-32.35965073108673,11.639612913131714,-17.161990702152252,-0.2945495451752688,-16.613861420165737,0
GUIDED_NOGPS,1.7037949562072754,30.538454257526666,8.130929309086692,-12.451800353333702,103.47062098679262,-0.5658594113836272,4.4419459456154105,23.985205824874015,60.90956925520128,3.247208748650874,0.8683065278972356,59.42391619429655,3.2698041936396423,0.08897551533878137,-0.2829297056918136,0.436158422402613,2.4592953223564353,-15.243390961516406,102.69109737900325,-32.59840905666351,13.470396399497986,-18.45422089099884,-0.9277051100208435,-15.196773044759217,0
GUIDED_NOGPS,1.7434659004211426,25.211608280637638,7.040515622681279,-12.357218606294527,103.12441609354055,-1.0048289573637024,4.198110701335967,25.138787505946027,60.78046200251324,3.51050635129593,0.6395771529718486,60.07964167537446,3.2960565412112044,-0.011602666781360044,-0.5024144786818512,0.43648406886345903,-0.44669627889222974,-15.208350587810331,102.44655415754865,-30.769836902618408,14.987654983997345,-18.279777467250824,-1.0602079750872082,-17.03465400700459,0
GUIDED_NOGPS,1.7710440158843994,36.266906468599494,5.845189359115808,-12.297132034252996,102.61935572270718,-1.4839439365909308,3.958048298107549,26.274519920252203,60.64737431155328,3.4965036097237574,0.13867690589591256,60.49575729017915,3.4757324753289103,-0.24115662778217253,-0.7419719682954654,0.4370420278832691,-2.8635735290656843,-15.858094915107568,101.61175290237068,-25.83237886428833,14.206743240356445,-25.050151348114014,-1.3290061652181375,-16.21272611775818,0
GUIDED_NOGPS,1.805727481842041,28.83515516506483,4.855682190131928,-12.177182255485137,102.27507072106624,-1.9426118362537932,3.7222262138526183,27.390191435223755,60.510287499798395,3.501472572344942,-0.02627815231563236,61.03479581947655,3.4698247888850187,-0.22220406114988472,-0.9713059181268966,0.43735282516809826,-1.337575064407493,-15.83811003110978,101.49669369890039,-31.61952495574951,17.709507048130035,-16.47093892097473,-1.8290723143476264,-20.417552787810816,0
GUIDED_NOGPS,1.851776123046875,21.7190911162203,3.862419614114382,-12.127648183094237,101.71382515475761,-2.4631810626546464,3.491098588661984,28.483653519417132,60.36918472516471,3.6748906484847423,-0.5673299732523924,61.7027200184121,3.493490319733933,-0.2728324079824181,-1.2315905313273232,0.4379830393556106,-4.149153702741622,-18.005452438602163,99.93192974211169,-18.73893290758133,18.795078992843628,-24.713189899921417,-2.2794241103370076,-20.069841517543807,0
GUIDED_NOGPS,1.8722126483917236,48.94113254221071,2.663980866190832,-11.900235438903618,101.26392442037512,-2.9142670687736656,3.2651046556381615,29.55282816617543,60.22405096693552,3.433307924758449,-0.6024197499482157,61.9200361472344,3.719176876565962,-0.70484937969345,-1.4571335343868328,0.4384401898198406,-3.8085656883418775,-14.933972097439817,100.69491120792787,-38.71467113494873,21.17859125137329,-20.986251533031464,-3.615257173641905,-14.398668855337812,0
GUIDED_NOGPS,1.9118471145629883,25.234208705592156,1.92920508694069,-11.706358303004606,101.00986182206336,-3.183682317588861,3.044667171738716,30.5957153172904,60.07487300668942,3.550423684352777,-0.9667004721722939,62.24311775535434,3.6124347381017987,-0.42358955446961155,-1.5918411587944306,0.4385975167769391,-3.8085656883418775,-14.933972097439817,100.69491120792787,-28.334391117095947,21.30018323659897,-13.738645613193512,-3.615257173641905,-12.644228045314255,0
GUIDED_NOGPS,1.9409968852996826,34.31428758426598,0.704277639076383,-11.378258917373724,100.53851724173708,-3.5744478296159654,2.8301908486195835,31.61040028666406,59.92163940922836,3.5443922004288324,-1.2401659853356777,62.77745711450277,3.6575694414697675,-0.7474399707920371,-1.7872239148079827,0.43907468325123694,-7.233822460916448,-13.707638393026043,98.54142978140902,-30.057749152183533,23.447437584400177,-15.909609198570251,-4.533854101577459,-7.3143454217818125,0
GUIDED_NOGPS,1.9757473468780518,28.780742865377093,-0.44782016684251613,-11.135352268961281,100.07264885141178,-3.8282701343932097,2.622060783478414,32.59506118397073,59.764340503505785,3.5919952038492364,-1.6758346174651129,63.168895255836205,3.698398397626834,-0.7867114275395968,-1.9141350671966049,0.439537537478141,-9.54129564069389,-15.787543657524466,97.66793565585681,-29.9868106842041,25.29928982257843,-16.374343633651733,-4.4416768896786705,-4.630893016704387,0
GUIDED_NOGPS,2.0212209224700928,21.99402208681608,-2.017403026130122,-10.792757040434857,99.58036292033455,-4.26421411365344,2.4206408898979177,33.547976338318335,59.60296836355469,3.3289434880143007,-1.9846683442547035,63.49251644890058,3.6524351554250534,-0.9646605242316721,-2.13210705682672,0.44003390816483023,-14.961210183009442,-14.18735379256075,96.80691526342096,-39.70437943935394,26.0080486536026,-14.683964848518372,-4.987187714833876,-12.554043935060701,0
GUIDED_NOGPS,2.042039394378662,48.042518097681665,-3.6598903367352857,-10.377095542805229,98.94710382066255,-4.733087405306862,2.226272328689184,34.46753172191072,59.4375167894157,3.503921195162391,-2.3116608760047135,63.79933537660673,3.749464105095218,-1.529571845815594,-2.366543702653431,0.4407356194531297,-14.961210183009442,-14.18735379256075,96.80691526342096,-27.393683791160583,25.80060362815857,-18.36140900850296,-4.987187714833876,-8.487054751327152,0
GUIDED_NOGPS,2.0771408081054688,28.49275165414453,-4.592930956496009,-10.138752809491164,98.59476898955222,-4.956043657186566,2.0392719387350553,35.35222837370887,59.26798128806524,3.4694910653300033,-2.481357139377092,64.05569286672481,3.774933762269044,-1.130049257996142,-2.478021828593283,0.44100981844776954,-14.98213119412041,-15.414844833826745,96.10720153828893,-26.364633440971375,28.84392738342285,-12.743096053600311,-5.45370345819048,-9.58667508033783,0
GUIDED_NOGPS,2.112269401550293,28.471669551641043,-5.82491340181364,-9.795890444022536,98.18912844872631,-5.325600741880934,1.859930667833389,36.200689823093285,59.09435905434352,3.4239189759706203,-2.54594170062144,64.28386216613826,3.7530101883704114,-1.3372829603637482,-2.662800370940467,0.4413578459084258,-14.98213119412041,-15.414844833826745,96.10720153828893,-26.500600576400757,29.452243447303772,-9.46597084403038,-5.45370345819048,-10.219574069209552,0
GUIDED_NOGPS,2.1489577293395996,27.259636694504923,-7.156918647092489,-9.435358206531154,97.64946099458636,-5.523033665119348,1.6885120035405023,37.011669513525106,58.91664895188271,3.50038251684209,-2.6511895796460476,64.53256301419677,3.7521229739960114,-1.469264719661723,-2.761516832559674,0.4419007819359445,-19.136837010090964,-14.554709812520866,93.58859774559318,-27.381590008735657,29.029837250709534,-12.77521550655365,-6.06180725525508,0.01176628150581634,0
GUIDED_NOGPS,2.177048921585083,35.61013380425185,-8.527638315773734,-8.975416152361214,97.122229085189,-5.742788829284705,1.5252504040144004,37.78405822620843,58.734851494035,3.3491081274348824,-2.57463617909831,64.66164675932083,3.7396916193736014,-1.710120478075026,-2.8713944146423525,0.442418933613269,-22.95677981534451,-12.947384363710654,91.96259741812429,-25.270366668701172,32.276296615600586,-8.438125997781754,-6.3579838090829455,-1.5889995410606845,0
GUIDED_NOGPS,2.210463047027588,29.92874421126992,-9.786350625129174,-8.537316742056266,96.61230571895668,-5.892151197041655,1.3703497288582014,38.51689150375171,58.54896882480067,3.3945186401317122,-2.5086187722321402,64.80971843033754,3.736950968331474,-1.7178991292971413,-2.9460755985208276,0.442904994658766,-22.95677981534451,-12.947384363710654,91.96259741812429,-27.867764234542847,33.85675251483917,-12.081220746040344,-6.3579838090829455,-1.3822825851697793,0
GUIDED_NOGPS,2.244840383529663,29.093774494502828,-11.092597033094949,-7.98204147699914,96.20740361900384,-6.151338233518596,1.2239816699634147,39.209357073829835,58.35900469975624,3.3237570265567338,-2.7076037405391795,64.87334847264538,3.6817746261295805,-1.842925880680589,-3.075669116759298,0.4432274016211286,-25.18357388785006,-11.704602055438531,90.85257507195027,-16.22989922761917,33.99387300014496,0.33549717627465725,-6.701943294105126,-4.807688194501935,0
GUIDED_NOGPS,2.2814793586730957,27.296714739417922,-12.415351358941072,-7.358179362017337,95.79015889476861,-6.426085347423844,1.0862841823533245,39.86080227284543,58.16496446698252,3.3916123946398717,-2.472561136386585,65.02857135172309,3.6342173207813557,-1.9498215442279654,-3.213042673711922,0.44356220835832083,-25.573047660831698,-11.018271359170608,90.78226613431384,-19.9163019657135,36.80006265640259,-1.4229042455554008,-6.83189809761163,-5.978032997933981,0
GUIDED_NOGPS,2.3117849826812744,33.00288774008766,-13.622279108040065,-6.762113569176422,95.20117759601348,-6.5933374634456925,0.9573599150262524,40.470741469591246,57.96685504799269,2.9628026598193045,-2.689804694448949,65.00270542533625,3.613148223413084,-2.0898289696719865,-3.2966687317228462,0.4441485161779688,-24.802635614470187,-11.837850091894984,90.49336735956743,-16.41245186328888,37.31490671634674,-11.54136210680008,-7.013677872380757,1.4091773088003507,0
GUIDED_NOGPS,2.3466200828552246,28.71453901923064,-14.689672262282421,-6.226702800951158,94.67022748527219,-6.655961891625464,0.83727464179902,41.03886348891149,57.76468491866044,2.8708700211382254,-2.5826550346273165,65.07496882675498,3.6191887857472174,-2.102077150536146,-3.327980945812732,0.44464168615008237,-26.105854875603534,-11.312738056002939,89.91232742369483,-15.483739972114563,36.873212456703186,-11.503922939300537,-7.333603324424871,4.5310232713209295,0
GUIDED_NOGPS,2.3811991214752197,28.92284352868974,-15.794050491765175,-5.57175761156527,94.01677332394121,-6.809593627267548,0.7260556921501546,41.5650390353635,57.558464090148036,2.886677640198574,-2.600540311855818,65.13894037852133,3.546532185314753,-2.204422124260178,-3.404796813633774,0.4453125361493102,-27.34775910402942,-10.437828018645114,89.18528977026479,-10.969983041286469,39.29857611656189,-15.891067683696747,-7.446584481969949,0.2810923798670551,0
GUIDED_NOGPS,2.4259848594665527,22.33281685116262,-16.900804206585576,-4.877320087117343,93.39756405589821,-6.922673442507145,0.6236903820632946,42.04932811688019,57.34820408983438,2.422938531405973,-2.8420980627029584,65.15695158736264,3.515531388216971,-2.233614196454667,-3.4613367212535726,0.44592596005090424,-27.336013226387628,-9.301972699144757,89.04748883898789,-16.013602912425995,40.29957056045532,-15.223953127861023,-7.48615036431479,1.9681412074539768,0
GUIDED_NOGPS,2.44690203666687,47.82013453426063,-17.847235492989533,-4.155523556041282,92.86071966692263,-7.03335752496752,0.5301244448705162,42.49198746843081,57.13391794224317,2.2205835050737672,-2.6617996381914275,65.1599705309758,3.372907718833024,-2.4851076831635153,-3.51667876248376,0.4464097974129808,-27.39267693758418,-7.914105059155994,89.1917974025979,-9.469062089920044,40.10603427886963,-12.314877659082413,-7.495331334942636,0.7913112994875628,0
GUIDED_NOGPS,2.481727361679077,28.71925776301825,-18.578940454649427,-3.56930700053923,92.57327479972076,-7.029683280609202,0.4452604620956677,42.893477975683595,56.91562014997095,2.1681419529566437,-2.71065747542841,65.136597623636,3.4580906861615945,-2.3348308133446474,-3.514841640304601,0.44651351802537526,-29.246649943931022,-6.3194975960807245,88.03566879508226,-14.036214351654053,42.23723113536835,-2.600797452032566,-7.505711090853819,3.099068775742467,0
GUIDED_NOGPS,2.5172691345214844,28.14553555850814,-19.62180573872638,-2.7376284516128973,92.09098705555208,-7.084374038809224,0.3689562942977389,43.25447209866712,56.69332667461518,1.8687760422954545,-3.2362734023462716,65.03331833319625,3.318071820160453,-2.499112763296129,-3.542187019404612,0.44690350942859464,-30.437926845563045,-5.436321980022132,87.27581012712926,-11.531900614500046,41.29504859447479,-5.311406031250954,-7.430246371162255,3.520473304842271,0
GUIDED_NOGPS,2.551090717315674,29.56629376643334,-20.696518563653125,-1.8163655653218183,91.53452264145993,-7.161641663112672,0.30102351191411714,43.57586129543216,56.4670549177024,1.7861730151337896,-3.2432404087430964,64.99533565122181,3.214531301738379,-2.6013384772112036,-3.580820831556336,0.4473987984143637,-32.65897952203042,-2.76385299807357,85.72641021792398,-12.778531014919281,42.63399839401245,-8.095423877239227,-7.259410799115786,0.5224864196175266,0
GUIDED_NOGPS,2.592574119567871,24.110322309916477,-21.787388572618244,-0.9033084342098922,90.9848982871956,-7.230497045213287,0.24122582610400656,43.85876344571352,56.236823701616245,1.9806822885437665,-3.4999366335553352,64.8298401676324,3.179283736859294,-2.6511011253163455,-3.6152485226066435,0.447877888121631,-33.21639053788921,-2.876269505320549,85.34863476239886,-12.846098840236664,41.82586073875427,-6.898441910743713,-7.324805784599192,1.1711911065588925,0
GUIDED_NOGPS,2.623744487762451,32.08592345529792,-22.871115380696768,0.27108349956032274,90.32489844907175,-7.319239407322281,0.189277519591748,44.10453027459164,56.00265325052559,1.8641144381869206,-3.645284766640499,64.72197782025955,2.9365556809783815,-2.8017368509874974,-3.6596197036611406,0.44851663220218074,-33.038896888350266,-0.849286170092771,85.12116184069635,-3.450021520256996,44.05846297740936,-9.89232212305069,-7.421280021185125,1.6514063391768563,0
GUIDED_NOGPS,2.65726637840271,29.835496973275195,-23.663756425743607,1.1780236641785486,89.66573297652093,-7.277396743513957,0.14484187751012456,44.31475477615419,55.76456517131261,1.937630538988118,-3.962427952163939,64.49343969063094,2.9786400615023907,-2.7651883859373534,-3.6386983717569783,0.4491482482921875,-33.66849707350403,-0.2764070403562338,84.84361228429363,-2.5166289880871773,41.616591811180115,-17.454443871974945,-7.34789436726191,6.146812521853697,0
GUIDED_NOGPS,2.6897687911987305,30.7701065944788,-24.526652544235937,2.2406159291369514,89.06722043447745,-7.266122396414944,0.10752961824366736,44.49127863715876,55.522582434500904,1.8503684690388584,-3.8383093276796445,64.30719409234302,2.833124938038293,-2.8522905349812016,-3.633061198207472,0.4496830430000352,-35.75633003417941,2.1286356497345165,83.21041744942511,-0.8827544748783112,43.67237389087677,-8.836443722248077,-7.170827186138133,3.8470519698172607,0
GUIDED_NOGPS,2.7243120670318604,28.954390131092993,-25.377903732981906,3.2728703304720637,88.64752219927561,-7.205377233387886,0.0768973242721458,44.63619966069325,55.27672935518356,1.757503296092661,-3.9228879870587354,64.07857400044435,2.7744958154651886,-2.9010434447260143,-3.602688616693943,0.4499438107338619,-34.26670527916504,2.0297431630266862,84.19137767583682,-7.428453117609024,44.108280539512634,-2.0706985145807266,-7.240891709269251,6.642058012627096,0
GUIDED_NOGPS,2.757863759994507,29.810898597695758,-26.187962138156937,4.428630122050363,88.05024109385732,-7.123390543206635,0.05244587301373116,44.75187918983886,55.02703157395125,1.3577139678384202,-4.245266939467814,63.72787793751005,2.6363806904265434,-2.947853720225337,-3.5616952716033174,0.4504651857201409,-37.06285739403333,5.130597779433855,81.62341016202414,1.8881242722272873,43.38904023170471,-6.588077545166016,-6.804562413568762,6.617842430698462,0
GUIDED_NOGPS,2.7911794185638428,30.023220855821677,-26.965974116377193,5.546347537159004,87.56000985099253,-7.026822071870822,0.0336188676683733,44.84094953133109,54.77351603782033,1.2866943011788623,-4.117997463342027,63.51806135639643,2.555121051342408,-2.995777396329406,-3.513411035935411,0.4508202592802417,-37.06285739403333,5.130597779433855,81.62341016202414,-0.5308073945343494,44.860267639160156,-2.0276078954339027,-6.804562413568762,7.071218861859685,0
GUIDED_NOGPS,2.824885368347168,29.673389977997722,-27.61751748992137,6.6077556022553265,86.98136571845158,-6.837366592199792,0.019801068061291005,44.90632137922199,54.51621098116094,1.0231947810664677,-4.074298339919109,63.1289454793808,2.497818281018573,-2.9991873715585182,-3.418683296099896,0.451302267894064,-37.06285739403333,5.130597779433855,81.62341016202414,5.283914878964424,43.45292150974274,-9.311069548130035,-6.804562413568762,12.526945159528674,0
GUIDED_NOGPS,2.858560562133789,29.697131043076837,-28.1600612412946,7.784764476560719,86.40110265156379,-6.622263161810895,0.010316821486021865,44.95119123854158,54.25514590662508,0.6732293349299427,-3.908902320959488,62.78491568107643,2.3750181164516553,-2.993659448141209,-3.3111315809054473,0.45178106488259195,-36.51959557844438,8.878680798093175,81.39423744505288,8.396678417921066,42.42581129074097,-10.146869719028473,-6.153793954244232,12.049969144124589,0
GUIDED_NOGPS,2.8926358222961426,29.35193880907227,-28.662463769223745,8.922953432970301,85.84431867870427,-6.405312448875001,0.004428493548097379,44.979048848959735,53.99035156607471,0.5556524308449334,-3.8182588804842488,62.38289074652948,2.3108681771415718,-3.0072616972393917,-3.2026562244375003,0.45221904933105567,-36.51959557844438,8.878680798093175,81.39423744505288,8.396678417921066,42.42581129074097,-10.146869719028473,-6.153793954244232,12.049969144124589,0
GUIDED_NOGPS,2.928720712661743,27.716092538871745,-29.124907878499528,10.038390977157025,85.26121266850662,-6.200142842021623,0.001334899008064383,44.99368460844812,53.72185994150985,0.5520451304678147,-3.928111801113326,61.90959961818262,2.25082548400567,-3.016501148788473,-3.1000714210108113,0.45269097090950483,-36.63058731226408,9.132281478199625,81.16880935907798,9.45265144109726,42.06292927265167,-12.070795148611069,-6.015592839917344,10.839618642063309,0
GUIDED_NOGPS,2.959702730178833,32.287968715118204,-29.565422449232162,11.140248165006378,84.62658459818628,-6.026468410780249,0.0001697326250607034,44.999196996941464,53.44970422599664,0.41353246927709975,-3.6331206266155296,61.54312581826558,2.11719648814809,-3.0507390053234293,-3.0132342053901247,0.4532346794417155,-36.63058731226408,9.132281478199625,81.16880935907798,10.79799309372902,39.16234076023102,-15.238752961158752,-6.015592839917344,8.737265071192228,0
GUIDED_NOGPS,2.9935946464538574,29.511373790677222,-29.93136767661348,12.181861890390781,84.23123848469129,-5.718846094224686,-7.105427357601002e-15,45.00000000000006,53.17391880459549,0.48573370530221693,-3.6334651242817917,61.10296110739328,2.1028481596282442,-3.034649233630934,-2.859423047112343,0.4534140204798563,-37.53441981879942,12.159554230482536,79.99521791004202,10.004159063100815,40.409788489341736,-2.5583259761333466,-5.374512321453021,15.688818165019644,0
GUIDED_NOGPS,3.0266683101654053,30.23793526061567,-30.32413359484626,13.275931958794816,83.72006697538491,-5.424942303635137,0.0,45.0,52.89453923528911,0.533042156814664,-3.7172416633202294,60.778315385953405,2.0026982699687785,-3.0607592743901333,-2.7124711518175686,0.4537617083898563,-37.53430843745342,13.083809486131138,79.68214270018416,9.127907454967499,38.7538880109787,-8.245161920785904,-5.12985703872936,13.980463202647101,0
GUIDED_NOGPS,3.0607259273529053,29.365501886845294,-30.609922748385962,14.305289547748623,83.35051872499113,-5.076625504941121,0.0,45.0,52.611602229910645,0.5293438228225137,-3.7047402827049907,60.13895503812685,1.9684823094484847,-3.036025978410293,-2.5383127524705604,0.45389162525737925,-37.53430843745342,13.083809486131138,79.68214270018416,13.762235641479492,38.3867472410202,-1.3110666535794735,-5.12985703872936,17.633122012270277,0
GUIDED_NOGPS,3.0947165489196777,29.425452504560123,-30.859369782499254,15.307723703698574,83.07327056188399,-4.74884840159863,0.0,45.0,52.325145635071735,0.629183152519823,-3.8073250282835276,59.58870816840145,1.9135621685279989,-3.0316101871059904,-2.374424200799315,0.4538778126097816,-37.84068602148166,13.65518827610624,79.16574468442082,15.584473311901093,36.98733150959015,4.665219411253929,-4.91995102675426,15.992052950958822,0
GUIDED_NOGPS,3.1363816261291504,24.00352529801931,-31.024787130727063,16.376329904285445,82.64410895084877,-4.424255128639907,0.0,45.0,52.03520841309066,0.5712151235905133,-3.8242937795027783,59.16015477911817,1.8862648325615914,-2.9997298513097688,-2.2121275643199536,0.45408664919336283,-37.194772439827105,15.714688511890005,79.10746169998126,18.039314448833466,36.648666858673096,-5.616842210292816,-4.17703619686218,13.881228237969633,0
GUIDED_NOGPS,3.1615734100341797,39.703372743537074,-31.169624380474854,17.425878411722756,82.22517110603712,-4.097559489235388,0.0,45.0,51.74183062292036,0.7488133822240675,-3.6624443362696866,58.506464694412934,1.6584146203240433,-3.0030536634966745,-2.048779744617694,0.45427498927532484,-37.194772439827105,15.714688511890005,79.10746169998126,18.039314448833466,36.648666858673096,-5.616842210292816,-4.17703619686218,13.881228237969633,0
GUIDED_NOGPS,3.1949236392974854,29.989518014571818,-31.16255448045716,18.098375209863452,81.8631242772183,-3.7178482945460822,0.0,45.0,51.44505340107658,0.8051431796087791,-3.796120956723768,57.782881283930955,1.8442267938023307,-2.9434505996205074,-1.8589241472730411,0.4543728936857874,-37.194772439827105,15.714688511890005,79.10746169998126,21.46390974521637,34.38575267791748,-9.582077711820602,-4.17703619686218,21.234289733288016,0
GUIDED_NOGPS,3.2301294803619385,28.40880243292852,-31.035403730696416,19.027579418490852,81.46206906964021,-3.3123698927206173,0.0,45.0,51.14491894256595,1.1123988658958324,-3.426145404196633,57.284581417938085,1.7305593618369262,-2.877953882583806,-1.6561849463603087,0.4545242748093886,-36.772989958103736,16.352875698482222,79.36319024383673,32.15745985507965,33.873191475868225,-8.34900513291359,-3.971788621956163,19.727203370282826,0
GUIDED_NOGPS,3.2627151012420654,30.693098578150497,-31.040973371304887,20.013336492792423,81.00322851297908,-2.761449865942956,0.0,45.0,50.841470481814056,1.1786238464797472,-3.4260538369730726,56.53518330748804,1.641480897495011,-2.895096113708665,-1.380724932971478,0.4547573629532525,-36.676587441315974,17.418341235547764,79.01014581154428,21.723562479019165,35.35337746143341,-11.445169895887375,-3.4431758236743524,27.068171161902054,0
GUIDED_NOGPS,3.2971203327178955,29.068570240487908,-30.914636738740995,20.86619102292191,80.53708249434432,-2.3688184415399225,0.0,45.0,50.53475227359358,1.1676024824802853,-3.313810350134491,55.963376945647504,1.6506745814613482,-2.834672599966056,-1.1844092207699612,0.45499650466887387,-36.676587441315974,17.418341235547764,79.01014581154428,28.762251138687134,33.73188376426697,-14.478465914726257,-3.4431758236743524,18.8351482212806,0
GUIDED_NOGPS,3.3312571048736572,29.29883483751991,-30.776892107526713,21.717951606839847,80.07186632377046,-1.9713788346952295,0.0,45.0,50.22480957395234,1.1131317238494336,-2.9674435599169167,55.30301718121774,1.6008393940353143,-2.8056166954326005,-0.9856894173476147,0.4552294148752728,-36.676587441315974,17.418341235547764,79.01014581154428,28.762251138687134,33.73188376426697,-14.478465914726257,-3.4431758236743524,18.8351482212806,0
GUIDED_NOGPS,3.363455057144165,31.063626197018287,-30.67890500498206,22.58998387142577,79.68262642449812,-1.5295428605853307,0.0,45.0,49.91168862114142,1.0609028680919328,-2.5452358432594018,54.37501303906645,1.532185041208586,-2.7928993553305768,-0.7647714302926654,0.45534359329496493,-37.28937030853204,18.675880997700258,78.00881825312348,26.865389943122864,34.39778387546539,-8.046572655439377,-2.704012578171137,20.282943419648205,0
GUIDED_NOGPS,3.4040491580963135,24.637159824486176,-30.563241751392734,23.397892189340382,79.41106209797886,-1.0612438581512225,0.0,45.0,49.595436616543225,1.083014751756203,-2.3852999202109713,53.837729868385736,1.5290941587808284,-2.767513010910796,-0.5306219290756112,0.45527656177784653,-37.28937030853204,18.675880997700258,78.00881825312348,27.14778482913971,35.584476590156555,-2.9909107834100723,-2.704012578171137,23.76323899047152,0
GUIDED_NOGPS,3.4311165809631348,36.95063914510488,-30.33893293916827,24.23403757585338,79.11913117470175,-0.6400521387473654,0.0,45.0,49.276101705599594,0.5539740719389614,-1.9175312132514748,52.89350061186108,1.463852233252643,-2.7015222079439263,-0.3200260693736827,0.4552354557963468,-36.44887677228725,19.402500941301355,78.40028361788451,31.294050812721252,34.16266739368439,-5.110353603959084,-2.1487957631893484,18.59318193974373,0
GUIDED_NOGPS,3.4658896923065186,28.765544201357933,-30.14093417445829,25.00695285251573,78.91851855873347,-0.2237484799167408,0.0,45.0,48.95373295873993,0.44427867254761794,-1.4743444638365597,52.09122317685679,1.4529085891493054,-2.6848185646941607,-0.1118742399583704,0.4550528216000097,-36.44887677228725,19.402500941301355,78.40028361788451,28.98218035697937,34.67255234718323,-1.3380402699112892,-2.1487957631893484,20.126456955574042,0
GUIDED_NOGPS,3.500605583190918,28.81118842690223,-29.981823391609844,25.789548683712173,78.55889529155075,0.23122893153971366,0.0,45.0,48.628380352309215,0.07648451168665568,-1.0855555821274476,51.26588019302538,1.4091842651213748,-2.6713263408862145,0.11561446576985683,0.45510422759113767,-36.44887677228725,19.402500941301355,78.40028361788451,25.725778937339783,35.476499795913696,-11.633674800395966,-2.1487957631893484,22.46112318936383,0
GUIDED_NOGPS,3.531759023666382,32.10262297842377,-29.774099917642154,26.441697676688882,78.24449446602493,0.6398154426919788,0.0,45.0,48.30009474949616,-0.05593148529830883,-0.8344192913821579,50.60854278730336,1.3932141654621613,-2.623260321328306,0.3199077213459894,0.45508340042520684,-36.44887677228725,19.402500941301355,78.40028361788451,28.891709446907043,32.375478744506836,-10.673024505376816,-2.1487957631893484,21.45567665485564,0
GUIDED_NOGPS,3.5656816959381104,29.486270264190207,-29.593345286302778,27.0121987776608,77.9870909289186,1.0739247567844983,0.0,45.0,47.96892788126129,-0.2659135650971711,-0.5249477956788171,49.91801407730965,1.408528366617639,-2.6106485539635527,0.5369623783922491,0.454972755428514,-36.44887677228725,19.402500941301355,78.40028361788451,27.29637622833252,31.849384307861328,-8.705460280179977,-2.1487957631893484,24.85803976724911,0
GUIDED_NOGPS,3.5995283126831055,29.54942159473588,-29.386557235789166,27.638738594314432,77.46069212737848,1.4620297391479709,0.0,45.0,47.63493232726499,-0.4827475786135991,-0.28556380589588626,49.23132051853491,1.3588618131907446,-2.577258477873417,0.7310148695739854,0.4552613602998298,-36.44887677228725,19.402500941301355,78.40028361788451,28.0139297246933,32.60893523693085,-24.91106539964676,-2.1487957631893484,20.808055193227954,0
GUIDED_NOGPS,3.6372029781341553,26.54639586326496,-29.246460073415758,28.20460098288708,77.19752053852717,1.8535016315353305,0.0,45.0,47.29816149679568,-0.523410149341918,-0.2580416653570256,48.61053145506162,1.3673082934205258,-2.580674635667319,0.9267508157676653,0.45515096143740275,-36.44887677228725,19.402500941301355,78.40028361788451,23.485511541366577,31.667417287826538,-9.47577953338623,-2.1487957631893484,21.860215099017154,0
GUIDED_NOGPS,3.6665966510772705,34.028103196495216,-29.06946764404213,28.887129960243524,76.89977819944598,2.282518686819216,0.0,45.0,46.958669609697836,-0.3899730123956101,-0.27299860570059,48.014501827329624,1.2483345446921488,-2.5375564605075103,1.141259343409608,0.4550883371153778,-36.44887677228725,19.402500941301355,78.40028361788451,23.485511541366577,31.667417287826538,-9.47577953338623,-2.1487957631893484,21.860215099017154,0
GUIDED_NOGPS,3.7004294395446777,29.560459232216733,-28.679871480139774,29.940440067369256,76.72615565716391,2.88588665513065,0.0,45.0,46.616511677300096,-0.433638731924619,-0.05122664555872042,47.08702702483901,1.1066802895331858,-2.443115783174989,1.442943327565325,0.45483553403020427,-29.94805862664369,35.243303292819554,78.58613978194649,23.44464510679245,29.737070202827454,-8.66290032863617,4.626307617557686,21.152136217951103,0
GUIDED_NOGPS,3.7355997562408447,28.43962273106366,-28.260924110686112,31.145220832066325,76.4669054863132,3.5128257414714295,0.0,45.0,46.27174348334337,-0.356065925643257,-0.001977473166850918,46.58769580028147,1.0004344341920648,-2.397083457468749,1.7564128707357147,0.45470725699554526,-29.663332110425017,36.99621474089515,78.33113017557525,23.040364682674408,29.832690954208374,-11.236017942428589,5.437434786917343,17.96737951741965,0
GUIDED_NOGPS,3.7671098709106445,31.73896329928112,-27.85968188146001,32.29000506257115,76.26268996381279,4.113938310749593,0.0,45.0,45.924421564908954,-0.2688475048716618,0.08758741106933453,46.021657533195004,0.9251384675969261,-2.3550550305713984,2.0569691553747966,0.45449259740164427,-29.663332110425017,36.99621474089515,78.33113017557525,22.41349071264267,28.97033393383026,-8.674999326467514,5.437434786917343,18.04726540995212,0
GUIDED_NOGPS,3.8001139163970947,30.30391306860875,-27.44505261419153,33.368319426871906,76.07826539401034,4.684748612958324,0.0,45.0,45.574603193346555,-0.1930280561750097,0.1696462909336462,45.558266764050074,0.8879113764873344,-2.312907750134985,2.342374306479162,0.4542445066990043,-28.894141123821584,37.45901182092839,78.2044379946347,22.41349071264267,28.97033393383026,-8.674999326467514,5.725869567918536,18.04726540995212,0
GUIDED_NOGPS,3.836108446121216,27.78623243612081,-26.670186176065442,34.93009221887294,75.76598480926013,5.434087063427184,0.0,45.0,45.22234635520243,-0.16483314200290283,0.2936796180945952,45.223222079598855,0.6714603258743956,-2.165021511172865,2.717043531713592,0.4541845423189135,-21.63298888517068,49.792471081634076,78.51515940429354,25.671887397766113,26.001089811325073,-17.54448115825653,11.2860220930867,13.731724788548163,0
GUIDED_NOGPS,3.8704993724823,29.082477586481858,-25.901705076296377,36.52024995389302,75.46005486832186,6.176476072890992,0.0,45.0,44.86770973314748,-0.18248560583024212,0.4773032241540114,44.93471488905752,0.5371120370154432,-2.0969942647288327,3.088238036445496,0.4541114822972384,-21.63298888517068,49.792471081634076,78.51515940429354,24.789054691791534,26.85498297214508,-16.072340309619904,11.2860220930867,12.62283503906013,0
GUIDED_NOGPS,3.9039409160614014,29.905910873440284,-25.124839834821817,38.10751307113059,75.25500643055433,6.810429081531608,0.0,45.0,44.51075268690535,-0.25328198400087876,0.6180477563777337,44.77808840610537,0.4137532740401929,-2.030289078901602,3.405214540765804,0.45388361938452654,-20.04156375828847,52.313953418699896,78.21913573762916,23.61772209405899,27.913615107536316,-11.038073152303696,12.098585228155027,7.37807364805897,0
GUIDED_NOGPS,3.936624050140381,30.601732075499232,-24.337177008908586,39.67146199301791,75.03386968209018,7.427054574797453,0.0,45.0,44.15153523418044,-0.21388150416513133,0.5891624061300738,44.48830055509465,0.29658405126271964,-1.9638753894978602,3.7135272873987266,0.4536764983281354,-19.0138108315373,53.817689018650185,77.45550827638124,23.61772209405899,27.913615107536316,-11.038073152303696,12.800809069606458,7.37807364805897,0
GUIDED_NOGPS,3.9714276790618896,28.736179338033285,-23.59954176746787,41.14104958138689,74.79278585817954,8.015494277449749,0.0,45.0,43.790118031586125,-0.13150502050441407,0.5957490030066404,44.37980983031817,0.2518699083653734,-1.9333713924069051,4.007747138724874,0.4534959982601099,-19.0138108315373,53.817689018650185,77.45550827638124,21.944814920425415,26.176530122756958,-13.121917843818665,12.800809069606458,7.9294790886223305,0
GUIDED_NOGPS,4.005004644393921,29.787821541695667,-23.00993376945731,42.67872236133646,74.70158558892129,8.511758599129205,0.0,45.0,43.42656235557276,-0.3201641034881428,0.822688441482661,44.35630714938416,0.10771084759582944,-1.9384279690348813,4.255879299564603,0.4530874651499772,-18.70691511740115,54.5516516536767,76.76982639278475,11.152470111846924,28.7056565284729,-1.3605284504592419,13.149271681154406,1.3383102541800602,0
GUIDED_NOGPS,4.038461685180664,29.893548479060353,-22.406354511935064,44.22765735660852,74.61944318968659,8.879230099416823,0.0,45.0,43.0609300833558,-0.3004381436391757,0.7652835829947598,44.41810670099443,-0.015014842012697038,-1.9001723384522435,4.4396150497084115,0.4526622303405038,-18.19954509486024,56.736161171878145,76.26243583043812,13.45689594745636,30.059832334518433,-1.0407902300357819,13.550470388142653,-4.5284948206675555,0
GUIDED_NOGPS,4.071367502212524,30.39438824313748,-21.79754918012646,45.74798287168112,74.54905425949177,9.263466029923334,0.0,45.0,42.693283673843865,-0.5409517293169503,0.6633376735470304,44.52882748253492,-0.1302602201211996,-1.861873670889166,4.631733014961667,0.4522163441215281,-17.562847659586748,57.76218347198087,76.55935935116688,13.626408576965332,29.405894875526428,-1.8434349447488785,13.62035330775796,-1.8790038236907254,0
GUIDED_NOGPS,4.106100797653198,28.794376098418276,-21.113737108154854,47.17960900078025,74.29390301513548,9.62758861614346,0.0,45.0,42.32368614856687,-0.7249583595784161,0.5263690086347087,44.65550700107115,-0.1960930138173047,-1.8014019685771017,4.81379430807173,0.4520446747001471,-17.400044219102604,58.376123322131264,75.84038878627479,19.628161191940308,25.98009705543518,-12.02167123556137,13.747074239947533,-1.6109440850902892,0
GUIDED_NOGPS,4.1394267082214355,30.00947297626032,-20.56475717032014,48.670413254162405,74.17844902107568,9.97811241614362,0.0,45.0,41.952201072604126,-0.767293899766565,0.24781028210418454,44.751477989099,-0.3373309377309716,-1.813650558183768,4.98905620807181,0.4516606280772927,-16.585911838543332,59.57142520615641,75.23941499512229,8.949119597673416,27.720612287521362,-1.5012267976999283,13.756446848304698,-1.9608162564559612,0
GUIDED_NOGPS,4.172784805297852,29.98330092645545,-20.011524550101846,50.045453141856825,73.89064741031665,10.18807573611944,0.0,45.0,41.57889253551235,-1.105626199725236,-0.026650944574140183,45.127814582177535,-0.4150473615071746,-1.778411900060672,5.09403786805972,0.4515323676877936,-16.45882740650127,60.1373530086757,75.06956280052172,11.92253828048706,25.910475850105286,-13.263672590255737,13.757119065695406,-7.998016621848824,0
GUIDED_NOGPS,4.20612359046936,30.000886943335765,-19.44599653334035,51.444780479320464,73.60455509781082,10.405276521121461,0.0,45.0,41.2038251322539,-1.0875259849812906,-0.3515678458684069,45.382720657096996,-0.5371653868730013,-1.7481570730016878,5.202638260560731,0.45139890505166463,-15.895669192690232,62.47294777954837,74.57500035611746,12.736605107784271,24.975846707820892,-12.374553084373474,13.543362787713548,-5.550153662944417,0
GUIDED_NOGPS,4.239832878112793,29.67255028191832,-18.76025547526811,52.77605366775066,73.26508823779892,10.5043701895403,0.0,45.0,40.82706394412465,-1.2103276636162423,-0.3739659037867299,45.70560760482559,-0.6289642983266385,-1.6715224701039773,5.25218509477015,0.4513429635594886,-15.492023823688015,63.03416664715904,74.5023953045656,20.61156928539276,21.951022744178772,-16.0351499915123,13.441548361836432,-11.205457234387532,0
GUIDED_NOGPS,4.2730677127838135,30.09279733675805,-18.14138820303771,54.10221459238903,73.03727370947881,10.57782669465315,0.0,45.0,40.448674519682385,-1.2256556753308088,-0.6978161483121375,45.96857671806025,-0.7440217796748512,-1.6548875851967781,5.288913347326575,0.45111710121530535,-14.833821508928764,64.08551851673153,74.38976901018931,15.600955486297607,22.00213521718979,-9.199362993240356,13.29123478567482,-11.410527687801642,0
GUIDED_NOGPS,4.316112756729126,23.23366587823428,-17.58964017460372,55.39745468860338,72.6937648321554,10.565586448310707,0.0,45.0,40.06872285567456,-1.058415291851873,-0.8080769059398583,46.390262352133085,-0.7494417984338873,-1.6645916061096062,5.282793224155354,0.45106243703527876,-15.266224549700238,65.71528876608346,73.25876302750082,14.468708634376526,20.215652883052826,-14.152717590332031,12.717808415318817,-13.53946691624335,0
GUIDED_NOGPS,4.342788219451904,37.499365221278495,-17.06608107205778,57.04291778193274,72.37329396450036,10.649431873876416,0.0,45.0,39.68727537796667,-1.2111571047135758,-1.0925675183624062,46.76090598253841,-1.218178108579251,-1.6345538788641747,5.324715936938208,0.45097097212019943,-15.29996522851335,67.3491213902984,73.3590030688437,4.733237996697426,21.50682657957077,-8.409689366817474,12.69033638275494,-10.073374723799075,0
