Mode,Time,Freq,North-Vision,East-Vision,Down-Vision,Yaw-Vision,North-Desired,East-Desired,Down-Desired,Roll-UAV,Pitch-UAV,Yaw-UAV,Roll-Control,Pitch-Control,Yaw-Control,Thrust-Control,northVraw,eastVraw,downVraw,N-Velocity,E-Velocity,D-Velocity,N-Acceleration,E-Acceleration,D-Acceleration,yawVraw,yawRate,Landing-State,Q-Size
GUIDED_NOGPS,0.004946708679199219,202.68213008601526,-6.13663625018162,40.62243981741162,59.75759173320277,-0.42218485044526016,-6.155601960892233,40.812795468830195,59.03130111110535,0.6607489784907428,-0.38180159818818904,49.10394432070334,1.3927844407718657,0.26688002466512817,-10.0,0.4985471788652354,-7.07979245344265,37.233750360664644,62.71763630919794,1.5298618003726006,-2.1584128960967064,16.53122901916504,-21.618475019931793,-7.740524411201477,-20.446370542049408,-0.4597101770199114,-1.7314356656818959,False,2
GUIDED_NOGPS,0.026539087295532227,46.326448563034305,-5.968439783401071,40.34592588371448,62.127612292706246,-0.5300248969936545,-6.008124044935833,40.8317933091952,59.64567603709261,0.7329542165798267,-0.32951340516227373,49.18795223239991,0.42843373240443017,0.05649039965749264,-2.305443679221586,0.49503157807620307,-7.07979245344265,37.233750360664644,62.71763630919794,0.34838325809687376,-2.0397236570715904,12.24127933382988,-13.890905678272247,5.967269092798233,6.232907995581627,-0.4597101770199114,-4.066709145977578,False,2
GUIDED_NOGPS,0.031586408615112305,198.2091583573555,-5.982949548423064,40.17924221257636,62.40062344471602,-0.5999358603356074,-5.870418851350364,40.86342015839244,60.23445551368289,0.7329542165798267,-0.32951340516227373,49.18795223239991,1.1783769296233662,-1.8174894708415192,-5.859358237675604,0.4956622335297305,-6.9897251821789705,37.092911032059256,63.03188063710561,2.0009394735097885,-0.6801298353821039,13.371966779232025,6.745676696300507,22.11904227733612,-91.61433577537537,-0.4932296140925114,-4.249093979837136,False,1
GUIDED_NOGPS,0.05917525291442871,36.25468061198029,-6.023552281391914,40.04630980185072,62.355036850522765,-0.6482067981622491,-5.742202578481674,40.906862306260805,60.79785030763824,0.740453123958266,-0.5088752399838664,49.258736897863336,0.2259905960035745,-0.4004741953417115,-1.1044610952164655,0.49687683471983635,-6.890898902048606,37.0582099840306,63.71501978367475,2.0009394735097885,-0.6801298353821039,13.371966779232025,6.745676696300507,22.11904227733612,-91.61433577537537,-0.5737458431730909,-4.249093979837136,False,1
GUIDED_NOGPS,0.06456518173217773,185.6297410931622,-6.0858787947406014,39.885013457756735,62.3931606760565,-0.655519422599632,-5.623196014798663,40.961328665922856,61.33607413834563,0.740453123958266,-0.5088752399838664,49.258736897863336,1.1044976995403417,-1.8697646317825234,-0.8826052633262758,0.49787652918003095,-6.778459977944246,36.72028812702034,65.04233864301999,-0.3100072965025902,-2.7362780645489693,14.199568331241608,-65.36633372306824,-40.287429094314575,-13.58681172132492,-0.8317235409494754,-1.1305845647261088,False,0
GUIDED_NOGPS,0.09497833251953125,32.88437987565368,-6.129846738192495,39.77199511690942,62.43858389250674,-0.65878722006335,-5.513124505456192,41.026050512548764,61.849343622475445,0.7135818791029666,-0.5494751650708916,49.29609120243414,0.2212830714577512,-0.35563068811990944,-0.4382190908472007,0.4988107869954432,-6.778459977944246,36.72028812702034,65.04233864301999,0.3400313202291727,-0.12240288779139519,13.190625607967377,-76.65526866912842,-44.690364599227905,-54.70587611198425,-0.8317235409494754,-0.7731466781941784,False,0
GUIDED_NOGPS,0.1314702033996582,27.405333002280344,-6.12910159520828,39.62793344166536,62.96780422021959,-0.6909029955034184,-5.41171791885799,41.10028122212034,62.33787821864005,0.8470768592138079,-0.5378817727284412,49.4747621209325,0.23557980206530388,-0.2258038014295559,-0.7664428530872598,0.4987275758732332,-6.778459977944246,36.72028812702034,65.04233864301999,0.3400313202291727,-0.12240288779139519,13.190625607967377,-76.65526866912842,-44.690364599227905,-54.70587611198425,-0.8317235409494754,-0.7731466781941784,False,0
GUIDED_NOGPS,0.16400504112243652,30.74123967487302,-6.151620933324656,39.487077623573434,63.594445383346304,-0.7794556263697935,-5.31871061321956,41.183296010195,62.80190017205233,0.9806873122103049,-0.5512239069418264,49.63117345292579,0.2707286611901821,-0.28385464475054006,-1.557902856352174,0.49840027749957133,-7.1070441308087045,36.40156289771162,66.40270657229047,-0.7676468230783939,1.1044805869460106,12.89275586605072,-59.03656482696533,-1.9706480205059052,-13.417628407478333,-1.1774168289739686,-3.869825954944199,False,0
GUIDED_NOGPS,0.19468975067138672,32.59762646791379,-6.192825985304163,39.3484764783587,64.13469890834003,-0.8311588035655321,-5.233841403131086,41.274391670669786,63.24163445918418,0.8668231495477263,-0.6674728728417971,49.71779732707448,0.29713323355348376,-0.3280863404780839,-1.1734482082564826,0.49819704921989777,-7.1070441308087045,36.40156289771162,66.40270657229047,-1.8369171768426895,0.5666577722877264,10.694105923175812,-35.89647114276886,9.109760075807571,-59.34600830078125,-1.1774168289739686,-1.1933309513100772,False,0
GUIDED_NOGPS,0.2310640811920166,27.493356581474465,-6.194097908451769,39.259373531825574,64.67324882228043,-0.8954044375097723,-5.156853526120338,41.372886314545305,63.6573087324251,0.8187152457372705,-0.7237681457546885,49.74544251774011,0.23583407427245107,-0.21601184559885492,-1.2433619697523357,0.49794834003767036,-6.782951960007097,36.393510524558465,66.7102714229737,0.48418454825878143,3.632494807243347,14.045898616313934,2.345782145857811,23.690032958984375,43.057459592819214,-1.2246618432193932,-2.3001697230564018,False,0
GUIDED_NOGPS,0.26207828521728516,32.24775304655365,-6.195346148545154,39.16286669841093,65.27696140143874,-0.9729563832064936,-5.087494609215586,41.47811910868977,64.04915326474067,0.6448191630772747,-0.7437938335143428,49.848472506275165,0.28403024918035724,-0.2305538682837573,-1.5847630008661526,0.49752155994989716,-6.838092515563829,36.12177217171657,67.62161291807267,0.48418454825878143,3.632494807243347,14.045898616313934,2.345782145857811,23.690032958984375,43.057459592819214,-1.4878748152030776,-2.3001697230564018,False,0
GUIDED_NOGPS,0.29532456398010254,30.086537357970847,-6.188880903069463,39.07835995296474,65.81272813337975,-1.048956322933397,-5.0255166355085015,41.58945001460294,64.41740089433111,0.5529183274645185,-0.702023704923424,49.89934034011883,0.27352020027465895,-0.19871202565214155,-1.5435185613897238,0.4971828096054187,-6.272852614710244,36.175649856861185,68.5944902137013,-0.3106593620032072,3.5888168960809708,11.978434771299362,-3.3014483749866486,38.84757161140442,-9.736721217632294,-1.4049591232288905,-2.8609903659472136,False,0
GUIDED_NOGPS,0.3290262222290039,29.672130451699623,-6.18285430529018,39.005920688037776,66.36657533955112,-1.1267700519001576,-4.970675910717064,41.706259527180144,64.76228696928985,0.4482749201814572,-0.7166785161179211,49.94075860724579,0.2724948728797445,-0.18964368193738268,-1.597952095217603,0.49676055413528314,-6.301915088634902,36.38277718248952,68.6187623492797,-0.3106593620032072,3.5888168960809708,11.978434771299362,-3.3014483749866486,38.84757161140442,-9.736721217632294,-1.3952995456949695,-2.8609903659472136,False,0
GUIDED_NOGPS,0.3624846935272217,29.891418064681652,-6.21493367604633,38.92191306286553,66.85729226769038,-1.2131768742323974,-4.922733029748472,41.82794841347628,65.08404929226195,0.37479425098657904,-0.6832857212657287,49.970661175432106,0.2954034359590384,-0.2538289297886656,-1.761108737463585,0.49641789943820497,-6.283458680246309,36.394230954738596,68.81460742530817,-2.92779803276062,2.3623427376151085,8.565343916416168,0.5953609943389893,20.682604610919952,-30.05959391593933,-1.4438344598832622,-3.4050170677728446,False,0
GUIDED_NOGPS,0.39699435234069824,28.98220011055832,-6.203255800317625,38.87953300097002,67.35136341472325,-1.2922674084103183,-4.881452843262047,41.95393745146974,65.3829280651028,0.28724990212552737,-0.6050634066829809,49.9725531378322,0.26590705099933504,-0.16402314708498328,-1.6933194875006614,0.4960220875334065,-6.590745796483935,36.114986659780214,68.50801003785742,1.1490244418382645,5.685989558696747,11.81735023856163,-59.518587589263916,-51.3802170753479,-32.08809494972229,-1.6550291732843454,-2.4396308734072494,False,0
GUIDED_NOGPS,0.4298858642578125,30.408932066990502,-6.2328076421082095,38.80079190963816,67.8728567417729,-1.3304921030309662,-4.846604424232144,42.08366716882648,65.6591658335365,0.3091879361310794,-0.4909745948297324,49.99997976244439,0.31648000237792717,-0.2368497695801968,-1.2642169704428718,0.4955257647850865,-6.657478915472115,36.06712395960657,69.28697735287639,-1.4897311106324196,2.9619786888360977,12.36516609787941,-38.99500370025635,-42.178747057914734,-87.02807426452637,-1.7431077374610329,0.5290559943820211,False,0
GUIDED_NOGPS,0.4634981155395508,29.752956281788453,-6.229111033848396,38.757877010992296,68.3199524630694,-1.3605769009645345,-4.817961034511051,42.21659758166395,65.91300743181449,0.34742418887845705,-0.48192566139652326,49.96568879771634,0.2908692477050049,-0.16509948845334468,-1.173024528299696,0.4951327599341621,-6.707887564379359,36.07285418269702,69.68115682938195,1.0404453612864017,5.026928335428238,9.674698859453201,-16.274085640907288,2.6576630771160126,-123.53596687316895,-1.7856417409712844,0.7875640335933116,False,0
GUIDED_NOGPS,0.4994533061981201,27.815531533921348,-6.226132769211197,38.72073385188352,68.76890699241025,-1.390047414648065,-4.795300091391908,42.35220793331511,66.14469992737403,0.32322493537080765,-0.3994534750461465,49.926063455246506,0.2858395007129356,-0.15531259636243666,-1.1621673766346736,0.4946906940141797,-6.7382623431544575,36.11021805531644,69.86221292718216,1.0404453612864017,5.026928335428238,9.674698859453201,-16.274085640907288,2.6576630771160126,-123.53596687316895,-1.8038367120376821,0.7875640335933116,False,0
GUIDED_NOGPS,0.5304625034332275,32.25444869961088,-6.227036269783032,38.69261377804406,69.22051784443443,-1.4305105297756378,-4.778403134171605,42.4899964330924,66.3544925654968,0.3392983982002575,-0.3393362844058099,49.917631586716126,0.30891816806538563,-0.1592613672715466,-1.3815354633581647,0.49419996511842434,-6.386592545682676,36.26802344803981,70.27801215415172,-0.24963186588138342,4.918226599693298,8.08350220322609,-6.000158563256264,15.575265884399414,-170.85214853286743,-1.8305992987591857,0.12447507498160487,False,0
GUIDED_NOGPS,0.5644714832305908,29.407297304877023,-6.204243167934159,38.696147719561885,69.58290421000447,-1.4361330575512516,-4.767055790713691,42.62947999505177,66.54263671396733,0.3453302022893192,-0.28548098985219983,49.84158767559179,0.27465875960482994,-0.10289596694011471,-0.9277513922511921,0.49384320166600615,-6.224297032126375,36.3502362817798,70.96713818310312,1.1003732681274414,6.56982809305191,7.030230015516281,31.49539828300476,52.19218730926514,-81.04940056800842,-1.8354602533267803,1.8167543333688754,False,0
GUIDED_NOGPS,0.5985100269317627,29.381341328439134,-6.165677533945169,38.69372051412747,69.99345562812051,-1.4872087860628285,-4.7610477440112815,42.770193976756595,66.7093858077316,0.4695137135707292,-0.22473648902527987,49.81260718294343,0.2875603336185487,-0.0637861501166126,-1.4920694814908475,0.49334664726808336,-5.7986639754485205,36.321806070145044,71.50965349608657,0.9161830879747868,5.999419465661049,7.363391667604446,-0.48500001430511475,14.597174525260925,-52.7174711227417,-1.7728918477944466,-1.28831369634239,False,0
GUIDED_NOGPS,0.6324319839477539,29.4846120319991,-6.1310686637523935,38.69672862489599,70.41886585248548,-1.4742894754668403,-4.760172698749968,42.911691918041754,66.85499529355563,0.536823200128795,-0.17459841820574346,49.70265821277915,0.2911130658076044,-0.058181340660353256,-0.7304446902364203,0.4927774864733587,-5.4955401797835925,36.351197859738946,71.71277885611845,-0.09470412041991949,6.0906071215868,9.544145315885544,14.654283225536346,62.09562420845032,23.24131429195404,-1.749844183844945,2.714720157324098,False,0
GUIDED_NOGPS,0.6684865951538086,27.737354098469066,-6.0862041042311,38.71413087060532,70.8220919076643,-1.438609943145191,-4.764228347870723,43.05354527977755,66.97972257468388,0.4478258352435288,-0.1688819767572659,49.62076765972528,0.27540655157723065,-0.033497861516167404,-0.47102754521558904,0.4922093015335749,-5.521759682822603,36.447860287339566,71.81401027500611,0.7549867033958435,6.609300523996353,9.317608922719955,6.396129727363586,23.156678676605225,23.315417766571045,-1.7335652434146072,3.998210886338813,False,0
GUIDED_NOGPS,0.7001388072967529,31.600033149754015,-5.990611582989778,38.80732456518955,71.32623669251771,-1.4049639037497512,-4.773016339132805,43.195343182633714,67.08382695549788,0.45531375028627263,-0.12631047487763425,49.52059952045246,0.22434690710059807,0.09499978479509136,-0.4144374872117753,0.4913985620238323,-5.59886404168428,36.845722841906195,72.27513542776481,4.210832715034485,10.094213485717773,13.057167828083038,38.881054520606995,50.23266077041626,104.33447360992432,-1.621988751080465,3.539718216602428,False,0
GUIDED_NOGPS,0.7334780693054199,29.997024831216386,-5.930818965101241,38.852638955706915,71.63859724766178,-1.3579970591024442,-4.786342241676669,43.336692145843415,67.16756958617474,0.42104455678620306,-0.009124172235785002,49.41115598428676,0.2657897623666307,0.030912709875296516,-0.25648280651711985,0.49092929053765316,-5.503980802447687,36.75512700794408,72.44433097855693,1.9787725061178207,7.583771646022797,6.905137747526169,1.4052662998437881,29.3636292219162,39.78810012340546,-1.557272110914103,3.8937239330764273,False,0
GUIDED_NOGPS,0.7686135768890381,28.46722502002199,-5.889647000688311,38.89345027220173,71.98046170336488,-1.2961383053829783,-4.804015512586875,43.477215825967235,67.23121340734568,0.3768824746036047,-0.006181001033744195,49.2977167874566,0.26891614218453735,0.0061227827796288955,-0.07163173269928247,0.4903595343108217,-5.478943759891909,36.77376504548918,72.56214953639154,0.6281182635575533,6.892983615398407,7.008787989616394,-1.6211457550525665,18.128499388694763,40.08604884147644,-1.5309922064692252,4.8115668881768565,False,0
GUIDED_NOGPS,0.8161838054656982,21.024607133010853,-5.832097124663102,38.94846108088556,72.31098704539444,-1.2259028931805918,-4.825849463454988,43.61655475565716,67.27502309475454,0.35462619647141236,0.039833663239514365,49.156956833946396,0.24210914897539595,0.016062615490022594,-0.12491300801315985,0.48976756719478304,-5.040147730028517,37.1132339069237,72.90553782398466,0.6281182635575533,6.892983615398407,7.008787989616394,-1.6211457550525665,18.128499388694763,40.08604884147644,-1.3581234134070082,4.8115668881768565,False,0
GUIDED_NOGPS,0.8564836978912354,24.817338926790015,-5.7724274246091545,39.05248507102742,72.77066940732335,-1.1645343108697745,-4.851661226942495,43.75436608242055,67.2992650039164,0.29703660271080357,0.15004591585195745,49.08279805503298,0.21323395380399576,0.042826032902706784,-0.1115822973976962,0.48887838614632423,-5.282738234394115,37.16798340381355,72.92995756009198,0.7920143194496632,8.23272094130516,6.0067493468523026,11.729493737220764,30.323374271392822,92.70406365394592,-1.3107393512911312,3.8085758066752864,False,0
GUIDED_NOGPS,0.8684132099151611,83.83913008715119,-5.7719036916979345,39.07436037642776,72.93350572875184,-1.1089667621556865,-4.881271723343701,43.890323307384165,67.30420711477598,0.24497135132826575,0.13615437829720933,49.0071502948805,0.479138002694218,0.06821463189321345,1.1861228966444222,0.4885571914133156,-5.179363846488893,37.36602776756682,73.01169339978375,-1.6901107504963875,5.886581167578697,8.813276141881943,-39.982205629348755,11.21230199933052,46.405479311943054,-1.2586446309251538,3.8641001219856124,False,0
GUIDED_NOGPS,0.9106752872467041,23.662943154379075,-5.770541951753293,39.05136873062085,72.9340188624625,-1.0448884606624582,-4.914505627148648,44.02411602405813,67.2901189763663,0.17883953879349823,0.1486033051940567,48.86241517127335,0.30959762687645326,-0.027047141566120814,-0.021346473498125018,0.48850887872275306,-4.495865966504992,37.4579860721733,73.28112101855768,-3.120405226945877,4.1351210325956345,5.283495783805847,-11.580348014831543,16.55811369419098,123.81738424301147,-1.0738445565022423,4.659264768742974,False,0
GUIDED_NOGPS,0.9349563121795654,41.19413070380483,-5.7139873067561915,39.12240126608112,73.17013479953123,-0.9844292540574036,-4.951191333606014,44.15544965709992,67.25727165146712,0.17576403267628843,0.1413524190598535,48.821321338131966,0.27896180145156546,0.16350013182261225,0.4091523776825863,0.48795951043961316,-4.495865966504992,37.4579860721733,73.28112101855768,-0.31454218551516533,7.153072953224182,3.5627853125333786,44.07090246677399,82.23927617073059,76.84085369110107,-1.0738445565022423,3.564458442436684,False,0
GUIDED_NOGPS,0.9685559272766113,29.76668133365506,-5.701535963310661,39.14779408347302,73.31142643492166,-0.9273634591163513,-4.9911609252860165,44.28404520107835,67.20593766126355,0.19200835695669438,0.23521576012022483,48.754071295564025,0.29824873940835384,0.030044076376369,0.12388090766686699,0.4875578704144768,-4.60924033532897,37.55076499720459,73.35771979243471,-2.550692856311798,5.180226638913155,4.395199567079544,17.457886040210724,28.448325395584106,32.248130440711975,-0.9694364801597525,3.63424461962082,False,0
GUIDED_NOGPS,1.0019526481628418,29.945624857208134,-5.688481661249452,39.20940033023953,73.60162800091112,-0.8700669203512715,-5.034250138643337,44.4096389592376,67.13639093000451,0.21684409871762433,0.2707067037080804,48.70930965083834,0.2660740322807203,0.042253962824662566,0.16317138034996304,0.486821074136534,-4.532329282452751,37.7408822119586,73.41662498076872,-2.976842224597931,5.62937930226326,8.265475928783417,19.480255246162415,43.09542775154114,96.66905403137207,-0.8775409925207006,2.844728325863648,False,0
GUIDED_NOGPS,1.0366051197052002,28.864325481209267,-5.677090110439163,39.27477932290586,73.85169913165139,-0.8323759048637154,-5.080298330580003,44.531982282261126,67.04890672966133,0.16364268805533722,0.2959924909022908,48.66844121393957,0.26035954781378734,0.045930078780542526,-0.06381757399040572,0.48612712788478596,-4.5533386387213675,37.9535569270208,73.51155512485414,-2.8565945103764534,5.358630418777466,6.142977252602577,-45.614057779312134,-10.125987976789474,37.345850467681885,-0.7443998183989897,1.1443165533307136,False,0
GUIDED_NOGPS,1.0728123188018799,27.619908072014645,-5.638997306328731,39.37266873792573,74.11378556940203,-0.7733827592642954,-5.129148445008323,44.65084130703575,66.94376162458624,0.12965598691047112,0.21318050264070587,48.58965839695806,0.2298074860266575,0.09774602279035631,0.1864095034076224,0.4853718551164112,-4.097540448569792,38.4760701478493,73.76901294668704,-2.133438177406788,6.11346960067749,6.727080047130585,-7.351887226104736,1.032207254320383,93.66170763969421,-0.49809775582721916,1.9782656822380513,False,0
GUIDED_NOGPS,1.107090950012207,29.176752112969982,-5.618092314620129,39.4485946286892,74.36918985468623,-0.7129508738806517,-5.180646979413767,44.76599669541555,66.82123341617093,0.12728719192894605,0.21047660150302708,48.56991232006755,0.24808961453702283,0.08634113951515,0.2767376120933597,0.4845952715725139,-4.097540448569792,38.4760701478493,73.76901294668704,-3.1702298671007156,4.524124041199684,6.5680138766765594,-28.010401129722595,-8.217031508684158,46.182096004486084,-0.49809775582721916,2.093629498310271,False,0
GUIDED_NOGPS,1.1434786319732666,27.485789553011486,-5.621261666733518,39.517303466924915,74.53643443042859,-0.6830719580970044,-5.234643951417892,44.87724337298593,66.68160108750506,0.09154139690768433,0.28330552124069786,48.54293648794059,0.2501146905145222,0.04782078816629179,-0.08084259471036098,0.48395869043335366,-4.456573061510657,38.53108208875152,73.74203646692355,-3.597380220890045,5.087519064545631,5.2656590938568115,1.392824575304985,18.48619282245636,57.979488372802734,-0.4564083840961686,0.4113494234244873,False,0
GUIDED_NOGPS,1.1766886711120605,30.114835902553903,-5.629937278357301,39.59984152243829,74.76789206645587,-0.6014721148504808,-5.2909928653412415,44.98439026782754,66.52514474803479,0.08386725248835188,0.19601079444946898,48.53119539275733,0.2381853580072808,0.05423739495861938,0.6215411096109045,0.48316095400683423,-4.263591894730794,38.62934750286111,73.81856737183318,-4.404974728822708,4.757775366306305,6.328756362199783,-15.931575000286102,-9.365347027778625,66.02847576141357,-0.4404726397506727,3.572526603393761,False,0
GUIDED_NOGPS,1.2168760299682617,24.885661225918607,-5.524732948949091,39.76366348197758,74.90324004950753,-0.5724075849317232,-5.349550678766256,45.08726004928034,66.35214557822137,0.040377517052176626,0.21912009917597242,48.523948562047956,0.16972218031833242,0.22649718695069976,-0.05420575793375371,0.4825167631359581,-3.4580255518149015,38.81827821229048,74.04917478983646,1.2640038505196571,10.350316762924194,1.3658332638442516,34.131669998168945,54.178446531295776,3.760864958167076,-0.3472637747556118,-0.02925348677175305,False,0
GUIDED_NOGPS,1.242112398147583,39.632092676059,-5.521808404044593,39.85427574199547,75.04998378527802,-0.51859183336572,-5.410177769100174,45.18568886670749,66.1628857741996,-0.033383510063789354,0.14541888957609694,48.50696529667672,0.22379600977437264,0.13774396351029627,0.5410592453722083,0.48182679753741486,-4.021064520153925,39.22044774807456,74.1193811484356,-4.0020957589149475,4.592342302203178,3.4587115049362183,-7.06431046128273,18.300265073776245,11.644518375396729,-0.2987785741295264,1.7484238402515984,False,0
GUIDED_NOGPS,1.2759931087493896,29.518850861080026,-5.533347520200842,39.90628219341026,75.18223586988516,-0.5207401958281719,-5.472737900137947,45.279526088259445,65.95764849243639,-0.052708142938165274,0.17741427041278698,48.50448252291341,0.25270172434999527,0.08091136609670023,-0.3377988598443407,0.4811268069854485,-3.670540941792659,39.323429100687534,74.2621277132821,-5.935656651854515,3.3668890595436096,6.732650846242905,4.703588783740997,17.12632030248642,75.46229958534241,-0.2644626800696781,-1.5194361987982203,False,0
GUIDED_NOGPS,1.311429738998413,28.224514652939,-5.531230773392563,40.00443633411815,75.37885069128168,-0.4862578066746992,-5.537098188625143,45.36863403963787,65.73671779438936,-0.12260312290134537,0.11236605671767141,48.46889723733765,0.2077870745083288,0.10992244122223296,0.10066876095174626,0.480264603700698,-3.5382672797886197,39.43129819669575,74.3752567988199,-5.080918595194817,4.515456408262253,6.290274113416672,-20.22661566734314,-10.135747492313385,39.86750543117523,-0.2398070369624964,0.3586376519483255,False,0
GUIDED_NOGPS,1.3438680171966553,30.83162916516587,-5.531411625724393,40.09767011034052,75.56068821100182,-0.4541360344272609,-5.603129070820854,45.45288774285966,65.50037859116523,-0.21709083930139106,0.141518691477461,48.459833576309045,0.20681814713164856,0.12483366230206358,0.12749901637045724,0.4794023966053529,-3.5382672797886197,39.43129819669575,74.3752567988199,-5.080918595194817,4.515456408262253,6.290274113416672,-20.22661566734314,-10.135747492313385,39.86750543117523,-0.2398070369624964,0.3586376519483255,False,0
GUIDED_NOGPS,1.376413345336914,30.730428538981734,-5.502790327838453,40.20166067204613,75.73443045450176,-0.4232515770433281,-5.6707042690605975,45.53217465502092,65.2489165881785,-0.223348146354769,0.1343367475651926,48.45938278382382,0.1922216330657394,0.18392901033833442,0.11882258799920864,0.47852418876493275,-3.6961206178957373,39.50892405833625,74.42890379474056,-2.5809437036514282,5.581270903348923,7.072094082832336,-18.947923183441162,-0.05786828696727753,14.214840531349182,-0.2277514706923186,0.46157628670323386,False,0
GUIDED_NOGPS,1.4119720458984375,28.125718347448817,-5.497635497059868,40.28048271989447,75.86295634062363,-0.3961551835895949,-5.739700758319235,45.606394407060954,64.98261822980989,-0.21514973155578518,0.3192091043039575,48.46797857689428,0.21013015650643393,0.14088325864171128,0.06731681691140334,0.4777036095662326,-3.977401283250969,39.71523237003859,74.44328829818292,-3.2518327236175537,3.2592646777629852,3.982650488615036,-22.66288697719574,-31.34920299053192,42.67566502094269,-0.22458511730856578,0.22849714849360658,False,0
GUIDED_NOGPS,1.4439539909362793,31.27416973619458,-5.474889050900838,40.377028164945244,75.9762871669849,-0.3421667758487744,-5.809998732773869,45.67545854252626,64.70177064406491,-0.22616325150987207,0.32578465548397567,48.4528053116531,0.1873068957463739,0.1983055377208696,0.470974556820667,0.4768864505637323,-3.609457659716952,39.913130927466156,74.59357682401169,-2.9621243476867676,3.9212439209222794,2.640930190682411,-0.8997276425361633,5.335994064807892,-48.59801232814789,-0.21939617907693637,2.070458294994414,False,0
GUIDED_NOGPS,1.480672836303711,27.235563405432433,-5.4313184490947055,40.475338927991864,76.07896632654119,-0.2931467752104202,-5.881481572366763,45.73929025633451,64.40666158723239,-0.23693910222518366,0.24237038327581317,48.43740323507472,0.18354760826847852,0.22071163523594267,0.35758568605256935,0.476056552584104,-3.651582028692526,39.79023343790779,74.63170844121545,-1.4704182744026184,5.245454236865044,3.8282252848148346,42.71968603134155,54.93960380554199,-4.29501011967659,-0.21659270101158906,2.005349730174679,False,0
GUIDED_NOGPS,1.5123097896575928,31.61241794104568,-5.413459898082344,40.571311104656644,76.21171777304974,-0.2581169003844807,-5.954035809368222,45.797824133538555,64.09757938854304,-0.18207560771705625,0.24138096634151335,48.44526136771482,0.17449058629481737,0.21190685764156741,0.2883420349472886,0.4751422466587609,-3.4853906934684877,40.42531694733323,75.0412279003225,-3.4752625972032547,2.9644355177879333,4.040135815739632,-33.351507782936096,-22.617921233177185,-0.3357790410518646,-0.16147360385046397,0.8135587730790281,False,0
GUIDED_NOGPS,1.5457453727722168,29.91316254920979,-5.4126575981973915,40.64296588595397,76.35186488726805,-0.20504489080714003,-6.027551094939533,45.85100588809037,63.7748128948279,-0.08768746266850463,0.2701672254853552,48.467800991975864,0.19236907994689953,0.17994544100809878,0.5127645684741107,0.4741828240559438,-3.7149920161242562,40.448176239091396,75.08297792214181,-4.029352590441704,2.2552046924829483,6.467171758413315,38.15925717353821,30.277252197265625,60.43516397476196,-0.16269507946709338,2.3660562891112837,False,0
GUIDED_NOGPS,1.5876431465148926,23.86951820530623,-5.489179277868253,40.65463723729948,76.42429300958877,-0.20316981379662935,-6.101920165695854,45.89879210160511,63.43865141517698,-0.026417891049139944,0.22081499994634052,48.44734116031709,0.23577370900017597,0.043047779446390155,-0.10400451439478123,0.47332210938686814,-4.035895110256733,40.49373849067723,75.11395281940864,-8.165443688631058,-1.9911536946892738,1.570754125714302,-54.543304443359375,-39.741677045822144,-78.41769456863403,-0.16910490058747893,-1.0882726100349376,False,0
GUIDED_NOGPS,1.6130669116973877,39.33807281799253,-5.518031164036459,40.710222574304375,76.54374539501418,-0.18796585739013666,-6.177038810269121,45.941149962125046,63.089384665597706,0.04391448782518542,0.17445679850217147,48.46896212413476,0.19414145717131007,0.15933053745775627,0.12659741939316246,0.472357325522847,-4.035895110256733,40.49373849067723,75.11395281940864,-4.855856671929359,1.1879481375217438,5.102265626192093,-27.36150622367859,-7.1502551436424255,20.0515016913414,-0.16910490058747893,-0.10289125031754146,False,0
GUIDED_NOGPS,1.6475372314453125,29.0136756984844,-5.51059959122639,40.733599823412035,76.58246879661007,-0.15792669463337147,-6.2528058358709515,45.97805700288358,62.727302713673524,0.1604770020967421,0.0755609954056759,48.46015459520003,0.2221083289275894,0.2015937337403205,0.25377580019616996,0.47151750217007726,-3.4696084806628766,40.65298931945249,75.31742493351854,-4.6813685446977615,0.4442073404788971,3.1691376119852066,-18.499387800693512,0.030657649040222168,-21.864129602909088,-0.15438965058884263,1.5201613727890053,False,0
GUIDED_NOGPS,1.680321216583252,30.50713527195496,-5.5448094402710675,40.788989203743995,76.67801583433639,-0.12165562925979358,-6.329123034855571,46.00950084106921,62.352695923222385,0.24850042469504674,0.007657282389818982,48.46920801094488,0.18722299509498064,0.13741457679703287,0.36909943835920883,0.4705395847017525,-4.193186127414299,40.920124136431596,75.5265914652833,-4.6813685446977615,0.4442073404788971,3.1691376119852066,-18.499387800693512,0.030657649040222168,-21.864129602909088,-0.1782385177877858,1.5201613727890053,False,0
GUIDED_NOGPS,1.7224791049957275,23.72478081339442,-5.635842574808061,40.790718873311484,76.74344943091333,-0.1561180057132152,-6.405895151282697,46.035478916589554,61.96585489895527,0.29767458506796507,-0.025591011272745275,48.503109654890245,0.22717303591299903,0.03881175613761889,-0.4210453496832055,0.4695852555580739,-4.20048513771463,41.001755598347195,75.7918715850272,-8.611893653869629,-3.028576262295246,1.1861968785524368,-36.241453886032104,-1.2099085375666618,-39.75221514701843,-0.18734795529532544,-3.1443396964481347,False,0
GUIDED_NOGPS,1.7530887126922607,32.67253493698101,-5.7005143770466935,40.8692964520074,76.91417057588644,-0.15212903528378766,-6.483029847480458,46.055998230835286,61.567070431134816,0.3010105988689874,-0.09993932793562657,48.49704786200186,0.15077898500554537,0.08483121801083755,-0.03913860637083127,0.4684086713242684,-4.20048513771463,41.001755598347195,75.7918715850272,-5.637486279010773,0.9399071335792542,5.128977075219154,1.710425317287445,39.20722007751465,-18.357688188552856,-0.18734795529532544,-0.9096403247940669,False,0
GUIDED_NOGPS,1.7864863872528076,29.946480079965728,-5.801757619915471,40.874125497104785,77.02066074848298,-0.13598284583584277,-6.5604376706083025,46.0710750854442,61.1566334402337,0.292646925508601,-0.17799398271859182,48.50360825869966,0.21710246940952801,0.015690633690209548,0.11140002486939572,0.46733234533419676,-4.422058869047595,41.092280908943906,75.91679393810587,-8.924704790115356,-2.082185819745064,5.57139664888382,-67.70620942115784,-30.59631586074829,-92.74524450302124,-0.1916055262540145,0.632230270663295,False,0
GUIDED_NOGPS,1.820662498474121,29.264287458573172,-5.871996242464353,40.931298175140284,77.18707278735413,-0.11632653461421325,-6.638032019219902,46.080734821065136,60.73483492159331,0.3558538162530164,-0.17310036562168923,48.52815595857668,0.16429116611001257,0.07220040037820168,0.16095857961177512,0.46611107790054523,-4.358788500686961,41.13702864999596,76.02400917147698,-6.6498927772045135,1.0482975281774998,8.492275327444077,14.399334788322449,39.91359770298004,168.70473623275757,-0.20829686972390055,0.8201477711939749,False,0
GUIDED_NOGPS,1.8551747798919678,28.97879602313161,-5.919288469945996,41.00800820020631,77.27476801427773,-0.10935612422341559,-6.715729109826051,46.08501155612197,60.30196589008219,0.2726456770195707,-0.10684251475239384,48.55070582812148,0.14009073029857938,0.11486654308141639,0.015489355270001268,0.4650232700340837,-4.3356417268675544,41.285235974682934,76.35915756073172,-5.175115540623665,2.0954160019755363,2.564477361738682,-14.008273184299469,-8.713153749704361,-105.32299280166626,-0.22060642246884046,0.04850160018308367,False,0
GUIDED_NOGPS,1.8880765438079834,30.396590958503037,-5.9285639145531395,41.09345303504418,77.30467265711997,-0.07980567996792928,-6.7934479434575925,46.08394792557766,59.85831732475464,0.23707821396866977,-0.10940532979502955,48.528002279320354,0.12166992829810297,0.19119735711073116,0.30835554334479126,0.46402985334886043,-4.24842864841726,41.350519257897766,76.46127371052188,-3.070608153939247,2.803419344127178,-0.842133816331625,5.71623221039772,16.833865642547607,-119.50862407684326,-0.2359855069396492,1.6876349431950735,False,0
GUIDED_NOGPS,1.924116611480713,27.75038374000953,-5.972739030421022,41.15245788316864,77.43200027021604,-0.07249191450315157,-6.871110272228306,46.07759481969816,59.4041801135092,0.28697722816725574,-0.03860166786797331,48.54120503498599,0.14276696020952637,0.1259075273320587,0.03766890165887935,0.4628149396021414,-4.463829903937885,41.41798579083654,76.59246767234056,-4.9597639590501785,1.145894080400467,5.9227317571640015,-30.15969693660736,-17.645113170146942,17.140063643455505,-0.23036263229917964,0.2657825108424715,False,0
GUIDED_NOGPS,1.9548275470733643,32.56750628940585,-6.027560783689675,41.25761785252963,77.54454387166595,-0.046620781319419616,-6.948640565897828,46.06601112281647,58.93984499774719,0.26698270314568967,-0.003078067438148559,48.539763865071116,0.07739127443697216,0.11690870421694113,0.311940909066366,0.46161586948054356,-4.73581151799835,41.62946815412983,76.83509206147366,-4.39026802778244,3.304905816912651,3.38803268969059,6.803148984909058,28.747963905334473,-14.955878257751465,-0.2672838610900151,1.480729516771758,False,0
GUIDED_NOGPS,1.9887781143188477,29.45872635711727,-6.081934157577676,41.35175392351374,77.6260287272959,-0.025507341518573836,-7.025965978434544,46.04926345209659,58.46560251703126,0.18517464597039085,-0.08945274640383559,48.52539314705741,0.09043391229059179,0.11444845032105747,0.2322736235784603,0.4604521268069733,-5.089716349302849,41.734642256150494,76.91956029747215,-4.39026802778244,3.304905816912651,3.38803268969059,6.803148984909058,28.747963905334473,-14.955878257751465,-0.26877751242726616,1.480729516771758,False,0
GUIDED_NOGPS,2.021433115005493,30.626535231836435,-6.093774459868074,41.47209515865044,77.72349287849633,-0.03967855854603545,-7.103016314578524,46.027425896297515,57.98174295374394,0.22084136020766854,-0.06196208876818052,48.4976762394055,0.05156326318312511,0.19933638919806465,-0.19761885037501242,0.4592379726776974,-4.809914254899942,41.81133319070818,77.05951071084863,-1.9811183214187622,4.617757350206375,3.447655960917473,-68.98438930511475,-49.953436851501465,-25.167009234428406,-0.25103575093998176,-1.0201901381618967,False,0
GUIDED_NOGPS,2.0611913204193115,25.15415247325241,-6.166839966122958,41.52444215867707,77.85058983635734,-0.04448934607772764,-7.179723996404397,46.00057975453725,57.48855627774609,0.293496110121504,-0.06598101476449833,48.51148346681268,0.11956341826327924,0.0851574452034613,-0.07492572283087634,0.4579324147427186,-4.894978734328664,41.81426223998977,77.14239668256039,-6.020334362983704,0.38600347470492125,5.73933906853199,-34.38183069229126,-28.26637327671051,21.422746777534485,-0.2511911139766211,-0.3201123968216917,False,0
GUIDED_NOGPS,2.0892086029052734,35.697419486620824,-6.274500491089723,41.5832808954363,77.90269041867356,-0.05074606531419659,-7.256024029884274,45.968813275056746,56.986332091035585,0.3706722318224764,-0.1419081723427104,48.49155980500375,0.07817130721432383,0.009922782202270697,-0.1199967217604075,0.4567770001358571,-5.279957789439898,42.04967835529912,77.26847850208289,-7.200072705745697,0.26873666793107986,0.49756094813346863,-30.9104323387146,5.068604648113251,-69.99427080154419,-0.2187741796649611,-0.4965127043078491,False,0
GUIDED_NOGPS,2.123218536376953,29.406678772496864,-6.3502120279343535,41.62686472844778,77.92722601825766,-0.06102021727979572,-7.331853971450653,45.93222139398394,56.47535957240568,0.3865057842573295,-0.1553469964215336,48.493096597567,0.10171279012222928,0.07749548300194824,-0.1572124793153763,0.455647503210049,-4.974841742741665,42.08606971197982,77.38366672882927,-7.200072705745697,0.26873666793107986,0.49756094813346863,-30.9104323387146,5.068604648113251,-69.99427080154419,-0.22947076282126794,-0.4965127043078491,False,0
GUIDED_NOGPS,2.176762580871582,18.677294526800466,-6.411425628455668,41.70478431118728,78.02328198590234,-0.0759206874009422,-7.407153894559323,45.89090547409769,55.95592742210367,0.37147317822436615,-0.12068880230389062,48.48203510620617,0.10071919512277,0.0942906726050449,-0.15694055383165412,0.454322064076192,-5.337944028980991,42.0582940870941,77.39086930731474,-4.213481396436691,2.0283814519643784,3.85718010365963,-1.2476639822125435,21.190819144248962,47.419482469558716,-0.22057049057132172,-1.0084663318949814,False,0
GUIDED_NOGPS,2.1972413063049316,48.84481192500291,-6.475725717507749,41.82193052221883,78.14517542457943,-0.10994209330793134,-7.481866356252298,45.84497304359186,55.428323806489345,0.36067785079774944,-0.21884374331885137,48.47831265310851,-0.0787102307641033,0.11028144026390371,-0.7331124759637582,0.4529859994461203,-5.119513559649687,42.221515516428596,77.54746403094963,-3.9051353931427,3.4228526055812836,3.5795513540506363,11.555245518684387,38.8729989528656,12.22536712884903,-0.20289160818921745,-2.4317881086927824,False,0
GUIDED_NOGPS,2.230679988861084,29.91060273269247,-6.490857081008744,41.922082874373494,78.19912083699231,-0.07881680880065678,-7.555936363720673,45.79453753483919,54.89283630269359,0.3402261299886156,-0.19030966756577106,48.478148728568435,0.019244352616914026,0.190654918440113,0.32727998131358554,0.45174516050465807,-5.834157701936836,42.177459713045025,77.6410431848492,-2.581840008497238,5.661434307694435,4.733133316040039,-108.89401435852051,-92.66820549964905,-127.45116949081421,-0.2362440756502629,2.4748387910313725,False,0
GUIDED_NOGPS,2.2634410858154297,30.52622998544396,-6.576540337855797,42.01080476986259,78.25465619668331,-0.08737130092016088,-7.629311340867571,45.73971802315537,54.349751843276835,0.27104730603208194,-0.20806506447833656,48.46630859564222,0.018842119203725728,0.06098073098884631,-0.15604623873986137,0.45048477089805194,-5.834157701936836,42.177459713045025,77.6410431848492,-4.880701377987862,2.9869910329580307,1.191919855773449,-29.93645668029785,-8.533565700054169,17.042070627212524,-0.2362440756502629,-0.48684249046443334,False,0
GUIDED_NOGPS,2.297522783279419,29.346393887660575,-6.6701985635210415,42.096893635590895,78.28538945810297,-0.07007537466413709,-7.701941094871036,45.680638965562984,53.79935666088767,0.307732465507632,-0.1684677898171281,48.458266047894526,0.015486156331115263,0.044683094844389204,0.1611645700273071,0.44925582295465305,-5.344771749842193,42.648802287210955,77.84884080216125,-6.932017952203751,1.6416540369391441,-0.814366340637207,-28.805503249168396,-9.406057000160217,-140.49949645996094,-0.21495922842050058,1.2386742293322646,False,0
GUIDED_NOGPS,2.331789016723633,29.184872838604182,-6.769612114451172,42.210043667467836,78.31386077928538,-0.0820076229053847,-7.773777782746943,45.61742993955551,53.24193623292135,0.23911318345451046,-0.21753031928579908,48.44292885811326,-0.017791211830198148,0.031447377592014665,-0.18824948161545257,0.448015189314133,-5.577647265406034,42.943375486944674,77.88834891619429,-6.653428077697754,2.8073759749531746,-0.8563168346881866,11.029189825057983,32.74088203907013,-28.108233213424683,-0.21472173396141175,-0.7549213856110571,False,0
GUIDED_NOGPS,2.365166664123535,29.96680598721109,-6.864533473243298,42.329217004225875,78.33556293145841,-0.12623994145525808,-7.844775877911908,45.55022538186133,52.67777522617831,0.2404378132666698,-0.18779679828144105,48.467500463652385,-0.03885096520951621,0.034792472079798374,-0.6066196274827197,0.44677505355015756,-6.005199769125067,43.082138852400035,77.97194813580845,-5.402553081512451,3.1739477068185806,-1.064006518572569,14.208447933197021,46.78822159767151,-91.0923421382904,-0.19809297629686132,-2.942912935512816,False,0
GUIDED_NOGPS,2.401796817779541,27.302222945484132,-6.978896627582856,42.44873390148628,78.38125937552523,-0.11799386257190878,-7.9148921367461815,45.4791643272077,52.107157441522716,0.3009237274004813,-0.2361306319430363,48.48735582356961,-0.03490145609641677,0.0018818841531230137,0.01927343979836739,0.44546545068584165,-6.279117964690462,43.29321368122294,77.97284264463,-6.291432678699493,2.9875457286834717,1.021583192050457,36.1824095249176,54.49188947677612,8.261758089065552,-0.18276279376516041,0.6066587894627077,False,0
GUIDED_NOGPS,2.4347689151763916,30.331744780555535,-7.104880682196593,42.57529636623214,78.43605941235558,-0.10803485618097154,-7.98408556515657,45.40439014708471,51.530365758540974,0.35649862879934785,-0.18727556947040447,48.50709507027094,-0.06997622206174636,-0.033329092571393396,0.05592313081127516,0.44413125316651086,-6.299681151084242,43.30736236875537,77.99280733496025,-6.291432678699493,2.9875457286834717,1.021583192050457,36.1824095249176,54.49188947677612,8.261758089065552,-0.15581993533441013,0.6066587894627077,False,0
GUIDED_NOGPS,2.468641757965088,29.5302814818987,-7.204824208283977,42.692813732997514,78.4950551133056,-0.08951629444165365,-8.052317385139347,45.32605028850935,50.94768208020037,0.29613523118377344,-0.2131175901951477,48.516650504919795,-0.06839223449621228,0.01118559421923407,0.16532038964674425,0.44277336400154993,-6.113247861033355,43.50886229133328,78.04353010489933,-6.347714364528656,2.897370420396328,2.365945838391781,2.455848455429077,12.97425627708435,13.832402229309082,-0.1587799937512532,1.2364081006317014,False,0
GUIDED_NOGPS,2.504436731338501,27.938744379683598,-7.267027274048584,42.86977931134758,78.5631800172073,-0.08707555353385865,-8.119551001343144,45.24429601278944,50.35938727750739,0.2882448685885278,-0.2923599508417547,48.53784458191434,-0.12140503158161317,0.07640722468139853,-0.025012555156032807,0.44137963600233343,-6.654655301809157,43.65909276036633,77.95639843560531,-2.320651151239872,6.5847523510456085,3.282233327627182,17.364951968193054,55.00395894050598,31.481152772903442,-0.18337611738111453,0.22792490670720644,False,0
GUIDED_NOGPS,2.5360164642333984,31.670182803899213,-7.389855248625094,43.00250443649769,78.60910707132231,-0.0950588164798891,-8.185751967631862,45.15928213428758,49.76576113416649,0.2853897427937567,-0.25512698885042845,48.57305762218034,-0.12078201326862305,-0.04413401297547157,-0.15821903758782713,0.4400277071567514,-6.64389126295639,43.68629032830977,77.98459905037791,-6.4660705626010895,3.682546317577362,1.7820008099079132,7.809006422758102,30.439838767051697,46.9943642616272,-0.18295000610385737,-0.4654865700030662,False,0
GUIDED_NOGPS,2.5687785148620605,30.52622998544396,-7.4769898511734905,43.14320331693465,78.6267822443638,-0.10519632948772875,-8.250887953647592,45.07116675918526,49.16708229123847,0.23031237798724324,-0.2733481192870242,48.60342122813564,-0.13259640609207213,0.021525331586701953,-0.18702536596328223,0.4387178711570796,-6.432348187485911,43.88467843169306,77.99117374071852,-5.644439905881882,4.57024946808815,0.6567266769707203,0.06294175982475281,8.411085605621338,35.33933460712433,-0.17274816201975124,-0.5927171994279481,False,0
GUIDED_NOGPS,2.6031687259674072,29.0832842175333,-7.60700457951722,43.267147948504665,78.6750769597457,-0.10439247080216835,-8.314928711373508,44.98011102424674,48.563628191799054,0.31982093984320253,-0.21186713196850646,48.64713102372913,-0.11958689090346585,-0.058773793086257624,-0.053263471806589746,0.43733172624768607,-6.905034863442308,44.07906696436619,77.84642546981453,-6.927645951509476,2.8357980772852898,2.9363617300987244,-2.4218544363975525,13.618215918540955,52.67667770385742,-0.1934456445330417,0.18471798379135204,False,0
GUIDED_NOGPS,2.6362040042877197,30.275258230534362,-7.768756440496325,43.37826923299431,78.65877400148477,-0.09936535345817912,-8.377846041696767,44.886278835583084,47.955675025597486,0.17273847231738435,-0.2867646385293391,48.671463572647305,-0.1255873382647126,-0.1303460411724032,0.001106283491662606,0.436067090330827,-6.710678197261473,44.57833543272926,77.79110840821447,-9.480693191289902,0.6288019008934498,-1.2773294001817703,-50.683045387268066,-18.725529313087463,24.866628646850586,-0.25334000165891746,0.6260207749341071,False,0
GUIDED_NOGPS,2.6692588329315186,30.258222295966583,-7.879390748683181,43.5514438307037,78.60200633335216,-0.15058263012970297,-8.439613760971458,44.789836607416156,47.343497673714964,0.1781384839082199,-0.22902862258839818,48.74445097411806,-0.19514308477882586,-0.04349290190863067,-0.709791264977177,0.434873565483462,-7.1925868301273255,44.602846281098195,77.69933528781206,-5.2856408059597015,5.327034741640091,-3.306102380156517,44.87845301628113,92.57558584213257,91.21912717819214,-0.2858680672979719,-3.013078828526122,False,0
GUIDED_NOGPS,2.7036616802215576,29.069779046879766,-7.99674318605024,43.7325171384525,78.54029075352028,-0.20375666756988414,-8.500207667581432,44.69095300084254,46.727369653223214,0.08930845865761906,-0.25897121141438206,48.775576146165804,-0.20623793809968036,-0.05821296886151024,-0.7411103091861029,0.4336772697532727,-7.403105244764896,44.86979233916452,77.61263822150622,-5.2856408059597015,5.327034741640091,-3.306102380156517,44.87845301628113,92.57558584213257,91.21912717819214,-0.3270838699982973,-3.013078828526122,False,0
GUIDED_NOGPS,2.738187313079834,28.97058945419884,-8.125204750701652,43.89683735153246,78.48427263954304,-0.2483208518111733,-8.5596055085033,44.58979866259768,46.107563061843024,-0.07860037622547869,-0.29635988037444344,48.82817201786949,-0.20408977080316337,-0.08488973501922277,-0.6670013966437484,0.4324605612524427,-7.350294304426127,45.02084120163829,77.54637770687191,-6.326128542423248,4.028020426630974,-2.657831087708473,28.394514322280884,36.2467497587204,188.78517150878906,-0.3310880244689174,-2.4173625357223036,False,0
GUIDED_NOGPS,2.771524667739868,29.997024831216386,-8.273100843250864,44.04052347833054,78.48928933271898,-0.2815885748167997,-8.61778694586928,44.48654596381971,45.48434852260282,-0.03855695147325089,-0.23277989054661613,48.883889286023866,-0.2042433560447232,-0.13240210545284486,-0.5667039036295425,0.43111576212313907,-7.244396578275757,45.09792075362171,77.51983048022016,-8.21521058678627,2.8436990454792976,1.5745945274829865,-15.643443167209625,0.09230300784111023,86.78768873214722,-0.3651128107368753,-1.5826660347093786,False,0
GUIDED_NOGPS,2.8057703971862793,29.205804528869454,-8.396274368851229,44.17649992977488,78.4168452479395,-0.289904983955918,-8.6747335235301,44.38136873881347,44.857995128497116,-0.07054891721535593,-0.3074929819998584,48.92417032665402,-0.20359811168413414,-0.09282742148188432,-0.2711108136458285,0.4299160318840566,-7.211611631497087,45.30537772782502,77.39681873119562,-7.205669581890106,2.352447062730789,-3.050520643591881,-9.886620938777924,-11.367256939411163,37.197718024253845,-0.4207743134284663,0.17148598637833326,False,0
GUIDED_NOGPS,2.842238426208496,27.423251191589245,-8.540900151201026,44.2927169805678,78.31596965108815,-0.34665056328124516,-8.730428633617965,44.27444202381462,44.22877038714511,-0.24037031178776302,-0.4068049997489016,48.95984781978358,-0.1849350380226438,-0.12996665446406155,-0.8298885261557987,0.42875980358675214,-7.564559445238433,45.468098795310794,77.23152217327053,-7.912249118089676,0.9924469515681267,-4.415761306881905,-48.441314697265625,-43.683061003685,4.823508858680725,-0.4760281655242927,-2.917349671883574,False,0
GUIDED_NOGPS,2.87302303314209,32.48804442964145,-8.691690034531069,44.38950077767082,78.18790538879732,-0.40528246012832364,-8.784857483109388,44.1659417957535,43.59694016544921,-0.16556842787531056,-0.38535030834883377,49.00326050214818,-0.21077957058079144,-0.17939561688194258,-1.0069495522415979,0.42766729919094315,-7.367774246917129,45.57868086972335,77.18573734427882,-8.800488710403442,-0.4630820360034704,-6.105945259332657,25.05398392677307,33.707523345947266,-30.73553442955017,-0.48437071153390254,-3.00939799689372,False,0
GUIDED_NOGPS,2.9061203002929688,30.22399008459798,-8.776883565889111,44.51755021505737,78.00344445573094,-0.4262055789885064,-8.838007060388147,44.056044711019084,42.96276863425355,-0.1318669404891454,-0.3656812845299011,49.051044505581594,-0.2349596117775433,-0.05161150895089253,-0.5090953335570374,0.42667528240998664,-7.5177125181246405,45.813917788805966,77.01844878527831,-5.539025366306305,2.186659350991249,-9.302440285682678,-14.523722231388092,-29.26274538040161,-89.66827988624573,-0.5399830381213251,-0.5649272407684289,False,0
GUIDED_NOGPS,2.9447946548461914,25.858522089739953,-8.87824385346167,44.69472587002662,77.84008112038255,-0.48785847359244294,-8.889866101808195,43.944927844223194,42.32651821300252,-0.2434413889541829,-0.40498987697697075,49.11308311381282,-0.25357751185315436,-0.07351773326955637,-0.9284369214430302,0.4256192958114241,-8.195612190848449,46.1942615533758,76.52383682268012,-4.052770510315895,4.126047343015671,-6.618361175060272,-7.296118885278702,-3.525611385703087,-75.6626844406128,-0.6573955871144299,-2.8796188531347773,False,0
GUIDED_NOGPS,2.9788806438446045,29.34187735228688,-9.02849790182052,44.83619093982523,77.6043765002709,-0.5206003023892584,-8.940425058256501,43.832768426964165,41.688449514399316,-0.3094490307842737,-0.4868967584518232,49.13035324712919,-0.2648935789753644,-0.18009337978668144,-0.6963930213997127,0.42471657994005246,-7.965982599549049,46.26263958624057,76.50030331371937,-7.685680687427521,1.5235875733196735,-11.323537677526474,-24.918465316295624,-3.5776354372501373,-68.76336336135864,-0.6858339069683228,-0.8415215675410603,False,0
GUIDED_NOGPS,3.008873224258423,33.345025241483484,-9.104980679467989,44.98281916237371,77.42674195552578,-0.5381191008928379,-8.989676061716082,43.71974358659115,41.04882128906449,-0.24125775613218867,-0.4810994219503633,49.17936326951862,-0.31137472902637037,-0.060948212478618265,-0.5570064422178344,0.42370549103325267,-7.965982599549049,46.26263958624057,76.50030331371937,-4.412651807069778,3.2074928283691406,-7.873215526342392,9.243090450763702,7.11011067032814,-58.33989977836609,-0.6858339069683228,-0.11938637060653381,False,0
GUIDED_NOGPS,3.0431628227233887,29.165796299258044,-9.163426227184017,45.126501265578256,77.27852226379399,-0.6162385394924613,-9.037612891828775,43.606030084967934,40.40789037019441,-0.3047124546774285,-0.4755421025652059,49.193914987545334,-0.28568109615144094,-0.025393440054740715,-1.2785121537777262,0.42261864564860774,-7.901010337440134,46.45498298894777,76.30391267632062,-3.9088189601898193,3.055546060204506,-5.704212933778763,5.332198739051819,-2.840539813041687,-28.485822677612305,-0.6773230525988307,-4.3174419753141615,False,0
GUIDED_NOGPS,3.0776050090789795,29.040192202505004,-9.315168614199127,45.21158145089657,77.0975112108997,-0.6393783771916952,-9.084230942458209,43.491804057236855,39.7659116182199,-0.14627074223164446,-0.4467811364656342,49.23140931099412,-0.24462727369578013,-0.1989674829719291,-0.6523653399671377,0.42159384769763747,-7.986121797209508,46.71869053618493,75.9119094818594,-8.85929986834526,-2.1809371188282967,-6.516280025243759,-52.381885051727295,-52.192795276641846,-75.86638927459717,-0.7675262601630795,-0.2077374288415875,False,0
GUIDED_NOGPS,3.1194403171539307,23.903935257743708,-9.375299604915298,45.37132460530031,76.9229101650095,-0.7028662278294042,-9.129527188252734,43.377240750583,39.123137865464734,-0.1307813672979365,-0.49116178470167304,49.31032873175903,-0.27698750378151077,-0.0376453622682322,-1.028860410286784,0.42053101686648586,-8.11890261156211,47.033417348572705,75.43198339933502,-3.0565541237592697,2.65553742647171,-5.126085877418518,11.665074527263641,8.163900673389435,28.137707710266113,-0.853694214363823,-2.833483273168868,False,0
GUIDED_NOGPS,3.145102024078369,38.980158176968615,-9.471287756068186,45.55776187824488,76.67084060003546,-0.7494516781913815,-9.173500151208277,43.262514262998046,38.479819860804064,-0.16743312287957696,-0.5590279316770949,49.30645601449963,-0.4466394492731564,-0.14002896187443026,-1.1776377026230462,0.4196703121938645,-8.396876144396803,47.139905257177375,75.25948802667261,-2.5501908734440804,2.7444016188383102,-8.667425066232681,-8.5116446018219,-18.85567307472229,-47.75553345680237,-0.8688437890199582,-1.1967938572192736,False,0
GUIDED_NOGPS,3.177133321762085,31.223649046013207,-9.48917123012496,45.68223692943443,76.46423106143072,-0.7776732290438549,-9.216149867231291,43.147797282044294,37.83620621432314,-0.11673540343492261,-0.6016728580903041,49.35339648957054,-0.32476562069245524,0.028771878455218055,-0.8185963356205019,0.41869719794985505,-8.494430905858096,47.17491300273596,75.13015196892744,-2.5501908734440804,2.7444016188383102,-8.667425066232681,-8.5116446018219,-18.85567307472229,-47.75553345680237,-0.8832921398738505,-1.1967938572192736,False,0
GUIDED_NOGPS,3.2131571769714355,27.762139263966112,-9.53191698247214,45.84689215356677,76.25094673714649,-0.8294986066793977,-9.257477852701655,43.033260823618626,37.192543341975686,-0.11656528903590699,-0.518538676998965,49.403574474308044,-0.3454259296060673,-0.01946955688350023,-1.0732963219688654,0.41772390567649653,-8.568748323924169,47.21464372905635,75.01463586117993,-1.7835862934589386,3.928811103105545,-7.67088308930397,37.55962252616882,49.27506148815155,2.875436469912529,-0.9216468210210086,-2.2081860713999593,False,0
GUIDED_NOGPS,3.246260643005371,30.21288672789483,-9.570113543563515,46.027079443290944,76.01790632031212,-0.8760012106818352,-9.297487071035519,42.91907397071661,36.549075410242516,-0.05834486327242408,-0.5087897558975355,49.44921038324748,-0.39415128033864905,-0.01263450853104181,-1.0934369311831553,0.41679961781032426,-8.607394994845297,47.2471121640737,74.89759665226866,-0.8167584426701069,4.553795233368874,-8.296966552734375,45.187968015670776,50.855982303619385,-22.73777276277542,-0.9511521826744641,-1.6305078813073215,False,0
GUIDED_NOGPS,3.2787654399871826,30.76920368264681,-9.619619587680846,46.17518260390751,75.83641386102893,-0.9410625404480404,-9.336181899248313,42.80540361219626,35.90604428079008,-0.07817018102947366,-0.511860993146514,49.479840366580405,-0.37454288150381637,-0.03646590258979657,-1.3569923317128234,0.41577162088927105,-8.651611685431883,47.28078946160322,74.77679197515567,-2.4164605885744095,3.272358328104019,-5.436049401760101,37.195560336112976,52.79613733291626,80.95757365226746,-0.9501948401720564,-3.153937392892472,False,0
GUIDED_NOGPS,3.3119423389434814,30.144704216646662,-9.624020026352474,46.34006232473243,75.63925905183228,-0.9438033552237144,-9.373568094517601,42.692414181542254,35.26368945512891,-0.10659860229383034,-0.5345436244933033,49.51382738789039,-0.39644086524983524,0.045944644336638744,-0.5993237841772736,0.4147740479495796,-8.364548749294336,47.503961856484494,74.32484038079178,-0.45608230866491795,4.152955114841461,-5.598817393183708,51.18251442909241,32.637667655944824,70.41114568710327,-1.0170187591395004,1.1125155127202515,False,0
GUIDED_NOGPS,3.3460566997528076,29.316446494722864,-9.602692663156827,46.52287380710623,75.44128440622192,-0.9735149094977988,-9.409652760745942,42.580267395629825,34.62224801927228,-0.10330543725767927,-0.5607917213085449,49.51657653903132,-0.41586958332234036,0.09250792549774124,-0.9328772953590173,0.41377583849064614,-8.421173911241151,47.63223721408805,74.0209808536942,1.3416187837719917,5.24049773812294,-5.063355341553688,41.35247468948364,41.01099967956543,56.56007528305054,-1.0475419146709175,-0.6750253011556859,False,0
GUIDED_NOGPS,3.380542039871216,29.001037157910748,-9.579969781809774,46.7082750711591,75.22924192745967,-1.0048897975980657,-9.44444431512391,42.469121993488756,33.9819545883946,-0.05343353037236179,-0.4019987877290341,49.56388242922283,-0.4252991758387158,0.09623153056542195,-0.9659793604397888,0.41280526787916705,-8.441465900507513,47.79575196509234,73.5704768921869,1.3416187837719917,5.24049773812294,-5.063355341553688,41.35247468948364,41.01099967956543,56.56007528305054,-1.1128742345610343,-0.6750253011556859,False,0
GUIDED_NOGPS,3.4139199256896973,29.964022917887096,-9.598574562392082,46.843763924629,74.98091659363935,-1.033723286655563,-9.477952454692897,42.359133475067296,33.34304125149001,0.12458051602691694,-0.35934681768324317,49.603603394341036,-0.3998591745792182,0.024148872833232454,-0.9661025828948336,0.41191301475895326,-8.448007041818482,47.83237410581519,73.42489857124426,-1.5722226351499557,2.1606598049402237,-7.476750016212463,-24.991722404956818,-9.59886834025383,51.34277939796448,-1.1262561998491534,-0.5580551099680441,False,0
GUIDED_NOGPS,3.4488096237182617,28.6648897636719,-9.59295657283687,46.98542163648028,74.69160316442219,-1.0960491990531511,-9.510188122908072,42.25045383999634,32.705737516031036,0.022246673178672,-0.4075961277538595,49.596588790063436,-0.40367618320261994,0.06603343840083045,-1.3728862654398484,0.4110999603309954,-8.50075958176233,47.908925048229904,72.9621242874771,-0.17040226375684142,3.0316682532429695,-9.659235924482346,-14.093603193759918,0.13655498623847961,-34.75525975227356,-1.1706604735838817,-2.8321289747225014,False,0
GUIDED_NOGPS,3.481214761734009,30.86634384704826,-9.662918264107526,47.03297019590251,74.43984541420657,-1.1333427424924154,-9.54116347620128,42.143231326353224,32.070270252626855,0.00674982772555932,-0.3557726010349167,49.60761271538384,-0.3406168299910967,-0.07554395265483588,-1.1409334461245155,0.4102228417575996,-8.48748725297622,47.934463549530605,72.80797603715544,-5.375342816114426,-2.917289361357689,-7.213941216468811,-47.14121222496033,-51.62161588668823,-6.929703801870346,-1.1874468852529243,-1.2054289238774623,False,0
GUIDED_NOGPS,3.515129804611206,29.48834331674119,-9.725211213627288,47.0763653608866,74.17966605695314,-1.169806016130952,-9.570891850543955,42.037610149425866,31.436863639682116,0.046603661367466374,-0.3092074662032374,49.63377575499957,-0.3346996211050563,-0.06338292431634697,-1.1318441932426697,0.40936039205520114,-8.388907310450408,48.02957338617785,72.34527970715033,-5.375342816114426,-2.917289361357689,-7.213941216468811,-47.14121222496033,-51.62161588668823,-6.929703801870346,-1.2200692413583947,-1.2054289238774623,False,0
GUIDED_NOGPS,3.5482215881347656,30.222030075729737,-9.707115820158831,47.20156917437963,73.84234692777697,-1.2143560758715755,-9.599387728009962,41.93373024047648,30.805739108055278,-0.04171260559150256,-0.3328912538719624,49.62189122584375,-0.41626868571599945,0.0842568512182365,-1.2659938284885301,0.40865861055267133,-8.199505483017377,48.08423973302102,72.20823427529635,-0.5184635519981384,2.590028755366802,-12.27116510272026,-10.798253118991852,-12.515483796596527,-64.64710235595703,-1.244277560901938,-1.715957816692412,False,0
GUIDED_NOGPS,3.581899404525757,29.69860297814188,-9.710476065619492,47.30922662211466,73.54008100130235,-1.2440695392631207,-9.626666703338646,41.831726985506066,30.177115285717207,-0.02382839558005886,-0.22395635335601746,49.64342339720221,-0.4052611797327886,0.04450716057230478,-1.0998614972798402,0.407889232231894,-8.227620059181866,48.060495435242615,72.05629714696715,-2.0466795191168785,1.9116200506687164,-10.195929557085037,17.588281631469727,2.9329143464565277,-176.25081539154053,-1.2539875084843186,-0.8255393517700537,False,0
GUIDED_NOGPS,3.6188933849334717,27.03386400257815,-9.68138996704496,47.444422544663496,73.176091689087,-1.2837927610644309,-9.652745450497587,41.73173096401785,29.551207942409675,-0.12132907917772642,-0.3456860124563946,49.6126329044238,-0.41703795990035253,0.09620478225034448,-1.199456618093866,0.4072361885047843,-8.310292144836412,48.209421178916244,71.51249325704295,0.41295350529253483,3.4482236951589584,-12.950170040130615,-22.93960154056549,-22.888068854808807,-4.047323390841484,-1.290515696614831,-1.412238941095809,False,0
GUIDED_NOGPS,3.6491825580596924,33.02367548756387,-9.648812686521634,47.578092219297936,72.82171323593509,-1.3430572070855713,-9.6776416892456,41.633867687781624,28.928229934304042,-0.08885900019372049,-0.2710784687701701,49.6384373591081,-0.4651315240971851,0.1272652809430382,-1.5915380983268035,0.4065930431873563,-8.116473740372061,48.341814271773984,71.003579115624,0.34737291280180216,2.712760493159294,-10.261043906211853,78.49551439285278,81.36259913444519,-20.360691845417023,-1.2970607899901219,-2.5662344060889595,False,0
