Mode,Time,Freq,time2delay,actualDelay,North-Desired,East-Desired,Down-Desired,Roll-UAV,Pitch-UAV,Yaw-UAV,Roll-Control,Pitch-Control,Yaw-Control,Thrust-Control,North-Pos,East-Pos,Down-Pos,Yaw-Ang,North-Vel,East-Vel,Down-Vel,Yaw-Vel,North-Acc,East-Acc,Down-Acc,North-Avg,East-Avg,Down-Avg,Yaw-Avg,North-Dif,East-Dif,Down-Dif,Yaw-Dif,North-One,East-One,Down-One,Yaw-One,North-Two,East-Two,Down-Two,Yaw-Two,Landing-State,Q-Size,Kalman-Time,Kalman-Dt
STABILIZE,0.03438448905944824,29.091151215858176,0.03279903729756673,0.03298783302307129,0.0,0.0,0.0,-1.1828997583435867,-1.5542948162793209,3.1957385774997733,-0.027700521728085445,0.02717071446330191,0.00590513743163908,0.4,0.029045763624100638,0.02958186925499857,0.03331966546078716,0.029287934894760885,-0.14994345838204026,0.07856629672460258,1.671765185892582,-0.04672033487231195,-4.380929842591286,-1.835475116968155,24.962417781352997,0.0,0.0,0.0,0.0,0.0,0.0,0.0,0.0,0.0,0.0,0.0,0.0,0.0,0.0,0.0,0.0,False,0,0.05925774574279785,0.034922119140625
STABILIZE,0.06780338287353516,29.924046659294405,0.032346280415852864,0.03246450424194336,0.0,0.0,0.0,-1.1824075578365227,-1.554213601061221,3.1947260019553188,-0.03453838530813452,0.033523751714754906,0.008984040912410441,0.4,0.06981450336750905,0.07175101052597725,0.09317286318363835,0.0712845188358155,-0.25769430212676525,-0.13037995668128133,2.081928215920925,0.06518674513932651,1.4493424445390701,1.2051149271428585,22.897765040397644,0.0,0.0,0.0,0.0,0.0,0.0,0.0,0.0,0.0,0.0,0.0,0.0,0.0,0.0,0.0,0.0,False,0,0.1165320873260498,0.034921875
STABILIZE,0.10125088691711426,29.896531569418507,0.032411845525105794,0.03265976905822754,0.0,0.0,0.0,-1.1830230219137643,-1.553700909986647,3.1955577909301796,-0.030157206155118285,0.028727128529879804,0.009071490094637698,0.4,0.08712693419373595,0.09119155947424121,0.12752219354469885,0.0894623412775764,-0.14102902496233582,0.23376313038170338,2.2704556584358215,-0.04298149999281754,-1.3028575107455254,0.2725801430642605,25.96869170665741,0.0,0.0,0.0,0.0,0.0,0.0,0.0,0.0,0.0,0.0,0.0,0.0,0.0,0.0,0.0,0.0,False,0,0.14514875411987305,0.0349208984375
STABILIZE,0.134810209274292,29.79967317939609,0.032538684209187825,0.03265118598937988,0.0,0.0,0.0,-1.1831148025807363,-1.5541752879688457,3.1950630291021764,-0.027453722214114146,0.02612572370949323,0.0093626550631301,0.4,0.1025365434722828,0.10736769692866788,0.1583002807416193,0.10478757962933241,0.07356704445555806,0.058316823560744524,1.431030873209238,-0.03515138180048551,1.6967691481113434,1.474051270633936,15.281270444393158,0.0,0.0,0.0,0.0,0.0,0.0,0.0,0.0,0.0,0.0,0.0,0.0,0.0,0.0,0.0,0.0,False,0,0.17389345169067383,0.02993310546875
STABILIZE,0.1682603359222412,29.894826873458683,0.03240826924641927,0.032541751861572266,0.0,0.0,0.0,-1.1838384824676405,-1.5538163828723026,3.1939262294921926,-0.02486045261759652,0.023535977966001664,0.009460842124169075,0.4,0.11210175214153253,0.11795125545031045,0.18381492766633234,0.11488464955631753,0.015303993131965399,0.09725107229314744,1.627582125365734,0.06665884433855598,1.2748293578624725,-2.1859753876924515,21.168044209480286,0.0,0.0,0.0,0.0,0.0,0.0,0.0,0.0,0.0,0.0,0.0,0.0,0.0,0.0,0.0,0.0,False,0,0.20273733139038086,0.034921875
STABILIZE,0.20213580131530762,29.52259081726742,0.032334359486897786,0.032450199127197266,0.0,0.0,0.0,-1.1852101765520493,-1.5538926888919364,3.1934835478566113,-0.022097234407236304,0.020027780556081228,0.009673753102216754,0.4,0.12036688094209108,0.13024078416710455,0.21621762043659848,0.12754369447171002,-0.397728756070137,0.08782428922131658,1.8391065299510956,0.19593390146045345,-2.4165332317352295,1.9672509282827377,32.04557001590729,0.0,0.0,0.0,0.0,0.0,0.0,0.0,0.0,0.0,0.0,0.0,0.0,0.0,0.0,0.0,0.0,False,0,0.23138117790222168,0.034922119140625
STABILIZE,0.2351977825164795,30.243168019843388,0.031960519154866536,0.03210091590881348,0.0,0.0,0.0,-1.1844498911200623,-1.5534124412159198,3.1930013791898904,-0.016774604020243482,0.014938335778155657,0.009311737327750272,0.4,0.13088262463570027,0.14092002633919962,0.24257464387905553,0.13759344605270604,0.2304833149537444,0.12121893232688308,1.070861890912056,0.06753664370882163,-2.208375930786133,1.676289550960064,19.63423639535904,0.0,0.0,0.0,0.0,0.0,0.0,0.0,0.0,0.0,0.0,0.0,0.0,0.0,0.0,0.0,0.0,False,0,0.26020240783691406,0.02993310546875
STABILIZE,0.2686033248901367,29.936861639484672,0.032364638646443684,0.0324862003326416,0.0,0.0,0.0,-1.1835433969511546,-1.5515106604188944,3.1929870784813157,-0.015183042153105474,0.013320759756458356,0.009714272405293694,0.4,0.13782316644025824,0.14980356325640468,0.2847938512728133,0.14816968234333489,-0.3695552470162511,-0.14316121814772487,1.5842011198401451,0.12977383435408027,-5.922247469425201,-0.8071920834481716,16.658660769462585,0.0,0.0,0.0,0.0,0.0,0.0,0.0,0.0,0.0,0.0,0.0,0.0,0.0,0.0,0.0,0.0,False,0,0.3173410892486572,0.0349208984375
STABILIZE,0.30207276344299316,29.87715211739146,0.03237751324971517,0.03251242637634277,0.0,0.0,0.0,-1.1836992106415956,-1.5513798196076063,3.192689751809009,-0.013671069263276952,0.01066640882456467,0.009954015080577255,0.4,0.1382247047684233,0.1563398970020375,0.316471594055576,0.15560112080436325,-0.46832188963890076,0.1007765531539917,1.9193615764379501,0.19094084641418899,-6.781278550624847,1.6209984198212624,24.695861339569092,0.0,0.0,0.0,0.0,0.0,0.0,0.0,0.0,0.0,0.0,0.0,0.0,0.0,0.0,0.0,0.0,False,0,0.3459913730621338,0.034921875
STABILIZE,0.33553457260131836,29.92981204241533,0.03238681157430013,0.03250551223754883,0.0,0.0,0.0,-1.184007209484481,-1.5507943443296894,3.1890588659349124,-0.013042446374966564,0.009789890796439826,0.01016260978505494,0.4,0.14210895268322787,0.1622727635582492,0.34660237202595295,0.1606419125108482,0.05017705261707306,0.1579069998115301,1.7781084403395653,0.06285709701350342,4.78682704269886,3.41716930270195,20.969310402870178,0.0,0.0,0.0,0.0,0.0,0.0,0.0,0.0,0.0,0.0,0.0,0.0,0.0,0.0,0.0,0.0,False,0,0.37467265129089355,0.02993310546875
STABILIZE,0.3690624237060547,29.7835910982347,0.032364638646443684,0.03248476982116699,0.0,0.0,0.0,-1.184997480192427,-1.5508769469299641,3.1837957782925943,-0.010850781611360466,0.008047073051927084,0.010027237657887931,0.4,0.14073709375412338,0.16224256613812313,0.36888081337415196,0.16233268316064273,-0.1681321649812162,-0.08454854832962155,1.6446560621261597,0.07186320169216108,-3.6907244473695755,-8.33469107747078,23.008061945438385,0.0,0.0,0.0,0.0,0.0,0.0,0.0,0.0,0.0,0.0,0.0,0.0,0.0,0.0,0.0,0.0,False,0,0.40343642234802246,0.034922119140625
STABILIZE,0.40236878395080566,30.022791043921433,0.032259734471639,0.03238081932067871,0.0,0.0,0.0,-1.1833710413963177,-1.5486413406372543,3.1790936199358635,-0.008882985205309802,0.005871525952174564,0.009700720154105802,0.4,0.13920999453451863,0.16188747215924174,0.4019902823341434,0.16065874198410254,-0.27317903004586697,-0.23347544483840466,2.0976589992642403,-0.3597625520881148,-4.427199810743332,5.011270195245743,30.304870009422302,0.0,0.0,0.0,0.0,0.0,0.0,0.0,0.0,0.0,0.0,0.0,0.0,0.0,0.0,0.0,0.0,False,0,0.43204236030578613,0.0349208984375
STABILIZE,0.4359760284423828,29.75696691072138,0.03240946133931478,0.032546043395996094,0.0,0.0,0.0,-1.1797476260416258,-1.550929240565797,3.1955757201767505,-0.0069676502484710195,0.004095219728399223,0.009239730971530172,0.4,0.1365369784974995,0.16024931059101105,0.434931983508078,0.1575278370070165,-0.27317903004586697,-0.23347544483840466,2.0976589992642403,-0.3597625520881148,-4.427199810743332,5.011270195245743,30.304870009422302,0.0,0.0,0.0,0.0,0.0,0.0,0.0,0.0,0.0,0.0,0.0,0.0,0.0,0.0,0.0,0.0,False,0,0.46094655990600586,0.0349208984375
STABILIZE,0.46926021575927734,30.040208275140916,0.032254727681477864,0.03238725662231445,0.0,0.0,0.0,-1.1821537736201744,-1.5498218961466088,3.2060916501776315,-0.0054741801931706795,0.002674815350105845,0.009398527578265491,0.4,0.1299760087208786,0.15860737593460447,0.4604323105910123,0.16094836899228832,-0.5028060637414455,-0.14453062321990728,1.531180553138256,0.26155606448926166,-3.408915549516678,-4.693721979856491,19.577863812446594,0.0,0.0,0.0,0.0,0.0,0.0,0.0,0.0,0.0,0.0,0.0,0.0,0.0,0.0,0.0,0.0,False,0,0.4897127151489258,0.02993310546875
STABILIZE,0.5027093887329102,29.897597103122838,0.03244212468465169,0.03256630897521973,0.0,0.0,0.0,-1.1816910283039062,-1.5466815032322838,3.2026505154964147,-0.0039885006761519485,0.0025848167976135475,0.009199639658623823,0.4,0.13274843516138746,0.15647440217387654,0.4761516178243791,0.15901536850973674,0.38822030182927847,0.0024042217773967423,1.3362320140004158,0.007622517794160675,14.950472116470337,16.810929775238037,21.52542918920517,0.0,0.0,0.0,0.0,0.0,0.0,0.0,0.0,0.0,0.0,0.0,0.0,0.0,0.0,0.0,0.0,False,1,0.5260331630706787,0.034921875
STABILIZE,0.5362679958343506,29.797767815912305,0.032438071568806966,0.03256845474243164,0.0,0.0,0.0,-1.1797923424363483,-1.5461351948203885,3.2243528012538953,-0.0056571473029472475,0.0013358028688904944,0.009155611205755606,0.4,0.1255272411599308,0.16430489477830695,0.5385740396150246,0.1577757762944975,-0.4246097058057785,0.01676863175816834,2.0937221124768257,0.6187355777714951,-17.490670084953308,-15.815030038356781,28.388968110084534,0.0,0.0,0.0,0.0,0.0,0.0,0.0,0.0,0.0,0.0,0.0,0.0,0.0,0.0,0.0,0.0,False,0,0.5832712650299072,0.0349208984375
STABILIZE,0.5696525573730469,29.95417928355139,0.03233006795247396,0.03245687484741211,0.0,0.0,0.0,-1.1813813219137284,-1.5487007846273746,3.231129202684194,-0.007098789241406667,-0.0008021353129715073,0.009045671766951495,0.4,0.11393489202544932,0.17077686382549,0.5661927683752614,0.15448005017083105,-0.6679567974060774,0.5808680783957243,1.9189408048987389,-0.10112194450792386,-8.361437916755676,7.927226275205612,21.525904536247253,0.0,0.0,0.0,0.0,0.0,0.0,0.0,0.0,0.0,0.0,0.0,0.0,0.0,0.0,0.0,0.0,False,0,0.6120162010192871,0.02993310546875
STABILIZE,0.60308837890625,29.909962847016708,0.03238967259724935,0.03252005577087402,0.0,0.0,0.0,-1.2012237685045557,-1.5591465984675572,3.2052626359671215,-0.006260103688905121,0.0022370690958214887,0.008651301483442468,0.4,0.12604391405266785,0.16519949973593406,0.5766030680359727,0.14714158011244305,1.07734901830554,-0.1508394256234169,1.2277660891413689,-0.2675619885646714,56.664133071899414,-26.110967993736267,8.47998708486557,0.0,0.0,0.0,0.0,0.0,0.0,0.0,0.0,0.0,0.0,0.0,0.0,0.0,0.0,0.0,0.0,False,0,0.6408822536468506,0.034921875
STABILIZE,0.6365227699279785,29.906763829271423,0.03240016301472982,0.03251314163208008,0.0,0.0,0.0,-1.2064976350391576,-1.5617605332072622,3.2435449924913966,-0.00563304455001127,0.006268390640472651,0.008114835636760576,0.4,0.1395484685157459,0.16062532574315844,0.5924481903684125,0.14053214050594048,1.07734901830554,-0.1508394256234169,1.2277660891413689,-0.2675619885646714,56.664133071899414,-26.110967993736267,8.47998708486557,0.0,0.0,0.0,0.0,0.0,0.0,0.0,0.0,0.0,0.0,0.0,0.0,0.0,0.0,0.0,0.0,False,0,0.6715846061706543,0.034921875
STABILIZE,0.6699559688568115,29.91038943442512,0.032392056783040364,0.03252100944519043,0.0,0.0,0.0,-1.2239133367622208,-1.5642510976550839,3.274747217610719,-0.002699337769254524,0.010483967500558727,0.009394618821938422,0.4,0.16189681476816142,0.14460933292415268,0.6009173380495495,0.15453263115153792,1.6332976520061493,-0.8782737888395786,0.8270724676549435,1.1407767010716487,-35.09858548641205,-45.82708179950714,4.7091711312532425,0.0,0.0,0.0,0.0,0.0,0.0,0.0,0.0,0.0,0.0,0.0,0.0,0.0,0.0,0.0,0.0,False,0,0.700298547744751,0.034922119140625
STABILIZE,0.703460693359375,29.848236206687968,0.03243068059285482,0.03263092041015625,0.0,0.0,0.0,-1.205779184515837,-1.616359678050169,3.2238255960273348,-0.0023722595095317265,0.011220203808088101,0.007646168756976745,0.4,0.1590880050446127,0.1496538885275488,0.6232078333022353,0.13107174952766315,-0.06083777989260852,0.5605887155979872,1.8330736085772514,-1.3444767410618181,-26.064226031303406,79.59164381027222,23.542846739292145,0.0,0.0,0.0,0.0,0.0,0.0,0.0,0.0,0.0,0.0,0.0,0.0,0.0,0.0,0.0,0.0,False,0,0.7294504642486572,0.029931884765625
STABILIZE,0.7369825839996338,29.83231386383681,0.03241470654805501,0.03254342079162598,0.0,0.0,0.0,-1.2285887079708002,-1.5854334352619974,3.357693888665,-0.01036800809921291,0.03077061612690275,0.003167320121477007,0.4,0.24240603715267262,0.193185077572052,0.6569909051415244,0.07315726138180047,2.868754602968693,1.6504395753145218,1.7398733645677567,-1.6007310312904162,93.36110949516296,-3.4482084214687347,-11.694356799125671,0.0,0.0,0.0,0.0,0.0,0.0,0.0,0.0,0.0,0.0,0.0,0.0,0.0,0.0,0.0,0.0,False,0,0.7873754501342773,0.034922119140625
STABILIZE,0.7712819576263428,29.15403810463831,0.03235510190327962,0.033149003982543945,0.0,0.0,0.0,-1.2296229480215284,-1.4957518775209664,3.163293898281743,-0.012759857546647435,0.0269756217539127,-0.003740512938742508,0.4,0.23425004513395753,0.20000468141865468,0.69223904362198,-0.01655754737936095,-0.427207350730896,0.6159816402941942,2.7870552614331245,-5.385248990718213,-38.070398569107056,153.44723463058472,96.725994348526,0.0,0.0,0.0,0.0,0.0,0.0,0.0,0.0,0.0,0.0,0.0,0.0,0.0,0.0,0.0,0.0,False,0,0.8164615631103516,0.06485498046875
STABILIZE,0.8046717643737793,29.952468007312614,0.032186301549275716,0.03229689598083496,0.0,0.0,0.0,-1.1682744023398854,-1.5332392640588757,3.130637483199443,-0.021559952734148288,0.005111632789149128,0.00031684506294274266,0.4,0.1413717187455594,0.2378694931992387,0.7519233560521903,0.03148528583658414,-5.951853096485138,1.8379542976617813,2.047046646475792,3.713897431947862,-213.331937789917,-45.00533640384674,130.03392219543457,0.0,0.0,0.0,0.0,0.0,0.0,0.0,0.0,0.0,0.0,0.0,0.0,0.0,0.0,0.0,0.0,False,0,0.8475174903869629,0.034921875
STABILIZE,0.8380184173583984,29.983515265893185,0.03221324284871419,0.03235220909118652,0.0,0.0,0.0,-1.1943766105833238,-1.5741947858695646,3.286411473165808,-0.030181728075713347,-0.022116372739843577,0.00490709602329819,0.4,0.030623551417591252,0.26530103275345074,0.771276168224673,0.09339647667214579,-5.951853096485138,1.8379542976617813,2.047046646475792,3.713897431947862,-213.331937789917,-45.00533640384674,130.03392219543457,0.0,0.0,0.0,0.0,0.0,0.0,0.0,0.0,0.0,0.0,0.0,0.0,0.0,0.0,0.0,0.0,False,0,0.8761754035949707,0.034921875
STABILIZE,0.8715901374816895,29.787186898564723,0.032346280415852864,0.03248929977416992,0.0,0.0,0.0,-1.1960828772153576,-1.5307635339281576,3.2246403095292706,-0.0365748035701627,0.0007164532706077306,5.986041665434266e-05,0.4,0.13701395208833594,0.2997413439731562,0.7040737823362735,0.023759475988921766,6.462613493204117,2.2305767983198166,-2.8220713138580322,-3.8294915534611578,246.93951606750488,123.95042181015015,122.81535863876343,0.0,0.0,0.0,0.0,0.0,0.0,0.0,0.0,0.0,0.0,0.0,0.0,0.0,0.0,0.0,0.0,False,0,0.905367374420166,0.06485400390625
STABILIZE,0.9070045948028564,28.238386340990495,0.03223374684651693,0.03448796272277832,0.0,0.0,0.0,-1.179545922017699,-1.5485285357942433,3.1567354225746502,-0.032467754413730544,-0.03220674161726278,-0.008720804226790894,0.4,0.046100229172898674,0.3177523802979748,0.6336252311510362,-0.10978239592791121,-4.520824924111366,0.36185067147016525,-3.9769046008586884,-6.627222841749829,-213.79263401031494,-56.63423538208008,-21.60337269306183,0.0,0.0,0.0,0.0,0.0,0.0,0.0,0.0,0.0,0.0,0.0,0.0,0.0,0.0,0.0,0.0,False,0,0.9334917068481445,0.034922119140625
STABILIZE,0.940401554107666,29.94370078459089,0.03238514264424642,0.03248858451843262,0.0,0.0,0.0,-1.195196446727137,-1.5550923475866256,3.314967213425162,-0.031158205312870488,-0.05022938528750767,-0.01664097152880857,0.4,-0.04706466214439818,0.3162653352266327,0.5322140895267972,-0.23979605817488595,-4.520824924111366,0.36185067147016525,-3.9769046008586884,-6.627222841749829,-213.79263401031494,-56.63423538208008,-21.60337269306183,0.0,0.0,0.0,0.0,0.0,0.0,0.0,0.0,0.0,0.0,0.0,0.0,0.0,0.0,0.0,0.0,False,1,0.962216854095459,0.034922119140625
STABILIZE,0.9739644527435303,29.79416946070353,0.0324125607808431,0.03254079818725586,0.0,0.0,0.0,-1.1885428819801924,-1.5573021272265364,3.2542991253395814,-0.02618347894151412,-0.04244348851510334,-0.019169216956629844,0.4,-0.08931871716342116,0.32480545121369525,0.48779282117259415,-0.25135670728342463,6.458155065774918,3.9502426981925964,0.5329508800059557,-9.107549262892483,200.8986234664917,108.48560333251953,-38.07512819766998,0.0,0.0,0.0,0.0,0.0,0.0,0.0,0.0,0.0,0.0,0.0,0.0,0.0,0.0,0.0,0.0,False,0,1.020986557006836,0.034921142578125
STABILIZE,1.007396936416626,29.911242645747905,0.03230741818745931,0.03241896629333496,0.0,0.0,0.0,-1.183999845686782,-1.5570915653010295,3.203607809197274,-0.034932783958681726,0.0024787444811496958,-0.035144680395773224,0.4,0.029569960617259083,0.39071192095847684,0.47462795134860636,-0.4245441267066501,6.458155065774918,3.9502426981925964,0.5329508800059557,-9.107549262892483,200.8986234664917,108.48560333251953,-38.07512819766998,0.0,0.0,0.0,0.0,0.0,0.0,0.0,0.0,0.0,0.0,0.0,0.0,0.0,0.0,0.0,0.0,False,0,1.049729824066162,0.034921142578125
STABILIZE,1.041933536529541,28.95279118087625,0.03225448926289876,0.03353524208068848,0.0,0.0,0.0,-1.191069198199451,-1.5473698582345743,3.27740907039632,-0.026597708064815782,-0.03288708185632933,-0.028694087983222795,0.4,-0.050013490598341995,0.3786575024114732,0.4881783656387382,-0.36595841062679707,-4.0629032999277115,-0.14602995943278074,1.9101807847619057,3.066699442048719,-67.93540716171265,92.44472980499268,65.58468341827393,0.0,0.0,0.0,0.0,0.0,0.0,0.0,0.0,0.0,0.0,0.0,0.0,0.0,0.0,0.0,0.0,False,0,1.0782451629638672,0.06485498046875
STABILIZE,1.0753374099731445,29.936861639484672,0.03237441380818685,0.03248739242553711,0.0,0.0,0.0,-1.1857947980563202,-1.5590472405594746,3.24463803620201,-0.02458469574897077,-0.03742512906251512,-0.022410633897688895,0.4,-0.14465645258317708,0.38322109631910295,0.5102628235773599,-0.33156170241290234,-4.0629032999277115,-0.14602995943278074,1.9101807847619057,3.066699442048719,-67.93540716171265,92.44472980499268,65.58468341827393,0.0,0.0,0.0,0.0,0.0,0.0,0.0,0.0,0.0,0.0,0.0,0.0,0.0,0.0,0.0,0.0,False,0,1.1069014072418213,0.06485498046875
STABILIZE,1.1093475818634033,29.403586500848252,0.032411845525105794,0.03303813934326172,0.0,0.0,0.0,-1.1878439615290297,-1.54771275507525,3.257184880263912,-0.03939021170985231,-0.025068840871026097,-0.02489664852527959,0.4,-0.16630672494609838,0.4533484393410577,0.5135379897972281,-0.40830852337818485,-0.21429983898997307,3.1545311212539673,0.8830164559185505,-2.9321442885126445,75.0491201877594,81.08590841293335,-34.320613741874695,0.0,0.0,0.0,0.0,0.0,0.0,0.0,0.0,0.0,0.0,0.0,0.0,0.0,0.0,0.0,0.0,False,0,1.1355600357055664,0.02993310546875
STABILIZE,1.1428699493408203,29.829767865270824,0.03234389623006185,0.03253602981567383,0.0,0.0,0.0,-1.1878914526881024,-1.5467909997024156,3.2595250738282875,-0.04156250800223201,-0.03919947490006602,-0.023376307060213247,0.4,-0.26998832852991517,0.47027369844196193,0.5534247834351338,-0.39031359083048695,-2.767738699913025,1.7343616113066673,2.4173198267817497,-1.5603725107018687,33.83983373641968,-38.4431391954422,48.35144281387329,0.0,0.0,0.0,0.0,0.0,0.0,0.0,0.0,0.0,0.0,0.0,0.0,0.0,0.0,0.0,0.0,False,0,1.1930911540985107,0.02993310546875
STABILIZE,1.1762917041778564,29.92041774264884,0.03233769734700521,0.032471418380737305,0.0,0.0,0.0,-1.1841929052525406,-1.556862327077011,3.2431405172264847,-0.033272668000854634,-0.07067191202668445,-0.019778101392543233,0.4,-0.3179145105833176,0.48568572708012714,0.5760123830241948,-0.4067266039894049,-2.767738699913025,1.7343616113066673,2.4173198267817497,-1.5603725107018687,33.83983373641968,-38.4431391954422,48.35144281387329,0.0,0.0,0.0,0.0,0.0,0.0,0.0,0.0,0.0,0.0,0.0,0.0,0.0,0.0,0.0,0.0,False,0,1.221642255783081,0.02993310546875
STABILIZE,1.2097301483154297,29.90697707583158,0.03237441380818685,0.032505035400390625,0.0,0.0,0.0,-1.1825926132743478,-1.5673670512987847,3.272223676155811,-0.02312614489799041,-0.04341596594256892,-0.019053421188383497,0.4,-0.2530984899821682,0.4280029716470683,0.578715777862274,-0.3733573827330142,2.869945392012596,-1.9694643095135689,1.4433538541197777,0.9479415710602654,121.35007381439209,-50.65298080444336,29.347646236419678,0.0,0.0,0.0,0.0,0.0,0.0,0.0,0.0,0.0,0.0,0.0,0.0,0.0,0.0,0.0,0.0,False,0,1.2507169246673584,0.034921875
STABILIZE,1.2432217597961426,29.858435428872454,0.03237465222676595,0.032509565353393555,0.0,0.0,0.0,-1.1770526895272326,-1.5575939043701428,3.258716123298464,-0.011115225490308371,-0.01407473448912678,-0.01799201345170306,0.4,-0.1935039446901165,0.3751541037127799,0.5848031017560942,-0.3442952479553275,2.869945392012596,-1.9694643095135689,1.4433538541197777,0.9479415710602654,121.35007381439209,-50.65298080444336,29.347646236419678,0.0,0.0,0.0,0.0,0.0,0.0,0.0,0.0,0.0,0.0,0.0,0.0,0.0,0.0,0.0,0.0,False,0,1.2792041301727295,0.034921875
STABILIZE,1.276648759841919,29.916362936070357,0.03234747250874837,0.032470703125,0.0,0.0,0.0,-1.1837408321068503,-1.5581872770542877,3.2640142156602785,0.002264379465032213,-0.021331450271759124,-0.015585172825731375,0.4,-0.2458097257892343,0.3699633157013797,0.6012373277801162,-0.33962949326000236,-2.940102480351925,0.47745630145072937,1.983768492937088,-0.315449298609277,-82.18191266059875,-33.347877860069275,28.643769025802612,0.0,0.0,0.0,0.0,0.0,0.0,0.0,0.0,0.0,0.0,0.0,0.0,0.0,0.0,0.0,0.0,False,0,1.3079588413238525,0.06485498046875
STABILIZE,1.3101656436920166,29.835496973275195,0.0323674996693929,0.0325014591217041,0.0,0.0,0.0,-1.1855760185594681,-1.552038826140807,3.265885260606039,0.004123814402065559,-0.01774283020872624,-0.017057115985903384,0.4,-0.3170054125635586,0.37533988558792525,0.639030625079612,-0.34841747732334055,-2.940102480351925,0.47745630145072937,1.983768492937088,-0.315449298609277,-82.18191266059875,-33.347877860069275,28.643769025802612,0.0,0.0,0.0,0.0,0.0,0.0,0.0,0.0,0.0,0.0,0.0,0.0,0.0,0.0,0.0,0.0,False,0,1.3365602493286133,0.06485498046875
STABILIZE,1.3435938358306885,29.913375887030632,0.03229811986287435,0.0324397087097168,0.0,0.0,0.0,-1.1829618703763516,-1.5534053975833382,3.2430521516540978,0.013900973777735455,-0.007682045317643638,-0.02018843980980093,0.4,-0.30940852701679505,0.3418249601764283,0.6791427870428495,-0.3904816847453046,0.8641467429697514,-1.2058396823704243,2.1021584048867226,-1.990360453154263,93.7233567237854,-27.67661213874817,84.133780002594,0.0,0.0,0.0,0.0,0.0,0.0,0.0,0.0,0.0,0.0,0.0,0.0,0.0,0.0,0.0,0.0,False,0,1.3652174472808838,0.034921142578125
STABILIZE,1.3769621849060059,29.96851890223426,0.03234294255574544,0.03251481056213379,0.0,0.0,0.0,-1.1816566639146444,-1.5534783952300928,3.2457272379312156,0.0007536090732457213,-0.007307017924458342,-0.01841694725085144,0.4,-0.25221627080708947,0.35490346636929554,0.6493358491526685,-0.35284103713574255,2.1418221294879913,1.426445133984089,0.005570490611717105,0.9975730339424573,47.708556056022644,48.70019853115082,-2.5697872042655945,0.0,0.0,0.0,0.0,0.0,0.0,0.0,0.0,0.0,0.0,0.0,0.0,0.0,0.0,0.0,0.0,False,0,1.4028384685516357,0.034921875
STABILIZE,1.4104115962982178,29.895892285651154,0.032470019658406575,0.03258037567138672,0.0,0.0,0.0,-1.1843945025547618,-1.556114207919483,3.2766985172792267,0.002708677834662342,-0.03948698636259226,-0.024686934948151776,0.4,-0.35447517898158054,0.2989776154468144,0.6636329549735974,-0.4169461298098374,-2.9554441571235657,-0.5449838005006313,1.7012108117341995,-2.272058371979922,-122.66286611557007,-27.638807892799377,27.369967103004456,0.0,0.0,0.0,0.0,0.0,0.0,0.0,0.0,0.0,0.0,0.0,0.0,0.0,0.0,0.0,0.0,False,0,1.4603610038757324,0.034921875
STABILIZE,1.4438934326171875,29.867365467738605,0.03245571454366048,0.032573699951171875,0.0,0.0,0.0,-1.1813823891307862,-1.5530897147776368,3.244242739003796,-0.0002593920284943143,-0.013843541170495452,-0.029081371877727052,0.4,-0.2767556735476282,0.3092871437929268,0.6495533559449684,-0.46629398593728033,3.2715652137994766,1.257595606148243,0.6540159694850445,-3.1855263774735465,94.90679502487183,36.71183884143829,-10.856994241476059,0.0,0.0,0.0,0.0,0.0,0.0,0.0,0.0,0.0,0.0,0.0,0.0,0.0,0.0,0.0,0.0,False,0,1.4890038967132568,0.064855224609375
STABILIZE,1.4773378372192383,29.900154693927014,0.032414944966634114,0.03253936767578125,0.0,0.0,0.0,-1.1855278870701607,-1.5518357347347047,3.2785454431194805,0.006219342966102661,-0.004656875521087995,-0.025197844518835888,0.4,-0.29339445839276074,0.283096357316944,0.681841725535116,-0.41747538716075716,-0.7954678498208523,-0.7340880110859871,1.8680570647120476,2.470716344980447,-72.69700765609741,-9.754271805286407,25.21035671234131,0.0,0.0,0.0,0.0,0.0,0.0,0.0,0.0,0.0,0.0,0.0,0.0,0.0,0.0,0.0,0.0,False,0,1.5176403522491455,0.0349208984375
STABILIZE,1.5108046531677246,29.882260741943988,0.03241542180379232,0.03253531455993652,0.0,0.0,0.0,-1.185327997315232,-1.5532083893144657,3.2804478642467405,0.002119017404176017,-0.013584206191195502,-0.02205792171967368,0.4,-0.32939516009930175,0.27347930702837714,0.6851334633232141,-0.3906459774283941,-2.2896219044923782,0.2745151985436678,1.6035065054893494,0.39322439588394775,-57.947760820388794,23.60164076089859,27.21647620201111,0.0,0.0,0.0,0.0,0.0,0.0,0.0,0.0,0.0,0.0,0.0,0.0,0.0,0.0,0.0,0.0,False,0,1.5497055053710938,0.02993310546875
STABILIZE,1.5442659854888916,29.882686539516527,0.032360347112019856,0.032500267028808594,0.0,0.0,0.0,-1.1809073708183528,-1.5533321864931722,3.2413798225245025,0.006294720937184727,-0.017673580198647742,-0.024246811004997416,0.4,-0.2995575896519017,0.26436404657862655,0.685161109134645,-0.40061515505611295,0.7335174828767776,0.28728002216666937,1.6196081414818764,-1.4295803645116483,67.33996272087097,-24.97725337743759,31.65697455406189,0.0,0.0,0.0,0.0,0.0,0.0,0.0,0.0,0.0,0.0,0.0,0.0,0.0,0.0,0.0,0.0,True,0,1.5782208442687988,0.034921875
STABILIZE,1.577707290649414,29.903778696706116,0.03238871892293294,0.03252148628234863,0.0,0.0,0.0,-1.1847748587141669,-1.5514647700854083,3.2747414546386064,-0.0019437035435607073,0.006222924953933857,-0.023563498577617623,0.4,-0.2731795155981045,0.25636252657111847,0.6895728195389732,-0.41261395244132426,0.7335174828767776,0.28728002216666937,1.6196081414818764,-1.4295803645116483,67.33996272087097,-24.97725337743759,31.65697455406189,0.0,0.0,0.0,0.0,0.0,0.0,0.0,0.0,0.0,0.0,0.0,0.0,0.0,0.0,0.0,0.0,True,0,1.6068317890167236,0.034921875
STABILIZE,1.6110687255859375,29.974087228705578,0.03240254720052083,0.032511234283447266,0.0,0.0,0.0,-1.182771692296649,-1.5533912035964694,3.2556214072742136,0.00046998160885356496,-0.012294449655009485,-0.021028150597267918,0.4,-0.29468905598075973,0.25284978692487725,0.6926442617643587,-0.3960423145543223,-1.6463572159409523,0.48705777153372765,1.5458903275430202,0.00431897407212236,-56.30463361740112,33.22153687477112,18.86667311191559,0.0,0.0,0.0,0.0,0.0,0.0,0.0,0.0,0.0,0.0,0.0,0.0,0.0,0.0,0.0,0.0,True,0,1.6365864276885986,0.029932861328125
STABILIZE,1.644514799118042,29.899088977915913,0.03247073491414388,0.03258180618286133,0.0,0.0,0.0,-1.1814987157900878,-1.553624817410425,3.247032657836334,0.0006495885648001058,-0.0016446062735161664,-0.019762380757506057,0.4,-0.25788180185787785,0.2297383352664608,0.705902141589088,-0.35893634323344537,1.0587924160063267,-0.06744237616658211,1.7307447269558907,1.0539645698339635,37.42150068283081,-1.7425550147891045,17.72216111421585,0.0,0.0,0.0,0.0,0.0,0.0,0.0,0.0,0.0,0.0,0.0,0.0,0.0,0.0,0.0,0.0,True,0,1.6935937404632568,0.034921875
STABILIZE,1.6788735389709473,29.104878218027896,0.03246310551961263,0.03342485427856445,0.0,0.0,0.0,-1.1836109517909144,-1.5524932471640243,3.2653335093871485,0.001563074570143618,0.010963560659425655,-0.01804444380404433,0.4,-0.22768501275552125,0.2170367931655884,0.7130612661100684,-0.3242933532124577,1.0587924160063267,-0.06744237616658211,1.7307447269558907,1.0539645698339635,37.42150068283081,-1.7425550147891045,17.72216111421585,0.0,0.0,0.0,0.0,0.0,0.0,0.0,0.0,0.0,0.0,0.0,0.0,0.0,0.0,0.0,0.0,True,0,1.7286381721496582,0.034921875
STABILIZE,1.7123420238494873,29.880344803020588,0.03238514264424642,0.03254389762878418,0.0,0.0,0.0,-1.1833466021256938,-1.552516299052473,3.264601185042076,-0.0007541196980460375,0.004470791281918218,-0.01834057936185361,0.4,-0.2330419036511,0.21995609939028324,0.7119738735382817,-0.3289705017094463,-0.8152366615831852,0.7419896312057972,1.2916808016598225,-1.0133071217475222,-52.11693048477173,23.764649033546448,25.58247745037079,0.0,0.0,0.0,0.0,0.0,0.0,0.0,0.0,0.0,0.0,0.0,0.0,0.0,0.0,0.0,0.0,True,0,1.756894588470459,0.02993212890625
STABILIZE,1.7458038330078125,29.883964005044422,0.03236535390218099,0.032492637634277344,0.0,0.0,0.0,-1.1832799010595803,-1.5520773526765939,3.2590915702594034,0.001042359526817104,-0.0027080637473488106,-0.016504321209296964,0.4,-0.24446337266478255,0.20417600323562668,0.7122590707651837,-0.3079126018811641,-1.1953444220125675,-0.2703788224607706,1.5894005075097084,0.33691335483902723,-22.49816209077835,-19.418789446353912,20.922261476516724,0.0,0.0,0.0,0.0,0.0,0.0,0.0,0.0,0.0,0.0,0.0,0.0,0.0,0.0,0.0,0.0,True,0,1.7854254245758057,0.039910888671875
STABILIZE,1.787734031677246,23.84929520603638,0.03232577641805013,0.04087972640991211,0.0,0.0,0.0,-1.1832978303061517,-1.552567525471248,3.264941200396696,0.0021188724410473522,0.005730734193997658,-0.015934199623558718,0.4,-0.2177612950173538,0.19434045516999823,0.7241856615902875,-0.2901936657180137,1.0059197433292866,-0.00013106983942634542,1.7451494932174683,0.2892382075455151,48.33233952522278,4.330909252166748,19.656653702259064,0.0,0.0,0.0,0.0,0.0,0.0,0.0,0.0,0.0,0.0,0.0,0.0,0.0,0.0,0.0,0.0,True,0,1.8143739700317383,0.02993310546875
STABILIZE,1.8309638500213623,23.131288397692554,0.03229645093282064,0.04240775108337402,0.0,0.0,0.0,-1.1833340089644115,-1.5516580430945786,3.268880938887324,-0.0022652439128085433,0.0011798862613021952,-0.0171343641458538,0.4,-0.20542783822206878,0.19535746686363573,0.7234944305011426,-0.28801235276549747,0.13770618243142962,0.6016502156853676,1.5443410724401474,-0.6359903431622399,-10.133492946624756,12.106460332870483,24.174922704696655,0.0,0.0,0.0,0.0,0.0,0.0,0.0,0.0,0.0,0.0,0.0,0.0,0.0,0.0,0.0,0.0,True,1,1.8432362079620361,0.029932861328125
STABILIZE,1.864516258239746,29.805178931809785,0.03250888188680013,0.032622575759887695,0.0,0.0,0.0,-1.1825103308391902,-1.5526738202902064,3.268211580348663,0.001548997325921541,-0.01015182727093627,-0.015208433467035359,0.4,-0.23403730519828667,0.16614546097607452,0.7259366029686161,-0.24916835393106024,-1.3125005178153515,-0.310486345551908,1.5001658350229263,0.39268150256663753,-42.99895763397217,-13.433042168617249,27.74825692176819,0.0,0.0,0.0,0.0,0.0,0.0,0.0,0.0,0.0,0.0,0.0,0.0,0.0,0.0,0.0,0.0,True,0,1.9130046367645264,0.034922119140625
STABILIZE,1.8978571891784668,29.99273476159149,0.032390864690144856,0.0325007438659668,0.0,0.0,0.0,-1.182276076695,-1.552962182339228,3.261069763797768,0.00346935452475912,-0.005942266300268941,-0.014853534696917883,0.4,-0.21831866083201845,0.15944094876893225,0.7199521130467771,-0.24443212204915468,0.4269204568117857,0.10194482747465372,0.964539498090744,-0.38840278925802124,26.84463858604431,2.2230634465813637,18.672338128089905,0.0,0.0,0.0,0.0,0.0,0.0,0.0,0.0,0.0,0.0,0.0,0.0,0.0,0.0,0.0,0.0,True,0,1.9418094158172607,0.054876953125
STABILIZE,1.9313313961029053,29.87289626437805,0.03248766263326009,0.03260326385498047,0.0,0.0,0.0,-1.1847962030553232,-1.5530811770411743,3.2805415659044166,0.001911771352025278,-0.00028958497957037567,-0.015083166912162452,0.4,-0.2009922364820859,0.15334097039666147,0.7333287423091254,-0.23743148123704982,0.664162915199995,0.12450643116608262,1.1705247685313225,-0.16311116059969272,25.514453649520874,2.2417765110731125,19.527915120124817,0.0,0.0,0.0,0.0,0.0,0.0,0.0,0.0,0.0,0.0,0.0,0.0,0.0,0.0,0.0,0.0,True,0,1.970766305923462,0.009976806640625
STABILIZE,1.964728832244873,29.943059481995487,0.032445700963338216,0.03254961967468262,0.0,0.0,0.0,-1.1838505420203937,-1.5535226847379922,3.2754818898333182,-7.947849871214397e-05,-0.004128389315815256,-0.014933698737434394,0.4,-0.20093210125104374,0.15592075331788335,0.7199945144825065,-0.22835792950755532,-0.6538257002830505,0.6120053585618734,1.7982859164476395,-0.2127245875136075,16.759413480758667,10.352470725774765,24.164332449436188,0.0,0.0,0.0,0.0,0.0,0.0,0.0,0.0,0.0,0.0,0.0,0.0,0.0,0.0,0.0,0.0,True,0,1.9994676113128662,0.034921875
STABILIZE,1.9998631477355957,28.46297502714441,0.03248122533162435,0.03424215316772461,0.0,0.0,0.0,-1.1836866174803133,-1.5540192608349932,3.266970833797248,0.0012140208835111949,-0.002762078869538329,-0.014197028020108273,0.4,-0.18546251760322607,0.1500866417009892,0.7249929543932087,-0.21640068795646583,0.45254374854266644,0.08884912822395563,1.5791164711117744,0.09841028603625608,27.27527916431427,-3.510744869709015,21.110303699970245,0.0,0.0,0.0,0.0,0.0,0.0,0.0,0.0,0.0,0.0,0.0,0.0,0.0,0.0,0.0,0.0,True,0,2.028555393218994,0.029932861328125
STABILIZE,2.033350706100464,29.862049325055533,0.03242233594258626,0.03255343437194824,0.0,0.0,0.0,-1.1849981205226616,-1.5538825503298872,3.2827050283240182,-0.001901661720454604,0.0034851206507697475,-0.01438747355917116,0.4,-0.18003721754585245,0.1399365780897485,0.7198274632142758,-0.20255143743707435,-0.1581868389621377,-0.1770441886037588,1.2225832790136337,0.21868161970755612,-26.067674160003662,8.107507228851318,24.03309792280197,0.0,0.0,0.0,0.0,0.0,0.0,0.0,0.0,0.0,0.0,0.0,0.0,0.0,0.0,0.0,0.0,True,0,2.0639488697052,0.034921875
STABILIZE,2.0673129558563232,29.445697196051725,0.03238108952840169,0.033087730407714844,0.0,0.0,0.0,-1.18212175710844,-1.5540387909071511,3.2684681393293613,-0.0011076574695476162,0.0016069484818024686,-0.01360029749701485,0.4,-0.17530352066057925,0.13011793778378927,0.7190547178997109,-0.18923270330006936,-0.1581868389621377,-0.1770441886037588,1.2225832790136337,0.21868161970755612,-26.067674160003662,8.107507228851318,24.03309792280197,0.0,0.0,0.0,0.0,0.0,0.0,0.0,0.0,0.0,0.0,0.0,0.0,0.0,0.0,0.0,0.0,True,0,2.092682123184204,0.034921875
STABILIZE,2.1009132862091064,29.759078202381122,0.03243830998738607,0.032697439193725586,0.0,0.0,0.0,-1.1810525123382156,-1.5544411317379472,3.2692719672173074,-0.0004601391569423225,-0.00018206037087061788,-0.01218458627104282,0.4,-0.16883318248725845,0.1216452700004877,0.7340372664465787,-0.16745483813070958,0.06437654374167323,-0.20098213572055101,1.6771739348769188,0.5306578871858006,22.68635928630829,-15.56907743215561,14.939382672309875,0.0,0.0,0.0,0.0,0.0,0.0,0.0,0.0,0.0,0.0,0.0,0.0,0.0,0.0,0.0,0.0,True,0,2.1500422954559326,0.02993310546875
STABILIZE,2.13449764251709,29.778938998068842,0.03244522412618001,0.032567739486694336,0.0,0.0,0.0,-1.181280896788588,-1.554088629943751,3.280584468030141,0.0019839906919557585,0.001547882265218603,-0.011144925851156428,0.4,-0.1603568469143582,0.1121131794307296,0.7362892258450193,-0.1497858940759212,0.06437654374167323,-0.20098213572055101,1.6771739348769188,0.5306578871858006,22.68635928630829,-15.56907743215561,14.939382672309875,0.0,0.0,0.0,0.0,0.0,0.0,0.0,0.0,0.0,0.0,0.0,0.0,0.0,0.0,0.0,0.0,True,0,2.1786844730377197,0.02993310546875
STABILIZE,2.1679728031158447,29.872257990997664,0.03227094014485677,0.03240633010864258,0.0,0.0,0.0,-1.17958156706743,-1.5536866092780723,3.274713066664869,0.0019038657823864096,0.0010965015680755076,-0.010973476448499735,0.4,-0.1497535701697971,0.10763581358610783,0.741190778715048,-0.14218138369366834,0.2102202968671918,0.07751468219794333,1.819906197488308,-0.030888923541681036,0.6013184785842896,8.024884760379791,23.038439452648163,0.0,0.0,0.0,0.0,0.0,0.0,0.0,0.0,0.0,0.0,0.0,0.0,0.0,0.0,0.0,0.0,True,0,2.2073371410369873,0.034921875
STABILIZE,2.2012739181518555,30.027734623893014,0.032260926564534505,0.03238368034362793,0.0,0.0,0.0,-1.1788115699602169,-1.5537111552704022,3.2748938532344627,-0.00033584723884755443,-0.0013716396712951057,-0.011313175562703623,0.4,-0.15679494432213653,0.10952616414028171,0.7428245515602434,-0.14008294863915488,-0.8068087510764599,0.4462937358766794,1.3648339547216892,-0.35321624265548074,-24.425119161605835,3.9145100861787796,20.156563818454742,0.0,0.0,0.0,0.0,0.0,0.0,0.0,0.0,0.0,0.0,0.0,0.0,0.0,0.0,0.0,0.0,True,0,2.2361395359039307,0.029843994140625
STABILIZE,2.2348222732543945,29.810898597695758,0.032419474919637044,0.03254961967468262,0.0,0.0,0.0,-1.1786013281998273,-1.5530145826967665,3.2819065365213613,-0.00027377909301934183,-0.0014553345378037652,-0.011023524079215528,0.4,-0.15308228106329408,0.10087499746335205,0.7445596528747688,-0.1304629554992717,-0.17553700599819422,-0.19873979035764933,1.633511297404766,0.133781194385534,4.7826167196035385,-7.91577473282814,19.430428743362427,0.0,0.0,0.0,0.0,0.0,0.0,0.0,0.0,0.0,0.0,0.0,0.0,0.0,0.0,0.0,0.0,True,0,2.264875888824463,0.034922119140625
STABILIZE,2.2681825160980225,29.97087448015663,0.03230932553609212,0.03244280815124512,0.0,0.0,0.0,-1.1781192662548126,-1.5521640107016885,3.281489681538579,-0.0011128886035506032,-0.0010014209815424543,-0.011294892591370499,0.4,-0.1452843365501845,0.09757878297284396,0.748183298436846,-0.12469706847394794,0.10152335744351149,0.11219475418329239,1.4795899391174316,-0.09320560851753364,12.462526559829712,5.877496302127838,16.95321649312973,0.0,0.0,0.0,0.0,0.0,0.0,0.0,0.0,0.0,0.0,0.0,0.0,0.0,0.0,0.0,0.0,True,0,2.293415069580078,0.0299326171875
STABILIZE,2.3016486167907715,29.88204784770807,0.03243091901143392,0.03255915641784668,0.0,0.0,0.0,-1.1776345362671532,-1.5518039316663819,3.281951146194378,-0.0012894511402419297,-0.0005866965388184396,-0.010788922640079104,0.4,-0.1359361621574567,0.0901918238630211,0.7506532249224557,-0.1108272283638503,-0.27898666448891163,0.017079905956052244,1.7060963436961174,0.14292408294047046,5.486820638179779,4.018688574433327,20.092637836933136,0.0,0.0,0.0,0.0,0.0,0.0,0.0,0.0,0.0,0.0,0.0,0.0,0.0,0.0,0.0,0.0,True,0,2.3506267070770264,0.074832275390625
STABILIZE,2.3350250720977783,29.961668416804176,0.032407315572102864,0.0325167179107666,0.0,0.0,0.0,-1.1763425632969629,-1.5521031793293931,3.2809940659369303,-0.002080091698929563,-0.0021357683023747616,-0.010239968601592216,0.4,-0.13415306476269495,0.09004902011854979,0.7859588886152867,-0.1002768541489423,-0.12705884873867035,0.2857057610526681,1.3991370797157288,0.08082272234624514,13.996043801307678,6.007599458098412,19.42937970161438,0.0,0.0,0.0,0.0,0.0,0.0,0.0,0.0,0.0,0.0,0.0,0.0,0.0,0.0,0.0,0.0,True,0,2.3792788982391357,0.02494384765625
STABILIZE,2.368673801422119,29.718172542795603,0.03246191342671712,0.03277015686035156,0.0,0.0,0.0,-1.1769761700641874,-1.551803824944676,3.2839453479886105,-0.0009483240349010923,0.0006778835411782874,-0.010141992236010335,0.4,-0.12660474406370165,0.08620049478088916,0.7750004144476434,-0.09743894080544171,0.060025876155123115,0.03939865273423493,1.3261723332107067,-0.15117628547916812,-1.2649871408939362,-3.8663331419229507,15.507824718952179,0.0,0.0,0.0,0.0,0.0,0.0,0.0,0.0,0.0,0.0,0.0,0.0,0.0,0.0,0.0,0.0,True,0,2.408332109451294,0.034921875
STABILIZE,2.4021754264831543,29.849510728391987,0.032444270451863606,0.03257417678833008,0.0,0.0,0.0,-1.1772746706752582,-1.551297964059272,3.287161940200863,-0.0017526590439903508,0.0014323655140065451,-0.010239548113487386,0.4,-0.11972991760397432,0.0825695470441876,0.7732142956644904,-0.09427053828601807,0.060025876155123115,0.03939865273423493,1.3261723332107067,-0.15117628547916812,-1.2649871408939362,-3.8663331419229507,15.507824718952179,0.0,0.0,0.0,0.0,0.0,0.0,0.0,0.0,0.0,0.0,0.0,0.0,0.0,0.0,0.0,0.0,True,0,2.437415599822998,0.034921875
STABILIZE,2.4356658458709717,29.860135976933755,0.03239014943440755,0.03250932693481445,0.0,0.0,0.0,-1.1750677725214036,-1.5531524671406363,3.281667053013588,-0.0018529016318906567,-0.00042883421987111525,-0.010075776283932743,0.4,-0.12184138676279799,0.08014617998615618,0.7692167522310889,-0.0893156114786777,-0.43594143353402615,0.09792173514142632,1.2021945789456367,-0.03258595207605814,-2.0053721964359283,8.028632402420044,22.398406267166138,0.0,0.0,0.0,0.0,0.0,0.0,0.0,0.0,0.0,0.0,0.0,0.0,0.0,0.0,0.0,0.0,True,0,2.465575695037842,0.04988818359375
STABILIZE,2.4691920280456543,29.828070774307335,0.032343419392903645,0.03246498107910156,0.0,0.0,0.0,-1.1761694606901854,-1.5530203456688787,3.2857032679262423,-0.002813902931547841,-0.0012373189143982358,-0.010117892445184405,0.4,-0.11760808255580417,0.07834048965248404,0.7855214106278866,-0.08395138550327279,-0.039298951742239296,0.12202407233417034,1.6764383763074875,-0.03664719989882491,18.44245344400406,0.1966192852705717,22.12071120738983,0.0,0.0,0.0,0.0,0.0,0.0,0.0,0.0,0.0,0.0,0.0,0.0,0.0,0.0,0.0,0.0,True,0,2.4943017959594727,0.0199560546875
STABILIZE,2.5031418800354004,29.45562313018807,0.032240899403889973,0.032965898513793945,0.0,0.0,0.0,-1.1763412826364936,-1.5519597453568228,3.2888039603660166,-0.0018948376537931274,-0.001106559149697957,-0.010062924820667448,0.4,-0.11531971564205286,0.07370171372378108,0.7701253710596332,-0.07860751786910546,-0.7263442501425743,0.16713987570255995,1.3858926482498646,-0.34527657463216405,-15.47229140996933,7.828877866268158,20.67617177963257,0.0,0.0,0.0,0.0,0.0,0.0,0.0,0.0,0.0,0.0,0.0,0.0,0.0,0.0,0.0,0.0,True,0,2.553525924682617,0.03991015625
STABILIZE,2.5365705490112305,29.912522554004806,0.0323210080464681,0.03245663642883301,0.0,0.0,0.0,-1.1774142626664204,-1.552580332075942,3.286553199591086,-0.0028055402278664714,-0.0023732238014583674,-0.009804061035999618,0.4,-0.11485012594978691,0.0747052606922934,0.7804846475968391,-0.07369305906652365,-0.23446492850780487,0.25334248784929514,1.7590008676052094,0.013233584898392263,-4.755545407533646,0.06592498393729329,20.26529312133789,0.0,0.0,0.0,0.0,0.0,0.0,0.0,0.0,0.0,0.0,0.0,0.0,0.0,0.0,0.0,0.0,True,0,2.5822343826293945,0.034922119140625
STABILIZE,2.5699856281280518,29.928317100146277,0.0323827584584554,0.03253626823425293,0.0,0.0,0.0,-1.177960784521727,-1.5538123274474829,3.2939934100313453,-0.003700410878738002,-0.0034932380909485964,-0.009583068022016661,0.4,-0.11422343292345842,0.07580303454011564,0.7864182132809368,-0.06916237842981521,-0.23446492850780487,0.25334248784929514,1.7590008676052094,0.013233584898392263,-4.755545407533646,0.06592498393729329,20.26529312133789,0.0,0.0,0.0,0.0,0.0,0.0,0.0,0.0,0.0,0.0,0.0,0.0,0.0,0.0,0.0,0.0,True,0,2.6114165782928467,0.034922119140625
STABILIZE,2.60382080078125,29.56004256788662,0.0324430783589681,0.03259086608886719,0.0,0.0,0.0,-1.1774029501656074,-1.5541416706315245,3.293847628181248,-0.003965858220796715,-0.002766981765529738,-0.009660599068910635,0.4,-0.1124723411273777,0.07493786469201426,0.783229190899672,-0.06770975983651421,-0.16489194240421057,0.13656096998602152,1.2496371753513813,-0.14815947630013812,-11.59585639834404,7.8299880027771,18.546511232852936,0.0,0.0,0.0,0.0,0.0,0.0,0.0,0.0,0.0,0.0,0.0,0.0,0.0,0.0,0.0,0.0,True,0,2.640261173248291,0.034921875
STABILIZE,2.6416614055633545,26.423309289066683,0.03203442891438802,0.0367436408996582,0.0,0.0,0.0,-1.1766085137877702,-1.553701016708353,3.292195149288928,-0.0044537381341143096,-0.003087535602696037,-0.009308593311174066,0.4,-0.11002295354594199,0.07573361408960325,0.7887748757983504,-0.06039204842101038,-0.12030013604089618,0.2247815951704979,1.7460029572248459,0.19244895751901311,-5.435705557465553,0.052611809223890305,18.937106430530548,0.0,0.0,0.0,0.0,0.0,0.0,0.0,0.0,0.0,0.0,0.0,0.0,0.0,0.0,0.0,0.0,True,0,2.670116662979126,0.02993310546875
STABILIZE,2.6756341457366943,29.43846375204419,0.03214433987935384,0.032717227935791016,0.0,0.0,0.0,-1.1770392425923042,-1.5565413081860204,3.296915663779053,-0.004712272320970846,-0.0034794002433455214,-0.009105220276251238,0.4,-0.10987664999087814,0.07297371262464945,0.7899372791332708,-0.055388525746390034,-0.2621591789647937,0.03001615114044398,1.736350916326046,0.08583836237349558,5.734198912978172,-1.7406726256012917,24.841900169849396,0.0,0.0,0.0,0.0,0.0,0.0,0.0,0.0,0.0,0.0,0.0,0.0,0.0,0.0,0.0,0.0,True,0,2.697551727294922,0.03491796875
STABILIZE,2.7088286876678467,30.12002613947276,0.03215626080830892,0.03227376937866211,0.0,0.0,0.0,-1.1770548239613483,-1.5560512421130719,3.297021104824365,-0.004050073014266751,-0.002566681933859809,-0.008924279030625471,0.4,-0.10503037788380223,0.07062083860626873,0.7854215236791529,-0.050861677625320935,0.050376157741993666,0.1755629200488329,0.847840216010809,-0.22139914120293527,0.6527804769575596,3.765134885907173,14.62976485490799,0.0,0.0,0.0,0.0,0.0,0.0,0.0,0.0,0.0,0.0,0.0,0.0,0.0,0.0,0.0,0.0,True,0,2.7583909034729004,0.034921875
STABILIZE,2.7423017024993896,29.875236833482912,0.032430442174275716,0.0325627326965332,0.0,0.0,0.0,-1.1766350874925098,-1.5552198800250345,3.298642207535185,-0.0038888017623815666,-0.002364506817694895,-0.008717998463286976,0.4,-0.10344272719589481,0.07073628178648425,0.790770836334313,-0.04619727498579352,-0.14853108441457152,0.1704795751720667,1.7401298508048058,0.08535265855027098,-6.853846460580826,0.11621483135968447,28.095197677612305,0.0,0.0,0.0,0.0,0.0,0.0,0.0,0.0,0.0,0.0,0.0,0.0,0.0,0.0,0.0,0.0,True,0,2.787112236022949,0.0349208984375
STABILIZE,2.776066541671753,29.616816952527557,0.03240254720052083,0.032810211181640625,0.0,0.0,0.0,-1.1768001859713537,-1.5558101577797117,3.298255661516845,-0.0036916043982721867,-0.0030055122238264683,-0.008424678833437366,0.4,-0.10493038643646439,0.06898526436323553,0.7903026183260665,-0.04161790175443026,-0.31920475885272026,0.06066898349672556,1.4134112745523453,0.08914974347080222,-3.746337816119194,-0.1417641993612051,18.108786642551422,0.0,0.0,0.0,0.0,0.0,0.0,0.0,0.0,0.0,0.0,0.0,0.0,0.0,0.0,0.0,0.0,True,0,2.815546751022339,0.02993408203125
STABILIZE,2.8099451065063477,29.51615037086037,0.03237012227376302,0.03299760818481445,0.0,0.0,0.0,-1.1770738204249773,-1.5553522149402035,3.2987034657943037,-0.0031892447127017122,-0.003659597836933245,-0.008312015913680602,0.4,-0.10613388701473697,0.06710755049970317,0.7857424658790659,-0.03745839929289676,-0.31920475885272026,0.06066898349672556,1.4134112745523453,0.08914974347080222,-3.746337816119194,-0.1417641993612051,18.108786642551422,0.0,0.0,0.0,0.0,0.0,0.0,0.0,0.0,0.0,0.0,0.0,0.0,0.0,0.0,0.0,0.0,True,0,2.8443570137023926,0.02993408203125
STABILIZE,2.8435235023498535,29.78126486647685,0.03244212468465169,0.032585859298706055,0.0,0.0,0.0,-1.1769777708897742,-1.555929579368481,3.3012116393235793,-0.003390753715573672,-0.0026619289438337256,-0.008008335120513615,0.4,-0.10115801889763693,0.06568524246760703,0.7816789286314372,-0.0315412901700705,0.04449913976714015,0.08190920925699174,1.4208645559847355,0.2025334116634196,-5.398529767990112,-0.11696676956489682,21.274307370185852,0.0,0.0,0.0,0.0,0.0,0.0,0.0,0.0,0.0,0.0,0.0,0.0,0.0,0.0,0.0,0.0,True,0,2.8730366230010986,0.069843017578125
STABILIZE,2.8804967403411865,27.046066546298686,0.03232553799947103,0.03610587120056152,0.0,0.0,0.0,-1.1758565526488343,-1.557653881968792,3.301226366918977,-0.004869858659937119,-0.004966118067396998,-0.00830621521025017,0.4,-0.10853349294068948,0.07111699606573181,0.8069442430129707,-0.03333043628631887,-0.3733973251655698,0.2715060254558921,1.5559644438326359,-0.2325917935401763,-1.6276884824037552,3.80234494805336,17.711640894412994,0.0,0.0,0.0,0.0,0.0,0.0,0.0,0.0,0.0,0.0,0.0,0.0,0.0,0.0,0.0,0.0,True,0,2.930375099182129,0.02993310546875
STABILIZE,2.913987636566162,29.860561144215914,0.032439502080281575,0.03256392478942871,0.0,0.0,0.0,-1.1755615738540544,-1.557566476891757,3.3011984058320625,-0.004651149818360083,-0.004321754637515864,-0.008354107464458407,0.4,-0.10401100196510403,0.07011738484249933,0.8020359004413438,-0.03191752331860493,0.0024785207642707974,0.10912506841123104,1.50348711758852,-0.031849012017210784,7.969909161329269,-1.9524836912751198,25.10693669319153,0.0,0.0,0.0,0.0,0.0,0.0,0.0,0.0,0.0,0.0,0.0,0.0,0.0,0.0,0.0,0.0,True,0,2.9590747356414795,0.034921875
STABILIZE,2.9475228786468506,29.820436254017007,0.03240779240926107,0.032549381256103516,0.0,0.0,0.0,-1.1748054505685928,-1.5576234662826443,3.3045571513564163,-0.00396453746705935,-0.00428639398125518,-0.008669538440768641,0.4,-0.10502116894911555,0.06529693295221799,0.8023829417057959,-0.03388246723177351,-0.2743242075666785,-0.12202368816360831,1.5448875725269318,-0.22014229301416036,-5.295587703585625,-0.1751400064677,20.839358866214752,0.0,0.0,0.0,0.0,0.0,0.0,0.0,0.0,0.0,0.0,0.0,0.0,0.0,0.0,0.0,0.0,True,0,2.987781524658203,0.034922119140625
STABILIZE,2.980841875076294,30.010117126850453,0.032329829533894856,0.03244590759277344,0.0,0.0,0.0,-1.174165653942433,-1.5578107628762907,3.30491274808008,-0.0036058482439066345,-0.004557781312040227,-0.008469581530490565,0.4,-0.10724479841804299,0.06195094465873296,0.7970082754317943,-0.029598596681967113,-0.3384584793820977,-0.0410361448302865,1.2240500189363956,0.13299312128940413,-9.588783234357834,1.7121661454439163,14.223472774028778,0.0,0.0,0.0,0.0,0.0,0.0,0.0,0.0,0.0,0.0,0.0,0.0,0.0,0.0,0.0,0.0,True,0,3.0175271034240723,0.029932861328125
STABILIZE,3.0143330097198486,29.85949824871145,0.03246048291524251,0.03258538246154785,0.0,0.0,0.0,-1.1737125135796849,-1.5570305204853225,3.3053682363203554,-0.0037948057755136182,-0.0039051845094862,-0.008316284208639732,0.4,-0.09979029344527113,0.06159025368651571,0.7953419786481092,-0.02525719048554854,0.180064479354769,0.132314907386899,1.645890437066555,0.14835435013489504,7.7798523008823395,-1.9528493285179138,21.876928210258484,0.0,0.0,0.0,0.0,0.0,0.0,0.0,0.0,0.0,0.0,0.0,0.0,0.0,0.0,0.0,0.0,True,0,3.0451865196228027,0.034922119140625
STABILIZE,3.048025369644165,29.684310353369145,0.032405885060628255,0.03253579139709473,0.0,0.0,0.0,-1.1737413284402458,-1.556886232739106,3.3063959663470306,-0.002900754559517629,-0.0012770366650777588,-0.007933348180605336,0.4,-0.09286070531618325,0.06147590787927541,0.7980354895107267,-0.020892908391173727,0.180064479354769,0.132314907386899,1.645890437066555,0.14835435013489504,7.7798523008823395,-1.9528493285179138,21.876928210258484,0.0,0.0,0.0,0.0,0.0,0.0,0.0,0.0,0.0,0.0,0.0,0.0,0.0,0.0,0.0,0.0,True,0,3.073777437210083,0.034922119140625
STABILIZE,3.08837890625,24.777608431101502,0.03214004834493001,0.03941512107849121,0.0,0.0,0.0,-1.1738973555740984,-1.5564798364834902,3.3072708708910272,-0.003775314493991635,-0.0027546744558292827,-0.007247552833228709,0.4,-0.09649678219908252,0.06531044164340015,0.8223814329532182,-0.011019504176057291,-0.25499335024505854,0.2018111990764737,1.5199909918010235,0.14621674104851906,-8.074398338794708,1.7352858558297157,18.394523859024048,0.0,0.0,0.0,0.0,0.0,0.0,0.0,0.0,0.0,0.0,0.0,0.0,0.0,0.0,0.0,0.0,True,0,3.1311821937561035,0.06485400390625
STABILIZE,3.1217470169067383,29.96744830739772,0.032401355107625325,0.03252005577087402,0.0,0.0,0.0,-1.1726480712862206,-1.556189873608882,3.308889198837497,-0.003764382079601687,-0.002082859048960231,-0.007214613673456318,0.4,-0.09408028181967949,0.06108413365990577,0.8359597247268985,-0.011248206007322235,0.006810207560192794,-0.14107248280197382,1.1616957373917103,-0.1474698939982313,1.4514785259962082,-2.1898459643125534,15.682294964790344,0.0,0.0,0.0,0.0,0.0,0.0,0.0,0.0,0.0,0.0,0.0,0.0,0.0,0.0,0.0,0.0,True,0,3.160895586013794,0.034921875
STABILIZE,3.155266284942627,29.834860297046607,0.03248432477315267,0.03261733055114746,0.0,0.0,0.0,-1.1719109444643883,-1.5559371566095916,3.309494097465866,-0.004433738036554876,-0.0011625424499754386,-0.007003884870586116,0.4,-0.09151613287866653,0.0613652088936849,0.8298551327001195,-0.006948167203552142,-0.0916175136808306,0.1573692774400115,1.4603213407099247,0.1563641076384837,4.889648407697678,1.8128657713532448,18.438169360160828,0.0,0.0,0.0,0.0,0.0,0.0,0.0,0.0,0.0,0.0,0.0,0.0,0.0,0.0,0.0,0.0,True,0,3.190218687057495,0.034922119140625
STABILIZE,3.1887195110321045,29.89312237189081,0.032421382268269856,0.032544851303100586,0.0,0.0,0.0,-1.172246050620542,-1.555764587611343,3.312106644823396,-0.004421798329927493,-0.0025986131541869185,-0.007238468512563245,0.4,-0.09191489083172319,0.06094931977323951,0.822349025241453,-0.008191052034358031,-0.23201450239866972,0.12011685175821185,1.365432981401682,-0.11119502612055801,-6.086679175496101,1.7920278012752533,19.451333582401276,0.0,0.0,0.0,0.0,0.0,0.0,0.0,0.0,0.0,0.0,0.0,0.0,0.0,0.0,0.0,0.0,True,0,3.218348979949951,0.034921875
STABILIZE,3.222175121307373,29.890778999579535,0.032407315572102864,0.03252768516540527,0.0,0.0,0.0,-1.1707023211464134,-1.5559279785428943,3.3131397109353604,-0.003784918312530777,-0.003221580367658759,-0.007274514132826241,0.4,-0.08888481859115598,0.05776492208028047,0.8230923556824101,-0.006951678106883759,-0.05648208316415548,-0.021569225646089762,1.7545733600854874,0.015729432070650126,-3.3352944999933243,-0.15638016629964113,21.77424430847168,0.0,0.0,0.0,0.0,0.0,0.0,0.0,0.0,0.0,0.0,0.0,0.0,0.0,0.0,0.0,0.0,True,0,3.246905565261841,0.02993310546875
STABILIZE,3.25561785697937,29.901007321437483,0.03238943417867025,0.03250765800476074,0.0,0.0,0.0,-1.1701130038870882,-1.5556598936179713,3.312577287545892,-0.00344690171731305,-0.002298520265055762,-0.007520994799781607,0.4,-0.08697484722142979,0.05881150433539176,0.8151176321746114,-0.006933461979749721,-0.24838382378220558,0.18115248531103134,1.6729854047298431,0.08979905833909639,-7.2135962545871735,0.0733112683519721,22.78546690940857,0.0,0.0,0.0,0.0,0.0,0.0,0.0,0.0,0.0,0.0,0.0,0.0,0.0,0.0,0.0,0.0,True,0,3.3043861389160156,0.03991015625
STABILIZE,3.289052963256836,29.908256619057465,0.03237155278523763,0.03250861167907715,0.0,0.0,0.0,-1.170077465559063,-1.5556771825343079,3.3142974279996777,-0.00442096952897252,-0.0022958051902483485,-0.007197896222937779,0.4,-0.08482062541264997,0.059792925741375944,0.813719734477504,-0.002950052950681654,-0.06823403527960181,0.1689961412921548,1.379366684705019,0.16102580512850997,-0.3805692307651043,1.9249813631176949,17.976972460746765,0.0,0.0,0.0,0.0,0.0,0.0,0.0,0.0,0.0,0.0,0.0,0.0,0.0,0.0,0.0,0.0,True,0,3.334491729736328,0.024945068359375
STABILIZE,3.322800874710083,29.631881989727795,0.03232696851094564,0.032686471939086914,0.0,0.0,0.0,-1.1681938274520203,-1.5562874172479664,3.315295702835557,-0.004018390012942482,-0.0023341963882272214,-0.0076234519508066555,0.4,-0.08273028413468,0.05805336485980993,0.7941285212774635,-0.006621370749312796,-0.11160873109474778,0.061806757003068924,1.025050226598978,-0.21514570281139192,0.3268173197284341,-0.12073359685018659,16.481603682041168,0.0,0.0,0.0,0.0,0.0,0.0,0.0,0.0,0.0,0.0,0.0,0.0,0.0,0.0,0.0,0.0,True,0,3.363212823867798,0.0349208984375
STABILIZE,3.3562262058258057,29.917643282570705,0.03234103520711263,0.03247356414794922,0.0,0.0,0.0,-1.16810909041763,-1.5557453777043022,3.3149142794590944,-0.0038579891052477463,-0.0019834495997525857,-0.007860154631100012,0.4,-0.0813329539712702,0.05688541834536487,0.783384143350472,-0.009965358931949404,-0.11160873109474778,0.061806757003068924,1.025050226598978,-0.21514570281139192,0.3268173197284341,-0.12073359685018659,16.481603682041168,0.0,0.0,0.0,0.0,0.0,0.0,0.0,0.0,0.0,0.0,0.0,0.0,0.0,0.0,0.0,0.0,True,0,3.3916306495666504,0.0349208984375
STABILIZE,3.389714241027832,29.862899780708,0.03236964543660482,0.03252387046813965,0.0,0.0,0.0,-1.1671420850415442,-1.5548671647874268,3.318479211319018,-0.004317145396142754,-0.0015882124203819947,-0.007826381537956976,0.4,-0.07678281436688053,0.05630368311721901,0.7782075499476255,-0.009002829197646755,0.06347907474264503,0.09163693175651133,1.3127160258591175,0.01989911581659746,3.9616554975509644,0.013977763592265546,22.47130423784256,0.0,0.0,0.0,0.0,0.0,0.0,0.0,0.0,0.0,0.0,0.0,0.0,0.0,0.0,0.0,0.0,True,0,3.4204835891723633,0.02993310546875
STABILIZE,3.4232370853424072,29.831040810230295,0.03235510190327962,0.03249073028564453,0.0,0.0,0.0,-1.1655457417664652,-1.5555398316989673,3.3191005450900777,-0.003921709484371345,-0.001254383214987587,-0.007854691800878926,0.4,-0.07349280115373183,0.055268199995362054,0.7758285130290294,-0.00927270457335454,-0.010429618851048872,0.07634420762769878,1.6467731446027756,-0.04448829041653261,-2.1145395934581757,1.8922314047813416,18.29039454460144,0.0,0.0,0.0,0.0,0.0,0.0,0.0,0.0,0.0,0.0,0.0,0.0,0.0,0.0,0.0,0.0,True,0,3.449187994003296,0.034921875
STABILIZE,3.4567110538482666,29.87693929594119,0.03228500684102376,0.03238987922668457,0.0,0.0,0.0,-1.1649223802829958,-1.554849982592796,3.318071747846344,-0.003853687451289497,-0.002102041832184125,-0.00808280991046653,0.4,-0.07563419430601741,0.0557381200343589,0.78139608016481,-0.010548966429313819,-0.2951015019789338,0.14501629630103707,1.8598763272166252,-0.10080666857872564,-2.2100813686847687,0.16981192165985703,25.909247994422913,0.0,0.0,0.0,0.0,0.0,0.0,0.0,0.0,0.0,0.0,0.0,0.0,0.0,0.0,0.0,0.0,True,0,3.4873812198638916,0.034922119140625
STABILIZE,3.4900219440460205,30.016989787520306,0.03222182591756185,0.03235363960266113,0.0,0.0,0.0,-1.1645255889809003,-1.5542194707550392,3.3202358505961804,-0.004403495795462514,-0.0023169839579224726,-0.007737347864268094,0.4,-0.07482159844654107,0.056839006183586595,0.7750124937301537,-0.007526284986637894,-0.1264162245206535,0.17877892823889852,1.1842099018394947,0.1404597053312049,3.5324547439813614,-0.11204835027456284,12.598004937171936,0.0,0.0,0.0,0.0,0.0,0.0,0.0,0.0,0.0,0.0,0.0,0.0,0.0,0.0,0.0,0.0,True,0,3.514539957046509,0.034921875
STABILIZE,3.523455858230591,29.90804335424986,0.0323827584584554,0.03251314163208008,0.0,0.0,0.0,-1.163565307072279,-1.5549588387326931,3.3209839697537085,-0.00360182734271441,-0.0010012943380719418,-0.007679150892025628,0.4,-0.06728559225428951,0.05196819744879057,0.7699741205172553,-0.007982576102613407,-0.11993227526545525,0.033286603866145015,1.3921093195676804,-0.10238941150642403,0.7771093398332596,-0.09729715529829264,17.017164826393127,0.0,0.0,0.0,0.0,0.0,0.0,0.0,0.0,0.0,0.0,0.0,0.0,0.0,0.0,0.0,0.0,True,0,3.5718908309936523,0.029932861328125
STABILIZE,3.5568759441375732,29.920844628334997,0.0323360284169515,0.032446861267089844,0.0,0.0,0.0,-1.1634609332440247,-1.5560835787899236,3.321795481604471,-0.004040395031848404,-0.002163824369079404,-0.007750238972164442,0.4,-0.06888815331440734,0.053520601878154404,0.7626219600467871,-0.00844176928902092,-0.2636329270899296,0.21334679331630468,1.3053898699581623,-0.05052150189808933,-3.3173639327287674,-0.011528062168508768,20.699837803840637,0.0,0.0,0.0,0.0,0.0,0.0,0.0,0.0,0.0,0.0,0.0,0.0,0.0,0.0,0.0,0.0,True,0,3.6006228923797607,0.034922119140625
STABILIZE,3.5902905464172363,29.928103549155882,0.03242162068684896,0.032544612884521484,0.0,0.0,0.0,-1.1633205942009222,-1.555768002705928,3.322953625555611,-0.004604644778089059,-0.0027784377160819432,-0.0077113207369638925,0.4,-0.06894987252669471,0.055283046126967404,0.7601131742435852,-0.00798888448262586,-0.16097864136099815,0.21173653658479452,1.3482858426868916,0.0022922488380533027,2.71625779569149,0.03763906715903431,21.701140701770782,0.0,0.0,0.0,0.0,0.0,0.0,0.0,0.0,0.0,0.0,0.0,0.0,0.0,0.0,0.0,0.0,True,0,3.629307746887207,0.02993310546875
STABILIZE,3.6239073276519775,29.748102756145652,0.032442363103230794,0.03265047073364258,0.0,0.0,0.0,-1.162769803477384,-1.555280604675624,3.323599718762412,-0.0037739566586824703,-0.0022664050426962064,-0.007789890428080462,0.4,-0.06828469576531479,0.05166952847739305,0.7558040844099017,-0.009372992043295381,-0.12896114494651556,-0.08600651635788381,1.4417877420783043,-0.10345618166709555,-3.1327325850725174,-0.18595985602587461,16.752326488494873,0.0,0.0,0.0,0.0,0.0,0.0,0.0,0.0,0.0,0.0,0.0,0.0,0.0,0.0,0.0,0.0,True,0,3.658097267150879,0.0349208984375
STABILIZE,3.657266139984131,29.975158297957492,0.03225210507710775,0.03238964080810547,0.0,0.0,0.0,-1.1619506076638055,-1.5575901691104403,3.325566172913141,-0.002884746193407563,-0.0023458006616346797,-0.007999932989574146,0.4,-0.06791330704267651,0.04832715725459949,0.7555021857860347,-0.01078072807476569,-0.12896114494651556,-0.08600651635788381,1.4417877420783043,-0.10345618166709555,-3.1327325850725174,-0.18595985602587461,16.752326488494873,0.0,0.0,0.0,0.0,0.0,0.0,0.0,0.0,0.0,0.0,0.0,0.0,0.0,0.0,0.0,0.0,True,0,3.6866018772125244,0.0349208984375
