Mode,Time,Freq,North-Vision,East-Vision,Down-Vision,Yaw-Vision,North-Desired,East-Desired,Down-Desired,Roll-UAV,Pitch-UAV,Yaw-UAV,Roll-Control,Pitch-Control,Yaw-Control,Thrust-Control,northVraw,eastVraw,downVraw,yawVraw,zGyro
GUIDED_NOGPS,0.0026421546936035156,382.34311759343666,258.72572985963205,32.153605109755055,40.47223951889834,-9.009350321247908,260.1034381999272,27.291395984264728,28.294408669567026,-1.1732172181431533,2.1253964946965884,88.63450425542005,2.0,1.383505483619471,1.8019635020974283,0.49391108457533434,258.72572985963205,32.153605109755055,40.47223951889834,-9.009350321247908,-3.8388172273765155
GUIDED_NOGPS,0.01679372787475586,70.68495736290404,258.72572985963205,32.153605109755055,40.47223951889834,-9.009350321247908,260.1034079636727,27.291314310127795,28.29441674892346,-1.1732172181431533,2.1253964946965884,88.63450425542005,0.15559764702058537,0.05510511513123574,1.8033194248894548,0.49391108861501254,258.72572985963205,32.153605109755055,40.47223951889834,-9.009350321247908,-4.068000345428845
GUIDED_NOGPS,0.018648147583007812,541.1306928138305,258.9556733626162,32.98998117676331,42.430528822098445,-7.847519195732427,260.1031987499119,27.290749182150712,28.294472979838588,-1.1732172181431533,2.1253964946965884,88.63450425542005,0.534691148518786,-0.0752042988293656,1.571102336748079,0.4929319720788701,259.41556036858464,34.66273331077981,46.34710742849865,-5.523856944701464,-4.068000345428845
GUIDED_NOGPS,0.04027724266052246,46.25441392163566,259.07064511410834,33.826357243771554,44.38881812529855,-7.266603632974686,260.10263824662155,27.289235151288707,28.294624624219182,-1.1326520843322128,2.0976714761950372,88.45383209149487,0.2402657995516522,0.035923266538528065,1.4564865415971309,0.49195290324946034,259.41556036858464,34.66273331077981,46.34710742849865,-5.523856944701464,-4.239887683968092
GUIDED_NOGPS,0.07110190391540527,32.44783116591755,259.37649612338384,35.69514345329754,47.603298241691824,-7.720083346735938,260.10156132316575,27.28632616685242,28.294917979387705,-1.031552157846213,2.092159513534837,88.33753446049707,0.31842546126147875,0.018888221046323813,1.5495251960085488,0.49034580986884796,260.599900160486,37.75996373833302,50.11567986807817,-9.53400220178095,-4.010704565915763
GUIDED_NOGPS,0.1109771728515625,25.08645047071067,260.02031861737544,37.23483450242756,49.56042532738221,-7.070633901805699,260.0998099312423,27.281595308944347,28.295398384621848,-0.26323234232197085,1.5737427127238743,124.87689501047673,0.3492586689445904,-0.01288998027612056,1.4224758302951446,0.48936748652861983,261.94484232958996,39.281806458169854,52.21848868556982,-3.8233866771545024,-3.666929888837269
GUIDED_NOGPS,0.1500248908996582,25.611567724680338,260.6082243158726,39.46366469507884,51.704545699028024,-5.961026646009963,260.097233005829,27.274634520895358,28.296110227694097,0.14350755718640407,1.1034290132466074,124.72915801872935,0.4356808823326611,-0.03550414980690225,1.2028909208475915,0.488295782264333,261.66525835211763,41.349223888733626,52.77946854343609,0.6966168887644528,-3.151267873219528
GUIDED_NOGPS,0.18354201316833496,29.848023796985526,260.3352213676719,40.97679485108838,52.55561504470456,-6.194499497359724,260.09368636613027,27.265054341701138,28.297096951411277,0.3307920379192413,0.8211774222113543,124.66698963690389,0.4753283611105531,-0.0015760259938401699,1.251649894017859,0.48787074095335337,258.0505456275813,42.29935420636165,52.66888790510778,-7.828809456808045,-2.979380534680281
GUIDED_NOGPS,0.2156076431274414,31.19230139961031,260.46565672164064,42.70473315628408,53.020838646498476,-5.629005791799918,260.0890326165231,27.252483638458692,28.29840106015412,0.5118700111306526,0.467662091975421,124.59663868845277,0.5378273100364493,-0.019271228021816973,1.1403589742397457,0.4876387812068278,260.0677371384283,44.46562137375697,53.614159490951536,-1.105056147321477,-2.5783100780887045
GUIDED_NOGPS,0.25539183616638184,25.14224057833752,260.3708944780018,44.24653083792986,53.367942254517544,-5.027137960078278,260.08314104750406,27.2365693388028,28.300064126416817,0.8548304579430946,-0.3799812193722484,124.44817769665336,0.5757072743089459,-0.009271663606886998,1.021981255151869,0.48746606093594963,260.1260889422916,45.97461693367097,53.8207793674933,0.38967252541648634,-1.8334649444186344
GUIDED_NOGPS,0.29052066802978516,28.472249375475183,260.50017179417773,46.181739504983824,53.77407031766861,-4.6993362818756585,260.075887536635,27.216976163342505,28.30212679734656,1.0350947848696281,-0.6547549005246748,124.40042101397664,0.6512169934052392,-0.02084286267231644,0.9580781726006149,0.487264028239839,262.5912289104696,48.10498020752353,53.88727209456097,-1.42131949984946,-1.5469860468532228
GUIDED_NOGPS,0.3221461772918701,31.631251885369533,261.12049641769033,48.13611132514907,53.93640149980465,-4.208042301673141,260.06715444949,27.193386358097598,28.304628801283112,1.191710382207786,-0.8948243638238399,124.3764197292332,0.7201889645778287,-0.06201941422926944,0.8611505324816381,0.4871841136507392,264.7668814696808,50.32873683425271,54.10115303735968,1.1961914805545462,-1.088619810748564
GUIDED_NOGPS,0.3646125793457031,23.551994250001403,262.66868041040397,50.21191079520358,53.947681065705105,-4.1926882168592225,260.05683054060125,27.165499426935078,28.30760895429835,1.420339545451444,-1.1821130059285658,124.35385278421549,0.7771562772368249,-0.14121173273685372,0.8598583600627177,0.48717996394429663,265.79146559114935,52.20201534383449,53.854618065194664,-4.008439199092194,-0.34377467707849396
GUIDED_NOGPS,0.3967161178588867,31.160090635563314,263.38219317637805,52.43398152079131,53.92577966836192,-4.210232598130233,260.0448108544061,27.13303186400564,28.311105166735835,1.563332437211717,-1.3263108924688172,124.35243210486813,0.8657891273851891,-0.15608583135322204,0.8647194220492757,0.48719266274918693,263.6353009682987,54.771192384286735,53.82156790253142,-4.438309554653372,-0.2291831180523293
GUIDED_NOGPS,0.43222594261169434,28.166893874782584,264.0840355815795,53.91480003746932,53.832584623419166,-4.225437728565109,260.0309966261926,27.095716886180156,28.315154449750345,1.7184147638029128,-1.3396639122961922,124.36075127527721,0.8926075730315634,-0.18239017957446088,0.8692523910197706,0.4872412849131656,263.6353009682987,54.771192384286735,53.82156790253142,-4.438309554653372,0.5156620156177409
GUIDED_NOGPS,0.4652378559112549,30.301504851212623,264.5537255230566,55.317006313415106,54.05983516440046,-4.211953546110775,260.01529518304653,27.05330416548614,28.319792921847448,1.8483702118198067,-1.4539462106020224,124.38543557893763,0.9396183985447095,-0.19631276591005672,0.8679392225779006,0.4871299788787235,264.93967861785524,56.408634171671835,54.536369688138564,-4.009690809295762,1.0313240312354819
GUIDED_NOGPS,0.4920384883880615,37.32882405816965,264.69221671387277,56.40897410667188,54.493682964012635,-4.088995565950874,259.9976198447976,27.005559561544235,28.325055815423053,1.9603836066607232,-1.5372613917063669,124.41660856230956,0.974496479682061,-0.19353664041840654,0.8444576391609794,0.4869156864257052,265.4593374237617,58.04709576405705,55.12311130136794,-2.121667883392476,1.3178029288008934
GUIDED_NOGPS,0.5278966426849365,27.89470743937963,264.6442848170326,57.90564517004791,55.127867918427704,-4.116558911111833,259.97788982496576,26.95226485400468,28.330977483302952,2.0523809186955058,-1.5445183609777997,124.47191943420833,1.0250807484627469,-0.18586948263880346,0.8514467443077597,0.4866015547824376,265.55180610694845,59.26120557441486,55.72412276577663,-4.585135778848112,1.2032113697747289
GUIDED_NOGPS,0.5596017837524414,31.54774315349264,265.1153450798739,59.38522154850917,55.8499784097724,-4.241799848298128,259.9560301317075,26.89321747498381,28.337591405282396,2.1079846349549336,-1.4886418640383947,124.52205302271622,1.0786203699943921,-0.22194079177867643,0.8778379698744773,0.486243806497755,265.99060228250556,60.84736330705559,56.70270116217265,-6.496136717651453,1.4896902673401404
GUIDED_NOGPS,0.6024570465087891,23.340459986310595,266.13584630870116,60.86782385760194,56.906131412735874,-4.337032684699155,259.9319714687626,26.828230241500503,28.344930194665633,2.165812431562846,-1.493756821953088,124.60204819827541,1.118203608628874,-0.2725687871307745,0.898740164542362,0.48571939939096487,268.7378071124346,62.49490269133537,58.291570310258365,-6.14645657631867,2.2345354010102105
GUIDED_NOGPS,0.6353895664215088,30.369739624062326,266.6313936363354,62.590188793593065,58.31987049185224,-4.155868099982159,259.90565013639997,26.757131087912672,28.353025604805467,2.236368926019313,-1.4899042750960834,124.65458601337116,1.1901109726608814,-0.2848349245083212,0.8638794665154617,0.4850165775564766,267.41741525602663,64.42830038238824,59.96534000312574,-5.386058626907996,2.0626480624709638
GUIDED_NOGPS,0.6748948097229004,25.344911142130293,266.85878134921074,64.05518046447641,59.67879389089638,-3.9363170867397317,259.8770079323645,26.679762798353753,28.36190853564281,2.320071827080761,-1.5145114189632296,124.72139892383221,1.2272672604491663,-0.28575607339560394,0.8215233019387901,0.4843415573223732,266.5962759881385,65.24233831970558,60.77947135930508,-4.618330056399344,2.2345354010102105
GUIDED_NOGPS,0.7103915214538574,28.17597624629688,267.28826627945784,65.34443357142162,61.03695158868063,-3.953439409971294,259.84599205282336,26.595982739169166,28.371609040246256,2.339461453473958,-1.3906979118357639,124.82713025218402,1.270866229672332,-0.310652010981996,0.8263524083272193,0.48366732872578283,267.6992307581838,66.36266201217101,62.36604340361108,-5.8663034093327155,2.9220847551671985
GUIDED_NOGPS,0.7410292625427246,32.642784319524324,267.5849765104052,66.3394682076924,62.2281373247424,-3.8352481394088107,259.8125549933121,26.50566259135279,28.3821563313516,2.3871278495875963,-1.500088834200513,124.87451810464556,1.302858322495092,-0.3216104188067545,0.8038960181360473,0.4830770095033046,267.4741534372423,67.41340429120058,63.53889721131105,-3.1600315334518,2.3491269600363753
GUIDED_NOGPS,0.7846179008483887,22.946151026593505,267.38908226669025,67.32419282034931,63.56026722830467,-3.549822485963658,259.77665444968136,26.40868808298346,28.39357878790143,2.4072882201399466,-1.4036965088782387,124.99929200040336,1.3292228040253025,-0.3008129333294028,0.74835247698452,0.48241665577979836,267.75833589386,68.19651215767632,64.77586106999186,-3.825489132877891,2.6929016371148693
GUIDED_NOGPS,0.8108325004577637,38.15639896655871,267.55326020609675,68.23396109071344,64.80698837950527,-3.648246352161481,259.738253219043,26.30495872166143,28.40590396158465,2.3836088080611586,-1.2826335402738782,125.0771561569415,1.3725307073851274,-0.32029636497937897,0.7689975549379634,0.48179945779103966,268.2383049530588,69.09196682326343,66.1062068572129,-5.791864001110966,3.20856365273261
GUIDED_NOGPS,0.8461911678314209,28.29000209090725,267.9810613483147,69.10371915379831,65.97913710688823,-3.575339862806966,259.69731910071664,26.194387526944837,28.41915858337606,2.3815433161674644,-1.3329782243158075,125.16320288010532,1.395396266284054,-0.3446764582822339,0.7556737921382443,0.48122001073824394,268.7352816992282,70.0226784804552,67.05534339345994,2.154746675854753,3.151267873219528
GUIDED_NOGPS,0.890509843826294,22.565429083298813,268.18827153652353,69.71244126139126,66.73896454804427,-3.076162056173826,259.653824797176,26.076900762786217,28.433368570075896,2.3655275897808425,-1.2473481426913577,125.28678832294753,1.4094030637101402,-0.3470161349402708,0.6572060409353326,0.48084720201101583,268.7352816992282,70.0226784804552,67.05534339345994,2.154746675854753,2.9220847551671985
GUIDED_NOGPS,0.9363138675689697,21.839987086494453,269.4651784037599,71.0621969417543,68.25282408229448,-3.1890000980062174,259.60774781499543,25.952437669968944,28.44855903084939,2.3690120534746066,-1.219912980342709,125.43779014511817,1.4693725743877912,-0.423306426889829,0.6812280138274796,0.48009786747427746,273.8586877734243,73.14123386435253,70.64778545996353,-3.3618169839693053,3.151267873219528
GUIDED_NOGPS,0.9702093601226807,29.505353349184688,269.1105008573109,71.73926732553936,69.37589392102738,-3.2766682628458574,259.55907036579583,25.820950198543724,28.464754273766317,2.2718451420117707,-1.008616916221839,125.55375309684665,1.4884408804200537,-0.3730430997734425,0.6998739692624218,0.47954443017636944,265.984948161615,72.05388963181036,70.42455290965866,-1.3636907713763122,3.323155211758775
GUIDED_NOGPS,1.012326955795288,23.74842311481536,268.6598294990221,72.41633770932442,70.4989637597603,-3.2737868264222003,259.50777926719167,25.682402740265076,28.481977812340567,2.2162066344762583,-0.896319534921838,125.69075303121876,1.5109599881486657,-0.35661060392825117,0.7006781379768451,0.4789915070262901,265.984948161615,72.05388963181036,70.42455290965866,-1.3636907713763122,3.323155211758775
GUIDED_NOGPS,1.0429534912109375,32.66261204083699,267.80474361298536,72.29916258254578,71.07235691486996,-3.325090858694287,259.45386584373676,25.536771861027795,28.50025237206968,2.1627175020951843,-0.8806272286645865,125.75375469612297,1.4971418421548743,-0.3078038093804826,0.7119545140334015,0.4787139477285999,264.45985226904423,72.78970848401657,72.36796492529253,0.17011083511280845,3.323155211758775
GUIDED_NOGPS,1.0799837112426758,27.007752736638764,267.6705423364223,72.95979709961938,72.36098889800577,-3.2744605594206617,259.3973258278711,25.38404603330345,28.519599896974416,2.1365339719119403,-0.8048573255198435,125.87105636492876,1.5399485754140605,-0.32883706284380787,0.7030442652291424,0.4780793054994843,268.0642753164126,74.03579318303117,74.29044885906612,-2.99583321361969,3.151267873219528
GUIDED_NOGPS,1.108755350112915,34.77027912027788,266.37257905953163,73.82557404988925,73.89026762591749,-3.115042223365292,259.3381592608671,25.224225368576835,28.54004155613829,2.1583611220651857,-0.7844913556013051,125.94624308731227,1.5837390469030372,-0.23835234801812238,0.6720575077059379,0.4773248869651104,267.36887138897146,74.65122048261999,75.01238909339376,-1.2499428335459726,2.864788975654116
GUIDED_NOGPS,1.1518728733062744,23.210780000553388,266.39888041465434,74.54289534955542,74.91983424547352,-2.968742443359891,259.2763703937758,25.057321349782473,28.561597750247163,2.109414278925582,-0.7577276328645803,126.03685237684165,1.6000720421754944,-0.28695934299949566,0.6440677048255206,0.4768208817523868,266.1164549372284,74.94167238301507,75.45666478396065,-1.5123139545453483,2.6929016371148693
GUIDED_NOGPS,1.1880877017974854,27.603911916075447,266.12587075206545,74.88979450978671,75.48890701667332,-2.902081790072298,259.2119675883734,24.883356563741074,28.58428811812875,2.1148242156350547,-0.6799986927276601,126.1455343469149,1.6116038281802019,-0.27085007280059364,0.6317965423753803,0.4765476905507277,264.61989984867046,75.07649066372501,75.99766717266549,-2.676477743543913,2.864788975654116
GUIDED_NOGPS,1.2206096649169922,30.755666361136573,265.85858484096303,75.06353884749495,75.9562593658017,-2.8008741922968974,259.1449632181079,24.702364433596017,28.60813154329221,2.0705366287264577,-0.6219029712773828,126.22309797512956,1.6203228563896541,-0.262358854414281,0.6124618486314272,0.47632593608874524,263.12342271353225,75.17245349574473,76.41444614077889,-0.09751592788445862,2.6929016371148693
GUIDED_NOGPS,1.2669360637664795,21.59107592362852,265.5815894999408,75.68871414184684,76.93817895493298,-2.6546778786677026,259.0753735690448,24.514388951249835,28.633146160467685,2.0585729120649456,-0.512443533577522,126.31852937821297,1.6516360034583406,-0.25576664909918634,0.5844510481093393,0.47584748360276735,266.67929861130114,76.81719826607073,78.40242355135449,-1.661209506264214,2.3491269600363753
GUIDED_NOGPS,1.3008198738098145,29.5186431135196,264.74542617687246,76.29197890384836,77.94541322090873,-2.336889059014581,259.00321874081425,24.319484409800687,28.659349362145868,2.0196790401665425,-0.42202829078967,126.40338764846122,1.6818979520467945,-0.20722024237493458,0.5216879248751283,0.47535696807061856,263.18805477362986,76.88628494972951,79.01936997059278,-0.14036032458902525,2.291831180523293
GUIDED_NOGPS,1.3298633098602295,34.44080044012711,264.1281814193677,77.12421377035157,79.03655535087509,-2.135541634337902,258.9285225475569,24.117715135978827,28.686757805117534,1.982131355864867,-0.4351828882855708,126.45420425588611,1.7246846397765576,-0.1893089831721656,0.4820387815307799,0.47482510122712124,263.0302311497046,77.66915809525437,79.68787253067798,-2.1195080827850887,2.291831180523293
GUIDED_NOGPS,1.369140863418579,25.468336905766698,263.8102476795745,77.40820038007946,79.46503834398293,-1.9722141071317565,258.8513124188705,23.909155222583095,28.71538741701312,1.8860609032072295,-0.31470440778334896,126.51713761889862,1.7220311890246078,-0.19221053081292325,0.450145633011212,0.4746251745365151,263.0302311497046,77.66915809525437,79.68787253067798,-2.1195080827850887,1.604281826366305
GUIDED_NOGPS,1.3992345333099365,33.230632714826726,263.8203013165941,78.06715583899025,80.15347212445135,-1.7540391433909726,258.7716193007563,23.69388826091739,28.74525340284226,1.8746500049816652,-0.36733168234895835,126.52387218542025,1.7630775662711096,-0.20491579295978135,0.4070409372744708,0.47429589063919547,263.1736908986302,78.86315132646187,81.08467131199808,-0.2548307815836637,1.6615776058793874
GUIDED_NOGPS,1.427025556564331,36.00013732962543,263.11917977405994,78.46515358272607,80.61907171822473,-1.47346551200352,258.6894775565653,23.47200707322714,28.776370251533358,1.8223864646697856,-0.2638897480295846,126.56228516931239,1.77767473797169,-0.15485297071676915,0.3513345568970015,0.47407864926665433,263.1736908986302,78.86315132646187,81.08467131199808,-0.2548307815836637,1.6615776058793874
GUIDED_NOGPS,1.4638915061950684,27.128985938449997,263.11630699906,78.8631513264619,81.0846713119981,-1.328205474410113,258.60492486794476,23.243613445135786,28.808751742473127,1.765960457667312,-0.16375805421928696,126.62741785323763,1.7933832462432049,-0.18266520363413866,0.3227734621148909,0.47386204021523753,263.1736908986302,78.86315132646187,81.08467131199808,-0.2548307815836637,1.3178029288008934
GUIDED_NOGPS,1.4967067241668701,30.4807528796192,264.1184925835491,79.79864858856217,82.12418856895907,-1.2583621206227598,258.51800213578446,23.00881785808126,28.842410952046148,1.75577419101559,-0.10134071733466923,126.64243060903333,1.845890941903818,-0.25730862981051406,0.30921648656034384,0.47335911119154356,268.04115907215015,81.66964311276269,84.20322308288098,-2.4286220571308235,0.9167324722093172
GUIDED_NOGPS,1.5390396118164062,23.62815117766023,264.45934316393175,80.71096881186905,83.07899922003078,-1.0329956904061803,258.4287533811632,22.767739221752468,28.877360260174434,1.7537650481825484,-0.08660325017904445,126.67020215819859,1.8761246711335466,-0.2514509173676767,0.26457761588330486,0.47289918052007185,264.734484051618,81.60011199638252,83.94910326521324,-1.2845353967793756,0.8594366926962349
GUIDED_NOGPS,1.5774261951446533,26.058537373335735,264.2395251523456,81.88672150975361,84.18915056279286,-1.2660196125826815,258.33722564629517,22.52050460652574,28.913611356856972,1.7587420149316664,-0.1302673155216137,126.67692306434189,1.9294908117550642,-0.23273685409753414,0.31166648943905695,0.47236223039703207,262.0746008406993,82.39040942011559,84.4151253402843,-2.5057317676752717,0.6302535746439055
GUIDED_NOGPS,1.608668565750122,32.016121399019895,264.6056561311399,82.69957465276212,84.86447153402928,-1.4451526591431658,258.24346889547627,22.267248975901346,28.951175248709283,1.7876513242022742,-0.07875821762832945,126.69052880116855,1.9607578903272969,-0.26900497252155187,0.34795089709747073,0.47204335185734,265.00434579260167,84.10820254178824,86.2291859965902,-1.4279142553549349,0.6302535746439055
GUIDED_NOGPS,1.6402108669281006,31.71376507504442,265.0737071108091,83.93587573278235,85.76620681641066,-1.1672654467536803,258.14753591603045,22.008114918939945,28.990062265502974,1.7848256535982987,-0.10266692129198886,126.68970917846815,2.0,-0.29531962136403567,0.29273372777973306,0.47161192772454613,265.51394579697603,85.30901523644319,86.6543091123574,2.1959272638204084,0.0
GUIDED_NOGPS,1.6765356063842773,27.5354113599958,264.5682644557743,84.90874433822489,86.51260140710168,-0.9892845449938441,258.0494822192562,21.74325238269907,29.030282066705304,1.7746486717349796,0.005512282825317634,126.69166261257078,2.0,-0.24973777880832068,0.2575034830616688,0.4712588403298018,265.51394579697603,85.30901523644319,86.6543091123574,2.1959272638204084,0.2864788975654116
GUIDED_NOGPS,1.708010196685791,31.779604640061827,264.0542528889472,85.61796906864356,86.6325183010162,-1.0455257746569147,257.94936594137306,21.47281840466961,29.071843648018724,1.7987945643897385,-0.038765512366774287,126.67427295094392,2.0,-0.23104424144622787,0.2690807765283482,0.47121966267350124,262.1644262174825,86.23587673304422,86.58893667833377,-2.4885153646377205,-0.2291831180523293
GUIDED_NOGPS,1.7439463138580322,27.83417502272893,264.0704018456285,86.21486205755502,86.80224769254575,-1.0871002723999914,257.8472477444675,21.196976845212287,29.114755347920436,1.7562438732427341,0.02815238557235295,126.66029838390207,2.0,-0.25222120333965775,0.27778586339626177,0.47115625382768733,262.15534562410613,87.09969420317756,87.16349728694604,-0.6613791197487302,-0.2291831180523293
GUIDED_NOGPS,1.7699613571166992,38.45409954800913,263.772913515112,87.3784967827375,87.23326264662019,-0.7774650369918511,257.74319071743986,20.915898119994125,29.159024854201952,1.766319362763855,-0.006130788471174023,126.61935823001701,2.0,-0.23375988024301012,0.21606124656708994,0.47096288110379086,263.5169041400193,88.79991941199064,87.94735397458072,3.1968714945431174,-0.4583662361046586
GUIDED_NOGPS,1.8019990921020508,31.219930478536924,263.3735051837207,88.23317767571963,87.68606841203585,-0.5551243205873966,257.6372602769505,20.629758932424927,29.20465921050865,1.7686864501980875,-0.017586963380415918,126.6047416251932,2.0,-0.22031321170864737,0.17177141577669913,0.4707592953992364,263.5169041400193,88.79991941199064,87.94735397458072,3.1968714945431174,-0.6875493541569879
GUIDED_NOGPS,1.836639642715454,28.8768451200705,263.6511018975979,89.64147346933582,88.4280223358595,-0.5983413290458592,257.52952406836613,20.338742006093774,29.251664822879317,1.7495630944608154,0.055111729195775075,126.57182011339373,2.0,-0.2561619164439211,0.18061887501975032,0.4704118212435099,266.9019293663623,91.32458158402616,89.38935905841697,-2.3766541237146015,-0.8021409131831525
GUIDED_NOGPS,1.8700993061065674,29.892483233912753,263.165217887249,90.02743958092923,88.24631840952566,-0.4142663284272118,257.4200518667063,20.04303581720547,29.300047466285715,1.679818218576817,0.18994206465020685,126.52268373250466,2.0,-0.21870438241244025,0.1439443280652896,0.47052686452838005,259.735006165738,89.95781774677086,87.40224219557923,1.0050222688290376,-0.9167324722093172
GUIDED_NOGPS,1.8948407173156738,40.43287222249,262.61789864469563,90.80325626011778,88.12389295379,-0.2661537049750621,257.30891547758955,19.742834327017047,29.349812291172135,1.6426947530556224,0.21713427503564411,126.50441980666405,2.0,-0.19474849646110187,0.11438772399360267,0.47061295966869104,259.418749411339,91.12736944955628,87.58007760737378,2.8647365411585355,-0.8021409131831525
GUIDED_NOGPS,1.9376263618469238,23.37909968562574,262.30302013896284,91.30447300812664,88.12202724148115,-0.20526068193320982,257.19618863818033,19.438336714274218,29.400963829994947,1.5710865161886798,0.31978961702255565,126.42570870666881,2.0,-0.1995450540217219,0.10229687738223879,0.4706394682942569,261.9425116113555,92.8282318280527,89.38376192149042,-0.44334904542716913,-1.088619810748564
GUIDED_NOGPS,1.9729650020599365,28.30451125282586,261.9881416332301,92.26127770188725,88.78253381678489,-0.220410117975117,257.0819469181347,19.12974710764788,29.45350600376215,1.5144863393623709,0.3506816555040242,126.34538568202947,2.0,-0.1906022741685175,0.10540509647358724,0.47033548609348863,261.9425116113555,92.8282318280527,89.38376192149042,-0.44334904542716913,-1.4896902673401404
GUIDED_NOGPS,2.010486602783203,26.65571874344618,260.40543653483826,93.83160667624213,89.66376330843694,-0.1400774351894846,256.96626762054717,18.817274318170575,29.507442128572947,1.480555133504511,0.39848785705223594,126.29108567812787,2.0,-0.09827710594641671,0.08939086305692227,0.469921839410068,258.9884038744031,95.83835637262094,90.22376608232989,-0.5128544270724404,-1.432394487827058
GUIDED_NOGPS,2.0481667518615723,26.54639586326496,260.04399308448154,95.15585221710471,90.05173560765842,0.08797747600353958,256.8492296828969,18.501131571672957,29.562774922157274,1.428167796013925,0.4594729086039873,126.22682725841639,2.0,-0.12130585710204353,0.04374672238401798,0.46975551965724943,257.92778891395466,96.8009684506404,90.54767881915484,2.4415901410753946,-1.260507149287811
GUIDED_NOGPS,2.081850290298462,29.69103458039854,259.7458009850047,96.48009775796727,90.43970790687989,0.22279852213649248,256.7309135779943,18.181536241220297,29.619506510415373,1.4370442671705912,0.48267431416258016,126.15755547985412,2.0,-0.11522651510645206,0.016707869375934353,0.46958989930176775,257.92778891395466,96.8009684506404,90.54767881915484,2.4415901410753946,-1.6615776058793874
GUIDED_NOGPS,2.113729238510132,31.376876753319618,258.9428564455245,96.80096845064044,90.54767881915488,0.3576195682694454,256.61140121492696,17.858709579548943,29.67763843395734,1.375478009209154,0.5695901788982849,126.11870536385509,2.0,-0.07200440142788139,-0.01037133511278332,0.46956497980740125,257.92778891395466,96.8009684506404,90.54767881915484,2.4415901410753946,-1.260507149287811
GUIDED_NOGPS,2.1478917598724365,29.276134769346744,258.13991190604435,96.80096845064043,90.54767881915488,0.49244061440239834,256.49077584000656,17.532876451502794,29.737171654642676,1.3844006908644237,0.5834126675093925,126.07716415332307,2.0,-0.04596520502216625,-0.03750354317769238,0.4695947464177439,257.92778891395466,96.8009684506404,90.54767881915484,2.4415901410753946,-1.1459155902616465
GUIDED_NOGPS,2.18241548538208,28.977594771422453,257.92778891395466,96.80096845064043,90.54767881915488,0.7359512243127092,256.36912193771485,17.204265066469787,29.798106562119848,1.3341804443314356,0.7052445660039082,126.0200091303484,2.0,-0.059715522553669347,-0.08645871296402788,0.4696252138714825,257.92778891395466,96.8009684506404,90.54767881915484,2.4415901410753946,-1.1459155902616465
GUIDED_NOGPS,2.213876724243164,31.790202899868877,257.92778891395466,96.80096845064043,90.54767881915488,0.9222575012054477,256.24652513165034,16.873106710818377,29.860442980365846,1.3813931664737966,0.6478603048052229,125.96711614541582,2.0,-0.07113427025247938,-0.124011096061065,0.4696563820806055,257.92778891395466,96.8009684506404,90.54767881915484,2.4415901410753946,-1.5469860468532228
GUIDED_NOGPS,2.2455894947052,31.5389659217373,257.92778891395466,96.80096845064043,90.54767881915488,1.169623596642981,256.12307208547435,16.539635480333995,29.924180174225725,1.3564292519442231,0.7682006607397371,125.93131229378662,2.0,-0.07608196180060701,-0.1738551933660455,0.46968825067753545,257.92778891395466,96.8009684506404,90.54767881915484,2.4415901410753946,-1.2032113697747289
GUIDED_NOGPS,2.275855779647827,33.049176194340916,257.92778891395466,96.80096845064043,90.54767881915488,1.3630988164644975,255.9988504038577,16.204088012655546,29.989316855952172,1.381266060922211,0.7148578438172896,125.910999311195,2.0,-0.08126380588909363,-0.21296259845945884,0.4697208190183986,257.92778891395466,96.8009684506404,90.54767881915484,2.4415901410753946,-0.9167324722093172
GUIDED_NOGPS,2.3136770725250244,26.447635081878314,257.92778891395466,96.80096845064043,90.54767881915488,1.3753819603272468,255.87394853342693,15.866703219711887,30.05585119174506,1.3721056033064603,0.7844638747620664,125.85795606210068,2.0,-0.08546010172225622,-0.21593877503400943,0.4697540861862951,257.92778891395466,96.8009684506404,90.54767881915484,2.4415901410753946,-0.34377467707849396
GUIDED_NOGPS,2.3411126136779785,36.461111835528314,257.92778891395466,96.80096845064043,90.54767881915488,1.3876651041899961,255.7484556637107,15.527722020158272,30.123780808290995,1.362819427521299,0.765107225375956,125.85178157109098,2.0,-0.09174862138274267,-0.21877601798374183,0.46978805099456805,257.92778891395466,96.8009684506404,90.54767881915484,2.4415901410753946,-0.6302535746439055
GUIDED_NOGPS,2.3787708282470703,26.5596757852077,257.92778891395466,96.80096845064043,90.54767881915488,1.634170379475652,255.62246162808623,15.187387071812875,30.193102799302874,1.3612625712773592,0.7220379734605596,125.81962504047857,2.0,-0.09555697475064338,-0.268692811395225,0.46982271199007397,257.92778891395466,96.8009684506404,90.54767881915484,2.4415901410753946,0.0
GUIDED_NOGPS,2.4080142974853516,34.208498491150806,257.92778891395466,96.80096845064043,90.54767881915488,1.7893188425168582,255.49605680472558,14.84594250409323,30.263813732059447,1.3602569326437806,0.7493684418158367,125.82256202182167,2.0,-0.10159375627977343,-0.3002455240089131,0.4698580674564523,257.92778891395466,96.8009684506404,90.54767881915484,2.4415901410753946,-0.057295779513082325
GUIDED_NOGPS,2.4403014183044434,30.986517335382207,257.92778891395466,96.80096845064043,90.54767881915488,1.751554774843472,255.36933201754215,14.503633650452734,30.335909653944853,1.3650096770890516,0.7642517441824119,125.8045166620345,2.0,-0.10626118113343644,-0.2932585294028426,0.469894115417395,257.92778891395466,96.8009684506404,90.54767881915484,2.4415901410753946,0.057295779513082325
GUIDED_NOGPS,2.4792990684509277,25.648686165756533,257.92778891395466,96.80096845064043,90.54767881915488,1.713790707170086,255.24237843713698,14.160706780817105,30.409386098988207,1.4165953211258078,0.798557329784153,125.84251983457645,2.0,-0.1106999190641219,-0.286368337664752,0.46993085363991666,257.92778891395466,96.8009684506404,90.54767881915484,2.4415901410753946,1.0313240312354819
GUIDED_NOGPS,2.5125606060028076,30.06992866616482,257.92778891395466,96.80096845064043,90.54767881915488,1.9547029204095856,255.1152874817451,13.817408834020874,30.484238094403114,1.4758448642981412,0.7043428743117607,125.8592264772863,2.0,-0.11627787831546894,-0.33520836853581276,0.4699682796376241,257.92778891395466,96.8009684506404,90.54767881915484,2.4415901410753946,0.9740282517223995
GUIDED_NOGPS,2.5434296131134033,32.405714241565,257.92778891395466,96.80096845064043,90.54767881915488,2.0265313140219035,254.9881507181821,13.473987150243868,30.560460167127257,1.513417841644087,0.6533876353910557,125.88781764915197,2.0,-0.12172599087895905,-0.3501963125207201,0.4700063906739862,257.92778891395466,96.8009684506404,90.54767881915484,2.4415901410753946,1.432394487827058
GUIDED_NOGPS,2.5770270824432373,29.773020244754253,257.92778891395466,96.80096845064043,90.54767881915488,2.0053739940177464,254.86105976279026,13.130689203447648,30.638046350361936,1.5561120734853673,0.7142505973113931,125.95076467254282,2.0,-0.1264861300118034,-0.3466325647968551,0.4700451837656035,257.92778891395466,96.8009684506404,90.54767881915484,2.4415901410753946,1.6615776058793874
GUIDED_NOGPS,2.603018045425415,38.487621354768855,257.92778891395466,96.80096845064043,90.54767881915488,2.1496209533428745,254.73410618238506,12.787762333812005,30.716990190111623,1.6298167515406807,0.6062876113699999,125.96151539029641,2.0,-0.13256881172213106,-0.37604796710954075,0.47008465568547836,257.92778891395466,96.8009684506404,90.54767881915484,2.4415901410753946,1.3750987083139758
GUIDED_NOGPS,2.638118267059326,28.49642971186314,257.92778891395466,96.80096845064043,90.54767881915488,2.293867912668003,254.60738139520163,12.445453480171512,30.797284751723524,1.6634590617409901,0.6037737815903178,126.03862822602585,2.0,-0.1364218705404617,-0.40570358362132974,0.47012480296628434,257.92778891395466,96.8009684506404,90.54767881915484,2.4415901410753946,2.2345354010102105
GUIDED_NOGPS,2.683656692504883,21.963846588885865,257.92778891395466,96.80096845064043,90.54767881915488,2.4415901410753946,254.48097657184098,12.10400891245187,30.87892262642713,1.787648549437924,0.5225236654928443,126.15251480024665,2.0,-0.14064556251298815,-0.4363609795741334,0.47016562190363614,257.92778891395466,96.8009684506404,90.54767881915484,2.4415901410753946,2.9220847551671985
GUIDED_NOGPS,2.7172834873199463,29.7434617348386,257.92778891395466,96.80096845064043,90.54767881915488,2.4415901410753946,254.3549825362165,11.76367396410647,30.961895937873766,1.8946421821257042,0.47933990118714453,126.24446280685336,2.0,-0.14667161719413696,-0.4371792721149724,0.47020710855935943,257.92778891395466,96.8009684506404,90.54767881915484,2.4415901410753946,3.0366763141933633
GUIDED_NOGPS,2.748913288116455,31.621474506374348,257.92778891395466,96.80096845064043,90.54767881915488,2.4415901410753946,254.22948966650029,11.424692764552862,31.046196348676155,1.9876236817312034,0.4237635590452499,126.35948319247638,2.0,-0.15187917044277774,-0.43795552391675463,0.47024925876476065,257.92778891395466,96.8009684506404,90.54767881915484,2.4415901410753946,3.6096341093241864
GUIDED_NOGPS,2.780414581298828,31.755543946517665,257.92778891395466,96.80096845064043,90.54767881915488,2.4415901410753946,254.10458779606952,11.087307971609189,31.13181506694796,2.09127222927297,0.3701099685155668,126.49630554193007,2.0,-0.15690593650303322,-0.43872215908866685,0.47029206812389657,257.92778891395466,96.8009684506404,90.54767881915484,2.4415901410753946,4.411775022507339
GUIDED_NOGPS,2.8067984580993652,37.97502919899682,257.92778891395466,96.80096845064043,90.54767881915488,2.4415901410753946,253.98036611445286,10.751760503930743,31.218742852843363,2.119294147560005,0.37608755797809157,126.54848818718897,2.0,-0.16270486547229251,-0.43935298555908464,0.47033553201684425,257.92778891395466,96.8009684506404,90.54767881915484,2.4415901410753946,5.213915935690491
GUIDED_NOGPS,2.8434200286865234,27.319472669480486,257.92778891395466,96.80096845064043,90.54767881915488,2.4415901410753946,253.8569130682769,10.418289273446373,31.306970025096593,2.3014888033398604,0.17770209885327956,126.77411665623117,2.0,-0.1661996848556629,-0.44024883400776804,0.47037964560297085,257.92778891395466,96.8009684506404,90.54767881915484,2.4415901410753946,5.156620156177409
GUIDED_NOGPS,2.88268780708313,25.469883468851144,257.92778891395466,96.80096845064043,90.54767881915488,2.4415901410753946,253.73431626221233,10.087130917794955,31.396486467561488,2.4126191827871417,0.11863995899629835,126.99260074740154,2.0,-0.1708284130547013,-0.44121769782476883,0.4704244038242033,257.92778891395466,96.8009684506404,90.54767881915484,2.4415901410753946,5.958761069360562
GUIDED_NOGPS,2.9187252521514893,27.75644393856172,257.92778891395466,96.80096845064043,90.54767881915488,2.4415901410753946,253.61266235992065,9.758519532761948,31.48728163575106,2.4416052249642064,0.11302442292063718,127.18571751599448,2.0,-0.17600079796456952,-0.4420924094798334,0.4704698014082981,257.92778891395466,96.8009684506404,90.54767881915484,2.4415901410753946,6.64631042351755
GUIDED_NOGPS,2.949280023574829,32.73500924849176,257.92778891395466,96.80096845064043,90.54767881915488,2.4415901410753946,253.49203698500025,9.432686404715806,31.579344563377045,2.4821026972136813,0.03930917941645143,127.39529504048714,2.0,-0.18134707861004085,-0.44284430536189634,0.4705158328721111,257.92778891395466,96.8009684506404,90.54767881915484,2.4415901410753946,7.219268218648373
GUIDED_NOGPS,2.979978322982788,32.59357345455958,257.92778891395466,96.80096845064043,90.54767881915488,2.4415901410753946,253.37252462193294,9.109859743044442,31.67266386888945,2.5819099036775506,-0.14133611731929538,127.58662229951754,2.0,-0.1861035772451089,-0.44359385529853695,0.47056249252486726,257.92778891395466,96.8009684506404,90.54767881915484,2.4415901410753946,6.875493541569879
GUIDED_NOGPS,3.015225410461426,28.37574502919229,257.92778891395466,96.80096845064043,90.54767881915488,2.4415901410753946,253.2542085170303,8.790264412591792,31.767227762016113,2.669743361639564,-0.3250639104439807,127.86381869679334,2.0,-0.19029809494713137,-0.4444549278714069,0.4706097744714306,257.92778891395466,96.8009684506404,90.54767881915484,2.4415901410753946,7.047380880109126
GUIDED_NOGPS,3.0483925342559814,30.15792576827392,259.2848919786793,108.54768350962354,91.74007324225754,2.2928435099145106,253.13717057938007,8.474121666094174,31.86302405030226,2.656663335935578,-0.43045962571152185,128.12306535693034,2.0,-0.29035342782749296,-0.4154660937508385,0.4700614754040224,264.7133042375779,132.0411136275897,94.1248620884628,-0.5333424821422881,7.276563998161455
GUIDED_NOGPS,3.0808796882629395,30.790662164146234,260.3138693763083,120.02861959246245,92.37423835726588,2.310742069810515,253.02149128179252,8.161648876616848,31.960040145650062,2.712126606430197,-0.6464440010477973,128.33526567406432,2.0,-0.3269163323065265,-0.4197967755268828,0.46979290089419207,263.07267590209943,131.24377669915717,92.45017416417988,2.7995613389954883,7.792226013779196
GUIDED_NOGPS,3.1146297454833984,29.63879192164733,262.2423198561156,132.0996649521163,93.34747986072976,2.1789924152953875,252.9072495617469,7.853059269990521,32.058263070858175,2.7786601194655263,-0.869369422725966,128.54302636823775,2.0,-0.4343874587194345,-0.3941767022246236,0.46935539160506423,267.57004131299146,133.01410452960206,93.46740332954649,-0.1934029492271634,7.849521793292278
GUIDED_NOGPS,3.1517560482025146,26.982559747820773,264.16653894691757,132.4025950381834,92.69690293321668,2.2066725307891515,252.79452272233766,7.548561657247706,32.15767946616132,2.8576333279701522,-1.0676307111461012,128.78639966874366,2.0,-0.5108904725857883,-0.40051524037194935,0.46973038826647234,267.54888436796443,132.94990388579092,92.17313130592356,2.9951924509506824,7.792226013779196
GUIDED_NOGPS,3.1898446083068848,26.24819455048375,266.400189178124,133.09455916951435,92.41091080770052,2.1122725711809998,252.68338633322097,7.248360167059264,32.2582755957698,2.9527864008448925,-1.229774492843738,129.15693743121685,2.0,-0.6087320097391046,-0.38245989664286373,0.46992368239403465,269.0960400699866,133.31966909315005,91.59219778763142,0.5535909489123583,8.078704911344607
GUIDED_NOGPS,3.221301555633545,31.800567122082885,267.431623889938,133.17737816456795,91.47371738809143,2.071121514452261,252.57391413156108,6.952653978170961,32.36003735440911,3.0860028373036443,-1.4466081328341958,129.3785907301621,2.0,-0.6305802519486062,-0.374881142583665,0.47044315998315883,269.87047779664806,133.26256151476284,90.65582307071924,1.6185690065006213,8.250592249883855
GUIDED_NOGPS,3.253117084503174,31.45122563906448,269.2214522877582,133.43228138651253,90.76712461284531,1.9924995282188696,252.4661779229767,6.661637051839822,32.46295027385942,3.1455795892259037,-1.5998693602379368,129.60253897266847,2.0,-0.7303985393913239,-0.35978493100882536,0.47084791283050703,272.0218178912005,133.71461355162464,90.05335298018517,0.8691504164075639,8.13600069085769
GUIDED_NOGPS,3.290065050125122,27.064041761035508,270.09612103678353,133.4570792072517,89.8097115315724,2.0429804740384903,252.36024748248735,6.37549786427061,32.56699952949521,3.222424126587013,-1.6466181631252659,129.91283446666216,2.0,-0.7357126297411881,-0.3706434950932025,0.4713786439989614,271.9433850581181,133.39406255536755,88.7199585438127,3.451209057467807,7.964113352318443
GUIDED_NOGPS,3.3198413848876953,33.592324141631764,271.3813394021105,133.62541529245573,88.93467900216325,1.9955636899294915,252.25619045545972,6.094419139052459,32.67216994682475,3.3797502770422634,-1.8169156965880169,130.06891794957528,2.0,-0.8119263486805443,-0.36175100878210564,0.47186874547233076,273.97497619459887,133.76756977037496,88.0307254824918,1.4932544588954215,7.39115555718762
GUIDED_NOGPS,3.3488786220550537,34.45353135421972,272.6964618042772,133.76915230510556,88.09019774879391,1.988048123433679,252.15407225855418,5.818577579595132,32.77844600802971,3.4875899994134794,-1.8495243003461272,130.30233283427128,2.0,-0.8713036628267933,-0.3608158558750334,0.4723441241296179,275.67165208082054,134.1458245895742,87.51990922007717,2.2912788111591453,7.563042895726867
GUIDED_NOGPS,3.3816139698028564,30.553581444815958,274.92512639439394,134.65452826603322,87.97068438129827,1.9725732405257446,252.053955980671,5.548143601565673,32.885811858504674,3.689994331173756,-2.057241025176793,130.5510610030865,2.0,-0.9846718532555142,-0.358378765209435,0.4724575637386032,281.0138007472315,136.0501904381505,88.36141844132577,2.132092482916704,8.021409131831525
GUIDED_NOGPS,3.4220409393310547,24.742528816998785,276.0455923300877,134.76993469697933,87.33927239007653,2.025841563520042,251.95590228389676,5.283281065324783,32.99425131339673,3.8634550959958696,-2.1653998454482952,130.86497649734028,2.0,-0.9937792474557358,-0.36985004927477255,0.4728274894616601,277.6241475696694,134.11378906321332,86.13648950882659,3.5069566009613453,8.078704911344607
GUIDED_NOGPS,3.4554200172424316,29.9650932679874,277.6311244366164,135.04283780814114,86.80452371530707,2.0772425331479822,251.85996930445097,5.024147008363389,33.103747864145,3.936273877171491,-2.2033212691636175,131.1051942504496,2.0,-1.0813219767181974,-0.38082222089491136,0.47314961207441897,279.87104559076164,134.9645339230597,85.9156631957688,3.4696095336341983,8.13600069085769
GUIDED_NOGPS,3.493624210357666,26.18118262454511,279.54592037785807,135.19828640362684,86.05205584850292,2.2293097643316067,251.76621255363204,4.770891377739009,33.21428468502022,4.05870245672303,-2.370121318884499,131.44308370869015,2.0,-1.1636462387483024,-0.41208924379561396,0.4735811144182587,283.54895590080724,136.51653622460756,86.10401484091338,5.482934764747881,8.13600069085769
GUIDED_NOGPS,3.5309674739837646,26.786116166938086,281.48977911780077,136.13211018623016,85.78331840803658,2.2841390723608535,251.67468481876404,4.523656762512292,33.32584463966424,4.193328046584921,-2.604710569230934,131.6922490096122,2.0,-1.2472635000585621,-0.4239056595363488,0.47377126311581386,285.39094578053397,136.91526041102324,85.33027718742754,3.5381763016603287,7.906817572805361
GUIDED_NOGPS,3.563591480255127,30.659444602823037,281.5112315761563,135.79871413299284,85.00891173084943,2.409117017160205,251.58543606414278,4.28257812618347,33.43841028762965,4.242709460510467,-2.5873648769468636,131.90682623257734,2.0,-1.2004204830144305,-0.4496882615827557,0.47421474927839014,281.1210630390092,133.9643457633477,83.59244316420735,4.941149037062431,7.333859777674538
GUIDED_NOGPS,3.593559503555298,33.389089230132385,283.5811839831019,135.9294923327865,84.32263413116597,2.550934858208533,251.49851333198248,4.047782539128949,33.551963890919296,4.345412880625833,-2.7320445052670124,132.08506684915798,2.0,-1.3552725083333699,-0.4788163675279331,0.4746146648798767,287.97390960439753,136.9088708239886,84.04518204186299,5.277946962041952,6.41712730546522
GUIDED_NOGPS,3.6295156478881836,27.81848329287543,284.7638215172178,135.3166309785963,83.39452332667888,2.5983703952894652,251.41396064336192,3.81938891103761,33.66648742052583,4.357112140900418,-2.703481507931665,132.33156837630375,2.0,-1.369292801992049,-0.48923627434428213,0.4751359820469235,285.78423326134146,135.07667634845254,82.54594477396631,3.390300882694035,6.760901982543714
GUIDED_NOGPS,3.6610546112060547,31.717842072626627,284.41415041520645,134.93445038557996,82.35289763131892,2.6930762366525456,251.3318188991709,3.597507723347352,33.78196256297129,4.395449565824877,-2.7837311080374376,132.46045404594187,2.0,-1.3148375403063621,-0.5090295012560252,0.4757145324658262,281.8006003907503,132.81780398429873,80.4675660781275,4.335706968337007,6.302535746439056
GUIDED_NOGPS,3.690687417984009,33.790152101056975,284.0252407043377,133.62616009122436,81.1871498610302,2.8244754803535317,251.2521257810567,3.3822407616816186,33.89837072684661,4.4026959696474375,-2.744643216077924,132.5651335251615,2.0,-1.300280698402269,-0.5361298902164964,0.4763556104329082,283.4463972261901,132.98399994092182,80.5479387309968,5.069575015095111,5.67228217179515
GUIDED_NOGPS,3.726701498031616,27.768020761612203,284.35080732989877,132.66684539248203,80.32283782097637,3.1156147186144496,251.17491565237032,3.173680848285901,34.015693049351235,4.380363812382434,-2.800821948888102,132.78875391858773,2.0,-1.3380561124639514,-0.5954964370251439,0.47684642761418744,282.7488961668146,132.1987322522255,79.95300865380482,5.28944228307607,4.010704565915763
GUIDED_NOGPS,3.7608656883239746,29.296583709933156,283.5948189598538,132.60528143216223,80.18770226360898,3.185569430677424,251.100219459113,2.9719115744640483,34.13391040283263,4.273087153730922,-2.7890253584178435,132.89693045466237,2.0,-1.2798139851852723,-0.6105741616570878,0.4769731040696118,284.19396775417266,132.63311210333936,80.06215940602532,4.198655580254979,3.0366763141933633
GUIDED_NOGPS,3.799673557281494,25.763063334213744,284.50762954042375,133.31366496837853,80.60496421222338,3.397505332150014,251.02806463088243,2.7770070330149004,34.253003401325856,4.159727357849866,-2.788046080045593,132.94187309940105,2.0,-1.3645155312594026,-0.6542823200556164,0.47682401959455123,290.3482861641911,135.10915054957076,81.79972457683999,4.04531508022464,1.604281826366305
GUIDED_NOGPS,3.824856996536255,39.71991628550054,285.6809172188796,133.7948412021438,81.04071517477843,3.524163858078085,250.95847498181936,2.589031550668725,34.3729524070931,4.022545142804276,-2.661175316212606,132.9749585357406,2.0,-1.4383775989922785,-0.6804992538928296,0.4766661186161573,287.66703878302945,133.64226095352134,81.26026154146994,5.528362969512102,1.2032113697747289
GUIDED_NOGPS,3.8632006645202637,26.086738025786307,286.1793685817347,133.83870168331808,81.41534230147208,3.7746990418357917,250.8914706115538,2.4080394205236395,34.493737537163284,3.7164672906230796,-2.4865798862146247,132.94012457097355,2.0,-1.4262906144493264,-0.7320509398376379,0.4765391976178456,285.93865404046585,132.76469354686225,81.18604078610626,5.564294624066491,-0.9167324722093172
GUIDED_NOGPS,3.8927056789398193,33.89966620058678,286.6538623528327,133.0635128773031,81.56809007249934,4.0145963273977,250.82706780615146,2.2340746344822584,34.615338669871534,3.5350719804195267,-2.295011009242338,132.90630147420364,2.0,-1.4514037585935669,-0.7812105491230035,0.4765236242986861,285.1213650223045,132.78358413152574,82.25796788992182,6.416514717738792,-1.5469860468532228
GUIDED_NOGPS,3.922675609588623,33.380585908588074,286.839341806459,132.77728726997123,81.90065885531664,4.291964542464262,250.76527893906012,2.067170615687889,34.737735451398834,3.380053366686683,-2.1560713011459387,132.85148237592512,2.0,-1.4511560278393087,-0.8379794446689316,0.4764185382980411,285.1213650223045,132.78358413152574,82.25796788992182,6.416514717738792,-2.4064227395494577
GUIDED_NOGPS,3.955183744430542,30.76762371444081,286.79642611937516,133.73924689635808,83.25304717320326,4.310657512703346,250.7061123720561,1.9073499509612653,34.8609073023115,3.208932581985534,-2.024227946153771,132.73471346187458,2.0,-1.4441146576692088,-0.8431131969059247,0.4758039300645541,290.13370772877175,135.65057242602276,85.24320573976614,3.8250684622495044,-3.8388172273765155
GUIDED_NOGPS,3.9891250133514404,29.47259542413851,286.55777602765676,134.33784477299784,84.40802910804898,4.494899851712802,250.64957235619048,1.7546241232369404,34.984833424100785,2.918732358303678,-1.7125678017082644,132.46089117804877,2.0,-1.430977133719118,-0.8814914059579324,0.4752884021580259,286.4737883244376,134.5793777614451,85.72291369445897,5.178101239084526,-5.67228217179515
GUIDED_NOGPS,4.020870923995972,31.506982264522286,286.7161101759003,135.36554335108886,86.21991747575083,4.595498116550669,250.59565893273557,1.6089932439996666,35.10949280572238,2.708506392726679,-1.465337898920546,132.25267969139009,2.0,-1.451486195780784,-0.9030738093032803,0.47444478766498577,286.7303247816836,135.8666798657988,87.6936329930274,4.303244107916484,-5.557690612768986
GUIDED_NOGPS,4.053053617477417,31.07766630607134,287.03790212777614,135.4375791643475,87.03672656017125,4.704055697800658,250.54436783413138,1.470445785721001,35.23486423013604,2.5965213858595,-1.4313553599222053,132.04211861965695,2.0,-1.4713119173674203,-0.9263021109381284,0.4740990688349824,286.7303247816836,135.8666798657988,87.6936329930274,4.303244107916484,-6.130648407899809
GUIDED_NOGPS,4.084466934204102,31.843542166479395,287.15710428132945,136.5650569054175,88.90638649541499,4.718824400725487,250.4956903849318,1.3389583142958124,35.360926280845085,2.3793360978484923,-1.1861227538581864,131.84405679410492,2.0,-1.4718141923335313,-0.9307344780950219,0.473227269892715,285.7173757900711,137.96181098465513,91.3318935001902,3.8023306594579367,-6.990085100596044
GUIDED_NOGPS,4.119458913803101,28.585962951351497,285.94678058717955,137.59541261330085,90.60026237624415,4.723419874734813,250.44961340275117,1.21449522147849,35.48765734843598,2.3681531571864776,-1.086999846971788,131.53762718718147,2.0,-1.3865148240778156,-0.9333014359511871,0.47244369748609594,284.08208925802205,138.95774698944888,92.77526063551488,3.561519013820714,-7.792226013779196
GUIDED_NOGPS,4.158640146255493,25.528947752836345,284.8514220328252,138.7921608110023,92.5811337075257,4.67400699944061,250.40611909921057,1.097008457319891,35.61503563711786,2.2513065497341307,-0.8511218786671894,131.2649523751362,2.0,-1.3510228842257295,-0.9252540835913136,0.47151695096479607,280.996995552666,139.45692445890316,93.63624698687204,4.494677258863817,-7.677634454753031
GUIDED_NOGPS,4.1948182582855225,27.644119294776733,283.5254456470381,139.72983676137403,93.82294125955904,4.696204438664226,250.36518498088424,0.9864372626032782,35.74303917126215,2.2269430515212836,-0.7851133830634522,130.90054812253769,2.0,-1.2909172098975261,-0.9313938459541399,0.47096004895585153,280.10044285274796,140.77483883577034,95.05731615629021,3.9821250861326405,-8.021409131831525
GUIDED_NOGPS,4.233128547668457,26.109797623271767,282.199469261251,140.33553404348118,94.58362643315081,4.648253241117736,250.32678375024585,0.8827079012812256,35.87164580194201,2.1841350543416405,-0.6484779033165802,130.61422659253077,2.0,-1.2412341737960642,-0.9235809745291707,0.47064400968439557,280.10044285274796,140.77483883577034,95.05731615629021,3.9821250861326405,-8.651662706475431
GUIDED_NOGPS,4.27295708656311,25.119954962238953,280.48946976298726,141.88103257280406,95.81009162388267,4.589491875349819,250.2908832066151,0.7857333929119541,36.00083321347202,2.0812595988365543,-0.5313614500311649,130.29255200337983,2.0,-1.16586850080351,-0.9136547906424066,0.4700953707947947,277.1673782987524,144.09342004687178,97.31564255906763,4.10271964668361,-8.307888029396937
GUIDED_NOGPS,4.3079071044921875,28.619512261691938,279.10652757113337,142.98722630983787,96.56286709147514,4.625112813549298,250.25744614710382,0.695413245095569,36.13057892994762,2.0487850375409056,-0.5856340798152333,129.940387449774,2.0,-1.115328424431421,-0.9223945187339765,0.4697838559192362,277.1673782987524,144.09342004687178,97.31564255906763,4.10271964668361,-8.36518380891002
GUIDED_NOGPS,4.337124824523926,34.23865732804362,278.34060412035063,144.09342004687167,97.31564255906761,4.613463447466628,250.22643026756268,0.6116331859109785,36.26086032178476,2.026313715171564,-0.6693967450319194,129.74296766200393,2.0,-1.0994075809219845,-0.921412242371962,0.46947260888135856,277.1673782987524,144.09342004687178,97.31564255906763,4.10271964668361,-8.995437383553925
GUIDED_NOGPS,4.3755714893341064,26.01505960577078,277.75399120955154,144.09342004687167,97.31564255906761,4.565120679046053,250.19778806352727,0.5342648963520169,36.391654612259366,1.805744068426815,-0.5983882841514685,129.30828076284598,2.0,-1.0877270806623243,-0.913497834880777,0.4695380060265959,277.1673782987524,144.09342004687178,97.31564255906763,4.10271964668361,-9.224620501606255
GUIDED_NOGPS,4.410804510116577,28.39091881354326,277.1673782987524,144.09342004687167,97.31564255906761,4.50578454722643,250.17146673116463,0.46316574276422173,36.522938884046965,1.6977438366101039,-0.7286372168592613,128.99581326869622,2.0,-1.0639864542147537,-0.903223385667635,0.4696036481624897,277.1673782987524,144.09342004687178,97.31564255906763,4.10271964668361,-9.682986737710912
GUIDED_NOGPS,4.447829723358154,27.010013716537767,277.1673782987524,144.09342004687167,97.31564255906761,4.5009877505478615,250.1474080682197,0.39817850928092824,36.6546900857622,1.4104363047634545,-0.7254973041926125,128.54715180249644,2.0,-1.0814463946139592,-0.9039362034445994,0.4696695237633473,277.1673782987524,144.09342004687178,97.31564255906763,4.10271964668361,-10.141352973815572
GUIDED_NOGPS,4.476272821426392,35.17147577000159,277.1673782987524,144.09342004687167,97.31564255906761,4.50385797887081,250.12554837496145,0.3391311302600464,36.786885038498404,1.2812679293266989,-0.5571305264700065,128.3685696764573,2.0,-1.0824476324988657,-0.9057815357159217,0.4697356212397154,277.1673782987524,144.09342004687178,97.31564255906763,4.10271964668361,-10.427831871380983
GUIDED_NOGPS,4.514920473098755,25.876389660065396,277.1673782987524,144.09342004687167,97.31564255906761,4.432575812729385,250.10581835512957,0.28583642272046816,36.91950044236715,1.1171857612869536,-0.49019173775697256,127.82908035467466,2.0,-1.0829708565299563,-0.8932451004749664,0.4698019289416498,277.1673782987524,144.09342004687178,97.31564255906763,4.10271964668361,-11.115381225537972
GUIDED_NOGPS,4.550696849822998,27.95755345811337,277.1673782987524,144.09342004687167,97.31564255906761,4.359497063860241,250.08814301688065,0.23809181877856034,37.05251288303779,1.0297519761130915,-0.17424047360455247,127.45672576188224,2.0,-1.083664603624923,-0.8801854245215559,0.46986843516198507,277.1673782987524,144.09342004687178,97.31564255906763,4.10271964668361,-10.828902327972559
GUIDED_NOGPS,4.579535007476807,34.68975841335219,277.1673782987524,144.09342004687167,97.31564255906761,4.243807310307482,250.07244157373464,0.19567909808457173,37.185898838277055,1.0075705098966519,0.06773407886451731,127.17629185493986,2.0,-1.0843438836515555,-0.8582669487848612,0.4699351281396047,277.1673782987524,144.09342004687178,97.31564255906763,4.10271964668361,-10.59971920992023
GUIDED_NOGPS,4.61688756942749,26.77448883838803,277.1673782987524,144.09342004687167,97.31564255906761,4.128117556754723,250.05862734552113,0.15836412025904067,37.31963468448854,1.021954781566993,0.4302879371673459,126.69636178271975,2.0,-1.0847172139106274,-0.8366821167960113,0.4700019960627105,277.1673782987524,144.09342004687178,97.31564255906763,4.10271964668361,-11.516451682129548
GUIDED_NOGPS,4.6487860679626465,31.359047782820316,277.1673782987524,144.09342004687167,97.31564255906761,4.142000115976428,250.04660765932596,0.1258965573296571,37.45369670325231,1.0844792937246417,0.608998662861966,126.38620289250946,2.0,-1.0852088877889015,-0.8407754897297378,0.47006902707209236,277.1673782987524,144.09342004687178,97.31564255906763,4.10271964668361,-11.631043241155712
GUIDED_NOGPS,4.6821208000183105,30.006037973415747,277.1673782987524,144.09342004687167,97.31564255906761,4.088231036356382,250.03628375043724,0.0980096261670731,37.58806108786446,1.1077871008238986,0.8494669985364892,125.95064172913776,2.0,-1.085554564259207,-0.8313797473228761,0.4701362092643984,277.1673782987524,144.09342004687178,97.31564255906763,4.10271964668361,-12.375888374825783
GUIDED_NOGPS,4.7111876010894775,34.414237304823715,277.1673782987524,144.09342004687167,97.31564255906761,4.078204813294739,250.02755066329223,0.07441982092224819,37.722703949876625,1.0361090679613751,1.104749587633947,125.64917083955173,2.0,-1.0858938354809238,-0.8305587979463341,0.4702035306954045,277.1673782987524,144.09342004687178,97.31564255906763,4.10271964668361,-12.433184154338864
GUIDED_NOGPS,4.7454938888549805,29.156267378489602,277.1673782987524,144.09342004687167,97.31564255906761,4.068178590233095,250.02029715242318,0.054826645461862,37.85760132563558,0.973207187852083,1.2622384886905145,125.12806838701478,2.0,-1.086094609206062,-0.8299496599540777,0.470270979383284,277.1673782987524,144.09342004687178,97.31564255906763,4.10271964668361,-12.662367272391194
GUIDED_NOGPS,4.776520013809204,32.24031669164841,277.1673782987524,144.09342004687167,97.31564255906761,4.083198039594379,250.01440558340408,0.03891234580600056,37.99272918282276,0.8648430883795103,1.4495737155944506,124.73986775534793,2.0,-1.0863088327665962,-0.8342201840448642,0.4703385433118776,277.1673782987524,144.09342004687178,97.31564255906763,4.10271964668361,-12.662367272391194
GUIDED_NOGPS,4.806756973266602,33.08332544565389,277.1673782987524,144.09342004687167,97.31564255906761,4.110258071237523,250.00975183379697,0.026341642563568968,38.12806342699383,0.7814664355726357,1.587472887059481,124.34013776436211,2.0,-1.0864604368745983,-0.8408632576970375,0.47040621043396313,277.1673782987524,144.09342004687178,97.31564255906763,4.10271964668361,-12.891550390443523
GUIDED_NOGPS,4.838214874267578,31.796227788222453,277.1673782987524,144.09342004687167,97.31564255906761,4.090660190628514,250.0062051940982,0.01676146336935247,38.26357990811829,0.6775266978566443,1.5919464475224276,123.95088528356308,2.0,-1.0865588067737162,-0.8382404068427068,0.47047396867452534,277.1673782987524,144.09342004687178,97.31564255906763,4.10271964668361,-12.83425461093044
GUIDED_NOGPS,4.878123998641968,25.062765906592094,277.1673782987524,144.09342004687167,97.31564255906761,4.096689918656062,250.0036282686849,0.009800675320366992,38.399254427118876,0.564073627204736,1.6133204573129247,123.40834969741063,2.0,-1.0866145120689117,-0.8410827999153798,0.4705418059340256,277.1673782987524,144.09342004687178,97.31564255906763,4.10271964668361,-11.917522138721123
GUIDED_NOGPS,4.9117796421051025,29.72280567484445,277.1673782987524,144.09342004687167,97.31564255906761,4.10271964668361,250.00187687676146,0.005069817412294952,38.53506274241134,0.5220290103865474,1.5168064692460597,123.1934992668787,2.0,-1.0866719304639643,-0.8436739341764722,0.47060971009167185,277.1673782987524,144.09342004687178,97.31564255906763,4.10271964668361,-11.688339020668794
GUIDED_NOGPS,4.940638065338135,34.66109132378583,277.1673782987524,144.09342004687167,97.31564255906761,4.10271964668361,250.00079995330566,0.002160832975977911,38.67098057644378,0.4792572452260168,1.5680885967515732,122.75300670692624,2.0,-1.086700565714169,-0.844854295167199,0.47067766900868807,277.1673782987524,144.09342004687178,97.31564255906763,4.10271964668361,-11.000789666511807
GUIDED_NOGPS,4.9785425662994385,26.387236398409584,277.1673782987524,144.09342004687167,97.31564255906761,4.10271964668361,250.00023945001533,0.0006468021139660607,38.806983622236366,0.5390608341339146,1.4393188268859112,122.24768199137202,2.0,-1.0867003426867214,-0.8464092540687815,0.4707456705315844,277.1673782987524,144.09342004687178,97.31564255906763,4.10271964668361,-10.313240312354818
GUIDED_NOGPS,5.004855155944824,38.023225666083455,277.1673782987524,144.09342004687167,97.31564255906761,4.10271964668361,250.00003023625447,8.167413686877012e-05,38.9430475499208,0.5700576199696077,1.4413367208988268,122.06307563848492,2.0,-1.086701853038051,-0.8474915834044375,0.4708137024954266,277.1673782987524,144.09342004687178,97.31564255906763,4.10271964668361,-9.797578296737077
GUIDED_NOGPS,5.0400779247283936,28.395147313691506,277.1673782987524,144.09342004687167,97.31564255906761,4.10271964668361,250.0,-1.0658141036401503e-14,39.07914801327989,0.6792753330058734,1.3417485073752213,121.68454655468281,2.0,-1.0866959929962448,-0.8489322829004241,0.47088175272710614,277.1673782987524,144.09342004687178,97.31564255906763,4.10271964668361,-8.193296470370772
