Mode,Time,Freq,time2delay,actualDelay,North-Desired,East-Desired,Down-Desired,Roll-UAV,Pitch-UAV,Yaw-UAV,Roll-Control,Pitch-Control,Yaw-Control,Thrust-Control,North-Pos,East-Pos,Down-Pos,Yaw-Ang,North-Vel,East-Vel,Down-Vel,Yaw-Vel,North-Acc,East-Acc,Down-Acc,North-Avg,East-Avg,Down-Avg,Yaw-Avg,North-Dif,East-Dif,Down-Dif,Yaw-Dif,North-One,East-One,Down-One,Yaw-One,North-Two,East-Two,Down-Two,Yaw-Two,Landing-State,Q-Size,Kalman-Time,Kalman-Dt
STABILIZE,0.034478187561035156,29.012872923972967,0.03276017506917318,0.032907962799072266,0.0,0.0,0.0,-0.7580482248687478,-1.18157480836631,28.77263974663686,-0.16759192150736452,0.15531018694423357,0.010364895941238786,0.4,0.09897299882929535,0.10641542586079673,0.15639688228419746,0.10296799602467659,-0.2835646737366915,0.18689499702304602,1.8174538388848305,-0.18388792904421036,-1.0225914418697357,1.0990583337843418,24.225962162017822,0.0,0.0,0.0,0.0,0.0,0.0,0.0,0.0,0.0,0.0,0.0,0.0,0.0,0.0,0.0,0.0,False,0,0.1731722354888916,0.034926025390625
STABILIZE,0.06776189804077148,30.04386630947094,0.03219798405965169,0.03234720230102539,0.0,0.0,0.0,-0.7574613622086557,-1.1820672223167856,28.774091161835486,-0.098642123560906,0.09152092041891256,0.011865966471300225,0.4,0.11249245283873845,0.12074728387096238,0.18852100678885708,0.11719508237795437,0.09695198386907578,0.0337629287969321,1.6891809180378914,0.11270823318683318,5.357243865728378,-1.0949299670755863,22.384631633758545,0.0,0.0,0.0,0.0,0.0,0.0,0.0,0.0,0.0,0.0,0.0,0.0,0.0,0.0,0.0,0.0,False,0,0.2019340991973877,0.034925048828125
STABILIZE,0.10127806663513184,29.835921439190777,0.03236344655354818,0.03250384330749512,0.0,0.0,0.0,-0.7567991540242818,-1.1820721315152516,28.775686011006684,-0.0749453424609189,0.06862097681533208,0.013176356548926415,0.4,0.12209530967605156,0.1327583555435723,0.22005056433971773,0.1294328825643147,-0.1892302418127656,0.02348560083191842,1.6631122678518295,0.1157065261499101,-5.615202337503433,0.8349163457751274,23.473116755485535,0.0,0.0,0.0,0.0,0.0,0.0,0.0,0.0,0.0,0.0,0.0,0.0,0.0,0.0,0.0,0.0,False,0,0.23054075241088867,0.02993701171875
STABILIZE,0.1347062587738037,29.915509432616524,0.03237608273824056,0.032510995864868164,0.0,0.0,0.0,-0.7568418427065943,-1.1810637181173227,28.779739728279086,-0.06122798444895659,0.055289768051025756,0.014005642562264482,0.4,0.12665329634687073,0.13961467133944486,0.24523270406975956,0.13681045769944036,-0.1892302418127656,0.02348560083191842,1.6631122678518295,0.1157065261499101,-5.615202337503433,0.8349163457751274,23.473116755485535,0.0,0.0,0.0,0.0,0.0,0.0,0.0,0.0,0.0,0.0,0.0,0.0,0.0,0.0,0.0,0.0,False,0,0.2593252658843994,0.02993701171875
STABILIZE,0.1681985855102539,29.858647986787403,0.03240087827046712,0.0325312614440918,0.0,0.0,0.0,-0.7577246446568184,-1.1807099356626571,28.7817409737059,-0.052962635559228415,0.047147592034663545,0.014735046201171014,0.4,0.13048180154156128,0.14588807235792867,0.27065721968851086,0.14314670928794876,-0.10780977318063378,0.1054946449585259,1.7242996022105217,0.12342095801317506,-1.1689052917063236,0.883426982909441,22.660504281520844,0.0,0.0,0.0,0.0,0.0,0.0,0.0,0.0,0.0,0.0,0.0,0.0,0.0,0.0,0.0,0.0,False,0,0.2878899574279785,0.03492578125
STABILIZE,0.2016589641571045,29.88843599464128,0.03234675725301107,0.03249216079711914,0.0,0.0,0.0,-0.7575090668111399,-1.182305318442384,28.785483917371067,-0.023626414980045536,0.01992835876929444,0.015599883319879469,0.4,0.13777904639829666,0.1539279750094882,0.30317606068754366,0.15078611621700622,0.1342478208243847,0.10002537164837122,1.8638795241713524,0.06645491249902086,5.466719716787338,-0.9769517928361893,22.33528643846512,0.0,0.0,0.0,0.0,0.0,0.0,0.0,0.0,0.0,0.0,0.0,0.0,0.0,0.0,0.0,0.0,False,0,0.31783294677734375,0.034925048828125
STABILIZE,0.235029935836792,29.96252455620245,0.03233817418416341,0.03245735168457031,0.0,0.0,0.0,-0.7578489754440538,-1.182476820223575,28.787471502419542,-0.02177757591929764,0.017130103649535055,0.01643476830331821,0.4,0.14117534139122434,0.16065523845577395,0.3345007981309752,0.1580782402357688,-0.1519814715720713,0.10645112488418818,1.7709201201796532,0.1751324536214738,-2.082546427845955,-1.0378954000771046,21.356333792209625,0.0,0.0,0.0,0.0,0.0,0.0,0.0,0.0,0.0,0.0,0.0,0.0,0.0,0.0,0.0,0.0,False,1,0.34636545181274414,0.03492626953125
STABILIZE,0.2685220241546631,29.857797773285117,0.03242615063985189,0.03256821632385254,0.0,0.0,0.0,-0.758008097507374,-1.1825049947539013,28.789049276117815,-0.02077263797953351,0.016214084662696724,0.01745580135289076,0.4,0.14655588653379814,0.16778291862887978,0.39272758148714365,0.16716935061716287,0.06148785469122231,0.08902554982341826,1.9321687519550323,0.17948102962673732,1.9528206437826157,1.1166689917445183,28.094574809074402,0.0,0.0,0.0,0.0,0.0,0.0,0.0,0.0,0.0,0.0,0.0,0.0,0.0,0.0,0.0,0.0,False,0,0.4037792682647705,0.029936767578125
STABILIZE,0.3019251823425293,29.93793004996431,0.03237965901692708,0.03250265121459961,0.0,0.0,0.0,-0.7568328780833087,-1.1818935861014792,28.792105785771394,-0.018693676438372483,0.013824373953049826,0.017382471114121136,0.4,0.14361062051847862,0.16764401509284546,0.41643873628701555,0.16533069123966743,-0.26130317710340023,-0.03163628280162811,1.7737308517098427,-0.19139769535621293,-2.777157351374626,-1.093131210654974,27.29930579662323,0.0,0.0,0.0,0.0,0.0,0.0,0.0,0.0,0.0,0.0,0.0,0.0,0.0,0.0,0.0,0.0,False,0,0.4326207637786865,0.034926025390625
STABILIZE,0.3354024887084961,29.869067033178325,0.032437833150227864,0.03257441520690918,0.0,0.0,0.0,-0.7580292284051188,-1.1817304086133393,28.79291516318804,-0.0176206632872742,0.013121299224037358,0.017655248661139714,0.4,0.1447662425241461,0.16980599388012468,0.44939587187872093,0.16694053970340222,0.00625347311142832,0.04216103407088667,2.044028788805008,-0.004460300291003444,-4.2360819876194,-1.0477928444743156,26.222804188728333,0.0,0.0,0.0,0.0,0.0,0.0,0.0,0.0,0.0,0.0,0.0,0.0,0.0,0.0,0.0,0.0,False,0,0.4611217975616455,0.034925048828125
STABILIZE,0.3688673973083496,29.88332525862806,0.03242495854695638,0.032549381256103516,0.0,0.0,0.0,-0.7579696776932927,-1.1810730029057257,28.79575652188277,-0.01546541318737197,0.010693729442939214,0.017612652096327015,0.4,0.14399440457822757,0.17043717891630317,0.47754900443552745,0.16540879740343647,-0.0889831455424428,-0.010117948113474995,1.6983836889266968,-0.18290827714598956,2.59188674390316,0.4900908097624779,16.274528205394745,0.0,0.0,0.0,0.0,0.0,0.0,0.0,0.0,0.0,0.0,0.0,0.0,0.0,0.0,0.0,0.0,False,0,0.4898843765258789,0.02993701171875
STABILIZE,0.4051957130432129,27.526556542169544,0.03239467938741048,0.03541755676269531,0.0,0.0,0.0,-0.7574434329620844,-1.1812576314567276,28.797566522012822,-0.01349509576040559,0.00841325828774908,0.017284236704672353,0.4,0.14012586757878254,0.17049281270161573,0.5010191891975428,0.16095470197076148,-0.16267657047137618,0.14953070785850286,1.9234314560890198,-0.20361331526400886,-1.8644241616129875,1.0281190276145935,29.575815796852112,0.0,0.0,0.0,0.0,0.0,0.0,0.0,0.0,0.0,0.0,0.0,0.0,0.0,0.0,0.0,0.0,False,0,0.5186464786529541,0.034926025390625
STABILIZE,0.43871331214904785,29.833587026104276,0.032410653432210286,0.032685041427612305,0.0,0.0,0.0,-0.7568933892904868,-1.1818310471818914,28.800291767491657,-0.011954675989417301,0.004468617651976519,0.01679971476548421,0.4,0.1335150873452729,0.17208996260542608,0.5562442090708419,0.15506803624438087,-0.15888640191406012,0.08844597032293677,1.686239242553711,-0.07103374058450783,-4.36885803937912,0.7081981748342514,21.70364260673523,0.0,0.0,0.0,0.0,0.0,0.0,0.0,0.0,0.0,0.0,0.0,0.0,0.0,0.0,0.0,0.0,False,0,0.576146125793457,0.064862060546875
STABILIZE,0.47241926193237305,29.669821597838236,0.03249624570210775,0.0327455997467041,0.0,0.0,0.0,-0.7562094098781335,-1.1817887853864018,28.80140508832637,-0.014816710473742738,0.006564648645913692,0.01760076160051824,0.4,0.13687360091030074,0.17987133379213266,0.6201696429048278,0.16199041267426081,-0.03766045847442001,0.04514718893915415,1.7063040286302567,0.11463618748220152,-1.9049402326345444,2.317751944065094,15.297207236289978,0.0,0.0,0.0,0.0,0.0,0.0,0.0,0.0,0.0,0.0,0.0,0.0,0.0,0.0,0.0,0.0,False,0,0.6045496463775635,0.034926025390625
STABILIZE,0.5059287548065186,29.84589986622264,0.032351287206014,0.03248333930969238,0.0,0.0,0.0,-0.7567465402233314,-1.1813875117726635,28.80368637150915,-0.013476152118270655,0.004687158107318154,0.01726122249485966,0.4,0.132528974704684,0.17786825939825845,0.6466747342695741,0.15754093356322194,-0.06908000796101987,0.09797288803383708,2.081640809774399,-0.05793303755002669,-4.408291354775429,0.670600263401866,26.500657200813293,0.0,0.0,0.0,0.0,0.0,0.0,0.0,0.0,0.0,0.0,0.0,0.0,0.0,0.0,0.0,0.0,False,0,0.6333324909210205,0.0399150390625
STABILIZE,0.5392990112304688,29.964665118771208,0.03226593335469564,0.03243303298950195,0.0,0.0,0.0,-0.7568857053276705,-1.1815818519988917,28.8077298434978,-0.01299754661302335,0.0042119905086869915,0.016865152895217745,0.4,0.13049282022794217,0.17698250211960687,0.6754701738380172,0.15255874999150743,0.04477731417864561,0.11141548166051507,1.860293559730053,-0.12627189498099425,0.9627385996282101,0.6462658289819956,24.204058945178986,0.0,0.0,0.0,0.0,0.0,0.0,0.0,0.0,0.0,0.0,0.0,0.0,0.0,0.0,0.0,0.0,False,0,0.6620080471038818,0.02492822265625
STABILIZE,0.5727219581604004,29.91913715867264,0.03239491780598958,0.03247785568237305,0.0,0.0,0.0,-0.7564273356013391,-1.1818649846843299,28.8090275794401,-0.011263557477279596,0.0037104448438139578,0.01616194420707598,0.4,0.12606006613700116,0.17212586595006502,0.6830860630784502,0.14456104875160636,0.04477731417864561,0.11141548166051507,1.860293559730053,-0.12627189498099425,0.9627385996282101,0.6462658289819956,24.204058945178986,0.0,0.0,0.0,0.0,0.0,0.0,0.0,0.0,0.0,0.0,0.0,0.0,0.0,0.0,0.0,0.0,False,0,0.6905910968780518,0.02492822265625
STABILIZE,0.6061947345733643,29.87630084978168,0.03236821492513021,0.03249311447143555,0.0,0.0,0.0,-0.7577524990220275,-1.1824705236429338,28.811527428676328,-0.008819949980564528,0.003930127201485147,0.01549508537471967,0.4,0.12111332389695523,0.166568461261292,0.6883668323976064,0.13697663842957095,-0.004280406574252993,0.048043529386632144,1.703856699168682,-0.12514995636854032,-1.8540335819125175,-1.3223045505583286,24.831895530223846,0.0,0.0,0.0,0.0,0.0,0.0,0.0,0.0,0.0,0.0,0.0,0.0,0.0,0.0,0.0,0.0,False,0,0.719355583190918,0.03492578125
STABILIZE,0.6396751403808594,29.870556061987237,0.03235629399617513,0.032486915588378906,0.0,0.0,0.0,-0.7583501405744035,-1.1822918715074555,28.8126270891327,-0.00390707763411864,-0.00042712672272588744,0.014633887708561714,0.4,0.11167090436593206,0.15928875254287947,0.7260946642452553,0.12751128578504933,-0.13727612094953656,0.022910090046934783,1.8293367698788643,0.054579774853307436,-0.036836881190538406,-1.333059649914503,24.338196218013763,0.0,0.0,0.0,0.0,0.0,0.0,0.0,0.0,0.0,0.0,0.0,0.0,0.0,0.0,0.0,0.0,False,0,0.7766170501708984,0.0648623046875
STABILIZE,0.6731822490692139,29.844413294530344,0.03225091298421224,0.03238248825073242,0.0,0.0,0.0,-0.7587391411919769,-1.1828549352271585,28.81352867410314,-0.004761407782224246,-0.00010646971600435138,0.014771761689316414,0.4,0.10890052700997419,0.159924350745253,0.7780346858147158,0.1280333267658817,-0.07659039692953229,0.02775797911453992,1.5906278043985367,0.12153776013316883,-0.1079893670976162,0.6040016189217567,23.724380135536194,0.0,0.0,0.0,0.0,0.0,0.0,0.0,0.0,0.0,0.0,0.0,0.0,0.0,0.0,0.0,0.0,False,0,0.8053312301635742,0.03492578125
STABILIZE,0.7065572738647461,29.961026344362534,0.032240899403889973,0.03236556053161621,0.0,0.0,0.0,-0.7592171477121721,-1.183449054963244,28.817353580038347,-0.00322264592504047,-0.0015300677502173541,0.014581553709894089,0.4,0.10318536079719307,0.15483990616450863,0.7876464805521765,0.12529359720681632,-0.07659039692953229,0.02775797911453992,1.5906278043985367,0.12153776013316883,-0.1079893670976162,0.6040016189217567,23.724380135536194,0.0,0.0,0.0,0.0,0.0,0.0,0.0,0.0,0.0,0.0,0.0,0.0,0.0,0.0,0.0,0.0,False,0,0.8341941833496094,0.03492578125
STABILIZE,0.74495530128479,26.044459899157996,0.03233149846394857,0.03728747367858887,0.0,0.0,0.0,-0.7588632585358007,-1.18500473726842,28.81836444803551,-0.003730359330896093,-0.0018606435001786079,0.014636250701736894,0.4,0.09796800448404035,0.1518044344321356,0.7987953793535979,0.12488410874690589,-0.050957256462424994,0.14214505208656192,1.7193621024489403,0.2467942647847187,0.3414788283407688,0.586913712322712,20.61493545770645,0.0,0.0,0.0,0.0,0.0,0.0,0.0,0.0,0.0,0.0,0.0,0.0,0.0,0.0,0.0,0.0,False,0,0.8627665042877197,0.034926025390625
STABILIZE,0.7865204811096191,24.055563521240657,0.032193692525227864,0.040634870529174805,0.0,0.0,0.0,-0.7593399843955265,-1.1846337726191236,28.820707202920826,-0.004383010327725642,-0.003109828988179844,0.014372405340465473,0.4,0.08880278935705493,0.14833971869071255,0.805245965326779,0.12123387367824978,-0.2727234736084938,0.11657223803922534,1.499917171895504,0.06267982559009382,-3.8191884756088257,0.4890548065304756,19.158847630023956,0.0,0.0,0.0,0.0,0.0,0.0,0.0,0.0,0.0,0.0,0.0,0.0,0.0,0.0,0.0,0.0,False,1,0.8921399116516113,0.02993701171875
STABILIZE,0.820051908493042,29.824889249169814,0.03241399129231771,0.03255319595336914,0.0,0.0,0.0,-0.7597910970458647,-1.1840716693947728,28.82275284457724,-0.003550506239462582,-0.005933316011358794,0.014090158910730424,0.4,0.0730170871543265,0.13989998833838696,0.8224888063918078,0.11762336193155697,-0.3456581383943558,-0.008249084930866957,1.8242161720991135,0.19619891813633522,1.311975158751011,0.38343530613929033,23.59241396188736,0.0,0.0,0.0,0.0,0.0,0.0,0.0,0.0,0.0,0.0,0.0,0.0,0.0,0.0,0.0,0.0,False,0,0.9554994106292725,0.034926025390625
STABILIZE,0.8534688949584961,29.922552292897297,0.032334359486897786,0.0324864387512207,0.0,0.0,0.0,-0.760814451482603,-1.1856562732822158,28.826198675013515,-0.0021265842454112035,-0.006658307600734651,0.013624031895070424,0.4,0.06865039372900539,0.13640172700958342,0.833766580137885,0.11221152226463091,-0.025403383187949657,0.10224392171949148,1.8487125635147095,-0.05090988219574785,1.1580176651477814,0.47244541347026825,23.67441952228546,0.0,0.0,0.0,0.0,0.0,0.0,0.0,0.0,0.0,0.0,0.0,0.0,0.0,0.0,0.0,0.0,False,0,0.9862060546875,0.034926025390625
STABILIZE,0.8869102001190186,29.90335229784261,0.03240397771199544,0.03252744674682617,0.0,0.0,0.0,-0.7603051755026139,-1.1864663977508028,28.82760227888795,-0.0026032988652696714,-0.005332853185136183,0.013489530847835253,0.4,0.0675510636693085,0.13342333054428246,0.8466345200733763,0.11013000186066915,0.14837910421192646,0.1279520569369197,1.9734879955649376,0.13289665820759092,2.549790032207966,-1.3734565116465092,25.63890814781189,0.0,0.0,0.0,0.0,0.0,0.0,0.0,0.0,0.0,0.0,0.0,0.0,0.0,0.0,0.0,0.0,False,0,1.01491379737854,0.02993701171875
STABILIZE,0.9203698635101318,29.88737111381888,0.032403024037679036,0.03253364562988281,0.0,0.0,0.0,-0.7600757238351838,-1.1872657433271059,28.830173845110462,-0.002228770066434134,-0.004274073166238969,0.013329211905170559,0.4,0.06667193786060092,0.13010559886469938,0.8530968440580824,0.10780577924168439,0.14837910421192646,0.1279520569369197,1.9734879955649376,0.13289665820759092,2.549790032207966,-1.3734565116465092,25.63890814781189,0.0,0.0,0.0,0.0,0.0,0.0,0.0,0.0,0.0,0.0,0.0,0.0,0.0,0.0,0.0,0.0,False,0,1.04367995262146,0.02993701171875
STABILIZE,0.9538745880126953,29.845687489771088,0.03239420255025228,0.032524824142456055,0.0,0.0,0.0,-0.7602760404769355,-1.1878469497367916,28.83179601503834,-0.001206373724976379,-0.00375338734235388,0.012977077886203787,0.4,0.061967162455547536,0.12488032413733288,0.8565926961142182,0.10359106642125118,-0.0777639274019748,0.008873252954799682,1.8075624480843544,0.016753540229435523,1.5243729576468468,-1.4518999494612217,28.996804356575012,0.0,0.0,0.0,0.0,0.0,0.0,0.0,0.0,0.0,0.0,0.0,0.0,0.0,0.0,0.0,0.0,False,0,1.0721662044525146,0.06486181640625
STABILIZE,0.9872751235961914,29.940067099721606,0.03234270413716634,0.03246879577636719,0.0,0.0,0.0,-0.7602243871713373,-1.1876634951245533,28.833076675507716,-0.002328199920543223,-0.0012897460699093863,0.012662569885234324,0.4,0.0556850059045606,0.12091981884336878,0.8996495603158423,0.09977886294853659,-0.13119404902681708,-0.049105886137112975,1.8055416643619537,-0.06053704717109405,-0.6316611543297768,-1.6815999522805214,22.97959178686142,0.0,0.0,0.0,0.0,0.0,0.0,0.0,0.0,0.0,0.0,0.0,0.0,0.0,0.0,0.0,0.0,False,0,1.1031832695007324,0.034926025390625
STABILIZE,1.0208158493041992,29.814924863873525,0.03239134152730306,0.03264951705932617,0.0,0.0,0.0,-0.7606124272935587,-1.1873673423910098,28.834541751084686,0.0006246482731271656,-0.005152718327757616,0.012021848229943856,0.4,0.041209367494545256,0.10971185569889484,0.9075396886601077,0.09274892913579064,-0.21644439548254013,-0.01677918917266652,1.7605671659111977,0.048599143822167915,-7.832919806241989,-1.6356363892555237,23.792417347431183,0.0,0.0,0.0,0.0,0.0,0.0,0.0,0.0,0.0,0.0,0.0,0.0,0.0,0.0,0.0,0.0,False,0,1.1584532260894775,0.034926025390625
STABILIZE,1.0543274879455566,29.839954467842915,0.03241589864095052,0.032556772232055664,0.0,0.0,0.0,-0.7612154049312239,-1.1878694680167114,28.8386159589246,0.0015041106231570794,-0.007065115778639778,0.012141811675232107,0.4,0.034942112054176744,0.1047376795409232,0.9131124903593117,0.09332382433759573,-0.17840188229456544,0.005296957169775851,1.8730292096734047,0.25843757620504837,-1.5947196632623672,0.33852087799459696,22.69708514213562,0.0,0.0,0.0,0.0,0.0,0.0,0.0,0.0,0.0,0.0,0.0,0.0,0.0,0.0,0.0,0.0,False,0,1.1872971057891846,0.034874755859375
STABILIZE,1.0879981517791748,29.699233852123548,0.03237965901692708,0.03276181221008301,0.0,0.0,0.0,-0.7621444173800515,-1.187290609484553,28.84122850628213,0.0014215754542143263,-0.007630523081505661,0.01169049628873179,0.4,0.03260611571329957,0.10214101509969647,0.9138887236914311,0.08821625714059374,0.023260488524101675,0.12532240943983197,1.6338368877768517,-0.053745928150557225,1.579049788415432,0.35241886507719755,21.01065367460251,0.0,0.0,0.0,0.0,0.0,0.0,0.0,0.0,0.0,0.0,0.0,0.0,0.0,0.0,0.0,0.0,False,0,1.2160906791687012,0.064863037109375
STABILIZE,1.121443510055542,29.89866271278264,0.032410653432210286,0.03254103660583496,0.0,0.0,0.0,-0.7620349209099196,-1.1876554909966197,28.84284726111542,0.00043480294051502006,-0.007613458593226041,0.011312365477855612,0.4,0.028727563906317328,0.10049158387588286,0.946009912977188,0.08387372371162241,0.023260488524101675,0.12532240943983197,1.6338368877768517,-0.053745928150557225,1.579049788415432,0.35241886507719755,21.01065367460251,0.0,0.0,0.0,0.0,0.0,0.0,0.0,0.0,0.0,0.0,0.0,0.0,0.0,0.0,0.0,0.0,False,0,1.244493007659912,0.064863037109375
STABILIZE,1.1549217700958252,29.87204523926529,0.03242448170979818,0.03255295753479004,0.0,0.0,0.0,-0.7619106968443901,-1.1880778955081026,28.844896317866425,-0.00014123395815138302,-0.007500569709601091,0.011415403526454138,0.4,0.02379826011541925,0.0987496345255772,0.9731085393130899,0.08433988831667072,-0.04710750072263181,0.12298109941184521,1.635679230093956,0.20016233550543347,-1.384246814996004,0.48378300853073597,26.122865080833435,0.0,0.0,0.0,0.0,0.0,0.0,0.0,0.0,0.0,0.0,0.0,0.0,0.0,0.0,0.0,0.0,False,0,1.2733254432678223,0.034926025390625
STABILIZE,1.1909534931182861,27.754423578300976,0.032389195760091145,0.03503751754760742,0.0,0.0,0.0,-0.7608982280216414,-1.1880976390236722,28.847385921818894,-0.0012516234742115384,-0.005737843545685403,0.010935296247858627,0.4,0.016254921389359772,0.09210168109226179,0.9727172100876532,0.07897097740842861,-0.2608296927064657,-0.06819472182542086,1.9737178459763527,-0.045557154990680096,-1.7463508993387222,0.43891617096960545,29.030635952949524,0.0,0.0,0.0,0.0,0.0,0.0,0.0,0.0,0.0,0.0,0.0,0.0,0.0,0.0,0.0,0.0,False,0,1.3036096096038818,0.044904052734375
STABILIZE,1.2259972095489502,28.53365080444913,0.03231075604756673,0.03415083885192871,0.0,0.0,0.0,-0.7612906437337998,-1.18777160421251,28.8496842804746,-0.0018646597228604393,-0.004452147873676676,0.010087550008332448,0.4,0.014545750515188619,0.08951418984891112,0.9760333210558791,0.07000132487349661,0.037630024598911405,0.10580811649560928,1.651236042380333,-0.22938363234268017,-1.4674415811896324,0.32197972759604454,21.70531153678894,0.0,0.0,0.0,0.0,0.0,0.0,0.0,0.0,0.0,0.0,0.0,0.0,0.0,0.0,0.0,0.0,False,1,1.332524299621582,0.0199580078125
STABILIZE,1.259507656097412,29.841440595362602,0.03244927724202474,0.03258800506591797,0.0,0.0,0.0,-0.7609793365180353,-1.1887769226809712,28.85142256361837,-0.0008293125933015682,-0.004243855383029232,0.008722141436226547,0.4,0.013183320628444913,0.08443657634337544,0.9364402988503071,0.0559725067598119,-0.03210723225492984,0.1301586045883596,1.808457262814045,-0.1179972942242957,-5.1368579268455505,0.4207391757518053,25.494155287742615,0.0,0.0,0.0,0.0,0.0,0.0,0.0,0.0,0.0,0.0,0.0,0.0,0.0,0.0,0.0,0.0,False,0,1.3897387981414795,0.034926025390625
STABILIZE,1.2929515838623047,29.90164682398232,0.03239467938741048,0.032518863677978516,0.0,0.0,0.0,-0.7610127404119449,-1.1876882545602945,28.854011205313807,-0.0002992470343464512,-0.0037528585612058986,0.008313529769288801,0.4,0.011314970658823422,0.08154657223199249,0.9348275971521098,0.05154161714702186,-0.017392580048181117,0.06528418743982911,1.7283173277974129,-0.05258177109830681,-4.158243536949158,0.4035601858049631,26.76886022090912,0.0,0.0,0.0,0.0,0.0,0.0,0.0,0.0,0.0,0.0,0.0,0.0,0.0,0.0,0.0,0.0,False,0,1.4204366207122803,0.029935791015625
STABILIZE,1.332747220993042,25.127479466334375,0.0323975404103597,0.0388636589050293,0.0,0.0,0.0,-0.7621320376621807,-1.1869420563934707,28.858163960329176,-0.0006066059279325078,-0.0029660757899979983,0.008546237080159119,0.4,0.009103840483729428,0.08080749279396311,0.9266249001004142,0.05344342154366394,-0.057187030324712396,0.17912378534674644,1.6303690150380135,0.2698670706878449,0.43168477714061737,0.23306708317250013,19.05026286840439,0.0,0.0,0.0,0.0,0.0,0.0,0.0,0.0,0.0,0.0,0.0,0.0,0.0,0.0,0.0,0.0,False,0,1.4481654167175293,0.034926025390625
STABILIZE,1.3661231994628906,29.961668416804176,0.03236535390218099,0.03247499465942383,0.0,0.0,0.0,-0.7626193289707789,-1.1862627727361719,28.859246545312622,-0.0017504878969577884,-0.002387622181026318,0.00851798655169491,0.4,0.004875013802653382,0.07880657544379698,0.9225238572145876,0.05280805209106336,-0.03594027948565781,0.11705284705385566,1.6868600621819496,0.022941174684204698,-0.13720113784074783,0.36484766751527786,25.840070843696594,0.0,0.0,0.0,0.0,0.0,0.0,0.0,0.0,0.0,0.0,0.0,0.0,0.0,0.0,0.0,0.0,False,0,1.5055274963378906,0.064863037109375
STABILIZE,1.4047017097473145,25.921647394735704,0.03244593938191732,0.03767895698547363,0.0,0.0,0.0,-0.7606922551294832,-1.1878876107066942,28.862688960654307,-0.0024776640649656688,-0.0027374293988300514,0.008318511815363555,0.4,0.0022572144213574095,0.07873202003073024,0.9491255876271423,0.0504243679536952,-0.00011251249816268682,0.13723676092922688,1.6814706847071648,0.03470251030596873,2.3395661264657974,0.19501904025673866,18.66886615753174,0.0,0.0,0.0,0.0,0.0,0.0,0.0,0.0,0.0,0.0,0.0,0.0,0.0,0.0,0.0,0.0,False,0,1.534212350845337,0.0399150390625
STABILIZE,1.4382381439208984,29.818316247458448,0.03242042859395345,0.03259086608886719,0.0,0.0,0.0,-0.760108807563976,-1.1872332999285482,28.863996941880366,-0.00368098462080749,-0.0027135896194141343,0.008133940970654925,0.4,0.0011907606745417063,0.07782104720473203,0.9488765071810275,0.048255461089676974,-0.00011251249816268682,0.13723676092922688,1.6814706847071648,0.03470251030596873,2.3395661264657974,0.19501904025673866,18.66886615753174,0.0,0.0,0.0,0.0,0.0,0.0,0.0,0.0,0.0,0.0,0.0,0.0,0.0,0.0,0.0,0.0,False,0,1.5628387928009033,0.0399150390625
STABILIZE,1.4716460704803467,29.93365686554382,0.03236845334370931,0.032552480697631836,0.0,0.0,0.0,-0.7685757875355589,-1.197903549515989,28.86008324348595,-0.0024644111675952286,-0.0035834325861427065,0.007967050182986646,0.4,-0.002793784151562731,0.07198797568445969,0.9503753129440576,0.04627665888280144,-0.15410759951919317,-0.11612498201429844,1.7809148877859116,0.03835596782083797,-3.62183153629303,0.02623138134367764,20.702479779720306,0.0,0.0,0.0,0.0,0.0,0.0,0.0,0.0,0.0,0.0,0.0,0.0,0.0,0.0,0.0,0.0,False,0,1.5915946960449219,0.02993603515625
STABILIZE,1.5053136348724365,29.702178285131577,0.03246429761250814,0.03259897232055664,0.0,0.0,0.0,-0.7581353097806655,-1.2086234246966183,28.845647638675125,-0.0015663162054333432,-0.0040065029082265126,0.007899346907038595,0.4,-0.005522885490035224,0.06893404434380787,0.9391580112371924,0.04529623033310491,-0.12312139151617885,0.03216113254893571,1.6124816611409187,0.08132768943736329,-0.4502939060330391,0.15910181682556868,21.719203889369965,0.0,0.0,0.0,0.0,0.0,0.0,0.0,0.0,0.0,0.0,0.0,0.0,0.0,0.0,0.0,0.0,False,0,1.6202166080474854,0.02993701171875
STABILIZE,1.5386321544647217,30.01226449521656,0.0322449525197347,0.03238177299499512,0.0,0.0,0.0,-0.7652934547525446,-1.202253526243641,28.864430658892662,0.0008044537205226274,-0.004303476093337283,0.012286925388786837,0.4,-0.009877106421464672,0.060645421510180285,0.9019648763285766,0.08857967674557682,-0.08391105220653117,-0.11571220820769668,0.6486692931503057,2.518109746970696,-0.1292663160711527,-8.689562976360321,-11.88506931066513,0.0,0.0,0.0,0.0,0.0,0.0,0.0,0.0,0.0,0.0,0.0,0.0,0.0,0.0,0.0,0.0,False,0,1.6776881217956543,0.069870849609375
STABILIZE,1.5721337795257568,29.85036046999879,0.03239563306172689,0.03251504898071289,0.0,0.0,0.0,-0.7716469180628317,-1.1733792216925294,28.854222941178076,-0.0045516854316690865,-0.0024173549864527116,0.001153400098894271,0.4,-0.006513965730557188,0.07544864160868567,0.9205372389969624,-0.02260445203802977,0.2894016681239009,0.8903051726520061,1.285507157444954,-5.68194728562169,-21.61523997783661,111.68656349182129,-49.025118350982666,0.0,0.0,0.0,0.0,0.0,0.0,0.0,0.0,0.0,0.0,0.0,0.0,0.0,0.0,0.0,0.0,True,0,1.7063627243041992,0.034925048828125
STABILIZE,1.6055622100830078,29.913589227894505,0.03232601483662923,0.03245854377746582,0.0,0.0,0.0,-0.7549028160342511,-1.185673242033435,28.853246224126764,-0.010002242411745068,-6.317106434796254e-05,-0.010454140513050738,0.4,-0.000902572614802602,0.08983997183194305,0.9067667613898923,-0.13775792570467477,0.2894016681239009,0.8903051726520061,1.285507157444954,-5.68194728562169,-21.61523997783661,111.68656349182129,-49.025118350982666,0.0,0.0,0.0,0.0,0.0,0.0,0.0,0.0,0.0,0.0,0.0,0.0,0.0,0.0,0.0,0.0,True,0,1.735114574432373,0.034925048828125
STABILIZE,1.6389214992523193,29.978157699125166,0.03235367139180501,0.03246498107910156,0.0,0.0,0.0,-0.7564519883153746,-1.1848783787687749,28.874276376581236,-0.012997334659798703,-0.009360610029544051,0.009779805001890969,0.4,-0.029971327324740872,0.09331370307913353,0.9533755536733755,0.06415281656980562,-1.475867535918951,0.3424525959417224,4.324102029204369,10.37293657551208,-4.768640547990799,-41.36112034320831,143.2600736618042,0.0,0.0,0.0,0.0,0.0,0.0,0.0,0.0,0.0,0.0,0.0,0.0,0.0,0.0,0.0,0.0,True,0,1.7639694213867188,0.029937255859375
STABILIZE,1.672544002532959,29.742618068359096,0.03242686589558919,0.032533884048461914,0.0,0.0,0.0,-0.7553294894139654,-1.1838358144249959,28.84892612947673,0.003986861445696926,0.022028021510428694,0.013012302588251522,0.4,0.05507220227545428,0.04333262155936087,0.9106825226667461,0.09583706049893834,4.41361665725708,-2.4122335016727448,-0.04142385150771588,1.7804421662550314,106.84971809387207,-41.49399995803833,-4.901919886469841,0.0,0.0,0.0,0.0,0.0,0.0,0.0,0.0,0.0,0.0,0.0,0.0,0.0,0.0,0.0,0.0,True,0,1.7924652099609375,0.06486181640625
STABILIZE,1.7058231830596924,30.04752523479644,0.032228978474934895,0.032358646392822266,0.0,0.0,0.0,-0.7606442303618816,-1.1809945624519762,28.847877695439134,0.009710992877006192,0.01875659617500777,0.014641813311730843,0.4,0.04227437978793049,0.02046713974298104,0.888453919021199,0.11138682769493465,-0.86261797696352,-0.9084916673600674,-0.4437730647623539,0.5679346050764973,-110.62554121017456,-78.28701734542847,79.14906144142151,0.0,0.0,0.0,0.0,0.0,0.0,0.0,0.0,0.0,0.0,0.0,0.0,0.0,0.0,0.0,0.0,True,0,1.8261959552764893,0.034926025390625
STABILIZE,1.739285945892334,29.884176926584587,0.032404454549153645,0.03253769874572754,0.0,0.0,0.0,-0.7627788779209221,-1.2087967407468074,28.88139343369639,0.021686445485955382,0.011158582699612207,0.015558648925239928,0.4,0.023822876124263186,-0.0005238886684041932,0.8391544772351289,0.11975390156837362,-0.86261797696352,-0.9084916673600674,-0.4437730647623539,0.5679346050764973,-110.62554121017456,-78.28701734542847,79.14906144142151,0.0,0.0,0.0,0.0,0.0,0.0,0.0,0.0,0.0,0.0,0.0,0.0,0.0,0.0,0.0,0.0,True,0,1.854872703552246,0.034926025390625
STABILIZE,1.7726333141326904,29.98544445874262,0.03238347371419271,0.0324864387512207,0.0,0.0,0.0,-0.7631322334887645,-1.206179604355929,28.863894489042814,0.020970818043944142,-0.0018702077183552458,0.016926913532837227,0.4,-0.0077679856083852465,0.013504610250204675,0.785057161027362,0.13255109842893412,0.9459621272981167,-0.2617725171148777,0.6268708501011133,-0.4901009709462054,44.415172934532166,-5.7550158351659775,-52.40381360054016,0.0,0.0,0.0,0.0,0.0,0.0,0.0,0.0,0.0,0.0,0.0,0.0,0.0,0.0,0.0,0.0,True,0,1.912250280380249,0.034926025390625
STABILIZE,1.806330919265747,29.68073934642003,0.0324740727742513,0.03279423713684082,0.0,0.0,0.0,-0.7706166267152176,-1.1781711330038223,28.808908051129627,0.02440963208537255,0.014311250821310684,0.019935714074450935,0.4,0.01311524524299481,0.006659534321655845,0.7673465570183828,0.1615518853061819,1.0945018380880356,-0.25111192371696234,0.9397159330546856,1.6678823562805138,-53.13917398452759,-13.672183454036713,-41.61093235015869,0.0,0.0,0.0,0.0,0.0,0.0,0.0,0.0,0.0,0.0,0.0,0.0,0.0,0.0,0.0,0.0,True,0,1.9409303665161133,0.029935791015625
STABILIZE,1.8399004936218262,29.788033095415646,0.03240946133931478,0.032534122467041016,0.0,0.0,0.0,-0.7640493998282503,-1.1834863008385617,28.829869901692398,0.011691035551885035,-0.003887871014898749,0.022699808021492456,0.4,0.03336503207696675,0.0005838956288784121,0.7484109192629067,0.1879350773154545,1.0945018380880356,-0.25111192371696234,0.9397159330546856,1.6678823562805138,-53.13917398452759,-13.672183454036713,-41.61093235015869,0.0,0.0,0.0,0.0,0.0,0.0,0.0,0.0,0.0,0.0,0.0,0.0,0.0,0.0,0.0,0.0,True,0,1.9696691036224365,0.029935791015625
STABILIZE,1.8732900619506836,29.9460524624809,0.03229645093282064,0.03247189521789551,0.0,0.0,0.0,-0.7602678229055904,-1.183001677572608,28.898561114175216,0.005414971030579883,-0.030615221400552936,0.03170514745119842,0.4,-0.05176813285237317,-0.0005963487488075594,0.7541641753161281,0.2761390926527978,-4.52452152967453,-0.0037617424823110923,2.1934447810053825,5.048226966502274,-89.2665684223175,6.356018781661987,30.80768585205078,0.0,0.0,0.0,0.0,0.0,0.0,0.0,0.0,0.0,0.0,0.0,0.0,0.0,0.0,0.0,0.0,True,0,1.9983289241790771,0.039916015625
STABILIZE,1.9067575931549072,29.879493353470014,0.03240707715352376,0.032541513442993164,0.0,0.0,0.0,-0.7670206388389116,-1.1940823788404844,28.844039129125587,0.008405584734145051,-0.030583554963685006,0.03637361054466906,0.4,-0.06707353778595873,-0.026332516003622044,0.7327817054438351,0.3206780429528515,-0.7460612338036299,-1.270597893744707,0.42647216469049454,2.4228482448428816,31.193548440933228,-10.673021525144577,-12.394073605537415,0.0,0.0,0.0,0.0,0.0,0.0,0.0,0.0,0.0,0.0,0.0,0.0,0.0,0.0,0.0,0.0,True,0,2.031402349472046,0.029936279296875
STABILIZE,1.9414138793945312,28.854793992804023,0.032393725713094075,0.033704519271850586,0.0,0.0,0.0,-0.7720030483950243,-1.1929333062343355,28.869351810189656,-0.002635825392659247,-0.01544380326451421,0.026333797455595765,0.4,-0.05059509483702537,0.017039087539251728,0.7304438639684271,0.21876470336679574,0.8409851230680943,2.3892467841506004,1.697348989546299,-5.08908643877776,64.10340070724487,111.83817386627197,3.12616303563118,0.0,0.0,0.0,0.0,0.0,0.0,0.0,0.0,0.0,0.0,0.0,0.0,0.0,0.0,0.0,0.0,True,0,2.0601882934570312,0.029936767578125
STABILIZE,1.9768261909484863,28.239907355040263,0.03236964543660482,0.034485578536987305,0.0,0.0,0.0,-0.799042700102047,-1.2084378356502645,29.072256239863222,0.044075105202976646,-0.020954131849246212,0.023955294476718555,0.4,-0.04900113147601083,-0.12528991922184116,0.7126583105438465,0.19360774317479218,0.04280262510292232,-7.86367803812027,0.8024247363209724,-1.0166201903818015,-28.417295217514038,-213.27776908874512,18.381229043006897,0.0,0.0,0.0,0.0,0.0,0.0,0.0,0.0,0.0,0.0,0.0,0.0,0.0,0.0,0.0,0.0,True,1,2.0888724327087402,0.069852294921875
STABILIZE,2.010254383087158,29.914015918751605,0.0323977788289388,0.03253054618835449,0.0,0.0,0.0,-0.7741619217812773,-1.2042475145944616,28.89980079350957,0.10320566293339259,-0.02820840750590068,0.022571726901980733,0.4,-0.05280854995343407,-0.29489927335764143,0.7142107761544589,0.17857732947852833,0.04280262510292232,-7.86367803812027,0.8024247363209724,-1.0166201903818015,-28.417295217514038,-213.27776908874512,18.381229043006897,0.0,0.0,0.0,0.0,0.0,0.0,0.0,0.0,0.0,0.0,0.0,0.0,0.0,0.0,0.0,0.0,True,0,2.117744207382202,0.069852294921875
STABILIZE,2.043994188308716,29.638373046157326,0.03242472012837728,0.03275895118713379,0.0,0.0,0.0,-0.7803434564235504,-1.1690351146586955,28.76837770859477,0.053035989193556426,0.016393562557439616,0.007004772762244,0.4,0.0017351490414243276,-0.1555965307676974,0.7428619004762089,0.02275462270237419,2.4161212146282196,2.092125453054905,1.5946423634886742,2.930088188129059,20.938482880592346,-101.40153169631958,22.81716912984848,0.0,0.0,0.0,0.0,0.0,0.0,0.0,0.0,0.0,0.0,0.0,0.0,0.0,0.0,0.0,0.0,True,0,2.1834475994110107,0.0348779296875
STABILIZE,2.0773565769195557,29.974087228705578,0.03234532674153646,0.0324559211730957,0.0,0.0,0.0,-0.7837370999456947,-1.189467945725906,29.05427235177858,0.07925973674074457,-0.018886079090770287,0.016917719037851883,0.4,-0.10960601957759382,-0.24979903054853045,0.7782561437479969,0.12107449239400639,-5.542968958616257,-4.922803491353989,3.4124013036489487,5.133534321688441,-255.6208372116089,51.069122552871704,30.720335245132446,0.0,0.0,0.0,0.0,0.0,0.0,0.0,0.0,0.0,0.0,0.0,0.0,0.0,0.0,0.0,0.0,True,0,2.212111234664917,0.0399150390625
STABILIZE,2.1108431816101074,29.86438819466695,0.032410653432210286,0.032541513442993164,0.0,0.0,0.0,-0.7690235918130178,-1.1924675727103051,28.9226853423237,0.06865990790113567,-0.050328696707789826,-0.009571339911776163,0.4,-0.18290420994961584,-0.18576374230060716,0.7808962402840984,-0.14286054716256597,-3.629680350422859,2.956857532262802,1.5954643487930298,-12.68392083590214,217.0982837677002,179.45916652679443,-28.140097856521606,0.0,0.0,0.0,0.0,0.0,0.0,0.0,0.0,0.0,0.0,0.0,0.0,0.0,0.0,0.0,0.0,True,0,2.2407989501953125,0.024947021484375
STABILIZE,2.144320011138916,29.870768792507924,0.032361539204915364,0.03248095512390137,0.0,0.0,0.0,-0.7769883394371931,-1.1859087768380947,28.890067773942302,0.038391980340567115,0.002662357993784066,-0.00864074477979838,0.4,-0.03428275086179272,-0.2128790862028149,0.8511493298610365,-0.1326673704041072,7.2317905724048615,-1.8560461699962616,5.6550368666648865,0.3079290468896814,115.4115080833435,-222.52955436706543,-11.575007438659668,0.0,0.0,0.0,0.0,0.0,0.0,0.0,0.0,0.0,0.0,0.0,0.0,0.0,0.0,0.0,0.0,True,0,2.2697300910949707,0.034926025390625
STABILIZE,2.1776978969573975,29.959528282344873,0.03233292897542318,0.03244614601135254,0.0,0.0,0.0,-0.7906864972610653,-1.1837813863550473,29.036862199584217,-0.0014682053002841367,0.05462799057012096,-0.008524607706124197,0.4,0.10695909809503168,-0.2426327263062564,0.9291511048054464,-0.13063243908343722,7.2317905724048615,-1.8560461699962616,5.6550368666648865,0.3079290468896814,115.4115080833435,-222.52955436706543,-11.575007438659668,0.0,0.0,0.0,0.0,0.0,0.0,0.0,0.0,0.0,0.0,0.0,0.0,0.0,0.0,0.0,0.0,True,0,2.2982678413391113,0.034926025390625
STABILIZE,2.211080551147461,29.95460713316479,0.03238800366719564,0.0325007438659668,0.0,0.0,0.0,-0.7802627748139797,-1.1878733099981196,28.96594776052656,0.0598686631935939,0.023785733142070158,-0.0008106892115747073,0.4,0.06633971355751148,-0.2983189386309024,0.9741360068749835,-0.05313798266380704,-2.1838320419192314,-3.2431554049253464,3.979838639497757,4.2143334396036485,-229.26979064941406,31.665539741516113,46.91530764102936,0.0,0.0,0.0,0.0,0.0,0.0,0.0,0.0,0.0,0.0,0.0,0.0,0.0,0.0,0.0,0.0,True,0,2.33038592338562,0.03492578125
STABILIZE,2.2446281909942627,29.80814441048966,0.032444270451863606,0.03257417678833008,0.0,0.0,0.0,-0.7681719526008819,-1.1905931126699598,28.874918414363215,-0.00896544009112159,0.026594885908700117,-0.010634056458408946,0.4,-0.0188824049295008,-0.18475019125643816,0.9792033562056628,-0.1503648500818482,-4.540681466460228,5.645277351140976,1.9128164276480675,-5.001028651790194,-22.027166187763214,176.01256370544434,55.376726388931274,0.0,0.0,0.0,0.0,0.0,0.0,0.0,0.0,0.0,0.0,0.0,0.0,0.0,0.0,0.0,0.0,True,0,2.3610198497772217,0.02993701171875
STABILIZE,2.2779788970947266,29.984158302593578,0.032343180974324544,0.0324709415435791,0.0,0.0,0.0,-0.7837017750610811,-1.1857470934538359,28.99562151737568,0.02180374050448735,0.07405512155544722,-0.010964806633943166,0.4,0.05240799235486053,-0.216638553371223,0.9674046021195268,-0.1526523484736164,3.806278109550476,-2.1310631185770035,1.3875850476324558,-0.19155468298541745,214.504075050354,-206.29611015319824,37.85914182662964,0.0,0.0,0.0,0.0,0.0,0.0,0.0,0.0,0.0,0.0,0.0,0.0,0.0,0.0,0.0,0.0,True,1,2.3898823261260986,0.034926025390625
STABILIZE,2.311675548553467,29.67779916223254,0.03245213826497396,0.03278994560241699,0.0,0.0,0.0,-0.7710112835831974,-1.188345766989614,28.88764305678695,-0.0017233110851702573,0.023045735689426645,-0.012265378433998384,0.4,0.03384136370302397,-0.17375454914944982,0.9430730460328862,-0.16455053411639964,-4.2290885001420975,4.795367270708084,1.1881413869559765,-4.4234012612295075,-179.63385581970215,145.77467441558838,38.075295090675354,0.0,0.0,0.0,0.0,0.0,0.0,0.0,0.0,0.0,0.0,0.0,0.0,0.0,0.0,0.0,0.0,True,0,2.4498283863067627,0.02993603515625
STABILIZE,2.3451719284057617,29.85354743195536,0.03241089185078939,0.0325465202331543,0.0,0.0,0.0,-0.7723652618644465,-1.1893589828643032,28.898950434957904,0.00014100567006666427,-0.030496508207822424,-0.009860832796239064,0.4,0.002359987677589534,-0.20405097701906233,0.9348294817296061,-0.139570766766874,-1.7222771421074867,-2.0999982953071594,1.5295213088393211,1.266142261966294,59.96261239051819,-156.6129207611084,14.382246136665344,0.0,0.0,0.0,0.0,0.0,0.0,0.0,0.0,0.0,0.0,0.0,0.0,0.0,0.0,0.0,0.0,True,0,2.478419542312622,0.03492578125
STABILIZE,2.378573417663574,29.938998536707235,0.03236058553059896,0.03248953819274902,0.0,0.0,0.0,-0.7774040204812119,-1.1894036992590256,28.955825420176602,-0.004755417342476745,0.014781718930668724,-0.007410804387799806,0.4,0.09456617276763263,-0.23641424489553622,0.9257472133614847,-0.11430588244419293,5.172409117221832,-2.1710896864533424,1.1340615339577198,1.4174350075068962,157.4028491973877,22.202810645103455,21.897612512111664,0.0,0.0,0.0,0.0,0.0,0.0,0.0,0.0,0.0,0.0,0.0,0.0,0.0,0.0,0.0,0.0,True,0,2.5071589946746826,0.03492626953125
STABILIZE,2.4120819568634033,29.84313920808282,0.03242066701253255,0.032546281814575195,0.0,0.0,0.0,-0.7751417337620568,-1.1867761041409806,28.923156625376432,0.004946810785140844,0.04048380135615266,-0.013048570198517703,0.4,0.09527503389516767,-0.16863249706424305,0.9241461546242209,-0.16954972559342193,0.04258249537087977,3.4489378333091736,1.5655489638447762,-3.131761689648145,-102.45542526245117,100.19800662994385,21.520258486270905,0.0,0.0,0.0,0.0,0.0,0.0,0.0,0.0,0.0,0.0,0.0,0.0,0.0,0.0,0.0,0.0,True,0,2.535991907119751,0.029935791015625
STABILIZE,2.445554256439209,29.875662430907745,0.03234675725301107,0.03248000144958496,0.0,0.0,0.0,-0.7750498463733789,-1.1884679633427337,28.93784153209196,-0.02886132166413223,0.0189582798152846,-0.01837572607548011,0.4,0.09435847376423734,-0.10111034333991635,0.917154528178699,-0.22134023815090859,0.04258249537087977,3.4489378333091736,1.5655489638447762,-3.131761689648145,-102.45542526245117,100.19800662994385,21.520258486270905,0.0,0.0,0.0,0.0,0.0,0.0,0.0,0.0,0.0,0.0,0.0,0.0,0.0,0.0,0.0,0.0,True,0,2.5644748210906982,0.029935791015625
STABILIZE,2.478917121887207,29.97344462389412,0.03233030637105306,0.03244328498840332,0.0,0.0,0.0,-0.7698708554352167,-1.1939316877919208,28.926558059583098,-0.007372575946498912,-0.007161227536810329,-0.015972859884282094,0.4,0.006522141667764381,-0.12567133342230163,0.9193599970308329,-0.19600142458084202,-4.999895021319389,-1.7818257212638855,2.066698484122753,1.2554886609649551,-104.24938201904297,-109.72659587860107,18.977747857570648,0.0,0.0,0.0,0.0,0.0,0.0,0.0,0.0,0.0,0.0,0.0,0.0,0.0,0.0,0.0,0.0,True,0,2.593231678009033,0.034926025390625
STABILIZE,2.512406349182129,29.860135976933755,0.032396825154622395,0.032531023025512695,0.0,0.0,0.0,-0.7746216788897837,-1.1873207050055832,28.93390051294086,-0.031359975665988284,0.04190855060946873,-0.018672188589916084,0.4,0.11671146244466403,-0.08349911995450661,0.9019558867480906,-0.22151258613678296,3.9887603372335434,2.320765145123005,0.8983590640127659,-1.4797017867450828,51.093703508377075,47.56242334842682,18.09931993484497,0.0,0.0,0.0,0.0,0.0,0.0,0.0,0.0,0.0,0.0,0.0,0.0,0.0,0.0,0.0,0.0,True,0,2.650862693786621,0.02993701171875
STABILIZE,2.5519394874572754,25.29553952669288,0.03237512906392415,0.03856492042541504,0.0,0.0,0.0,-0.7770326289450925,-1.1922013020543805,28.964274364179907,-0.03267271348119245,-0.00223637444344785,-0.015743936497839447,0.4,0.06376404437779085,-0.11068679009785205,0.8999446643453545,-0.19072271017826975,-3.0033282935619354,-1.9173191860318184,1.804477721452713,1.5403417003003368,-84.95395183563232,-42.1518474817276,50.59582591056824,0.0,0.0,0.0,0.0,0.0,0.0,0.0,0.0,0.0,0.0,0.0,0.0,0.0,0.0,0.0,0.0,True,0,2.679187536239624,0.034904541015625
STABILIZE,2.5853404998779297,29.938998536707235,0.03234723409016927,0.032477378845214844,0.0,0.0,0.0,-0.771475309559935,-1.1924522047846726,28.91499796441285,-0.021186785531213656,-0.0024287693561037354,-0.01744862205009503,0.4,0.06387928539426752,-0.0861765351817486,0.8962589599231999,-0.2063890538960389,0.06465389742515981,1.1265870183706284,1.4002072624862194,-1.076595334431743,126.16814374923706,77.46285796165466,28.236904740333557,0.0,0.0,0.0,0.0,0.0,0.0,0.0,0.0,0.0,0.0,0.0,0.0,0.0,0.0,0.0,0.0,True,0,2.7080326080322266,0.034925048828125
STABILIZE,2.6187732219696045,29.909536271776258,0.03240040143330892,0.03253912925720215,0.0,0.0,0.0,-0.7739192366223303,-1.1887914368329575,28.927456229458954,-0.005409387150340899,0.017541058324949673,-0.017913363643136754,0.4,0.1188644475204469,-0.07366457604147043,0.8993233418135769,-0.2096336157825469,3.2954663038253784,0.4236900247633457,1.8053889274597168,-0.3634309506417935,46.9730019569397,-61.6960883140564,35.11710464954376,0.0,0.0,0.0,0.0,0.0,0.0,0.0,0.0,0.0,0.0,0.0,0.0,0.0,0.0,0.0,0.0,True,0,2.7366042137145996,0.03492578125
STABILIZE,2.653407335281372,28.873465735035968,0.032433541615804036,0.03378772735595703,0.0,0.0,0.0,-0.7784921549933596,-1.1916129452904074,28.978320648208037,-0.004713215620445731,0.03657303804606043,-0.015347665669637021,0.4,0.0980305799734186,-0.09654822570749767,0.9040093293777386,-0.1827101639135575,-1.1711189523339272,-1.6407199203968048,1.9054265692830086,1.3825188670263795,-113.86475563049316,-11.202787607908249,34.850889444351196,0.0,0.0,0.0,0.0,0.0,0.0,0.0,0.0,0.0,0.0,0.0,0.0,0.0,0.0,0.0,0.0,True,0,2.765364646911621,0.029937255859375
STABILIZE,2.687518358230591,29.31726615687864,0.03247669537862142,0.03323817253112793,0.0,0.0,0.0,-0.7715507618059225,-1.1913070808816377,28.92260338005366,0.0009428573154001947,0.008417955330324656,-0.016442976914741884,0.4,0.11156029099094843,-0.07709473182555125,0.9047417405630336,-0.19235200223438398,2.145642973482609,-0.5813255906105042,1.757730171084404,0.8776217853472223,87.7820372581482,-63.79101276397705,30.368724465370178,0.0,0.0,0.0,0.0,0.0,0.0,0.0,0.0,0.0,0.0,0.0,0.0,0.0,0.0,0.0,0.0,True,0,2.8246872425079346,0.03492578125
STABILIZE,2.7209906578063965,29.873960113960113,0.03245046933492025,0.032566070556640625,0.0,0.0,0.0,-0.7775607946670049,-1.1913317335956732,28.985557233633667,-0.003850171772027071,0.0343677515321965,-0.014651305627960742,0.4,0.1464270121682417,-0.08266120433629347,0.9070833174382591,-0.17327564949865715,2.145642973482609,-0.5813255906105042,1.757730171084404,0.8776217853472223,87.7820372581482,-63.79101276397705,30.368724465370178,0.0,0.0,0.0,0.0,0.0,0.0,0.0,0.0,0.0,0.0,0.0,0.0,0.0,0.0,0.0,0.0,True,0,2.853367328643799,0.03492578125
STABILIZE,2.754384994506836,29.94541105915111,0.032405885060628255,0.03252124786376953,0.0,0.0,0.0,-0.7790461473680711,-1.1906231014692845,28.990031007540026,0.010080990806175532,0.03943823265875472,-0.011679573433209915,0.4,0.16066374332303848,-0.10100760940495371,0.9054170241154453,-0.14260531437851526,0.9241859428584576,-1.318666897714138,1.529097743332386,1.5370192401559488,-30.26251494884491,-5.542565509676933,28.373682498931885,0.0,0.0,0.0,0.0,0.0,0.0,0.0,0.0,0.0,0.0,0.0,0.0,0.0,0.0,0.0,0.0,True,0,2.882080078125,0.029937255859375
STABILIZE,2.7879340648651123,29.808779946982025,0.032457860310872395,0.03258228302001953,0.0,0.0,0.0,-0.7731652477709843,-1.1894712540987853,28.94029357000399,0.0022538110384257,0.010134489710675081,-0.015035310669274916,0.4,0.1246952040651537,-0.06893577499483831,0.8970607914169744,-0.17499182014472162,-1.9448885694146156,1.6733260825276375,1.4132685959339142,-2.2575809322604337,-64.43536281585693,62.76022791862488,22.120781242847443,0.0,0.0,0.0,0.0,0.0,0.0,0.0,0.0,0.0,0.0,0.0,0.0,0.0,0.0,0.0,0.0,True,0,2.9107468128204346,0.0349248046875
STABILIZE,2.8247342109680176,27.1738051583728,0.03234151204427083,0.035854339599609375,0.0,0.0,0.0,-0.7746379005890626,-1.194219302789002,28.979457874704845,-0.014960751026194435,0.0046582299129685365,-0.018532844953783843,0.4,0.089809122500845,-0.03694797197910797,0.8936426980163716,-0.2084318560878303,-1.9448885694146156,1.6733260825276375,1.4132685959339142,-2.2575809322604337,-64.43536281585693,62.76022791862488,22.120781242847443,0.0,0.0,0.0,0.0,0.0,0.0,0.0,0.0,0.0,0.0,0.0,0.0,0.0,0.0,0.0,0.0,True,0,2.9395599365234375,0.0349248046875
STABILIZE,2.8581573963165283,29.916789706060673,0.03236392339070638,0.032495975494384766,0.0,0.0,0.0,-0.7762932609674386,-1.1924401452319193,28.9924284039387,-0.014932752990174745,0.007870517109641184,-0.020500419009788037,0.4,0.10975804324149871,-0.02107219988044123,0.9235524251079457,-0.22659116657330458,-0.7374731358140707,1.2887782417237759,1.8815306946635246,-2.065691676727391,-56.57535195350647,47.07213640213013,26.944485306739807,0.0,0.0,0.0,0.0,0.0,0.0,0.0,0.0,0.0,0.0,0.0,0.0,0.0,0.0,0.0,0.0,True,0,2.9969265460968018,0.034926025390625
STABILIZE,2.8967013359069824,25.94521835951998,0.032418044408162434,0.0376429557800293,0.0,0.0,0.0,-0.7720858644387107,-1.19365773317318,28.94523179677391,-0.015149043983329917,-0.006694504439423429,-0.01779506187631337,0.4,0.09674741190611047,-0.02575575796579129,0.9083174079006435,-0.19801160950623245,-0.515001080930233,-0.439962325617671,0.9634774178266525,1.235559022740504,31.85991644859314,-35.16582548618317,16.247905790805817,0.0,0.0,0.0,0.0,0.0,0.0,0.0,0.0,0.0,0.0,0.0,0.0,0.0,0.0,0.0,0.0,True,0,3.025782585144043,0.034926025390625
STABILIZE,2.9301462173461914,29.899515255203877,0.03241709073384603,0.03254103660583496,0.0,0.0,0.0,-0.7739982106846085,-1.1962546991616658,28.97114553448494,-0.018853156977527354,-0.01563014975904086,-0.015020233167765778,0.4,0.08367979062331528,-0.03078065494192489,0.8932231086492018,-0.16913228286113974,-0.515001080930233,-0.439962325617671,0.9634774178266525,1.235559022740504,31.85991644859314,-35.16582548618317,16.247905790805817,0.0,0.0,0.0,0.0,0.0,0.0,0.0,0.0,0.0,0.0,0.0,0.0,0.0,0.0,0.0,0.0,True,0,3.0543460845947266,0.034926025390625
STABILIZE,2.9635977745056152,29.89418766259221,0.03241875966389974,0.032534122467041016,0.0,0.0,0.0,-0.7737012041774187,-1.1942770392318296,28.97088598729648,-0.012353605298442922,0.0019008884931971757,-0.015321490472039586,0.4,0.10256034986859267,-0.02203104851597608,0.8929701205416047,-0.1710016658275731,1.2396720238029957,0.33166720531880856,1.7690213397145271,-0.46020555311417694,46.72900438308716,33.6104542016983,19.595085084438324,0.0,0.0,0.0,0.0,0.0,0.0,0.0,0.0,0.0,0.0,0.0,0.0,0.0,0.0,0.0,0.0,True,0,3.083005905151367,0.0399150390625
STABILIZE,2.996981620788574,29.95524893050229,0.03239610989888509,0.03250837326049805,0.0,0.0,0.0,-0.7720271675005309,-1.1948327391538338,28.965230590663708,-0.0071084878258216065,0.01709177969276741,-0.017764512431952137,0.4,0.11846458770424287,-0.012300511140383535,0.8923880157580277,-0.19413386551102457,1.028675027191639,0.3669371362775564,1.5173476189374924,-1.5694132265637326,-44.7691947221756,-9.578731656074524,29.312926530838013,0.0,0.0,0.0,0.0,0.0,0.0,0.0,0.0,0.0,0.0,0.0,0.0,0.0,0.0,0.0,0.0,True,0,3.1117026805877686,0.024947021484375
STABILIZE,3.0305287837982178,29.808779946982025,0.03245094617207845,0.03265810012817383,0.0,0.0,0.0,-0.7712006078892536,-1.1984440949557722,28.97944079923192,-0.0018555833985577806,0.006107406888292798,-0.014357114939168289,0.4,0.10445112137275005,-0.013827320360477454,0.8701351692671753,-0.15899392759112985,1.2649647891521454,0.5962235387414694,1.4234798029065132,0.0812665845906968,61.59999966621399,27.65689492225647,15.546998381614685,0.0,0.0,0.0,0.0,0.0,0.0,0.0,0.0,0.0,0.0,0.0,0.0,0.0,0.0,0.0,0.0,True,0,3.1691207885742188,0.029936767578125
STABILIZE,3.0640690326690674,29.815136802746718,0.03241875966389974,0.032590389251708984,0.0,0.0,0.0,-0.7703143908444444,-1.1975856255544661,28.978569950112743,-0.0031375983486685256,0.016076621591418754,-0.015401868536756118,0.4,0.12276875374281683,-0.013550989423934137,0.856028368584981,-0.16831397011571012,1.262871827930212,-0.0774516083765775,1.1378122493624687,-0.9062223487230044,2.675778418779373,-21.46598845720291,18.876104056835175,0.0,0.0,0.0,0.0,0.0,0.0,0.0,0.0,0.0,0.0,0.0,0.0,0.0,0.0,0.0,0.0,True,0,3.197882652282715,0.03492626953125
STABILIZE,3.097466468811035,29.941563216093318,0.032386096318562825,0.03250861167907715,0.0,0.0,0.0,-0.7712029557667808,-1.19710612493039,28.983023233451593,-0.0009529147447655997,0.01327432503847767,-0.014471092334791286,0.4,0.10404194553806158,-0.023843580266167987,0.8515250610476048,-0.1579493796447918,-0.8871669881045818,-0.693569565191865,1.4324256218969822,0.258577435000475,-44.08455491065979,-3.881281614303589,21.63381725549698,0.0,0.0,0.0,0.0,0.0,0.0,0.0,0.0,0.0,0.0,0.0,0.0,0.0,0.0,0.0,0.0,True,0,3.22816801071167,0.03492578125
STABILIZE,3.1310417652130127,29.785071616756262,0.03243425687154134,0.03256726264953613,0.0,0.0,0.0,-0.7689670293089537,-1.1983677889361384,28.977248308508347,-0.002983918679793412,0.004007703849951309,-0.013770977268127742,0.4,0.0939042030440383,-0.010961102647061106,0.8481689395666453,-0.14994512092090923,-0.38678976707160473,0.6390656810253859,1.489969715476036,0.1230973778012457,21.129529178142548,23.847420513629913,18.85242909193039,0.0,0.0,0.0,0.0,0.0,0.0,0.0,0.0,0.0,0.0,0.0,0.0,0.0,0.0,0.0,0.0,True,0,3.256824016571045,0.02993603515625
STABILIZE,3.164480686187744,29.90441831780232,0.032303603490193684,0.03243112564086914,0.0,0.0,0.0,-0.768592863008484,-1.1992821805112739,28.980598516296237,0.0001578130326329312,0.0028894813684822696,-0.013398070477697413,0.4,0.10401476633713756,-0.011608178472717346,0.8375640768323444,-0.14524459157146724,0.7998516783118248,-0.11301698395982385,1.2771468609571457,-0.08790338735972696,31.44477903842926,-25.164124369621277,15.10622650384903,0.0,0.0,0.0,0.0,0.0,0.0,0.0,0.0,0.0,0.0,0.0,0.0,0.0,0.0,0.0,0.0,True,0,3.285593032836914,0.034926025390625
STABILIZE,3.1978514194488525,29.96530734718372,0.03230455716451009,0.03253459930419922,0.0,0.0,0.0,-0.7714321939907993,-1.1973238372101842,28.9972573476819,-0.00011200626918762106,0.010894172863495108,-0.013083479246823609,0.4,0.1146357285853499,-0.01206632659210712,0.83119801476402,-0.1411519795630678,0.7998516783118248,-0.11301698395982385,1.2771468609571457,-0.08790338735972696,31.44477903842926,-25.164124369621277,15.10622650384903,0.0,0.0,0.0,0.0,0.0,0.0,0.0,0.0,0.0,0.0,0.0,0.0,0.0,0.0,0.0,0.0,True,0,3.3144965171813965,0.034926025390625
STABILIZE,3.231661319732666,29.57859550641035,0.032498868306477864,0.03287672996520996,0.0,0.0,0.0,-0.7690198565533155,-1.1976705760322681,28.981062969159797,0.0011548323502099931,0.003693484225202277,-0.01292332166174598,0.4,0.10973716775238912,-0.015429847714585124,0.8360685933915294,-0.1386158949266475,-0.09832745417952538,-0.27283644303679466,1.9200576469302177,-0.17324257229464302,-26.294568181037903,2.259143628180027,21.261245012283325,0.0,0.0,0.0,0.0,0.0,0.0,0.0,0.0,0.0,0.0,0.0,0.0,0.0,0.0,0.0,0.0,True,1,3.34298038482666,0.034926025390625
STABILIZE,3.2650508880615234,29.94840450978572,0.03238347371419271,0.032511234283447266,0.0,0.0,0.0,-0.7680056801832744,-1.1984891315156119,28.984279988258873,-0.005871924072275031,0.004169764877187522,-0.011768824769748467,0.4,0.09538259650841724,-0.004423384310579235,0.8191904693593108,-0.1262265574245049,0.6139412987977266,-0.28831525705754757,1.2418837286531925,0.8060435906404572,31.883463263511658,-25.123199820518494,18.348075449466705,0.0,0.0,0.0,0.0,0.0,0.0,0.0,0.0,0.0,0.0,0.0,0.0,0.0,0.0,0.0,0.0,True,0,3.4004838466644287,0.0349267578125
STABILIZE,3.2984819412231445,29.91316254920979,0.03242352803548177,0.032535552978515625,0.0,0.0,0.0,-0.7710300666034149,-1.1979288425602592,29.007885122030437,-0.0006295072743534677,0.009811204982686466,-0.009934255773320029,0.4,0.10263659002335236,-0.008267214666822183,0.8130757155880649,-0.10716439992003325,0.6139412987977266,-0.28831525705754757,1.2418837286531925,0.8060435906404572,31.883463263511658,-25.123199820518494,18.348075449466705,0.0,0.0,0.0,0.0,0.0,0.0,0.0,0.0,0.0,0.0,0.0,0.0,0.0,0.0,0.0,0.0,True,0,3.429577350616455,0.0349267578125
STABILIZE,3.331988573074341,29.844413294530344,0.032451899846394856,0.032566070556640625,0.0,0.0,0.0,-0.7704068118416512,-1.1972557487618958,28.991622441616638,-0.002686507242555239,0.0022018843833284778,-0.010307071550423926,0.4,0.08981226174063173,-0.0031154797269105023,0.8061588391294832,-0.11015593734398978,-0.5603802390396595,0.24414602667093277,1.1915040202438831,-0.47933627264914797,-15.073919296264648,-2.0451726391911507,15.333372354507446,0.0,0.0,0.0,0.0,0.0,0.0,0.0,0.0,0.0,0.0,0.0,0.0,0.0,0.0,0.0,0.0,True,0,3.4582910537719727,0.029937255859375
STABILIZE,3.3653981685638428,29.933229614193344,0.032382996877034505,0.032500505447387695,0.0,0.0,0.0,-0.769359978629641,-1.1991887990187151,28.98816636589661,-0.001603436457971367,-0.004106813770602665,-0.008445184816522799,0.4,0.08103251534171091,-0.006539252921212734,0.8022086126667428,-0.09092897399316972,-0.3069745609536767,-0.2431018278002739,1.5608581714332104,0.8346718482988896,5.383153259754181,-19.23322081565857,24.536864459514618,0.0,0.0,0.0,0.0,0.0,0.0,0.0,0.0,0.0,0.0,0.0,0.0,0.0,0.0,0.0,0.0,True,0,3.486851692199707,0.029935791015625
STABILIZE,3.3988006114959717,29.937288994525456,0.03240326245625814,0.03252696990966797,0.0,0.0,0.0,-0.7708931426548973,-1.1998816363326483,29.01607793393987,-0.004027853049748698,0.0011129106337413573,-0.00862190248780049,0.4,0.09146879982635076,-0.0025418504143886007,0.801746788391363,-0.09208035908943174,0.8261521346867085,0.1983377616852522,1.7419494688510895,-0.3520569247655769,16.320092976093292,16.1240816116333,26.598522067070007,0.0,0.0,0.0,0.0,0.0,0.0,0.0,0.0,0.0,0.0,0.0,0.0,0.0,0.0,0.0,0.0,True,0,3.515615940093994,0.034926025390625
STABILIZE,3.4328768253326416,29.34762591136176,0.03244498570760091,0.033069610595703125,0.0,0.0,0.0,-0.7706420264811935,-1.1990333054933915,29.00222972539767,-0.002185028478265938,0.009265336312891238,-0.008811104427734322,0.4,0.10231788967550848,0.0015792089394724446,0.8052660051304434,-0.09333853250298173,0.8261521346867085,0.1983377616852522,1.7419494688510895,-0.3520569247655769,16.320092976093292,16.1240816116333,26.598522067070007,0.0,0.0,0.0,0.0,0.0,0.0,0.0,0.0,0.0,0.0,0.0,0.0,0.0,0.0,0.0,0.0,True,1,3.5442898273468018,0.034926025390625
STABILIZE,3.466489791870117,29.746836879432625,0.032302172978719075,0.03277587890625,0.0,0.0,0.0,-0.7702140724410099,-1.198795742976322,29.010654763738877,-0.0020421595666371695,0.0019545702386008857,-0.0069678862536327124,0.4,0.08784207498636562,-0.0020854391054843527,0.7974145024926886,-0.0744037732043632,-0.7878793403506279,-0.2976867137476802,1.3424056582152843,1.0706797502802772,3.0894864350557327,-9.655547887086868,18.395014107227325,0.0,0.0,0.0,0.0,0.0,0.0,0.0,0.0,0.0,0.0,0.0,0.0,0.0,0.0,0.0,0.0,True,0,3.6022660732269287,0.029935791015625
STABILIZE,3.5000736713409424,29.778304733370724,0.032515557607014973,0.032644033432006836,0.0,0.0,0.0,-0.7703184462692642,-1.1991175089192532,29.019288122849776,0.001137564122340981,-0.0001588324967417548,-0.004804149691504342,0.4,0.07123825401746922,-0.006657784614834171,0.7907730051013391,-0.05241554878396791,-0.7878793403506279,-0.2976867137476802,1.3424056582152843,1.0706797502802772,3.0894864350557327,-9.655547887086868,18.395014107227325,0.0,0.0,0.0,0.0,0.0,0.0,0.0,0.0,0.0,0.0,0.0,0.0,0.0,0.0,0.0,0.0,True,0,3.6310596466064453,0.029935791015625
STABILIZE,3.533541679382324,29.878854798150694,0.03236869176228841,0.032492637634277344,0.0,0.0,0.0,-0.7693678760358688,-1.1987190100698653,29.013332197893522,-0.001755120956521642,0.0029625647675389243,-0.005064750147093406,0.4,0.0725775898884785,-0.0014438150846209068,0.789718972030152,-0.05465599974658277,0.2756096189841628,0.2901871455833316,1.6529086977243423,-0.36201803529852644,22.718554735183716,10.093146562576294,19.862352311611176,0.0,0.0,0.0,0.0,0.0,0.0,0.0,0.0,0.0,0.0,0.0,0.0,0.0,0.0,0.0,0.0,True,0,3.659627914428711,0.034926025390625
STABILIZE,3.567009449005127,29.880344803020588,0.032349379857381184,0.032494306564331055,0.0,0.0,0.0,-0.7696406567158461,-1.1997051186312857,29.015606650887136,-9.528393401464994e-05,0.0023689778760922257,-0.005388481817245117,0.4,0.07958968032325155,-0.0027380689326749956,0.7881960436388876,-0.057508359206937185,0.6039997562766075,-0.10587009601294994,1.38729652389884,-0.40913879001093034,-6.9404542446136475,-7.687679678201675,20.9243506193161,0.0,0.0,0.0,0.0,0.0,0.0,0.0,0.0,0.0,0.0,0.0,0.0,0.0,0.0,0.0,0.0,True,0,3.688288450241089,0.034926025390625
STABILIZE,3.6004066467285156,29.941776959209605,0.03233984311421712,0.03246951103210449,0.0,0.0,0.0,-0.7693425829915986,-1.200093265475213,29.022508557043437,0.0023321386792075722,-0.0027749341550769176,-0.0041821855782581486,0.4,0.07413675495048389,-0.0061260631367633924,0.7876356756628644,-0.04514371785726363,-0.15354176284745336,-0.2270210301503539,1.4466424472630024,0.5208324999821786,-11.020584404468536,0.3163326531648636,26.253977417945862,0.0,0.0,0.0,0.0,0.0,0.0,0.0,0.0,0.0,0.0,0.0,0.0,0.0,0.0,0.0,0.0,True,0,3.717073678970337,0.02993701171875
STABILIZE,3.6339735984802246,29.79120676184388,0.03240063985188802,0.032674551010131836,0.0,0.0,0.0,-0.768792539320001,-1.1992739629399287,29.021156179587773,-0.0024401360195089082,0.0028998812504046957,-0.004268291854208651,0.4,0.0779713153291497,0.004191241389053181,0.786210787933547,-0.04569782548984992,0.4160874988883734,0.6042294669896364,1.609237864613533,-0.22442817001727725,26.833590865135193,8.178188651800156,20.911401510238647,0.0,0.0,0.0,0.0,0.0,0.0,0.0,0.0,0.0,0.0,0.0,0.0,0.0,0.0,0.0,0.0,True,1,3.748074531555176,0.034926025390625
STABILIZE,3.6674373149871826,29.883751086538325,0.032401116689046223,0.032515525817871094,0.0,0.0,0.0,-0.7700221868140149,-1.1994845248654356,29.02412731187673,-0.0016874315370008052,0.011633933541883223,-0.0034684404334964594,0.4,0.0884411232015097,-0.001694558115992133,0.7849058421298151,-0.03744885605796291,0.25380784645676613,-0.20255695562809706,1.610391028225422,0.08259480292021305,-6.873603910207748,4.072170704603195,23.885439336299896,0.0,0.0,0.0,0.0,0.0,0.0,0.0,0.0,0.0,0.0,0.0,0.0,0.0,0.0,0.0,0.0,True,0,3.8030364513397217,0.029936279296875
