E-kp,E-ki,E-kd,E-I-Tot,E-P,E-I,E-D,E-PID,N-kp,N-ki,N-kd,N-I-Tot,N-P,N-I,N-D,N-PID,Y-kp,Y-ki,Y-kd,Y-I-Tot,Y-P,Y-I,Y-D,Y-PID,D-kp,D-ki,D-kd,D-I-Tot,D-P,D-I,D-D,D-PID,errorN,desiredN,actualN,errorE,desiredE,actualE,errorD,desiredD,actualD,errorY,desiredY,actualY,roll,pitch,yaw-rate,thrust,dt,Time,Mode
0.025,0.002,0.005,-0.0008538206056958909,-0.0006361888149040522,-1.7076412113917818e-06,-0.0037922365003514947,-0.0044301329564669385,0.03,0.002,0.006,-0.0008664403510489613,-0.0007747102702019631,-1.7328807020979226e-06,-0.004617944382282382,-0.0053943875331864425,0.2,0,0,-0.0008350929722783318,-0.004977877599339004,-0.0,-0.0,-0.004977877599339004,0.002,8e-05,0.0,-0.0009693345006982706,-5.7780734091534866e-05,-7.754676005586165e-08,-0.0,-5.785828085159073e-05,-0.02582367567339877,0.0,0.02582367567339877,-0.025447552596162087,0.0,0.025447552596162087,-0.02889036704576743,0.0,0.02889036704576743,-0.024889387996695017,0,0.024889387996695017,-0.004432475869888322,0.005392462566678565,0.004977877599339004,0.4,0.03355216979980469,0.03378868103027344,STABILIZE
0.025,0.002,0.005,-0.003259643654086624,-0.0017990160945825747,-6.5192873081732476e-06,-0.0069562721755804845,-0.008761807557471232,0.03,0.002,0.006,-0.003307488373018424,-0.002190427770043773,-6.614976746036848e-06,-0.008469113534517856,-0.010666156281307666,0.2,0,0,-0.003302333236296401,-0.014759539184362448,-0.0,-0.0,-0.014759539184362448,0.002,8e-05,0.0,-0.004127335984633676,-0.0001889181500731135,-3.3018687877069413e-07,-0.0,-0.0001892483369518842,-0.07301425900145911,0.0,0.07301425900145911,-0.07196064378330298,0.0,0.07196064378330298,-0.09445907503655675,0.0,0.09445907503655675,-0.07379769592181223,0,0.07379769592181223,-0.008775538431397658,0.010654862116916469,0.014759539184362448,0.4,0.0334324836730957,0.06715965270996094,STABILIZE
0.025,0.002,0.005,-0.007080715339969988,-0.0023056203937741816,-1.4161430679939978e-05,-0.002445465146555745,-0.004765246971009867,0.03,0.002,0.006,-0.007136662154679501,-0.002772611001752142,-1.4273324309359002e-05,-0.0028102975129185217,-0.005597181838980022,0.2,0,0,-0.007051832157820147,-0.01809946923914021,-0.0,-0.0,-0.01809946923914021,0.002,8e-05,0.0,-0.009394568177183,-0.000254258259676237,-7.515654541746401e-07,-0.0,-0.00025500982513041164,-0.09242036672507141,0.0,0.09242036672507141,-0.09222481575096726,0.0,0.09222481575096726,-0.1271291298381185,0.0,0.1271291298381185,-0.09049734619570104,0,0.09049734619570104,-0.004774081641344517,0.00558964826398797,0.01809946923914021,0.4,0.04143214225769043,0.10859918594360352,STABILIZE
0.025,0.002,0.005,-0.010593427147312779,-0.002614211300521853,-2.118685429462556e-05,-0.0018372627870506609,-0.00447266094186714,0.03,0.002,0.006,-0.010711227525425603,-0.0031922923481937557,-2.1422455050851207e-05,-0.0024986637758155888,-0.005712378579060196,0.2,0,0,-0.010444811369086045,-0.02020083646597074,-0.0,-0.0,-0.02020083646597074,0.002,8e-05,0.0,-0.01460447176405039,-0.0003101828918147618,-1.1683577411240313e-06,-0.0,-0.0003113512495558858,-0.10640974493979186,0.0,0.10640974493979186,-0.10456845202087411,0.0,0.10456845202087411,-0.1550914459073809,0.0,0.1550914459073809,-0.1010041823298537,0,0.1010041823298537,-0.004482724085123556,0.005704485051962431,0.02020083646597074,0.4,0.03359246253967285,0.14220929145812988,STABILIZE
0.025,0.002,0.005,-0.015047534583972018,-0.0028886945030661597,-3.0095069167944036e-05,-0.0014241203287515486,-0.004342909900985652,0.03,0.002,0.006,-0.015355358184416962,-0.0036143200127776473,-3.0710716368833925e-05,-0.0021896355436629854,-0.0058346662728094665,0.2,0,0,-0.014980584325198226,-0.023533266930453357,-0.0,-0.0,-0.023533266930453357,0.002,8e-05,0.0,-0.02183498664300398,-0.000375145842478146,-1.7467989314403186e-06,-0.0,-0.00037689264140958634,-0.12047733375925491,0.0,0.12047733375925491,-0.11554778012264638,0.0,0.11554778012264638,-0.18757292123907301,0.0,0.18757292123907301,-0.11766633465226678,0,0.11766633465226678,-0.00435488318403717,0.005825735093233282,0.023533266930453357,0.4,0.03854775428771973,0.18073201179504395,STABILIZE
0.025,0.002,0.005,-0.01935167054939293,-0.0032142649304028117,-3.870334109878586e-05,-0.0019450493485739535,-0.005198017620075551,0.03,0.002,0.006,-0.020164747802488406,-0.004309897041414309,-4.032949560497681e-05,-0.004155572904764355,-0.00850579944178364,0.2,0,0,-0.018865928470432895,-0.0232121392612232,-0.0,0.0,-0.0232121392612232,0.002,8e-05,0.0,-0.0302300085541055,-0.0005015422325986491,-2.4184006843284404e-06,-0.0,-0.0005039606332829775,-0.1436632347138103,0.0,0.1436632347138103,-0.12857059721611247,0.0,0.12857059721611247,-0.2507711162993245,0.0,0.2507711162993245,-0.11606069630611598,0,0.11606069630611598,-0.00521523664247625,0.008495252679316598,0.0232121392612232,0.4,0.033476829528808594,0.21421551704406738,STABILIZE
0.025,0.002,0.005,-0.023795023454106074,-0.003319837838035464,-4.759004690821215e-05,-0.0006310278583698095,-0.003998455743313486,0.03,0.002,0.006,-0.025481367555101362,-0.004766755863064369,-5.096273511020272e-05,-0.0027307256214474953,-0.007548444219622067,0.2,0,0,-0.02220648500253737,-0.019967094603021054,-0.0,0.0,-0.019967094603021054,0.002,8e-05,0.0,-0.04017074554817567,-0.0005941753539471086,-3.213659643854054e-06,-0.0,-0.0005973890135909626,-0.15889186210214565,0.0,0.15889186210214565,-0.13279351352141855,0.0,0.13279351352141855,-0.29708767697355426,0.0,0.29708767697355426,-0.09983547301510526,0,0.09983547301510526,-0.004011602511548061,0.0075414656239569024,0.019967094603021054,0.4,0.03346061706542969,0.2477126121520996,STABILIZE
0.025,0.002,0.005,-0.02848956117938263,-0.0035104864252591115,-5.697912235876526e-05,-0.001140507230503112,-0.004707972778120989,0.03,0.002,0.006,-0.0310810799343309,-0.005024830671645989,-6.21621598686618e-05,-0.0015438676440479564,-0.006630860475562607,0.2,0,0,-0.025662292729970938,-0.020673500694463207,-0.0,-0.0,-0.020673500694463207,0.002,8e-05,0.0,-0.0514613886583763,-0.0006754343313915056,-4.116911092670104e-06,-0.0,-0.0006795512424841758,-0.16749435572153298,0.0,0.16749435572153298,-0.14041945701036446,0.0,0.14041945701036446,-0.33771716569575283,0.0,0.33771716569575283,-0.10336750347231602,0,0.10336750347231602,-0.0047199278670066475,0.006622356020040051,0.020673500694463207,0.4,0.0334322452545166,0.28112101554870605,STABILIZE
0.025,0.002,0.005,-0.034674554463109894,-0.003912191535199878,-6.934910892621979e-05,-0.002032723087854014,-0.006014263731980112,0.03,0.002,0.006,-0.03730124267459255,-0.004721324710384026,-7.460248534918509e-05,0.0015358121156325143,-0.003260115080100697,0.2,0,0,-0.02941305727970899,-0.01897975780910814,-0.0,0.0,-0.01897975780910814,0.002,8e-05,0.0,-0.06563208507157525,-0.0007170708327391463,-5.250566805726021e-06,-0.0,-0.0007223213995448723,-0.15737749034613419,0.0,0.15737749034613419,-0.1564876614079951,0.0,0.1564876614079951,-0.35853541636957315,0.0,0.35853541636957315,-0.09489878904554071,0,0.09489878904554071,-0.006019655196621869,0.0032501492099740042,0.01897975780910814,0.4,0.03952383995056152,0.32064199447631836,STABILIZE
0.025,0.002,0.005,-0.04016367486255444,-0.00410630018903464,-8.032734972510889e-05,-0.001161670131361081,-0.00534829767012083,0.03,0.002,0.006,-0.04265113025259172,-0.004802571510380809,-8.530226050518344e-05,-0.0004862327307945546,-0.005374106501680547,0.2,0,0,-0.03305098110861658,-0.021771659164697522,-0.0,-0.0,-0.021771659164697522,0.002,8e-05,0.0,-0.07999324127164849,-0.0008594632892378768,-6.39945930173188e-06,-0.0,-0.0008658627485396087,-0.16008571701269364,0.0,0.16008571701269364,-0.16425200756138558,0.0,0.16425200756138558,-0.42973164461893837,0.0,0.42973164461893837,-0.1088582958234876,0,0.1088582958234876,-0.005358498467649054,0.005363935386619396,0.021771659164697522,0.4,0.033418893814086914,0.35405778884887695,STABILIZE
0.025,0.002,0.005,-0.04597067701811965,-0.004334607400747422,-9.194135403623931e-05,-0.0013633501115005702,-0.005789898866284232,0.03,0.002,0.006,-0.04801611860364139,-0.004805602117250143,-9.603223720728278e-05,-1.809744940697858e-05,-0.004919731803864404,0.2,0,0,-0.03742131327367208,-0.02609769879726208,-0.0,-0.0,-0.02609769879726208,0.002,8e-05,0.0,-0.09598662737261883,-0.0009550545758256829,-7.678930189809506e-06,-0.0,-0.0009627335060154924,-0.16018673724167143,0.0,0.16018673724167143,-0.17338429602989688,0.0,0.17338429602989688,-0.47752728791284144,0.0,0.47752728791284144,-0.13048849398631038,0,0.13048849398631038,-0.005801088303259859,0.004906532828947135,0.02609769879726208,0.4,0.033492088317871094,0.38756704330444336,STABILIZE
0.025,0.002,0.005,-0.05206568185541274,-0.0045556824477285575,-0.00010413136371082549,-0.0013219319597587308,-0.005981745771198114,0.03,0.002,0.006,-0.053342451782910784,-0.00477737095670528,-0.00010668490356582157,0.0001688099760463661,-0.004715245884224735,0.2,0,0,-0.042566722517057044,-0.030767293811539878,-0.0,-0.0,-0.030767293811539878,0.002,8e-05,0.0,-0.11357928664007624,-0.0010519639760511762,-9.0863429312061e-06,-0.0,-0.0010610503189823824,-0.15924569855684265,0.0,0.15924569855684265,-0.1822272979091423,0.0,0.1822272979091423,-0.5259819880255882,0.0,0.5259819880255882,-0.15383646905769938,0,0.15383646905769938,-0.005994384407966925,0.004699168201870182,0.030767293811539878,0.4,0.033447265625,0.4210026264190674,STABILIZE
0.025,0.002,0.005,-0.05800456445792068,-0.004434185249079582,-0.00011600912891584136,0.0007257137372289871,-0.0038244806407664363,0.03,0.002,0.006,-0.058517962300311366,-0.004637068740780829,-0.00011703592460062273,0.0008380378032765349,-0.003916066862104916,0.2,0,0,-0.047635271882032704,-0.03027490298449852,-0.0,0.0,-0.03027490298449852,0.002,8e-05,0.0,-0.13221343227168922,-0.0011130343429116604,-1.0577074581735138e-05,-0.0,-0.0011236114174933956,-0.15456895802602766,0.0,0.15456895802602766,-0.17736740996318326,0.0,0.17736740996318326,-0.5565171714558301,0.0,0.5565171714558301,-0.1513745149224926,0,0.1513745149224926,-0.003834813465926517,0.0039059489911700274,0.03027490298449852,0.4,0.03348350524902344,0.4545116424560547,STABILIZE
0.025,0.002,0.005,-0.06414369471122075,-0.004499059731122271,-0.0001282873894224415,-0.00038034595480854313,-0.0050076930753532554,0.03,0.002,0.006,-0.0633265866170927,-0.0042287986342880056,-0.00012665317323418541,0.0023936049827976654,-0.001961846824724526,0.2,0,0,-0.0521092916352565,-0.026230272077585715,-0.0,0.0,-0.026230272077585715,0.002,8e-05,0.0,-0.15148664575407314,-0.0011299494891323417,-1.2118931660325852e-05,-0.0,-0.0011420684207926676,-0.14095995447626686,0.0,0.14095995447626686,-0.17996238924489083,0.0,0.17996238924489083,-0.5649747445661708,0.0,0.5649747445661708,-0.13115136038792857,0,0.13115136038792857,-0.0050121706648331285,0.0019503789701514128,0.026230272077585715,0.4,0.034113407135009766,0.4886014461517334,STABILIZE
0.025,0.002,0.005,-0.07029844519969615,-0.004586379311518731,-0.0001405968903993923,-0.0005205484352559319,-0.005247524637174055,0.03,0.002,0.006,-0.06747679224460695,-0.0037111659874865285,-0.0001349535844892139,0.0030858240855772628,-0.0007602954863984795,0.2,0,0,-0.05709541094826144,-0.029724336679122873,-0.0,-0.0,-0.029724336679122873,0.002,8e-05,0.0,-0.17174035177185634,-0.0012074078835264486,-1.3739228141748508e-05,-0.0,-0.0012211471116681972,-0.12370553291621762,0.0,0.12370553291621762,-0.18345517246074922,0.0,0.18345517246074922,-0.6037039417632243,0.0,0.6037039417632243,-0.14862168339561435,0,0.14862168339561435,-0.005249479140090606,0.0007466811917680657,0.029724336679122873,0.4,0.03354907035827637,0.5221762657165527,STABILIZE
0.025,0.002,0.005,-0.07708353348571859,-0.004662337718205403,-0.0001541670669714372,-0.0004175553561943899,-0.00523406014137123,0.03,0.002,0.006,-0.07129788779101648,-0.0031507748415168504,-0.00014259577558203295,0.003080558621098704,-0.00021281199600017928,0.2,0,0,-0.06316744293420802,-0.033378918664976436,-0.0,-0.0,-0.033378918664976436,0.002,8e-05,0.0,-0.19509342080631442,-0.0012837550817961273,-1.5607473664505155e-05,-0.0,-0.0012993625554606324,-0.10502582805056168,0.0,0.10502582805056168,-0.18649350872821613,0.0,0.18649350872821613,-0.6418775408980636,0.0,0.6418775408980636,-0.16689459332488216,0,0.16689459332488216,-0.005234657827237335,0.00019756502948524898,0.033378918664976436,0.4,0.036382436752319336,0.558558464050293,STABILIZE
0.025,0.002,0.005,-0.08324263305015327,-0.004604508758645842,-0.00016648526610030655,0.00034586088178598025,-0.004425133142960168,0.03,0.002,0.006,-0.07445926069225911,-0.002836109868495706,-0.00014891852138451821,0.0018819343433658599,-0.0011030940465143644,0.2,0,0,-0.06828541465776237,-0.030609338759433776,-0.0,0.0,-0.030609338759433776,0.002,8e-05,0.0,-0.2183745419315299,-0.0013923869878793057,-1.7469963354522393e-05,-0.0,-0.0014098569512338282,-0.09453699561652354,0.0,0.09453699561652354,-0.18418035034583366,0.0,0.18418035034583366,-0.6961934939396528,0.0,0.6961934939396528,-0.15304669379716887,0,0.15304669379716887,-0.004428063902796103,0.001091269847990917,0.030609338759433776,0.4,0.033440589904785156,0.5919890403747559,STABILIZE
0.025,0.002,0.005,-0.08973790404609602,-0.004738662807415172,-0.00017947580809219205,-0.000782982944686349,-0.005701121560193713,0.03,0.002,0.006,-0.0773569715079664,-0.0025368501750176057,-0.00015471394301593282,0.0017466132269202536,-0.0009449508911132847,0.2,0,0,-0.07292976680627597,-0.027106513405765288,-0.0,0.0,-0.027106513405765288,0.002,8e-05,0.0,-0.24299869437350616,-0.0014371755132471177,-1.9439895549880494e-05,-0.0,-0.0014566154087969983,-0.08456167250058685,0.0,0.08456167250058685,-0.18954651229660688,0.0,0.18954651229660688,-0.7185877566235589,0.0,0.7185877566235589,-0.13553256702882643,0,0.13553256702882643,-0.005703340879134704,0.0009314623165283572,0.027106513405765288,0.4,0.034267425537109375,0.6262643337249756,STABILIZE
0.025,0.002,0.005,-0.09535635256473493,-0.004199901816359636,-0.00019071270512946987,0.0032218762989979603,-0.0011687382224911452,0.03,0.002,0.006,-0.08003148663943727,-0.0023991037927175605,-0.00016006297327887453,0.0008237452446876953,-0.0017354215213087397,0.2,0,0,-0.07821816590678958,-0.031625466588078535,-0.0,-0.0,-0.031625466588078535,0.002,8e-05,0.0,-0.2678910787501936,-0.001488604122797916,-2.143128630001549e-05,-0.0,-0.0015100354090979316,-0.07997012642391868,0.0,0.07997012642391868,-0.16799607265438543,0.0,0.16799607265438543,-0.744302061398958,0.0,0.744302061398958,-0.15812733294039266,0,0.15812733294039266,-0.001173523255670128,0.0017321893827565984,0.031625466588078535,0.4,0.03344392776489258,0.659726619720459,STABILIZE
0.025,0.002,0.005,-0.09984722296567336,-0.0033533572044794954,-0.00019969444593134672,0.0050569555025562355,0.0015039038521453933,0.03,0.002,0.006,-0.08176947383799263,-0.0015573173233458459,-0.00016353894767598526,0.005028532056700862,0.0033076757856790313,0.2,0,0,-0.08528692858386534,-0.042226266418152594,-0.0,-0.0,-0.042226266418152594,0.002,8e-05,0.0,-0.2929927253982039,-0.0014994828194341027,-2.3439418031856317e-05,-0.0,-0.0015229222374659591,-0.05191057744486153,0.0,0.05191057744486153,-0.1341342881791798,0.0,0.1341342881791798,-0.7497414097170514,0.0,0.7497414097170514,-0.21113133209076296,0,0.21113133209076296,0.001516082190550901,-0.003302111550380988,0.042226266418152594,0.4,0.03348040580749512,0.6931846141815186,STABILIZE
0.025,0.002,0.005,-0.10465433982123472,-0.003594901697336333,-0.00020930867964246943,-0.0014450719355386062,-0.005249282312517409,0.03,0.002,0.006,-0.08283861913087753,-0.0009594455080436602,-0.00016567723826175506,0.0035768473589450826,0.0024517246126396675,0.2,0,0,-0.09157238571270224,-0.03760358015819745,-0.0,0.0,-0.03760358015819745,0.002,8e-05,0.0,-0.31801474272903785,-0.0014969753434527608,-2.544117941832303e-05,0.0,-0.0015224165228710838,-0.03198151693478867,0.0,0.03198151693478867,-0.1437960678934533,0.0,0.1437960678934533,-0.7484876717263804,0.0,0.7484876717263804,-0.18801790079098726,0,0.18801790079098726,-0.005241208652315933,-0.0024689370659496048,0.03760358015819745,0.4,0.03343009948730469,0.7266192436218262,STABILIZE
0.025,0.002,0.005,-0.10931002654668957,-0.0034812854246425886,-0.00021862005309337916,0.0006796516990172827,-0.003020253778718685,0.03,0.002,0.006,-0.08485815772283306,-0.001812129727605184,-0.00016971631544566613,-0.005100750665464524,-0.007082596708515374,0.2,0,0,-0.09586635607792589,-0.025686498818006033,-0.0,0.0,-0.025686498818006033,0.002,8e-05,0.0,-0.3434470709444477,-0.001521359984072089,-2.747576567555582e-05,-0.0,-0.0015488357497476448,-0.060404324253506135,0.0,0.060404324253506135,-0.13925141698570354,0.0,0.13925141698570354,-0.7606799920360444,0.0,0.7606799920360444,-0.12843249409003016,0,0.12843249409003016,-0.0030361223131029156,0.007075808810532962,0.025686498818006033,0.4,0.03343367576599121,0.7600555419921875,STABILIZE
0.025,0.002,0.005,-0.11409016229250926,-0.0035766885876227306,-0.00022818032458501853,-0.0005710756721544491,-0.004375944584362198,0.03,0.002,0.006,-0.0873332751260221,-0.002222378101313425,-0.0001746665502520442,-0.002455713819619051,-0.004852758471184521,0.2,0,0,-0.1005559612919903,-0.028071600208038058,-0.0,-0.0,-0.028071600208038058,0.002,8e-05,0.0,-0.3693488651025699,-0.0015504605976150638,-2.9547909208205598e-05,-0.0,-0.0015800085068232695,-0.07407927004378084,0.0,0.07407927004378084,-0.14306754350490922,0.0,0.14306754350490922,-0.7752302988075319,0.0,0.7752302988075319,-0.14035800104019028,0,0.14035800104019028,-0.004387819289605344,0.0048420241291044,0.028071600208038058,0.4,0.03341174125671387,0.7934601306915283,STABILIZE
0.025,0.002,0.005,-0.11903228967236419,-0.0036929693424303128,-0.00023806457934472838,-0.0006951196998595578,-0.004626153621634599,0.03,0.002,0.006,-0.09028855304997371,-0.0026499723538493183,-0.00018057710609994742,-0.0025561339791461404,-0.005386683439095406,0.2,0,0,-0.10568607711902886,-0.03066753892195472,-0.0,-0.0,-0.03066753892195472,0.002,8e-05,0.0,-0.39597752100556993,-0.0015918458157230535,-3.1678201680445596e-05,-0.0,-0.001623524017403499,-0.08833241179497728,0.0,0.08833241179497728,-0.1477187736972125,0.0,0.1477187736972125,-0.7959229078615268,0.0,0.7959229078615268,-0.1533376946097736,0,0.1533376946097736,-0.004640553136314883,0.005374283430656195,0.03066753892195472,0.4,0.03345632553100586,0.8269245624542236,STABILIZE
0.025,0.002,0.005,-0.12438310060817918,-0.003996817159020619,-0.0002487662012163584,-0.0018156861554580275,-0.006061269515695005,0.03,0.002,0.006,-0.09230739524841608,-0.0018095821146094043,-0.00018461479049683215,0.005021872263862272,0.003027675358756035,0.2,0,0,-0.1114039536341341,-0.034167990224835465,-0.0,-0.0,-0.034167990224835465,0.002,8e-05,0.0,-0.4256960963084855,-0.0017758760402809513,-3.405568770467884e-05,-0.0,-0.0018099317279856302,-0.06031940382031348,0.0,0.06031940382031348,-0.15987268636082477,0.0,0.15987268636082477,-0.8879380201404756,0.0,0.8879380201404756,-0.17083995112417732,0,0.17083995112417732,-0.006052214905688963,-0.003045734879346589,0.034167990224835465,0.4,0.033469200134277344,0.8604917526245117,STABILIZE
0.025,0.002,0.005,-0.1299493155634921,-0.004164745590562629,-0.0002598986311269842,-0.0010051774146841112,-0.005429821636373725,0.03,0.002,0.006,-0.09419835157086014,-0.001697818442673353,-0.00018839670314172027,0.0006689892698972723,-0.001217225875917801,0.2,0,0,-0.11487261247451235,-0.020762520637968115,-0.0,0.0,-0.020762520637968115,0.002,8e-05,0.0,-0.4563627720458825,-0.001835630187909024,-3.6509021763670604e-05,-0.0,-0.0018721392096726947,-0.05659394808911177,0.0,0.05659394808911177,-0.16658982362250516,0.0,0.16658982362250516,-0.917815093954512,0.0,0.917815093954512,-0.10381260318984058,0,0.10381260318984058,-0.005432018179599773,0.0012073857429726685,0.020762520637968115,0.4,0.03341269493103027,0.8938055038452148,STABILIZE
0.025,0.002,0.005,-0.13468897692701196,-0.0035423091452763764,-0.00026937795385402393,0.0037215524796115657,-9.013461951883463e-05,0.03,0.002,0.006,-0.09643518124863337,-0.002006103377339363,-0.00019287036249726676,-0.0018432380875537347,-0.004042211827390365,0.2,0,0,-0.11681117824334139,-0.011590700220900384,-0.0,0.0,-0.011590700220900384,0.002,8e-05,0.0,-0.48697995792002663,-0.0018306039897173396,-3.895839663360213e-05,0.0,-0.0018695623863509419,-0.06687011257797876,0.0,0.06687011257797876,-0.14169236581105504,0.0,0.14169236581105504,-0.9153019948586698,0.0,0.9153019948586698,-0.05795350110450192,0,0.05795350110450192,-9.422318673720569e-05,0.004042118590320111,0.011590700220900384,0.4,0.03345036506652832,0.9272682666778564,STABILIZE
0.025,0.002,0.005,-0.13879968420777075,-0.0029706538278202643,-0.0002775993684155415,0.00330491069494268,5.6657498706874296e-05,0.03,0.002,0.006,-0.09919910739288233,-0.0023968627935122945,-0.00019839821478576466,-0.0022590972815688514,-0.0048543582898669104,0.2,0,0,-0.11679080025770854,0.00011781124149969069,-0.0,0.0,0.00011781124149969069,0.002,8e-05,0.0,-0.5203842357196621,-0.0019312014003145712,-4.163073885757297e-05,-0.0,-0.001972832139172144,-0.07989542645040983,0.0,0.07989542645040983,-0.11882615311281057,0.0,0.11882615311281057,-0.9656007001572856,0.0,0.9656007001572856,0.0005890562074984534,0,-0.0005890562074984534,5.670740621728356e-05,0.0048543577071163,-0.00011781124149969069,0.4,0.03459429740905762,0.9618852138519287,STABILIZE
0.025,0.002,0.005,-0.14301417823777782,-0.003149026117324628,-0.00028602835647555564,-0.0010662233601603432,-0.004501277833960527,0.03,0.002,0.006,-0.10246062244400003,-0.002924364159936837,-0.00020492124488800007,-0.0031531482886784897,-0.006282433693503326,0.2,0,0,-0.1141651248949409,0.01569501863635522,-0.0,0.0,0.01569501863635522,0.002,8e-05,0.0,-0.5549555050179893,-0.002066503436082702,-4.4396440401439146e-05,-0.0,-0.002110899876484141,-0.0974788053312279,0.0,0.0974788053312279,-0.1259610446929851,0.0,0.1259610446929851,-1.033251718041351,0.0,1.033251718041351,0.07847509318177609,0,-0.07847509318177609,-0.004492668887094895,0.0062885929684389445,-0.01569501863635522,0.4,0.033458709716796875,0.995323657989502,STABILIZE
0.025,0.002,0.005,-0.14513648545178298,-0.0015866590681624935,-0.000290272970903566,0.009344335560818979,0.00746740352175292,0.03,0.002,0.006,-0.10840703596681991,-0.005334721124311272,-0.00021681407193363983,-0.01441606459157625,-0.01996759978782116,0.2,0,0,-0.1122033607010533,0.011733083418980265,-0.0,-0.0,0.011733083418980265,0.002,8e-05,0.0,-0.5890973434974321,-0.0020419836400562,-4.712778747979457e-05,0.0,-0.0020891114275359947,-0.1778240374770424,0.0,0.1778240374770424,-0.06346636272649973,0.0,0.06346636272649973,-1.0209918200281,0.0,1.0209918200281,0.05866541709490133,0,-0.05866541709490133,0.007487844522817841,0.01995994341288047,-0.011733083418980265,0.4,0.03343987464904785,1.0287644863128662,STABILIZE
0.025,0.002,0.005,-0.14590153785113377,-0.0005719448632917678,-0.00029180307570226757,0.006068714536964807,0.005204966597970772,0.03,0.002,0.006,-0.11755607905877617,-0.008207670279713782,-0.00023511215811755236,-0.017182284646910222,-0.025625067084741555,0.2,0,0,-0.11097409648605867,0.007351876592935795,-0.0,-0.0,0.007351876592935795,0.002,8e-05,0.0,-0.6218134156971326,-0.0019566544155751402,-4.974507325577061e-05,0.0,-0.002006399488830911,-0.27358900932379276,0.0,0.27358900932379276,-0.022877794531670714,0.0,0.022877794531670714,-0.9783272077875701,0.0,0.9783272077875701,0.036759382964678976,0,-0.036759382964678976,0.0052214058579198004,0.025621722448937293,-0.007351876592935795,0.4,0.03344082832336426,1.0622272491455078,STABILIZE
0.025,0.002,0.005,-0.14715109092165174,-0.0009342721993051043,-0.00029430218184330347,-0.002167253973103942,-0.0033958283542523497,0.03,0.002,0.006,-0.12605567503299311,-0.007626025411544676,-0.00025211135006598625,0.0034790975622899633,-0.004399039199320699,0.2,0,0,-0.10857309014674936,0.014361573116648119,-0.0,0.0,0.014361573116648119,0.002,8e-05,0.0,-0.6565224635377942,-0.0020761150031627733,-5.252179708302354e-05,-0.0,-0.002128636800245797,-0.2542008470514892,0.0,0.2542008470514892,-0.03737088797220417,0.0,0.03737088797220417,-1.0380575015813867,0.0,1.0380575015813867,0.0718078655832406,0,-0.0718078655832406,-0.0033903124446977347,0.004403291679645125,-0.014361573116648119,0.4,0.03343653678894043,1.0956532955169678,STABILIZE
0.025,0.002,0.005,-0.1491487801382032,-0.0014741335040603168,-0.0002982975602764064,-0.0031869927726162835,-0.004959423836953006,0.03,0.002,0.006,-0.13327994950846442,-0.006397118205525844,-0.00026655989901692886,0.007254675134706946,0.0005909970301641726,0.2,0,0,-0.10529504143696218,0.019351484268932545,-0.0,0.0,0.019351484268932545,0.002,8e-05,0.0,-0.6924535396817504,-0.0021211388735304262,-5.539628317454003e-05,-0.0,-0.002176535156704966,-0.21323727351752814,0.0,0.21323727351752814,-0.058965340162412665,0.0,0.058965340162412665,-1.060569436765213,0.0,1.060569436765213,0.09675742134466271,0,-0.09675742134466271,-0.00496041480248025,-0.0005826210359533722,-0.019351484268932545,0.4,0.03387904167175293,1.1295225620269775,STABILIZE
0.025,0.002,0.005,-0.14969525623422036,-0.00040803050418503057,-0.00029939051246844075,0.006368110850193557,0.005660689833540086,0.03,0.002,0.006,-0.14290691304008982,-0.008625654030708049,-0.0002858138260801796,-0.013311624833668038,-0.02222309269045627,0.2,0,0,-0.10742091236513124,-0.012698380668066831,-0.0,-0.0,-0.012698380668066831,0.002,8e-05,0.0,-0.7283042327882734,-0.002141455260751689,-5.826433862306188e-05,-0.0,-0.002199719599374751,-0.28752180102360164,0.0,0.28752180102360164,-0.016321220167401222,0.0,0.016321220167401222,-1.0707276303758444,0.0,1.0707276303758444,-0.06349190334033415,0,0.06349190334033415,0.005636060003666193,0.0222293518968779,0.012698380668066831,0.4,0.03348255157470703,1.1630542278289795,STABILIZE
0.025,0.002,0.005,-0.15071117454624772,-0.0007582191378775239,-0.00030142234909249545,-0.002090874597214098,-0.0031505160841841175,0.03,0.002,0.006,-0.15434452099464713,-0.010243595147384592,-0.00030868904198929427,-0.0096602563737628,-0.020212540563136684,0.2,0,0,-0.1078067712364678,-0.0023038512234973873,-0.0,0.0,-0.0023038512234973873,0.002,8e-05,0.0,-0.7631474924378417,-0.002080389809264653,-6.105179939502734e-05,0.0,-0.0021414416086596804,-0.3414531715794864,0.0,0.3414531715794864,-0.030328765515100956,0.0,0.030328765515100956,-1.0401949046323264,0.0,1.0401949046323264,-0.011519256117486935,0,0.011519256117486935,-0.00315457973047269,0.02021190674669858,0.0023038512234973873,0.4,0.033496856689453125,1.1965153217315674,STABILIZE
0.025,0.002,0.005,-0.1512675155922699,-0.0004163211645926122,-0.0003025350311845398,0.0020467928933527424,0.0013279366975755904,0.03,0.002,0.006,-0.1646207768875481,-0.009227914103926113,-0.0003292415537750962,0.006080435989983265,-0.003476719667717944,0.2,0,0,-0.10605835980828074,0.01046697075003667,-0.0,0.0,0.01046697075003667,0.002,8e-05,0.0,-0.7975959939470911,-0.002062280375585205,-6.38076795157673e-05,0.0,-0.0021260880551009723,-0.3075971367975371,0.0,0.3075971367975371,-0.016652846583704486,0.0,0.016652846583704486,-1.0311401877926025,0.0,1.0311401877926025,0.05233485375018335,0,-0.05233485375018335,0.0013311118328403159,0.003475505259546766,-0.01046697075003667,0.4,0.033408164978027344,1.2299206256866455,STABILIZE
0.025,0.002,0.005,-0.15169111884337774,-0.00031672860997837245,-0.00030338223768675547,0.0005957236882326357,-2.438715943249212e-05,0.03,0.002,0.006,-0.17591956792882824,-0.0101377419693965,-0.00035183913585765645,-0.0054422342490785935,-0.01593181535433275,0.2,0,0,-0.10314971031138487,0.01739840305109575,-0.0,0.0,0.01739840305109575,0.002,8e-05,0.0,-0.8306948793727154,-0.0019798458005738373,-6.645559034981724e-05,0.0,-0.0020463013909236545,-0.3379247323132167,0.0,0.3379247323132167,-0.012669144399134897,0.0,0.012669144399134897,-0.9899229002869187,0.0,0.9899229002869187,0.08699201525547874,0,-0.08699201525547874,-1.979117397352794e-07,0.015931834018057332,-0.01739840305109575,0.4,0.033435821533203125,1.2633938789367676,STABILIZE
0.025,0.002,0.005,-0.1527704339924346,-0.0008025186930858889,-0.0003055408679848692,-0.002889651816340748,-0.003997711377411506,0.03,0.002,0.006,-0.18706488116263487,-0.009944441771147061,-0.00037412976232526976,0.0011498181794849331,-0.009168753353987398,0.2,0,0,-0.10046537222400843,0.015967395588318795,-0.0,-0.0,0.015967395588318795,0.002,8e-05,0.0,-0.8629892022638368,-0.0019209809348695575,-6.903913618110695e-05,0.0,-0.0019900200710506644,-0.3314813923715687,0.0,0.3314813923715687,-0.03210074772343555,0.0,0.03210074772343555,-0.9604904674347787,0.0,0.9604904674347787,0.07983697794159397,0,-0.07983697794159397,-0.003984931593387852,0.009174314934607377,-0.015967395588318795,0.4,0.03362274169921875,1.2969799041748047,STABILIZE
0.025,0.002,0.005,-0.15341824224587636,-0.000482399360254074,-0.0003068364844917527,0.001907050248805233,0.0011178144040594061,0.03,0.002,0.006,-0.19729544020581719,-0.009141992454561208,-0.0003945908804116344,0.004780439704504315,-0.004756143630468527,0.2,0,0,-0.09989010195958473,0.0034270635615620913,-0.0,-0.0,0.0034270635615620913,0.002,8e-05,0.0,-0.8950141580953326,-0.0019078260424376637,-7.160113264762661e-05,0.0,-0.00197942717508529,-0.30473308181870695,0.0,0.30473308181870695,-0.01929597441016296,0.0,0.01929597441016296,-0.9539130212188318,0.0,0.9539130212188318,0.017135317807810455,0,-0.017135317807810455,0.0011192367630523054,0.004755809115576573,-0.0034270635615620913,0.4,0.03357219696044922,1.3305540084838867,STABILIZE
0.025,0.002,0.005,-0.15446908323800648,-0.0007853229592786152,-0.00030893816647601296,-0.0018110664429948388,-0.002905327568749467,0.03,0.002,0.006,-0.2021098180965908,-0.004317503623002637,-0.00040421963619318156,0.028843807004720185,0.024122083745524367,0.2,0,0,-0.10179874384807207,-0.011411053107333813,-0.0,-0.0,-0.011411053107333813,0.002,8e-05,0.0,-0.9258683532797536,-0.001844656464668206,-7.40694682623803e-05,0.0,-0.0019187259329305861,-0.14391678743342123,0.0,0.14391678743342123,-0.031412918371144606,0.0,0.031412918371144606,-0.9223282323341029,0.0,0.9223282323341029,-0.057055265536669064,0,0.057055265536669064,-0.0028813053072176903,-0.024124964916750154,0.011411053107333813,0.4,0.033452510833740234,1.3640434741973877,STABILIZE
0.025,0.002,0.005,-0.15730289302051945,-0.0017441347466430508,-0.00031460578604103887,-0.004720985760308274,-0.0067797262929923646,0.03,0.002,0.006,-0.20826518479054065,-0.0045461578947873236,-0.0004165303695810813,-0.0011258451088679265,-0.006088533373236331,0.2,0,0,-0.10895703013706964,-0.035245882543288636,-0.0,-0.0,-0.035245882543288636,0.002,8e-05,0.0,-0.9631361058546457,-0.0018349850465270144,-7.705088846837166e-05,0.0,-0.001912035934995386,-0.1515385964929108,0.0,0.1515385964929108,-0.06976538986572203,0.0,0.06976538986572203,-0.9174925232635072,0.0,0.9174925232635072,-0.17622941271644316,0,0.17622941271644316,-0.006798421204311608,0.006067651635820144,0.035245882543288636,0.4,0.0406191349029541,1.4046251773834229,STABILIZE
0.025,0.002,0.005,-0.1533286783853078,0.0029682439441088837,-0.0003066573567706156,0.028156485333716445,0.030818071921054714,0.03,0.002,0.006,-0.21279934086397304,-0.0040637406507543095,-0.0004255986817279461,0.0028824453524935335,-0.001606893979988722,0.2,0,0,-0.11259435701385558,-0.02173304557656719,-0.0,0.0,-0.02173304557656719,0.002,8e-05,0.0,-0.992046292982229,-0.0017273850708354485,-7.936370343857833e-05,0.0,-0.0018067487742740268,-0.13545802169181032,0.0,0.13545802169181032,0.11872975776435535,0.0,-0.11872975776435535,-0.8636925354177243,0.0,0.8636925354177243,-0.10866522788283595,0,0.10866522788283595,0.030814968916669384,0.0016653395626492237,0.02173304557656719,0.4,0.03347277641296387,1.4381251335144043,STABILIZE
0.025,0.002,0.005,-0.15179749610937912,0.0011024932954502534,-0.00030359499221875824,-0.01074713370688936,-0.009948235403657866,0.03,0.002,0.006,-0.2157249081889713,-0.0025277865962046687,-0.0004314498163779426,0.008847432856985202,0.005888196444402591,0.2,0,0,-0.11034359646891244,0.012964875309616368,-0.0,0.0,0.012964875309616368,0.002,8e-05,0.0,-1.0200224837078238,-0.0016114900592614893,-8.16017986966259e-05,0.0,-0.0016930918579581152,-0.0842595532068223,0.0,0.0842595532068223,0.044099731818010135,0.0,-0.044099731818010135,-0.8057450296307447,0.0,0.8057450296307447,0.06482437654808183,0,-0.06482437654808183,-0.009954890933480507,-0.005876937256511648,-0.012964875309616368,0.4,0.03472089767456055,1.4728505611419678,STABILIZE
0.025,0.002,0.005,-0.15215245474917444,-0.0002652195149404801,-0.0003043049094983489,-0.008175468068254409,-0.008744992492693239,0.03,0.002,0.006,-0.21745053611954207,-0.0015472344709602014,-0.00043490107223908414,0.005861225052725042,0.0038790895095257563,0.2,0,0,-0.10515937070962182,0.03098857584114764,-0.0,0.0,0.03098857584114764,0.002,8e-05,0.0,-1.0468442721350115,-0.0016032654893193845,-8.374754177080093e-05,0.0,-0.0016870130310901853,-0.05157448236534005,0.0,0.05157448236534005,-0.010608780597619202,0.0,0.010608780597619202,-0.8016327446596923,0.0,0.8016327446596923,0.15494287920573818,0,-0.15494287920573818,-0.008755450583450052,-0.0038554265913045256,-0.03098857584114764,0.4,0.03345894813537598,1.5063011646270752,STABILIZE
0.025,0.002,0.005,-0.15431888696266216,-0.0016183204803594097,-0.00030863777392532433,-0.008086109468641151,-0.010013067722925885,0.03,0.002,0.006,-0.21815082825322793,-0.0006277401684425149,-0.00043630165650645586,0.005494883069311746,0.004430841244362775,0.2,0,0,-0.09710120004119836,0.04815549748846096,-0.0,0.0,0.04815549748846096,0.002,8e-05,0.0,-1.0734591822931667,-0.001590502723278012,-8.587673458345334e-05,0.0,-0.0016763794578614653,-0.020924672281417166,0.0,0.020924672281417166,-0.06473281921437639,0.0,0.06473281921437639,-0.795251361639006,0.0,0.795251361639006,0.24077748744230476,0,-0.24077748744230476,-0.010031599243379978,-0.004388723729840453,-0.04815549748846096,0.4,0.03346729278564453,1.539768934249878,STABILIZE
0.025,0.002,0.005,-0.1561368243513438,-0.0013593125269361905,-0.0003122736487026876,0.0015493284107858493,-0.00012225776485302875,0.03,0.002,0.006,-0.21785475241458635,0.00026565904781604725,-0.0004357095048291727,0.005344116926253106,0.00517406646923998,0.2,0,0,-0.09972891302064624,-0.01571839907092354,-0.0,-0.0,-0.01571839907092354,0.002,8e-05,0.0,-1.1007914843095195,-0.0016349579804956795,-8.806331874476157e-05,-0.0,-0.001723021299240441,0.008855301593868242,0.0,-0.008855301593868242,-0.05437250107744762,0.0,0.05437250107744762,-0.8174789902478398,0.0,0.8174789902478398,-0.0785919953546177,0,0.0785919953546177,-0.00011516044156365527,-0.005174229301246631,0.01571839907092354,0.4,0.03343486785888672,1.57319974899292,STABILIZE
0.025,0.002,0.005,-0.1578692029035602,-0.001286485628833292,-0.0003157384058071204,0.00043265720500645195,-0.0011695668296339604,0.03,0.002,0.006,-0.2173110453873076,0.0004845162341647774,-0.0004346220907746152,0.0013002083159909974,0.0013501024593811596,0.2,0,0,-0.09055013707136929,0.05453017567744718,-0.0,0.0,0.05453017567744718,0.002,8e-05,0.0,-1.1255754507954627,-0.0014723902772339887,-9.004603606363702e-05,0.0,-0.0015624363132976256,0.016150541138825913,0.0,-0.016150541138825913,-0.05145942515333168,0.0,0.05145942515333168,-0.7361951386169943,0.0,0.7361951386169943,0.2726508783872359,0,-0.2726508783872359,-0.0011759782356493844,-0.0013445216283444643,-0.05453017567744718,0.4,0.03366494178771973,1.606858253479004,STABILIZE
0.025,0.002,0.005,-0.15892499247906788,-0.0007870858554104318,-0.00031784998495813576,0.0029784002947162856,0.0018734644543477181,0.03,0.002,0.006,-0.2175108843532414,-0.0001787747412118887,-0.0004350217687064828,-0.003955840874744946,-0.004569637384663317,0.2,0,0,-0.07716016960559283,0.07985723095741504,-0.0,0.0,0.07985723095741504,0.002,8e-05,0.0,-1.1503045020575213,-0.0014748307365491117,-9.202436016460171e-05,-0.0,-0.0015668550967137135,-0.00595915804039629,0.0,0.00595915804039629,-0.03148343421641727,0.0,0.03148343421641727,-0.7374153682745559,0.0,0.7374153682745559,0.3992861547870752,0,-0.3992861547870752,0.0019052638587014829,0.004556470620748358,-0.07985723095741504,0.4,0.03353476524353027,1.6404378414154053,STABILIZE
0.025,0.002,0.005,-0.1584476525744552,0.00035662275408912124,-0.0003168953051489104,0.006835758087748537,0.006875485536688748,0.03,0.002,0.006,-0.2171040570089579,0.00036473101005421004,-0.0004342081140179158,0.0032484444062904736,0.0031789673023267678,0.2,0,0,-0.07238734795313166,0.028526369340236626,-0.0,-0.0,0.028526369340236626,0.002,8e-05,0.0,-1.1728438294636443,-0.001347138496021593,-9.382750635709155e-05,0.0,-0.0014409660023786846,0.012157700335140334,0.0,-0.012157700335140334,0.014264910163564848,0.0,-0.014264910163564848,-0.6735692480107965,0.0,0.6735692480107965,0.14263184670118312,0,-0.14263184670118312,0.006867550534476518,-0.003196073236158736,-0.028526369340236626,0.4,0.0334625244140625,1.6738896369934082,STABILIZE
0.025,0.002,0.005,-0.15671183894799226,0.0012976846636118646,-0.00031342367789598453,0.005628261416453557,0.0066125224021694375,0.03,0.002,0.006,-0.21933825756730896,-0.002004331171829612,-0.00043867651513461794,-0.014168782241157911,-0.01661178992812214,0.2,0,0,-0.0731507921959638,-0.004565973536985352,-0.0,-0.0,-0.004565973536985352,0.002,8e-05,0.0,-1.193842632608781,-0.0012558871242957291,-9.550741060870248e-05,0.0,-0.0013513945349044316,-0.06681103906098707,0.0,0.06681103906098707,0.051907386544474576,0.0,-0.051907386544474576,-0.6279435621478645,0.0,0.6279435621478645,-0.022829867684926758,0,0.022829867684926758,0.006605902804088352,0.016614423410946,0.004565973536985352,0.4,0.033440589904785156,1.7073004245758057,STABILIZE
0.025,0.002,0.005,-0.15613844346517472,0.0004283405229084441,-0.0003122768869303494,-0.005195371571279458,-0.005079307935301363,0.03,0.002,0.006,-0.2221031549125102,-0.0024785355520671334,-0.0004442063098250204,-0.00283393864490622,-0.005756680506798373,0.2,0,0,-0.06549199147040853,0.04577049950258882,-0.0,0.0,0.04577049950258882,0.002,8e-05,0.0,-1.2149682358674583,-0.0012625076015058087,-9.719745886939667e-05,-0.0,-0.0013597050603752054,-0.08261785173557111,0.0,0.08261785173557111,0.017133620916337765,0.0,-0.017133620916337765,-0.6312538007529043,0.0,0.6312538007529043,0.22885249751294406,0,-0.22885249751294406,-0.0050562739756050525,0.005776922454264627,-0.04577049950258882,0.4,0.03346610069274902,1.740778923034668,STABILIZE
0.025,0.002,0.005,-0.1564183818332604,-0.0002092177262289977,-0.0003128367636665208,-0.0038119386959418523,-0.004333993185837371,0.03,0.002,0.006,-0.2253816385703043,-0.0029402910407165354,-0.0004507632771406086,-0.0027608200782086403,-0.006151874396065784,0.2,0,0,-0.05975433420860172,0.03430525410019154,-0.0,-0.0,0.03430525410019154,0.002,8e-05,0.0,-1.2374663430047967,-0.0013451540357025194,-9.899730744038375e-05,-0.0,-0.001444151343142903,-0.09800970135721786,0.0,0.09800970135721786,-0.008368709049159907,0.0,0.008368709049159907,-0.6725770178512597,0.0,0.6725770178512597,0.1715262705009577,0,-0.1715262705009577,-0.004315556937096414,0.006164821476939421,-0.03430525410019154,0.4,0.03345060348510742,1.7742631435394287,STABILIZE
0.025,0.002,0.005,-0.15597334611855757,0.0003310540363083331,-0.00031194669223711513,0.0032151873080269247,0.003234294652098143,0.03,0.002,0.006,-0.2289779013790981,-0.00321023399914339,-0.0004579558027581962,-0.0016064455594517423,-0.005274635361353328,0.2,0,0,-0.05882314249903312,0.005541573655236107,-0.0,-0.0,0.005541573655236107,0.002,8e-05,0.0,-1.2598492160516055,-0.0013320172240596237,-0.00010078793728412845,0.0,-0.0014328051613437523,-0.10700779997144633,0.0,0.10700779997144633,0.013242161452333322,0.0,-0.013242161452333322,-0.6660086120298119,0.0,0.6660086120298119,0.027707868276180533,0,-0.027707868276180533,0.0032368450533428205,0.005273070660675781,-0.005541573655236107,0.4,0.03360748291015625,1.8078327178955078,STABILIZE
0.025,0.002,0.005,-0.1555201130276435,0.000338380996196679,-0.00031104022605528696,4.376210009046604e-05,7.110287023185809e-05,0.03,0.002,0.006,-0.23317799902395409,-0.0037629200171330522,-0.00046635599804790816,-0.003301055445429075,-0.007530331460610036,0.2,0,0,-0.06025786115072244,-0.008569215908599763,-0.0,-0.0,-0.008569215908599763,0.002,8e-05,0.0,-1.281629822710732,-0.0013009011966393356,-0.00010253038581685856,0.0,-0.001403431582456194,-0.1254306672377684,0.0,0.1254306672377684,0.01353523984786716,0.0,-0.01353523984786716,-0.6504505983196678,0.0,0.6504505983196678,-0.042846079542998815,0,0.042846079542998815,6.547163015617396e-05,0.007530382526170445,0.008569215908599763,0.4,0.03348541259765625,1.8413267135620117,STABILIZE
0.025,0.002,0.005,-0.15537343116123398,0.0001093630392367821,-0.00031074686232246797,-0.0013660093330423615,-0.0015673931561280474,0.03,0.002,0.006,-0.23800981240168825,-0.004323003045560028,-0.0004760196248033765,-0.003340692818440655,-0.008139715488804058,0.2,0,0,-0.06673324795209777,-0.03862334169406176,-0.0,-0.0,-0.03862334169406176,0.002,8e-05,0.0,-1.3024686380885564,-0.0012429600138577676,-0.00010419749104708452,0.0,-0.0013471575049048522,-0.1441001015186676,0.0,0.1441001015186676,0.004374521569471284,0.0,-0.004374521569471284,-0.6214800069288837,0.0,0.6214800069288837,-0.19311670847030876,0,0.19311670847030876,-0.0015948192944800123,0.008134386329804358,0.03862334169406176,0.4,0.03353095054626465,1.8748838901519775,STABILIZE
0.025,0.002,0.005,-0.1545235115678186,0.000634748037851849,-0.0003090470231356372,0.0031389990259911393,0.003464700040707351,0.03,0.002,0.006,-0.24263284479822272,-0.004143160033527946,-0.00048526568959644545,0.0010745016342075422,-0.003553924088916849,0.2,0,0,-0.06937259971494514,-0.015769240908410448,-0.0,0.0,-0.015769240908410448,0.002,8e-05,0.0,-1.3229007807907947,-0.0012207519478154784,-0.00010583206246326358,0.0,-0.001326584010278742,-0.13810533445093154,0.0,0.13810533445093154,0.02538992151407396,0.0,-0.02538992151407396,-0.6103759739077392,0.0,0.6103759739077392,-0.07884620454205224,0,0.07884620454205224,0.003459806114775652,0.0035586885857042875,0.015769240908410448,0.4,0.03347468376159668,1.9083716869354248,STABILIZE
0.025,0.002,0.005,-0.15331181939249816,0.0009055251081018598,-0.0003066236387849963,0.0016188628815387268,0.0022177643508555903,0.03,0.002,0.006,-0.24694218869577522,-0.003864564791116883,-0.0004938843773915505,0.001665604463834897,-0.0026928447046735363,0.2,0,0,-0.0711628207732389,-0.010702983152690497,-0.0,0.0,-0.010702983152690497,0.002,8e-05,0.0,-1.3431616871681011,-0.0012113148742716098,-0.0001074529349734481,0.0,-0.0013187678092450579,-0.12881882637056277,0.0,0.12881882637056277,0.03622100432407439,0.0,-0.03622100432407439,-0.6056574371358049,0.0,0.6056574371358049,-0.05351491576345248,0,0.05351491576345248,0.0022152482359922283,0.0026949149471453718,0.010702983152690497,0.4,0.033452749252319336,1.94179368019104,STABILIZE
0.025,0.002,0.005,-0.15183053912801642,0.0009533727808797091,-0.00030366107825603283,0.000246363473266418,0.0008960751758900942,0.03,0.002,0.006,-0.2525675950800223,-0.004344708660521675,-0.0005051351901600446,-0.0024722186987723976,-0.007322062549454117,0.2,0,0,-0.07647913150294447,-0.027373217970595373,-0.0,-0.0,-0.027373217970595373,0.002,8e-05,0.0,-1.36516852571234,-0.0011331128275651329,-0.00010921348205698721,0.0,-0.00124232630962212,-0.14482362201738916,0.0,0.14482362201738916,0.03813491123518836,0.0,-0.03813491123518836,-0.5665564137825664,0.0,0.5665564137825664,-0.13686608985297685,0,0.13686608985297685,0.0008785819572283024,0.007324182168911274,0.027373217970595373,0.4,0.03884315490722656,1.980656385421753,STABILIZE
0.025,0.002,0.005,-0.15029948661214884,0.001143432468361551,-0.0003005989732242977,0.0011355347532033832,0.0019783682483406366,0.03,0.002,0.006,-0.25702736450660807,-0.003996815349635257,-0.0005140547290132161,0.0020785309612605667,-0.0024323391173879066,0.2,0,0,-0.08029400016958574,-0.022792397521392754,-0.0,0.0,-0.022792397521392754,0.002,8e-05,0.0,-1.3837398327517765,-0.0011095653599717424,-0.00011069918662014213,0.0,-0.0012202645465918846,-0.13322717832117525,0.0,0.13322717832117525,0.045737298734462035,0.0,-0.045737298734462035,-0.5547826799858712,0.0,0.5547826799858712,-0.11396198760696377,0,0.11396198760696377,0.0019735263866893786,0.002436269301423499,0.022792397521392754,0.4,0.03347492218017578,2.0141074657440186,STABILIZE
0.025,0.002,0.005,-0.14865927123112155,0.0012268807305941326,-0.0002973185424622431,0.0004993542488089447,0.0014289164369408343,0.03,0.002,0.006,-0.2614639601057081,-0.003982286994454658,-0.0005229279202114163,8.693765086944139e-05,-0.004418277263796633,0.2,0,0,-0.08362367911166418,-0.019924792708833197,-0.0,0.0,-0.019924792708833197,0.002,8e-05,0.0,-1.4025923277930383,-0.0011281329589902483,-0.00011220738622344307,-0.0,-0.0012403403452136913,-0.13274289981515527,0.0,0.13274289981515527,0.049075229223765296,0.0,-0.049075229223765296,-0.5640664794951241,0.0,0.5640664794951241,-0.09962396354416599,0,0.09962396354416599,0.001421231929715143,0.004420755135211643,0.019924792708833197,0.4,0.03342247009277344,2.0475385189056396,STABILIZE
0.025,0.002,0.005,-0.1471686617091294,0.0011146336797709753,-0.0002943373234182588,-0.0006714801775061458,0.00014881617884657077,0.03,0.002,0.006,-0.26658244088451294,-0.004592938108452221,-0.0005331648817690259,-0.003653014626347899,-0.008779117616569146,0.2,0,0,-0.08671480804630355,-0.01849163778027575,-0.0,0.0,-0.01849163778027575,0.002,8e-05,0.0,-1.4219444462070452,-0.001157675307499163,-0.00011375555569656362,-0.0,-0.0012714308631957265,-0.15309793694840737,0.0,0.15309793694840737,0.04458534719083901,0.0,-0.04458534719083901,-0.5788376537495815,0.0,0.5788376537495815,-0.09245818890137873,0,0.09245818890137873,0.00013464913074524065,0.00877934633057785,0.01849163778027575,0.4,0.033432722091674805,2.080986976623535,STABILIZE
0.025,0.002,0.005,-0.1458873750495302,0.0009427064934786407,-0.0002917747500990604,-0.0010119632399762611,-0.0003610314965966808,0.03,0.002,0.006,-0.27188950771070536,-0.004685608474164546,-0.0005437790154214108,-0.0005454576763477834,-0.0057748451659337405,0.2,0,0,-0.08908261583363622,-0.013936914177353855,-0.0,0.0,-0.013936914177353855,0.002,8e-05,0.0,-1.4421788742929853,-0.0011909982270109228,-0.00011537430994343883,-0.0,-0.0013063725369543617,-0.1561869491388182,0.0,0.1561869491388182,0.03770825973914563,0.0,-0.03770825973914563,-0.5954991135054614,0.0,0.5954991135054614,-0.06968457088676927,0,0.06968457088676927,-0.00036805474006144006,0.005774401799352158,0.013936914177353855,0.4,0.033978939056396484,2.1149513721466064,STABILIZE
0.025,0.002,0.005,-0.1435225704234912,0.0012938707294380698,-0.0002870451408469824,0.001537077934068268,0.002543903522659355,0.03,0.002,0.006,-0.27869773057687997,-0.0044700319962359585,-0.00055739546115376,0.0009435979333797217,-0.004083829524009997,0.2,0,0,-0.09397199216395925,-0.0214012467646719,-0.0,-0.0,-0.0214012467646719,0.002,8e-05,0.0,-1.4705006370329854,-0.0012396694225604596,-0.00011764005096263885,-0.0,-0.0013573094735230985,-0.14900106654119863,0.0,0.14900106654119863,0.05175482917752279,0.0,-0.05175482917752279,-0.6198347112802298,0.0,0.6198347112802298,-0.1070062338233595,0,0.1070062338233595,0.0025362720852122136,0.00408857342156744,0.0214012467646719,0.4,0.04569244384765625,2.160653591156006,STABILIZE
0.025,0.002,0.005,-0.14182744097270109,0.001266601150819962,-0.00028365488194540217,-0.0001630066878678641,0.0008199395810066959,0.03,0.002,0.006,-0.28322067572136334,-0.004055454895738844,-0.0005664413514427267,0.0024781769078390825,-0.0021437193393424882,0.2,0,0,-0.09880080991434535,-0.028864750674413055,-0.0,-0.0,-0.028864750674413055,0.002,8e-05,0.0,-1.4905062629561825,-0.0011958566966261872,-0.0001192405010364946,0.0,-0.001315097197662682,-0.13518182985796148,0.0,0.13518182985796148,0.050664046032798477,0.0,-0.050664046032798477,-0.5979283483130936,0.0,0.5979283483130936,-0.14432375337206527,0,0.14432375337206527,0.000814537117905683,0.0021457779022830705,0.028864750674413055,0.4,0.03345823287963867,2.1941161155700684,STABILIZE
0.025,0.002,0.005,-0.14073282833896839,0.0008189569446236261,-0.0002814656566779368,-0.0026793137231379024,-0.0021418224351922133,0.03,0.002,0.006,-0.2880560864771865,-0.004341254354156632,-0.000576112172954373,-0.0017106139215131604,-0.006627980448624166,0.2,0,0,-0.09843400222171778,0.0021954777276365577,-0.0,0.0,0.0021954777276365577,0.002,8e-05,0.0,-1.5124727179229835,-0.0013147723890215442,-0.0001209978174338387,-0.0,-0.001435770206455383,-0.14470847847188775,0.0,0.14470847847188775,0.03275827778494504,0.0,-0.03275827778494504,-0.6573861945107721,0.0,0.6573861945107721,0.010977388638182789,0,-0.010977388638182789,-0.00214055253067642,0.0066283906821076625,-0.0021954777276365577,0.4,0.03341484069824219,2.2275278568267822,STABILIZE
0.025,0.002,0.005,-0.13900018872470996,0.0012938542894505222,-0.0002780003774494199,0.0028370491432677144,0.003852903055268817,0.03,0.002,0.006,-0.293026155417098,-0.004453698251281107,-0.0005860523108341959,-0.0006717427786818973,-0.0057114933407972,0.2,0,0,-0.09994799996534805,-0.009044662069107146,-0.0,-0.0,-0.009044662069107146,0.002,8e-05,0.0,-1.5339076654843484,-0.0012805293665544661,-0.0001227126132387479,0.0,-0.001403241979793214,-0.1484566083760369,0.0,0.1484566083760369,0.05175417157802088,0.0,-0.05175417157802088,-0.6402646832772331,0.0,0.6402646832772331,-0.04522331034553573,0,0.04522331034553573,0.003848393798651566,0.005714532641062671,0.009044662069107146,0.4,0.0334782600402832,2.2610056400299072,STABILIZE
0.025,0.002,0.005,-0.13707774090885505,0.0014364841987571243,-0.0002741554818177101,0.0008526030586603364,0.0020149317755997504,0.03,0.002,0.006,-0.2982146096708385,-0.004652276638151439,-0.0005964292193416771,-0.001187047940032895,-0.006435753797526011,0.2,0,0,-0.10151878251367417,-0.009389713642138219,-0.0,-0.0,-0.009389713642138219,0.002,8e-05,0.0,-1.556525283480944,-0.001352020090123962,-0.00012452202267847554,-0.0,-0.0014765421128024375,-0.1550758879383813,0.0,0.1550758879383813,0.057459367950284966,0.0,-0.057459367950284966,-0.6760100450619809,0.0,0.6760100450619809,-0.046948568210691086,0,0.046948568210691086,0.00200965759742979,0.006437402686160371,0.009389713642138219,0.4,0.03345751762390137,2.2944674491882324,STABILIZE
0.025,0.002,0.005,-0.13551059665836848,0.0011520723026432309,-0.00027102119331673695,-0.001672663217586146,-0.000791612108259652,0.03,0.002,0.006,-0.3035940139324647,-0.004745546035816172,-0.0006071880278649295,-0.0005485294143172527,-0.005901263477998355,0.2,0,0,-0.10343971266105434,-0.011297239127397272,-0.0,-0.0,-0.011297239127397272,0.002,8e-05,0.0,-1.5793571218015192,-0.0013427699990933811,-0.00012634856974412154,0.0,-0.0014691185688375027,-0.15818486786053906,0.0,0.15818486786053906,0.04608289210572923,0.0,-0.04608289210572923,-0.6713849995466905,0.0,0.6713849995466905,-0.056486195636986355,0,0.056486195636986355,-0.0007974296018079124,0.005900480183583452,0.011297239127397272,0.4,0.03400707244873047,2.3284711837768555,STABILIZE
0.025,0.002,0.005,-0.13384369205653632,0.0012442702277793575,-0.00026768738411307263,0.0005505732394466686,0.0015271560831129534,0.03,0.002,0.006,-0.3084419403005892,-0.004342513979283697,-0.0006168838806011784,0.0024067641938613346,-0.0025526336660235405,0.2,0,0,-0.10439295342173348,-0.0056924150169847375,-0.0,0.0,-0.0056924150169847375,0.002,8e-05,0.0,-1.6012719989796487,-0.001308678574081144,-0.0001281017599183719,0.0,-0.001436780333999516,-0.14475046597612323,0.0,0.14475046597612323,0.0497708091111743,0.0,-0.0497708091111743,-0.654339287040572,0.0,0.654339287040572,-0.028462075084923686,0,0.028462075084923686,0.0015258878562955192,0.002553391976394447,0.0056924150169847375,0.4,0.03349161148071289,2.3619577884674072,STABILIZE
0.025,0.002,0.005,-0.13187225989349963,0.0014712409003027384,-0.00026374451978699925,0.0013550698536692212,0.00256256623418496,0.03,0.002,0.006,-0.3128599696236075,-0.003956505667686271,-0.000625719939247215,0.002304563054319473,-0.002277662552614013,0.2,0,0,-0.10451623852288709,-0.0007360418952920604,-0.0,0.0,-0.0007360418952920604,0.002,8e-05,0.0,-1.6233335113908065,-0.0013171256912775735,-0.00012986668091126454,-0.0,-0.0014469923721888382,-0.13188352225620903,0.0,0.13188352225620903,0.05884963601210953,0.0,-0.05884963601210953,-0.6585628456387868,0.0,0.6585628456387868,-0.003680209476460302,0,0.003680209476460302,0.002562419930595871,0.00227782714608684,0.0007360418952920604,0.4,0.03349947929382324,2.3954806327819824,STABILIZE
0.025,0.002,0.005,-0.12740597744802545,0.001758882822763116,-0.0002548119548960509,0.0009062184359339682,0.0024102893038010333,0.03,0.002,0.006,-0.32143873060268385,-0.004054119418796201,-0.0006428774612053678,-0.0003075329913659351,-0.005004529871367503,0.2,0,0,-0.10228140429309937,0.007040865124828601,-0.0,0.0,0.007040865124828601,0.002,8e-05,0.0,-1.6649746074671532,-0.0013119064367983799,-0.00013319796859737228,0.0,-0.0014451044053957521,-0.13513731395987336,0.0,0.13513731395987336,0.07035531291052463,0.0,-0.07035531291052463,-0.65595321839919,0.0,0.65595321839919,0.035204325624143,0,-0.035204325624143,0.002413363788894808,0.005003047969376129,-0.007040865124828601,0.4,0.06348180770874023,2.458949565887451,STABILIZE
0.025,0.002,0.005,-0.12484319287890681,0.001964884577449019,-0.00024968638575781365,0.001263530850270319,0.002978729041961524,0.03,0.002,0.006,-0.32547173398850787,-0.0037105199941158736,-0.0006509434679770157,0.0021074989088354376,-0.002253964553257452,0.2,0,0,-0.10072607653054508,0.009539746946649401,-0.0,0.0,0.009539746946649401,0.002,8e-05,0.0,-1.6866488057985878,-0.0013294070377410838,-0.00013493190446388703,-0.0,-0.0014643389422049709,-0.12368399980386247,0.0,0.12368399980386247,0.07859538309796074,0.0,-0.07859538309796074,-0.6647035188705419,0.0,0.6647035188705419,0.047698734733247004,0,-0.047698734733247004,0.0029806044349547853,0.002251483980643422,-0.009539746946649401,0.4,0.032607316970825195,2.4915599822998047,STABILIZE
0.025,0.002,0.005,-0.12208521260918098,0.00206085166132777,-0.000244170425218362,0.0005736775608303156,0.002390358796939724,0.03,0.002,0.006,-0.3295844189770208,-0.0036877567765648597,-0.0006591688379540416,0.0001360752728280723,-0.004210850341690829,0.2,0,0,-0.09950434788255258,0.007303319872284275,-0.0,-0.0,0.007303319872284275,0.002,8e-05,0.0,-1.708904402846362,-0.0013304078974954114,-0.00013671235222770898,-0.0,-0.0014671202497231204,-0.12292522588549533,0.0,0.12292522588549533,0.0824340664531108,0.0,-0.0824340664531108,-0.6652039487477056,0.0,0.6652039487477056,0.036516599361421376,0,-0.036516599361421376,0.002393042033122632,0.004209326027517136,-0.007303319872284275,0.4,0.03345680236816406,2.5250203609466553,STABILIZE
0.025,0.002,0.005,-0.1194309924433981,0.0019859369105527567,-0.00023886198488679618,-0.0004484208827192832,0.0012986540429466772,0.03,0.002,0.006,-0.33357630362106383,-0.0035841628329737986,-0.0006671526072421276,0.0006200873279147188,-0.0036312281123012076,0.2,0,0,-0.09776415956789002,0.010416330189795316,-0.0,0.0,0.010416330189795316,0.002,8e-05,0.0,-1.7310558766185211,-0.0013259315848592143,-0.0001384844701294817,0.0,-0.001464416054988696,-0.11947209443245996,0.0,0.11947209443245996,0.07943747642211026,0.0,-0.07943747642211026,-0.6629657924296071,0.0,0.6629657924296071,0.05208165094897658,0,-0.05208165094897658,0.001301954278848312,0.0036300461405630803,-0.010416330189795316,0.4,0.03341269493103027,2.5584256649017334,STABILIZE
0.025,0.002,0.005,-0.11669126744181431,0.0020477360671034106,-0.00023338253488362862,0.0003695213547700994,0.0021838748869898814,0.03,0.002,0.006,-0.3374631213914996,-0.0034861208027135945,-0.0006749262427829992,0.0005862316877491176,-0.003574815357747476,0.2,0,0,-0.09568937093610162,0.01240597362282184,-0.0,0.0,0.01240597362282184,0.002,8e-05,0.0,-1.7534030974334056,-0.0013362278341281489,-0.00014027224779467246,-0.0,-0.0014765000819228213,-0.11620402675711981,0.0,0.11620402675711981,0.08190944268413641,0.0,-0.08190944268413641,-0.6681139170640744,0.0,0.6681139170640744,0.062029868114109196,0,-0.062029868114109196,0.002187743792423493,0.003572448944733116,-0.01240597362282184,0.4,0.033448219299316406,2.5918803215026855,STABILIZE
0.025,0.002,0.005,-0.11389350187990671,0.0020905954106072377,-0.00022778700375981342,0.0002562088776863716,0.0021190172845337958,0.03,0.002,0.006,-0.3412309416545411,-0.0033785480201007525,-0.0006824618833090822,0.0006430593576491665,-0.0034179505457606683,0.2,0,0,-0.09332640731839123,0.014125560659911702,-0.0,0.0,0.014125560659911702,0.002,8e-05,0.0,-1.7758102802142388,-0.0013394790220895392,-0.00014206482241713912,-0.0,-0.0014815438445066782,-0.11261826733669175,0.0,0.11261826733669175,0.08362381642428951,0.0,-0.08362381642428951,-0.6697395110447696,0.0,0.6697395110447696,0.0706278032995585,0,-0.0706278032995585,0.002123228939158133,0.0034153358630360296,-0.014125560659911702,0.4,0.03345656394958496,2.6253445148468018,STABILIZE
0.025,0.002,0.005,-0.11009995690338949,0.002239360147550285,-0.00022019991380677897,0.0007025361772869432,0.0027216964110304493,0.03,0.002,0.006,-0.34578093879134575,-0.0032230799390123885,-0.0006915618775826916,0.0007341924815137472,-0.0031804493350813326,0.2,0,0,-0.09071857116635398,0.01231541344333729,-0.0,-0.0,0.01231541344333729,0.002,8e-05,0.0,-1.804155356895355,-0.0013385861613213021,-0.0001443324285516284,0.0,-0.0014829185898729306,-0.10743599796707962,0.0,0.10743599796707962,0.0895744059020114,0.0,-0.0895744059020114,-0.6692930806606511,0.0,0.6692930806606511,0.061577067216686446,0,-0.061577067216686446,0.002725112939226517,0.0031775224303371217,-0.01231541344333729,0.4,0.04235076904296875,2.667701482772827,STABILIZE
0.025,0.002,0.005,-0.10711109198327934,0.00223223078523463,-0.00021422218396655867,-4.2596457091172065e-05,0.0019754121441768993,0.03,0.002,0.006,-0.3492771570654066,-0.0031333765580697317,-0.0006985543141308132,0.0005359590448736578,-0.003295971827326887,0.2,0,0,-0.08842198748334011,0.013721609868945614,-0.0,0.0,0.013721609868945614,0.002,8e-05,0.0,-1.8268192529017466,-0.0013541206506437712,-0.00014614554023213973,-0.0,-0.0015002661908759109,-0.10444588526899107,0.0,0.10444588526899107,0.08928923140938519,0.0,-0.08928923140938519,-0.6770603253218855,0.0,0.6770603253218855,0.06860804934472807,0,-0.06860804934472807,0.001979357443497011,0.003293604034605115,-0.013721609868945614,0.4,0.033473968505859375,2.701173782348633,STABILIZE
0.025,0.002,0.005,-0.10404369716752333,0.0022921215090263773,-0.00020808739433504666,0.00035802842330979865,0.002442062538001129,0.03,0.002,0.006,-0.35260351118267697,-0.002982755703831943,-0.0007052070223653539,0.0009004156828667591,-0.002787547043330538,0.2,0,0,-0.08611365545150283,0.01379927350198571,-0.0,0.0,0.01379927350198571,0.002,8e-05,0.0,-1.8493634155663978,-0.0013476963547361454,-0.00014794907324531184,0.0,-0.0014956454279814572,-0.09942519012773143,0.0,0.09942519012773143,0.09168486036105508,0.0,-0.09168486036105508,-0.6738481773680727,0.0,0.6738481773680727,0.06899636750992855,0,-0.06899636750992855,0.0024454175691107577,0.0027846042575155575,-0.01379927350198571,0.4,0.033455848693847656,2.7346487045288086,STABILIZE
0.025,0.002,0.005,-0.10092058001009074,0.002332962197925541,-0.00020184116002018148,0.0002440632958318155,0.002375184333737175,0.03,0.002,0.006,-0.35575776253926295,-0.0028274632580430775,-0.0007115155250785259,0.000928025142538428,-0.0026109536405831755,0.2,0,0,-0.0838251224185449,0.01367623636375856,-0.0,-0.0,0.01367623636375856,0.002,8e-05,0.0,-1.8716887945747158,-0.0013341610360485584,-0.0001497351035659773,0.0,-0.0014838961396145356,-0.09424877526810259,0.0,0.09424877526810259,0.09331848791702163,0.0,-0.09331848791702163,-0.6670805180242791,0.0,0.6670805180242791,0.0683811818187928,0,-0.0683811818187928,0.0023782987539223577,0.0026081170544276586,-0.01367623636375856,0.4,0.03346729278564453,2.7681007385253906,STABILIZE
