Mode,Time,Freq,time2delay,actualDelay,North-Desired,East-Desired,Down-Desired,Roll-UAV,Pitch-UAV,Yaw-UAV,Roll-Control,Pitch-Control,Yaw-Control,Thrust-Control,North-Pos,East-Pos,Down-Pos,Yaw-Ang,North-Vel,East-Vel,Down-Vel,Yaw-Vel,North-Acc,East-Acc,Down-Acc,North-Avg,East-Avg,Down-Avg,Yaw-Avg,North-Dif,East-Dif,Down-Dif,Yaw-Dif,North-One,East-One,Down-One,Yaw-One,North-Two,East-Two,Down-Two,Yaw-Two,Landing-State,Q-Size,Kalman-Time,Kalman-Dt,CH1-Thrust,CH2-Roll,CH3-Pitch,CH4-Yaw
STABILIZE,0.03444719314575195,29.039991137698017,0.03278306325276693,0.0329129695892334,-10,40,10,1.3326905025970208,-1.5031758662619472,-4.397293290013957,3.998787277245297,4.0012123551920045,0.0034851595150164408,0.5187236507696201,0.003887435867999069,0.010890663439205294,0.6505461178335908,0.017368341683070852,-0.028061371995136142,0.044808737584389746,1.2958457693457603,-0.03126951315481752,-1.3626471161842346,0.8355839177966118,19.831910729408264,0.0,0.0,0.0,0.0,0.0,0.0,0.0,0.0,0.0,0.0,0.0,0.0,0.0,0.0,0.0,0.0,False,0,3.523047685623169,0.02993212890625,982,1495,1493,1493
STABILIZE,0.06780576705932617,29.97665792351289,0.03216436703999837,0.03230118751525879,-10,40,10,1.3324436552915482,-1.5021303137104063,-4.398562424539111,3.9988098539602848,4.00118979203313,0.003431885569133526,0.5187512431522433,0.0030584109522759015,0.010654446299533517,0.6492404230706601,0.01704505113598515,-0.03964833740610629,0.0221037698793225,1.4056834392249584,0.01419536424594799,5.012379959225655,-1.3223796151578426,13.185790181159973,0.0,0.0,0.0,0.0,0.0,0.0,0.0,0.0,0.0,0.0,0.0,0.0,0.0,0.0,0.0,0.0,False,0,3.5517501831054688,0.0698408203125,982,1495,1493,1493
STABILIZE,0.10123515129089355,29.91316254920979,0.032323392232259114,0.032457590103149414,-10,40,10,1.332946207804073,-1.5025216622055069,-4.399922059070766,3.9987540944702147,4.001245517580457,0.0036035117772212277,0.5187268228834249,0.0024947527267982937,0.0102124406250221,0.6739271114426226,0.01784350393821173,-0.03964833740610629,0.0221037698793225,1.4056834392249584,0.01419536424594799,5.012379959225655,-1.3223796151578426,13.185790181159973,0.0,0.0,0.0,0.0,0.0,0.0,0.0,0.0,0.0,0.0,0.0,0.0,0.0,0.0,0.0,0.0,False,1,3.5818839073181152,0.0698408203125,985,1495,1494,1494
STABILIZE,0.134657621383667,29.92041774264884,0.0323522408803304,0.03249168395996094,-10,40,10,1.3327731051972955,-1.5027998856924791,-4.399918217089358,3.998807876880392,4.001191767936065,0.0034609082570597437,0.518738310930523,0.005663306859679165,0.00842648656430346,0.6806553511592515,0.01707336229130689,-0.011203234316781163,-0.018531370733398944,1.2447423301637173,-0.13426166884517535,-4.669500887393951,0.8345309644937515,19.081880152225494,0.0,0.0,0.0,0.0,0.0,0.0,0.0,0.0,0.0,0.0,0.0,0.0,0.0,0.0,0.0,0.0,False,0,3.6378283500671387,0.034919921875,982,1494,1494,1493
STABILIZE,0.16807985305786133,29.918496907790086,0.032373936971028645,0.03248333930969238,-10,40,10,1.332953144714949,-1.5028646657678884,-4.401315417661449,3.999240874470563,3.7289511508134927,0.0023871012588323674,0.5187742999032966,0.007656490522188716,0.009491650534148348,0.675130739557934,0.01166532804559672,0.10121667291969061,0.0773683306761086,1.2092380784451962,-0.22155818322497609,2.673029899597168,0.7450866978615522,15.050336718559265,0.0,0.0,0.0,0.0,0.0,0.0,0.0,0.0,0.0,0.0,0.0,0.0,0.0,0.0,0.0,0.0,False,0,3.6664907932281494,0.034919921875,985,1495,1494,1493
STABILIZE,0.20157194137573242,29.857797773285117,0.03241017659505208,0.032553672790527344,-10,40,10,1.3329367095722586,-1.5035430956515412,-4.401408905875713,3.9998057683578545,1.7348619694656147,0.0013414405774186634,0.5188092544558044,0.009587225147637563,0.01054660629929626,0.6701465529098554,0.006415547877142241,0.10121667291969061,0.0773683306761086,1.2092380784451962,-0.22155818322497609,2.673029899597168,0.7450866978615522,15.050336718559265,0.0,0.0,0.0,0.0,0.0,0.0,0.0,0.0,0.0,0.0,0.0,0.0,0.0,0.0,0.0,0.0,False,0,3.6951801776885986,0.034919921875,985,1494,1494,1493
STABILIZE,0.2350330352783203,29.88694518273609,0.03237274487813314,0.032492637634277344,-10,40,10,1.3326699053078048,-1.5039812949754798,-4.4015894790018955,3.999697613356262,1.7388108297511715,0.002058189507836797,0.5188484821596973,0.006944010634916908,0.012197653364118731,0.6630185948767686,0.009965974987663552,-0.11973779182881117,0.10716271353885531,1.0807745158672333,0.20170301007073413,-3.6550622433423996,-0.9548147208988667,23.076695203781128,0.0,0.0,0.0,0.0,0.0,0.0,0.0,0.0,0.0,0.0,0.0,0.0,0.0,0.0,0.0,0.0,False,0,3.7238738536834717,0.029910888671875,985,1495,1494,1493
STABILIZE,0.2684788703918457,29.89866271278264,0.03234890302022298,0.03257012367248535,-10,40,10,1.332910669476048,-1.5041425514729154,-4.402445387082262,3.9997813949610395,1.7446438977956387,0.0015058538643468906,0.5188902765732867,0.00806588242569191,0.01336916252478743,0.6546505568791868,0.007180230703174461,0.06922123138792813,0.08835968910716474,1.148161105811596,-0.11217226344018552,2.0381664857268333,0.7397040259093046,14.957776665687561,0.0,0.0,0.0,0.0,0.0,0.0,0.0,0.0,0.0,0.0,0.0,0.0,0.0,0.0,0.0,0.0,False,0,3.7526400089263916,0.069840087890625,985,1495,1494,1494
STABILIZE,0.3019416332244873,29.88332525862806,0.032456429799397786,0.03258252143859863,-10,40,10,1.3334666895631693,-1.5042500202306375,-4.403267571103603,3.9998791284872994,1.7491418848601064,0.0008643861885611416,0.5188820160462514,0.00993802704900053,0.01520549435943015,0.6712681377959722,0.003959641514513787,0.06922123138792813,0.08835968910716474,1.148161105811596,-0.11217226344018552,2.0381664857268333,0.7397040259093046,14.957776665687561,0.0,0.0,0.0,0.0,0.0,0.0,0.0,0.0,0.0,0.0,0.0,0.0,0.0,0.0,0.0,0.0,False,1,3.781431198120117,0.069840087890625,985,1495,1494,1493
STABILIZE,0.3356754779815674,29.643400333587763,0.03243735631306966,0.03283047676086426,-10,40,10,1.3338732992621964,-1.5039935679716445,-4.404371073541383,3.999947463848719,1.7514711776176086,0.00041735062343415606,0.5188934329984741,0.0074257590199236735,0.01568336751505515,0.6781270537386614,0.001718671072602632,-0.08510248153470457,0.0328341091517359,1.154452282935381,0.13939223480933918,-0.27732704766094685,0.7630467414855957,16.7265847325325,0.0,0.0,0.0,0.0,0.0,0.0,0.0,0.0,0.0,0.0,0.0,0.0,0.0,0.0,0.0,0.0,False,0,3.8386776447296143,0.0349208984375,985,1494,1493,1493
STABILIZE,0.3691904544830322,29.838468488336524,0.03240826924641927,0.03253769874572754,-10,40,10,1.333950672498888,-1.503869343906115,-4.405420361352626,3.9998794119747556,1.7541299417659357,0.00086407553977912,0.5189313121310901,0.004967739480025051,0.017012391939241922,0.6716691083059884,0.003939118969737801,-0.09771306067705154,0.09428756893612444,1.2268700636923313,0.1169428437505353,0.7644469849765301,0.7420108653604984,17.121806740760803,0.0,0.0,0.0,0.0,0.0,0.0,0.0,0.0,0.0,0.0,0.0,0.0,0.0,0.0,0.0,0.0,False,0,3.8704216480255127,0.034919921875,985,1494,1493,1494
STABILIZE,0.4044651985168457,28.351194057090325,0.03233960469563802,0.034171342849731445,-10,40,10,1.333139694256655,-1.5034206858550099,-4.406092708099049,4.000008613798887,1.7610595876750117,2.000516397151468e-05,0.5189833157227671,0.006054079479407253,0.014710174795024254,0.6588128888842771,-0.00028024695118042744,0.06532090483233333,-0.0753659289330244,0.890539214015007,-0.18429014981308742,1.919282041490078,-1.3142053037881851,12.459658831357956,0.0,0.0,0.0,0.0,0.0,0.0,0.0,0.0,0.0,0.0,0.0,0.0,0.0,0.0,0.0,0.0,False,0,3.898923635482788,0.034919921875,985,1495,1494,1493
STABILIZE,0.43782567977905273,29.974087228705578,0.03220799763997396,0.03240394592285156,-10,40,10,1.3330343599330485,-1.5029280584611227,-4.407308908658135,4.0001339578426345,1.7659532542115737,-0.0007960260008727806,0.5190323354732833,0.007111558499699238,0.01248988075886687,0.646835256783475,-0.004345845352279864,0.06532090483233333,-0.0753659289330244,0.890539214015007,-0.18429014981308742,1.919282041490078,-1.3142053037881851,12.459658831357956,0.0,0.0,0.0,0.0,0.0,0.0,0.0,0.0,0.0,0.0,0.0,0.0,0.0,0.0,0.0,0.0,False,0,3.927708864212036,0.034919921875,982,1495,1494,1492
STABILIZE,0.47127556800842285,29.893548479060353,0.03236368497212728,0.032494544982910156,-10,40,10,1.3333730946271989,-1.503052922856887,-4.407200479405061,4.000139837839011,1.7690009970359808,-0.0008356412910289411,0.5190531110821452,0.005468768575826467,0.012847754358507098,0.6489600829178125,-0.004528771923875967,-0.06579396431334317,0.04736832343041897,1.5433095395565033,-0.000883388919605946,0.9359892457723618,0.9174437262117863,21.239984035491943,0.0,0.0,0.0,0.0,0.0,0.0,0.0,0.0,0.0,0.0,0.0,0.0,0.0,0.0,0.0,0.0,False,0,3.9562885761260986,0.06485205078125,985,1494,1493,1493
STABILIZE,0.5108041763305664,25.298896193980337,0.03237274487813314,0.038582563400268555,-10,40,10,1.332578978414479,-1.5027386274333605,-4.407792571428736,4.000169726457085,1.7751159972975286,-0.001029756757537564,0.5190412177998702,0.0038327874135243626,0.01353805923704923,0.669653475832098,-0.0054777052693218324,-0.06579396431334317,0.04736832343041897,1.5433095395565033,-0.000883388919605946,0.9359892457723618,0.9174437262117863,21.239984035491943,0.0,0.0,0.0,0.0,0.0,0.0,0.0,0.0,0.0,0.0,0.0,0.0,0.0,0.0,0.0,0.0,False,1,3.985095500946045,0.06485205078125,985,1495,1494,1494
STABILIZE,0.5443241596221924,29.83231386383681,0.032392056783040364,0.03252124786376953,-10,40,10,1.3324666004582912,-1.5026307317888155,-4.407860446433613,4.000263823658176,1.778594239187227,-0.001639391066263807,0.5190537413018355,-4.2068856638041024e-05,0.016245919784237017,0.6758820250969216,-0.008497419611274815,0.2073569456115365,0.07298550335690379,1.20440274477005,-0.16512934809729926,4.527532681822777,0.925208069384098,22.005942463874817,0.0,0.0,0.0,0.0,0.0,0.0,0.0,0.0,0.0,0.0,0.0,0.0,0.0,0.0,0.0,0.0,False,0,4.043245553970337,0.029931884765625,985,1495,1494,1493
STABILIZE,0.577704668045044,29.958672314164698,0.032321961720784505,0.03247690200805664,-10,40,10,1.3324010733309415,-1.5023717182088838,-4.408187441740128,4.000249428956822,1.7845428416405102,-0.0015466781758211835,0.5191021489930608,0.002105096665594368,0.017008298643270282,0.6641626325647222,-0.008007086244662573,0.1042504794895649,0.0744058343116194,1.1454067192971706,0.008747297872031037,-3.7002485245466232,-1.2350871227681637,14.16805386543274,0.0,0.0,0.0,0.0,0.0,0.0,0.0,0.0,0.0,0.0,0.0,0.0,0.0,0.0,0.0,0.0,False,0,4.072454214096069,0.034920166015625,985,1495,1494,1494
STABILIZE,0.611196756362915,29.856097491529283,0.03242352803548177,0.032559871673583984,-10,40,10,1.332964884102585,-1.5016422753498677,-4.40831209269248,4.000396223654953,1.7884420517364457,-0.0024918683486861585,0.5191435603774244,0.0016561405413912298,0.015019197140507323,0.6559689253524106,-0.012690554366736892,-0.013114084140397608,-0.06109798559919,1.1054902337491512,-0.2303307608010641,-2.2533100098371506,-1.0883533395826817,20.426058769226074,0.0,0.0,0.0,0.0,0.0,0.0,0.0,0.0,0.0,0.0,0.0,0.0,0.0,0.0,0.0,0.0,False,0,4.100880146026611,0.034919921875,985,1495,1494,1492
STABILIZE,0.6446301937103271,29.91060273269247,0.03239396413167318,0.03250861167907715,-10,40,10,1.3327942360950402,-1.5017771715859756,-4.408700559701525,4.000420264960573,1.792465805875492,-0.002648770667388796,0.5191817959220293,-0.001003145187338048,0.01587251768767708,0.6493558525363317,-0.013430165261965223,-0.12170231202617288,0.07357702124863863,1.1457759886980057,-0.046797187840687815,4.068238660693169,0.81516457721591,15.931548178195953,0.0,0.0,0.0,0.0,0.0,0.0,0.0,0.0,0.0,0.0,0.0,0.0,0.0,0.0,0.0,0.0,False,0,4.129543304443359,0.02993212890625,985,1494,1494,1494
STABILIZE,0.678123950958252,29.85737268469084,0.03239634831746419,0.032503366470336914,-10,40,10,1.3335770398069473,-1.5017692741797477,-4.409576531462579,4.000441036221711,1.7991223456733527,-0.002780454403922768,0.5192197339320901,0.0005723464457306968,0.017085042120263023,0.6428994672836023,-0.014041641592757517,0.08185507031157613,0.09795475052669644,1.2722163461148739,-0.05205103738534906,2.2777823731303215,0.7579979486763477,17.27582812309265,0.0,0.0,0.0,0.0,0.0,0.0,0.0,0.0,0.0,0.0,0.0,0.0,0.0,0.0,0.0,0.0,False,0,4.158936977386475,0.034919921875,985,1495,1493,1494
STABILIZE,0.7116758823394775,29.80327286421806,0.032320531209309895,0.03258061408996582,-10,40,10,1.3336975286127746,-1.5016551886762672,-4.410081538574337,4.000520648328393,1.8055925113848896,-0.0032864461605864297,0.5192567307423547,0.00019365980860647594,0.017731137767327505,0.6369759822941247,-0.016516145745865456,-0.0689519802108407,0.1120668021030724,1.3319393619894981,-0.1717794443888058,-0.5523262079805136,0.8508197031915188,20.666997134685516,0.0,0.0,0.0,0.0,0.0,0.0,0.0,0.0,0.0,0.0,0.0,0.0,0.0,0.0,0.0,0.0,False,0,4.217248439788818,0.029930908203125,985,1495,1494,1493
STABILIZE,0.7451498508453369,29.874172892969323,0.03235486348470052,0.03258252143859863,-10,40,10,1.3342967709907374,-1.5011008761364384,-4.4103026659487155,4.000608298841169,1.8085147265352632,-0.0038490233112930343,0.5192892085104103,-0.00117861536514345,0.019117237712209502,0.633301767303323,-0.019264427316737477,-0.0689519802108407,0.1120668021030724,1.3319393619894981,-0.1717794443888058,-0.5523262079805136,0.8508197031915188,20.666997134685516,0.0,0.0,0.0,0.0,0.0,0.0,0.0,0.0,0.0,0.0,0.0,0.0,0.0,0.0,0.0,0.0,False,0,4.245992422103882,0.029930908203125,985,1495,1494,1493
STABILIZE,0.7786529064178467,29.847598986649967,0.032437833150227864,0.0325624942779541,-10,40,10,1.3344379638074861,-1.5003116691221847,-4.411314387719524,4.000587818269829,1.8118483338147289,-0.0037249370864790594,0.5193296025881262,-0.0041792611754148095,0.018539806918436368,0.6256502485247021,-0.018581826898623657,-0.1609025406651199,0.00801218266133219,1.081814058125019,0.008480060050647676,1.2583276256918907,0.6558718159794807,11.77220493555069,0.0,0.0,0.0,0.0,0.0,0.0,0.0,0.0,0.0,0.0,0.0,0.0,0.0,0.0,0.0,0.0,False,0,4.2745583057403564,0.0399091796875,985,1495,1494,1492
STABILIZE,0.8121802806854248,29.827434414979482,0.03238395055135091,0.032525062561035156,-10,40,10,1.33401716012159,-1.4997794479754525,-4.412294519865421,4.00054563920401,1.8163869452169785,-0.003461258129909575,0.5193525242870605,-0.007027835976123615,0.01915404204790642,0.6267361476104776,-0.017205854112907735,-0.1454459736123681,0.05732662393711507,1.18415467441082,0.06936449971427357,-3.803231194615364,0.6974092219024897,16.030573844909668,0.0,0.0,0.0,0.0,0.0,0.0,0.0,0.0,0.0,0.0,0.0,0.0,0.0,0.0,0.0,0.0,False,0,4.303246974945068,0.02993212890625,985,1495,1494,1494
STABILIZE,0.8454968929290771,30.01419738951225,0.032303603490193684,0.03241157531738281,-10,40,10,1.3331379867093625,-1.4994020800238093,-4.4130565128447,4.000490033731812,1.8191163053545658,-0.003116353041972124,0.5193878882363181,-0.009567187783948395,0.019471987255161395,0.621588403766261,-0.015429774007916832,-0.1454459736123681,0.05732662393711507,1.18415467441082,0.06936449971427357,-3.803231194615364,0.6974092219024897,16.030573844909668,0.0,0.0,0.0,0.0,0.0,0.0,0.0,0.0,0.0,0.0,0.0,0.0,0.0,0.0,0.0,0.0,False,0,4.331982135772705,0.02993212890625,982,1494,1494,1493
STABILIZE,0.878981351852417,29.865451438336656,0.03242925008138021,0.03253364562988281,-10,40,10,1.3332921995742166,-1.4993480788406839,-4.4137224562887765,4.000608841287518,1.8241610305871634,-0.003866446512914393,0.5194319072260197,-0.009394383828200837,0.02058280950426831,0.6121318663645345,-0.019116337989161205,0.0021304882466210984,0.10219945106655359,0.9066996164619923,-0.235046472814429,-1.600208505988121,0.5283408798277378,9.407174587249756,0.0,0.0,0.0,0.0,0.0,0.0,0.0,0.0,0.0,0.0,0.0,0.0,0.0,0.0,0.0,0.0,False,0,4.36245584487915,0.029931884765625,985,1495,1494,1494
STABILIZE,0.9123423099517822,29.97365882243645,0.03236964543660482,0.03247261047363281,-10,40,10,1.3329269978970324,-1.4990728435614735,-4.4152033266782,4.0004570346231905,1.8267496179232787,-0.0029189399143035597,0.5194245088227366,-0.014644431983328815,0.02322242560118856,0.6283591990073806,-0.014330910628000198,-0.11795626487582922,0.07782620377838612,1.1791621334850788,0.13357989056800376,-1.4200318604707718,-1.2835299596190453,15.446919202804565,0.0,0.0,0.0,0.0,0.0,0.0,0.0,0.0,0.0,0.0,0.0,0.0,0.0,0.0,0.0,0.0,False,0,4.41835880279541,0.069841064453125,985,1495,1494,1493
STABILIZE,0.945859432220459,29.836345917184175,0.032440932591756184,0.03256678581237793,-10,40,10,1.3332585822368954,-1.4996023966655612,-4.415768524832019,4.000450496659384,1.8338163516774622,-0.002876483337607144,0.5194213848197462,-0.01371503896062429,0.024505778399959263,0.6424429086640691,-0.01407155352288302,0.09494991390965879,0.045906068407930434,0.9941644966602325,0.012640318935953188,-0.09684637188911438,0.5244361236691475,10.666726529598236,0.0,0.0,0.0,0.0,0.0,0.0,0.0,0.0,0.0,0.0,0.0,0.0,0.0,0.0,0.0,0.0,False,0,4.447377920150757,0.0349208984375,985,1495,1494,1493
STABILIZE,0.9792943000793457,29.90889643172937,0.032361539204915364,0.03247642517089844,-10,40,10,1.3339188694305653,-1.4987794655922804,-4.416716213579358,4.000424059026698,1.8417804306894376,-0.002708734228034697,0.5194637273101609,-0.011353780032811235,0.0244836978216645,0.6337965452814164,-0.013188716706087306,0.09494991390965879,0.045906068407930434,0.9941644966602325,0.012640318935953188,-0.09684637188911438,0.5244361236691475,10.666726529598236,0.0,0.0,0.0,0.0,0.0,0.0,0.0,0.0,0.0,0.0,0.0,0.0,0.0,0.0,0.0,0.0,False,0,4.476153373718262,0.0349208984375,985,1494,1494,1493
STABILIZE,1.0127074718475342,29.927249375668925,0.0323670228322347,0.032489776611328125,-10,40,10,1.3332042608886527,-1.498582884210231,-4.41881564297549,4.000513104154278,1.8474366567038605,-0.0032633254207601386,0.519506714616904,-0.011942251807604385,0.02371680727144522,0.6248471621259652,-0.01590845753990463,-0.04955691983923316,0.008656433783471584,0.9452170692384243,-0.16479951132536846,-1.3162892311811447,0.5774738267064095,13.999341428279877,0.0,0.0,0.0,0.0,0.0,0.0,0.0,0.0,0.0,0.0,0.0,0.0,0.0,0.0,0.0,0.0,False,0,4.5049028396606445,0.034919921875,985,1494,1494,1494
STABILIZE,1.0462870597839355,29.782110726889293,0.03240063985188802,0.0325472354888916,-10,40,10,1.3331759796366205,-1.4983713617893721,-4.419779980308932,4.000529553550493,1.8501303065980985,-0.0033714921006601285,0.5195347638152717,-0.015342041968233994,0.0249208031928055,0.6233772950219083,-0.016394413114325018,-0.19138590432703495,0.10673081269487739,1.2894203886389732,-0.05461884833783667,0.06035662954673171,0.5952456500381231,15.07820338010788,0.0,0.0,0.0,0.0,0.0,0.0,0.0,0.0,0.0,0.0,0.0,0.0,0.0,0.0,0.0,0.0,False,0,4.533450603485107,0.02993212890625,985,1495,1493,1493
STABILIZE,1.0803031921386719,29.39678579188248,0.032271416982014973,0.03301119804382324,-10,40,10,1.3339097980855739,-1.4990405068846218,-4.419655756243402,4.00062047017709,1.8580187223156786,-0.003930966367737523,0.5195722370282659,-0.014622776171240595,0.024516487750025365,0.6174343234912895,-0.019126584123949762,0.007934853783808649,0.03388586628716439,1.1857181787490845,-0.1767680571440671,-0.6021601147949696,0.6999270524829626,20.099371671676636,0.0,0.0,0.0,0.0,0.0,0.0,0.0,0.0,0.0,0.0,0.0,0.0,0.0,0.0,0.0,0.0,False,0,4.56207537651062,0.034919921875,982,1495,1494,1494
STABILIZE,1.113769292831421,29.883964005044422,0.032325061162312825,0.03245854377746582,-10,40,10,1.3341550445654595,-1.4985503340899675,-4.419758635967775,4.000841812209459,1.864216076257796,-0.005294964298488965,0.5196102332059371,-0.011377371155059816,0.023259129213510987,0.6109848161979274,-0.025860167372823185,0.11907251318916678,-0.009306111314799637,1.0723959654569626,-0.23744563012124886,3.6430060863494873,-1.3594291172921658,15.558114647865295,0.0,0.0,0.0,0.0,0.0,0.0,0.0,0.0,0.0,0.0,0.0,0.0,0.0,0.0,0.0,0.0,False,0,4.619635581970215,0.034920166015625,985,1494,1494,1494
STABILIZE,1.1471776962280273,29.92938490081347,0.032290252049764,0.03241896629333496,-10,40,10,1.3339725504485733,-1.4984042320747528,-4.419669416621742,4.0009276812140575,1.8682549880554125,-0.005828968736472009,0.5196425815629182,-0.01085708773851098,0.02182639257543639,0.6073764927666508,-0.02843508536713033,0.0058100136811845005,-0.030891253845766187,1.0826269164681435,-0.16961286035931017,4.4959887862205505,0.4953383468091488,11.345259845256805,0.0,0.0,0.0,0.0,0.0,0.0,0.0,0.0,0.0,0.0,0.0,0.0,0.0,0.0,0.0,0.0,False,0,4.648564100265503,0.02993212890625,985,1494,1494,1494
STABILIZE,1.1805574893951416,29.95781639489454,0.03233841260274251,0.032444000244140625,-10,40,10,1.334376065218133,-1.4976119301310313,-4.421378671461538,4.000900743753731,1.8727986895362347,-0.005668952488116125,0.5196764389354798,-0.012105041651571388,0.022003721898403363,0.603015552666511,-0.02754291279036879,-0.0923217972740531,0.060071953339502215,1.1802655644714832,-0.0012833018315954816,1.6272403299808502,0.6523266900330782,16.238166391849518,0.0,0.0,0.0,0.0,0.0,0.0,0.0,0.0,0.0,0.0,0.0,0.0,0.0,0.0,0.0,0.0,False,0,4.677101373672485,0.0349208984375,985,1495,1494,1493
STABILIZE,1.2140655517578125,29.844838014188433,0.03241542180379232,0.03254222869873047,-10,40,10,1.3348393441429303,-1.496946093408661,-4.422205978124755,4.00091846206221,1.8779855118836617,-0.005780488259637098,0.5197117546740545,-0.014286901063364138,0.02224970226187186,0.5979342876590977,-0.028006933474816805,-0.1402241294272244,0.05704555078409612,0.9530019946396351,-0.06033484955927787,0.26724732015281916,-1.3073613867163658,15.338936448097229,0.0,0.0,0.0,0.0,0.0,0.0,0.0,0.0,0.0,0.0,0.0,0.0,0.0,0.0,0.0,0.0,False,0,4.7056803703308105,0.034919921875,985,1494,1494,1493
STABILIZE,1.2477943897247314,29.648429326773545,0.03233984311421712,0.03267097473144531,-10,40,10,1.3360191526003442,-1.4960131322567194,-4.424441157530643,4.000893059392071,1.8837542829060865,-0.005627245164518796,0.5197423837022896,-0.012726303058260259,0.022757891887383724,0.5952728562156456,-0.027149401256750354,0.06408919580280781,0.07125756819732487,1.0730951093137264,0.01023568713913206,0.42159128934144974,0.7246961817145348,16.03476256132126,0.0,0.0,0.0,0.0,0.0,0.0,0.0,0.0,0.0,0.0,0.0,0.0,0.0,0.0,0.0,0.0,False,0,4.7343175411224365,0.034919921875,985,1495,1494,1493
STABILIZE,1.281156063079834,29.97494407798352,0.03227117856343587,0.03241229057312012,-10,40,10,1.3364476402490566,-1.4954763220766387,-4.425239435889887,4.00083582027696,1.8876754116752035,-0.005285818093084099,0.5197755891347005,-0.012208456877249786,0.02230682496809774,0.591266878984389,-0.025357392503148297,0.006530694372486323,0.01834258873714134,0.9875468909740448,0.06037385634274099,2.9269780963659286,-1.3244301080703735,11.855877190828323,0.0,0.0,0.0,0.0,0.0,0.0,0.0,0.0,0.0,0.0,0.0,0.0,0.0,0.0,0.0,0.0,False,0,4.763058662414551,0.02993212890625,985,1495,1493,1493
STABILIZE,1.3145921230316162,29.906337345274085,0.03236845334370931,0.03249788284301758,-10,40,10,1.3369853042027837,-1.4953665054413896,-4.425416593921485,4.000690214020347,1.8973687122174738,-0.004395221823391163,0.5198083285326256,-0.005094614252655403,0.01862752863523086,0.5874861444188922,-0.020834746481223784,0.17601163126528263,-0.05746012320742011,1.1579460464417934,0.08253871399371829,4.266306012868881,0.6096851080656052,9.99482199549675,0.0,0.0,0.0,0.0,0.0,0.0,0.0,0.0,0.0,0.0,0.0,0.0,0.0,0.0,0.0,0.0,False,0,4.820477724075317,0.0349208984375,985,1495,1494,1494
STABILIZE,1.3483808040618896,29.600095978094412,0.03238991101582845,0.032711029052734375,-10,40,10,1.336411248147385,-1.4958238079506632,-4.425609119878715,4.000662360306558,1.903993451139437,-0.004226636981012368,0.5198451952767492,-0.0036745727283097893,0.01975919175540645,0.5817348473638132,-0.01992474856951519,0.05842765676788986,0.10617077350616455,0.8395794779062271,0.011238897853904129,2.7692433446645737,0.837151613086462,19.268760085105896,0.0,0.0,0.0,0.0,0.0,0.0,0.0,0.0,0.0,0.0,0.0,0.0,0.0,0.0,0.0,0.0,False,0,4.849260091781616,0.034919921875,985,1495,1494,1493
STABILIZE,1.3818583488464355,29.868003532059134,0.03220990498860677,0.032479047775268555,-10,40,10,1.336495771738364,-1.4959524076061297,-4.42598008452801,4.0007066243879255,1.9101657227481055,-0.004493345117280077,0.5198705887001057,-0.0033959518254882736,0.019923421502326816,0.5816916163284562,-0.021187127081522743,-0.0048816000344231725,0.050543760880827904,1.156096626073122,-0.11176816837135067,2.8354384005069733,0.7623568642884493,15.476754307746887,0.0,0.0,0.0,0.0,0.0,0.0,0.0,0.0,0.0,0.0,0.0,0.0,0.0,0.0,0.0,0.0,False,0,4.877750396728516,0.02993212890625,985,1495,1494,1493
STABILIZE,1.4177601337432861,27.85580320378291,0.03235629399617513,0.03495979309082031,-10,40,10,1.3371306591660579,-1.4950690720473767,-4.427226594051538,4.000738883026637,1.9147289109004306,-0.004692029633976653,0.5199040577542969,-0.0034178860478533014,0.020671243687145773,0.5784857086540451,-0.02210121027927369,-0.017901234969031066,0.08891302277334034,1.1256090365350246,-0.09878258470687466,4.249017685651779,0.6812544073909521,13.573203980922699,0.0,0.0,0.0,0.0,0.0,0.0,0.0,0.0,0.0,0.0,0.0,0.0,0.0,0.0,0.0,0.0,False,0,4.906763076782227,0.034920166015625,985,1495,1494,1493
STABILIZE,1.451488971710205,29.648638905186367,0.0323674996693929,0.032492637634277344,-10,40,10,1.337044641471198,-1.49572370299064,-4.428161476194184,4.000672940038905,1.9221978516710911,-0.004295467725638582,0.5199329487002167,0.000522682885672766,0.02045831294921473,0.5766519583615992,-0.020051311636036222,0.20907216239720583,0.027386730653233826,1.0221510194242,0.07942520160903706,3.4209370613098145,-1.1551789939403534,18.38942915201187,0.0,0.0,0.0,0.0,0.0,0.0,0.0,0.0,0.0,0.0,0.0,0.0,0.0,0.0,0.0,0.0,False,0,4.93539571762085,0.034919921875,985,1495,1493,1493
STABILIZE,1.4848811626434326,29.942418206868982,0.03209570248921712,0.03246140480041504,-10,40,10,1.3372532824060008,-1.49562808034226,-4.428730943216234,4.000605063705232,1.9265280581955888,-0.0038951228986876616,0.5199618557371837,0.00445353807829232,0.02024643517315817,0.5748975415696638,-0.0179889929211585,0.20907216239720583,0.027386730653233826,1.0221510194242,0.07942520160903706,3.4209370613098145,-1.1551789939403534,18.38942915201187,0.0,0.0,0.0,0.0,0.0,0.0,0.0,0.0,0.0,0.0,0.0,0.0,0.0,0.0,0.0,0.0,False,1,4.963955640792847,0.034919921875,985,1495,1493,1494
STABILIZE,1.5183367729187012,29.891205039944698,0.03238418896993001,0.03256392478942871,-10,40,10,1.3362169079211572,-1.495569917012609,-4.430264320684901,4.000516607455753,1.9308477411021443,-0.0033726902115318817,0.5199957468621013,0.004119634239995785,0.019085581525868717,0.5705820769510922,-0.015325510649864257,0.006500931340269744,0.026227915077470243,1.1451834812760353,-0.06647727069638207,5.573315545916557,0.6933982018381357,12.10339069366455,0.0,0.0,0.0,0.0,0.0,0.0,0.0,0.0,0.0,0.0,0.0,0.0,0.0,0.0,0.0,0.0,False,0,5.0254669189453125,0.069841064453125,985,1495,1493,1494
STABILIZE,1.5519168376922607,29.777881905248734,0.03245499928792318,0.03266263008117676,-10,40,10,1.3369309828545408,-1.495069925821023,-4.431062599044147,4.000530922526353,1.937568258611995,-0.0034572112250483445,0.5199883554944527,0.006968705824785233,0.019210974436911284,0.5869101364211173,-0.015695457420081944,0.09915204718708992,0.015527057985309511,0.9606621228158474,-0.046751284166988566,0.10883361101150513,0.8119133301079273,17.503100633621216,0.0,0.0,0.0,0.0,0.0,0.0,0.0,0.0,0.0,0.0,0.0,0.0,0.0,0.0,0.0,0.0,False,0,5.0510382652282715,0.029931884765625,985,1494,1493,1493
STABILIZE,1.585435390472412,29.836345917184175,0.03241756757100423,0.0326235294342041,-10,40,10,1.337945159224582,-1.4950752619063121,-4.431461738223769,4.00053663632859,1.94373943799564,-0.00349151882396564,0.5200280250421327,0.00872538397754685,0.01865450320442071,0.5797065349577103,-0.01581398507793585,0.09915204718708992,0.015527057985309511,0.9606621228158474,-0.046751284166988566,0.10883361101150513,0.8119133301079273,17.503100633621216,0.0,0.0,0.0,0.0,0.0,0.0,0.0,0.0,0.0,0.0,0.0,0.0,0.0,0.0,0.0,0.0,False,0,5.079769611358643,0.029931884765625,985,1494,1494,1493
STABILIZE,1.6189699172973633,29.821496370345617,0.03240183194478353,0.032535552978515625,-10,40,10,1.3379867806898367,-1.4949098432623509,-4.431871122687147,4.000507562434658,1.9485861067597048,-0.0033227594716605537,0.5200760405495723,0.011261262079722115,0.019018654990579396,0.5683230899925958,-0.014920261355423417,0.1458343816921115,0.0649372290354222,0.6936758290976286,0.010201901381618967,6.552089750766754,0.5989628843963146,9.105903655290604,0.0,0.0,0.0,0.0,0.0,0.0,0.0,0.0,0.0,0.0,0.0,0.0,0.0,0.0,0.0,0.0,False,0,5.108311414718628,0.034919921875,982,1494,1494,1494
STABILIZE,1.6603081226348877,24.18958089426909,0.03231385548909505,0.040294647216796875,-10,40,10,1.3374665123741523,-1.494315403361148,-4.4323360024375305,4.000627009924892,1.9510485125411052,-0.004035346621044754,0.5201012009783921,0.008333398099934778,0.017426912666825296,0.571329402085745,-0.01840712509934415,-0.16571757150813937,-0.04899163614027202,1.3186692260205746,-0.22968688206965818,-3.0459821224212646,-1.1505046859383583,17.366431653499603,0.0,0.0,0.0,0.0,0.0,0.0,0.0,0.0,0.0,0.0,0.0,0.0,0.0,0.0,0.0,0.0,False,1,5.137073040008545,0.034921142578125,982,1495,1494,1493
STABILIZE,1.693664312362671,29.979014781141892,0.03229883511861165,0.03242349624633789,-10,40,10,1.3374512511702255,-1.4933010135476954,-4.433690514327309,4.000486956768843,1.9588245376655082,-0.003211420882037991,0.5201401369408278,0.011889322830668847,0.018416831358449366,0.5644734254687171,-0.01423991192841011,0.11372624430805445,0.07444920483976603,0.9384315460920334,0.20588123155314397,3.4637734293937683,-1.2002249248325825,15.383057296276093,0.0,0.0,0.0,0.0,0.0,0.0,0.0,0.0,0.0,0.0,0.0,0.0,0.0,0.0,0.0,0.0,False,0,5.194504022598267,0.034845947265625,982,1494,1494,1494
STABILIZE,1.7278649806976318,29.23797175401174,0.03238824208577474,0.03334355354309082,-10,40,10,1.3379816580479593,-1.4942897901517607,-4.436052479119664,4.0004898757224145,1.96258091691947,-0.0032328017122677517,0.5201621011149093,0.011850561417471922,0.01785559532360496,0.5664159862034686,-0.014297843549194772,0.0003732857294380665,0.005642184987664223,1.2198572047054768,-0.03791175539578922,-0.5626600235700607,0.7096963003277779,15.54737240076065,0.0,0.0,0.0,0.0,0.0,0.0,0.0,0.0,0.0,0.0,0.0,0.0,0.0,0.0,0.0,0.0,False,0,5.223146438598633,0.034919921875,982,1495,1494,1493
STABILIZE,1.7613115310668945,29.8978102189781,0.032479317982991536,0.032591819763183594,-10,40,10,1.3388556020966036,-1.493668456380701,-4.43680166549425,4.000457899403279,1.9688980896829786,-0.0030465299676318155,0.5201894323508947,0.01503172834546742,0.017751079803346975,0.5653740355219535,-0.013321922508884074,0.18474466633051634,0.031189268338494003,1.041870377957821,0.021569172107364955,2.9298461973667145,2.629701606929302,14.638163149356842,0.0,0.0,0.0,0.0,0.0,0.0,0.0,0.0,0.0,0.0,0.0,0.0,0.0,0.0,0.0,0.0,False,0,5.2518534660339355,0.02993212890625,985,1495,1494,1494
STABILIZE,1.7948179244995117,29.84632462819327,0.03246668179829915,0.03259849548339844,-10,40,10,1.3388882589385727,-1.4934793455180562,-4.436168592335554,4.000353545971586,1.972122680344948,-0.0024429483570781894,0.5202229447127772,0.013794076760589826,0.018037188922616288,0.5612513588097013,-0.01026965034810883,-0.054469407768920064,0.057324732188135386,1.0136711411178112,0.14056406581924594,1.1784101836383343,-1.2580066919326782,14.391115307807922,0.0,0.0,0.0,0.0,0.0,0.0,0.0,0.0,0.0,0.0,0.0,0.0,0.0,0.0,0.0,0.0,False,0,5.280648469924927,0.034919921875,985,1495,1494,1494
STABILIZE,1.8282825946807861,29.882686539516527,0.03241160710652669,0.03254866600036621,-10,40,10,1.3385626510142334,-1.4937624782034944,-4.437007424942997,4.000250164244592,1.9777900186794177,-0.0018431118675157404,0.5202503957117618,0.012713041417194024,0.018412553849963348,0.5601556986111448,-0.007246230549445459,-0.054469407768920064,0.057324732188135386,1.0136711411178112,0.14056406581924594,1.1784101836383343,-1.2580066919326782,14.391115307807922,0.0,0.0,0.0,0.0,0.0,0.0,0.0,0.0,0.0,0.0,0.0,0.0,0.0,0.0,0.0,0.0,False,0,5.309244394302368,0.034919921875,985,1495,1494,1494
STABILIZE,1.8617291450500488,29.899088977915913,0.032362969716389973,0.03247976303100586,-10,40,10,1.3388729977346459,-1.493869626796099,-4.437401441480741,4.000384456186426,1.980017053321653,-0.0026258656141753592,0.5202747163232317,0.011452825310215842,0.018936248285747675,0.5606120187035216,-0.01112283251508308,-0.053589564049616456,0.08766740211285651,1.0712143033742905,-0.17237444457896384,0.07315743714570999,0.5355114117264748,6.825494021177292,0.0,0.0,0.0,0.0,0.0,0.0,0.0,0.0,0.0,0.0,0.0,0.0,0.0,0.0,0.0,0.0,False,0,5.36821174621582,0.034919921875,985,1495,1494,1494
STABILIZE,1.895108699798584,29.958030370126995,0.03237465222676595,0.03249025344848633,-10,40,10,1.3390542111910628,-1.4928087063189257,-4.439403540681202,4.00047422698275,1.9861590896812844,-0.0031458421977781682,0.5203060016832532,0.01342716652884819,0.020760866406747323,0.5575971081622817,-0.013676988234089743,0.1267094979993999,0.13965864200145006,0.8964348584413528,-0.17382579307652543,2.649804949760437,0.7369615603238344,13.683280348777771,0.0,0.0,0.0,0.0,0.0,0.0,0.0,0.0,0.0,0.0,0.0,0.0,0.0,0.0,0.0,0.0,False,0,5.3959503173828125,0.02993212890625,985,1495,1494,1492
STABILIZE,1.928720474243164,29.75443375613632,0.032428773244222005,0.032558441162109375,-10,40,10,1.3396426746767418,-1.4928076391018679,-4.4397984109925925,4.000561456662577,1.990672146781849,-0.003652325416718626,0.5203424731598263,0.015248298562512199,0.022445514650564585,0.5520085068496328,-0.01615534024514836,0.1267094979993999,0.13965864200145006,0.8964348584413528,-0.17382579307652543,2.649804949760437,0.7369615603238344,13.683280348777771,0.0,0.0,0.0,0.0,0.0,0.0,0.0,0.0,0.0,0.0,0.0,0.0,0.0,0.0,0.0,0.0,False,0,5.424563646316528,0.02993212890625,985,1494,1494,1493
STABILIZE,1.9620661735534668,29.98544445874262,0.03224662144978841,0.03237152099609375,-10,40,10,1.3398926169116818,-1.4927344280117016,-4.440590286049491,4.000429345112737,1.9952190702063821,-0.002894829483425043,0.5203620469402123,0.013191117537484398,0.021295526520095302,0.5548537755213964,-0.012326645719931117,-0.0991369946859777,-0.025414692936465144,1.3715383596718311,0.19482339541073135,-1.5004533343017101,0.7320804055780172,14.42437469959259,0.0,0.0,0.0,0.0,0.0,0.0,0.0,0.0,0.0,0.0,0.0,0.0,0.0,0.0,0.0,0.0,False,0,5.453416347503662,0.04489697265625,985,1495,1494,1493
STABILIZE,1.9958739280700684,29.581724699725644,0.032370837529500325,0.032814979553222656,-10,40,10,1.3405373227363075,-1.4922316620557654,-4.438535679769787,4.000529377271759,1.9994536639097658,-0.003472873990054913,0.520373539641566,0.011399076807138656,0.020541456883902298,0.5618524559895568,-0.01516566992876009,-0.09952272521331906,-0.023656374833080918,1.127620879560709,-0.18342278248956193,-2.2074364125728607,0.7907884195446968,16.266995668411255,0.0,0.0,0.0,0.0,0.0,0.0,0.0,0.0,0.0,0.0,0.0,0.0,0.0,0.0,0.0,0.0,False,0,5.481878757476807,0.024944091796875,985,1494,1494,1493
STABILIZE,2.029318332672119,29.899515255203877,0.032299073537190755,0.03244662284851074,-10,40,10,1.3406541830041383,-1.4952761121565927,-4.429561238087213,4.000420438765747,2.00423702042237,-0.002851126545224243,0.5204163971065657,0.009753506667353695,0.020522531026372665,0.5530735790255501,-0.012016705444143343,-0.07022424833849072,0.04852227866649628,0.8668441325426102,0.1495971777595729,-2.464873343706131,-1.3254866003990173,9.065736085176468,0.0,0.0,0.0,0.0,0.0,0.0,0.0,0.0,0.0,0.0,0.0,0.0,0.0,0.0,0.0,0.0,False,0,5.510611295700073,0.029931884765625,985,1495,1494,1494
STABILIZE,2.0627570152282715,29.90335229784261,0.03234675725301107,0.032464027404785156,-10,40,10,1.3403798014985742,-1.4947575513882005,-4.436230064038084,4.000262083626611,2.007878943256491,-0.0019483271910825922,0.5204578395530703,0.008598098615945616,0.02088865295489227,0.5449966157940817,-0.007477708657890909,0.043226990965195,0.0574019446503371,1.0156774893403053,0.06670466797097589,2.8672879561781883,0.6099907215684652,9.532199054956436,0.0,0.0,0.0,0.0,0.0,0.0,0.0,0.0,0.0,0.0,0.0,0.0,0.0,0.0,0.0,0.0,False,0,5.568021297454834,0.034920166015625,982,1495,1494,1494
STABILIZE,2.0961780548095703,29.92105807574601,0.032360347112019856,0.0324857234954834,-10,40,10,1.34033892708526,-1.4967426818374414,-4.438482745803719,3.998980282784799,2.0159362080259577,0.005365900507040054,0.5204809706666631,0.010690085333645533,0.01384955542451159,0.5460888248783272,0.02899637230667625,0.14358418993651867,-0.3873030887916684,1.068323664367199,2.1594823403061256,15.53354263305664,-40.45172333717346,10.896413773298264,0.0,0.0,0.0,0.0,0.0,0.0,0.0,0.0,0.0,0.0,0.0,0.0,0.0,0.0,0.0,0.0,False,0,5.5965797901153564,0.064851806640625,985,1495,1493,1493
STABILIZE,2.1295876502990723,29.931734330509745,0.03238943417867025,0.03250455856323242,-10,40,10,1.342149567545548,-1.4971098045053295,-4.44402074856013,3.9996748621262994,2.0288582005753812,0.0014094571495443533,0.5204778479727371,0.023476616952122005,0.006987129544350326,0.560264201731219,0.009183476523029286,0.7043474353849888,-0.34357565455138683,0.9341316297650337,-1.3289764805141204,6.604943424463272,8.41556265950203,16.514620184898376,0.0,0.0,0.0,0.0,0.0,0.0,0.0,0.0,0.0,0.0,0.0,0.0,0.0,0.0,0.0,0.0,False,0,5.625467538833618,0.034919921875,985,1495,1494,1493
STABILIZE,2.163219690322876,29.734394827696214,0.03241923650105794,0.03270554542541504,-10,40,10,1.3389265720309482,-1.4963479182477557,-4.4434188381395225,3.999704517195405,2.0269880299788574,0.0012490663419181432,0.5204918004512853,0.011549286451330899,0.004465841738395243,0.5659672471993863,0.008353454998468443,-0.6444229278713465,-0.1003639423288405,1.4190123416483402,-0.04337831464028611,-20.44249325990677,-1.3648862019181252,19.157452881336212,0.0,0.0,0.0,0.0,0.0,0.0,0.0,0.0,0.0,0.0,0.0,0.0,0.0,0.0,0.0,0.0,False,0,5.654223680496216,0.034921142578125,985,1494,1494,1493
STABILIZE,2.19659686088562,29.959528282344873,0.032375367482503255,0.03249359130859375,-10,40,10,1.3352379497140239,-1.494097264194531,-4.430590035330947,3.9995042980825875,2.025957378491108,0.0023922020189491087,0.5205202630321043,0.0004054121356750536,0.0037948667871722315,0.5643538802423024,0.014022254840288908,-0.5938180256634951,-0.000545474722457584,1.0042848996818066,0.3181184351512975,-13.460211455821991,7.993654906749725,3.5343267023563385,0.0,0.0,0.0,0.0,0.0,0.0,0.0,0.0,0.0,0.0,0.0,0.0,0.0,0.0,0.0,0.0,False,0,5.68454384803772,0.02989990234375,985,1494,1494,1494
STABILIZE,2.2302215099334717,29.74071999376015,0.03245690663655599,0.03259897232055664,-10,40,10,1.333413115266867,-1.4963596576353917,-4.436080226763167,4.000229530477724,2.035622660862169,-0.0017085331675269378,0.520543064789625,0.008917618729364273,0.01932562111659908,0.5655966150119065,-0.0064597782450857445,0.4962075501680374,0.8988327346742153,1.311191450804472,-1.1352125514973213,3.61291766166687,-1.3724000193178654,19.68879997730255,0.0,0.0,0.0,0.0,0.0,0.0,0.0,0.0,0.0,0.0,0.0,0.0,0.0,0.0,0.0,0.0,False,0,5.718890905380249,0.034919921875,985,1494,1494,1494
STABILIZE,2.263805627822876,29.7772476855796,0.03228572209676107,0.03242039680480957,-10,40,10,1.353493551261587,-1.4951777147438623,-4.426979853467771,4.000959801949799,2.0437128385882852,-0.005813723499133204,0.5205596085592438,0.017387954560879895,0.0348669370898142,0.5699333039335257,-0.02689582650622455,0.4962075501680374,0.8988327346742153,1.311191450804472,-1.1352125514973213,3.61291766166687,-1.3724000193178654,19.68879997730255,0.0,0.0,0.0,0.0,0.0,0.0,0.0,0.0,0.0,0.0,0.0,0.0,0.0,0.0,0.0,0.0,False,0,5.747618675231934,0.034919921875,982,1495,1494,1492
STABILIZE,2.2973926067352295,29.772808904221414,0.032145055135091145,0.03262639045715332,-10,40,10,1.3487868038715078,-1.4993800953524183,-4.43134989387611,4.0030499895491145,2.044031069066658,-0.01756607396832065,0.5205130323221313,0.025848864728982637,0.014597193793510491,0.6059210995235348,-0.08536905683155581,0.49292994663119316,-1.114166434854269,3.085552342236042,-3.2676354965808545,13.459336757659912,-27.77051329612732,146.38266563415527,0.0,0.0,0.0,0.0,0.0,0.0,0.0,0.0,0.0,0.0,0.0,0.0,0.0,0.0,0.0,0.0,False,1,5.776316165924072,0.0399091796875,985,1495,1494,1493
STABILIZE,2.331228494644165,29.55254461800785,0.032370599110921223,0.032990217208862305,-10,40,10,1.3395649812749328,-1.474695898413698,-4.448912017779506,4.00362643227842,2.0258999198351777,-0.021037870770136826,0.5205892552446545,-0.017321535478718123,0.022798846004655145,0.5805903611258987,-0.10238075261453325,-1.0515574365854263,-0.15394752845168114,0.34592587035149336,0.735698458522291,4.486921429634094,-22.34766334295273,106.67389631271362,0.0,0.0,0.0,0.0,0.0,0.0,0.0,0.0,0.0,0.0,0.0,0.0,0.0,0.0,0.0,0.0,False,0,5.83361291885376,0.0349208984375,985,1495,1494,1492
STABILIZE,2.3647708892822266,29.81386521470256,0.03249409993489583,0.03260636329650879,-10,40,10,1.3308521144932295,-1.4832784579926421,-4.432840155775643,4.003162661688858,2.0248236370788635,-0.01849251943613939,0.5206394887648405,-0.03632324036112375,0.01955971484260075,0.5680937193170498,-0.08935509775012482,-1.0515574365854263,-0.15394752845168114,0.34592587035149336,0.735698458522291,4.486921429634094,-22.34766334295273,106.67389631271362,0.0,0.0,0.0,0.0,0.0,0.0,0.0,0.0,0.0,0.0,0.0,0.0,0.0,0.0,0.0,0.0,False,0,5.862491130828857,0.0349208984375,985,1495,1494,1493
STABILIZE,2.3982434272766113,29.875236833482912,0.03237727483113607,0.03251028060913086,-10,40,10,1.3351886442859529,-1.501639714028929,-4.429352490430705,4.0016977458293805,2.015318474091923,-0.010299137833729669,0.5206980344582331,-0.05684393637955975,0.010675802230667416,0.5514646826893589,-0.04822684961860031,-1.1399121023714542,-0.4735074006021023,0.11820739600807428,2.3127088831554876,6.5455615520477295,-21.30083292722702,76.50288343429565,0.0,0.0,0.0,0.0,0.0,0.0,0.0,0.0,0.0,0.0,0.0,0.0,0.0,0.0,0.0,0.0,False,0,5.890991926193237,0.034919921875,985,1494,1494,1492
STABILIZE,2.432100296020508,29.536104108277115,0.0323522408803304,0.032930850982666016,-10,40,10,1.3388726775695285,-1.509246623773619,-4.441028271930018,4.000489695902937,2.025131732914203,-0.0034334247393309233,0.520767092646829,-0.04686511228832949,0.007121244413449952,0.529770905509349,-0.013851351151962815,0.5941263865679502,-0.16644063871353865,-0.16518724150955677,1.8992171282091435,89.62734341621399,-18.09260994195938,79.12340760231018,0.0,0.0,0.0,0.0,0.0,0.0,0.0,0.0,0.0,0.0,0.0,0.0,0.0,0.0,0.0,0.0,False,0,5.919707536697388,0.02993212890625,985,1495,1494,1493
STABILIZE,2.4657092094421387,29.75633358163953,0.03240326245625814,0.03255414962768555,-10,40,10,1.3320796275531277,-1.5001705830271415,-4.4100533640440105,4.00290785677813,2.0250385985677566,-0.01714968118587309,0.5207755426666163,-0.041182847641814686,0.0044217183494140045,0.5382184401166837,-0.08215754113867728,0.29599955305457115,-0.12483434984460473,1.688864827156067,-4.015662873441841,-31.2552273273468,-3.9105627685785294,101.34786367416382,0.0,0.0,0.0,0.0,0.0,0.0,0.0,0.0,0.0,0.0,0.0,0.0,0.0,0.0,0.0,0.0,False,0,5.948802947998047,0.034919921875,985,1495,1494,1493
STABILIZE,2.499061346054077,29.981157700610446,0.0322604497273763,0.0323789119720459,-10,40,10,1.3340545127186134,-1.4918994373856675,-4.487581987539179,3.9961240784380947,2.0473363158723537,0.02108878632156447,0.5208628052026869,-0.06645973402186174,-0.010053538507797093,0.50730166783528,0.10867091254594696,-0.7333574816584587,-0.3838937496766448,0.15757041983306408,5.440956867362484,21.911491453647614,-21.08033150434494,39.369866251945496,0.0,0.0,0.0,0.0,0.0,0.0,0.0,0.0,0.0,0.0,0.0,0.0,0.0,0.0,0.0,0.0,False,0,6.005929708480835,0.034919921875,985,1495,1494,1494
STABILIZE,2.539581775665283,24.681958878152695,0.03232935269673665,0.03942418098449707,-10,40,10,1.3322677779204204,-1.4906565564001368,-4.462444756959417,3.9972914933736137,2.08675621740887,0.014306701016905971,0.5209282390754133,-0.01935365246387348,0.0005137107344951146,0.48994645869751274,0.07445979605511222,2.7041517198085785,0.6410658359527588,0.047296605771407485,-2.0829295800886225,98.30182790756226,30.6478351354599,-12.225022166967392,0.0,0.0,0.0,0.0,0.0,0.0,0.0,0.0,0.0,0.0,0.0,0.0,0.0,0.0,0.0,0.0,False,0,6.038668870925903,0.02993212890625,982,1494,1493,1493
STABILIZE,2.572944402694702,29.96958957356808,0.03221848805745443,0.032356977462768555,-10,40,10,1.3331079979100378,-1.4986195964770197,-4.423093902716857,3.9950601980673506,2.084277255297072,0.026726351915954898,0.5209421539067878,-0.052647307423360046,0.004535751419190926,0.4957066514187079,0.1361027559036625,-1.9914302974939346,0.2515624975785613,1.4824523590505123,3.6172050051889304,-103.11665534973145,-29.599863290786743,27.608981728553772,0.0,0.0,0.0,0.0,0.0,0.0,0.0,0.0,0.0,0.0,0.0,0.0,0.0,0.0,0.0,0.0,False,0,6.067373752593994,0.0349208984375,985,1495,1494,1493
STABILIZE,2.6064324378967285,29.862261934427398,0.03234055836995443,0.03250455856323242,-10,40,10,1.3537516043461666,-1.490339592933966,-4.499170257239752,3.9950379113673713,2.0556159237482436,0.027325330028390465,0.5209862100132036,-0.09756742898928178,-0.020000566850370386,0.48642151443124865,0.13863341683375555,-2.6491057127714157,-1.412745751440525,0.4753447603434324,0.07595298423101117,-15.818831324577332,-5.3464870899915695,-21.675528585910797,0.0,0.0,0.0,0.0,0.0,0.0,0.0,0.0,0.0,0.0,0.0,0.0,0.0,0.0,0.0,0.0,False,0,6.096005201339722,0.034920166015625,985,1495,1494,1494
STABILIZE,2.642211437225342,27.947307751251007,0.032295974095662434,0.034914493560791016,-10,40,10,1.3246997148766348,-1.501465757648505,-4.378229378266806,3.9973227001532874,2.0907536956887656,0.014343315329821232,0.521018576500561,-0.03743464887758853,0.006072349411131151,0.4838962703920045,0.07345976031145816,3.4837506711483,1.5459747985005379,0.8637719787657261,-3.830448206831783,74.87603425979614,-19.76698637008667,17.28632003068924,0.0,0.0,0.0,0.0,0.0,0.0,0.0,0.0,0.0,0.0,0.0,0.0,0.0,0.0,0.0,0.0,False,0,6.125549077987671,0.0349208984375,982,1494,1494,1494
STABILIZE,2.6757123470306396,29.850572912959933,0.032492907842000325,0.03259873390197754,-10,40,10,1.32076520574959,-1.5095141750900132,-4.451633848163755,3.9962872882604805,2.0852847995544854,0.02015689121196904,0.5210238700427877,-0.07524988830311762,-0.019155935102907258,0.49396092190644997,0.10218603323278358,-2.29121670126915,-0.20668769720941782,1.2185556814074516,-2.027338030103654,78.52248549461365,44.195735454559326,0.8074682205915451,0.0,0.0,0.0,0.0,0.0,0.0,0.0,0.0,0.0,0.0,0.0,0.0,0.0,0.0,0.0,0.0,False,0,6.182904005050659,0.034919921875,985,1495,1494,1493
STABILIZE,2.70915150642395,29.90484474706784,0.03242162068684896,0.03253459930419922,-10,40,10,1.3377884917604947,-1.4946676917119326,-4.5253243322322,3.997615281357574,2.0443534365690184,0.013146725455114534,0.5210407324226445,-0.11345113431650661,-0.02294598911687903,0.49824276882523044,0.06691139137809982,-2.29121670126915,-0.20668769720941782,1.2185556814074516,-2.027338030103654,78.52248549461365,44.195735454559326,0.8074682205915451,0.0,0.0,0.0,0.0,0.0,0.0,0.0,0.0,0.0,0.0,0.0,0.0,0.0,0.0,0.0,0.0,False,0,6.211804389953613,0.034919921875,985,1495,1494,1494
STABILIZE,2.74263858795166,29.863537654237483,0.03241470654805501,0.03254580497741699,-10,40,10,1.3385710820289902,-1.491637008711151,-4.398865514183529,3.9958403399341624,2.052901256608085,0.02310720583176175,0.5210756261902479,-0.1377816374029941,-0.034578375868519806,0.49351751063184357,0.1163246276672612,-1.4685926027595997,-0.6707757711410522,0.6837731692939997,2.9755667892741773,-196.17774486541748,43.485227227211,35.53188443183899,0.0,0.0,0.0,0.0,0.0,0.0,0.0,0.0,0.0,0.0,0.0,0.0,0.0,0.0,0.0,0.0,False,0,6.240283966064453,0.064863037109375,985,1494,1493,1493
STABILIZE,2.776127338409424,29.85928567869067,0.03236845334370931,0.0325016975402832,-10,40,10,1.337520300113866,-1.5079942445562737,-4.4353980616198125,3.9968704559951855,2.0299737044339357,0.0175945776648374,0.5210482440637197,-0.2108380960998593,-0.021604330585260192,0.5198945399854793,0.08846553264942411,-3.510328382253647,0.8764896541833878,1.7040621489286423,-1.853534902049394,38.491272926330566,18.203648924827576,5.484958738088608,0.0,0.0,0.0,0.0,0.0,0.0,0.0,0.0,0.0,0.0,0.0,0.0,0.0,0.0,0.0,0.0,False,0,6.27335000038147,0.034919921875,982,1494,1494,1494
STABILIZE,2.810666561126709,28.953990376982073,0.03234580357869466,0.033653974533081055,-10,40,10,1.3459162034293983,-1.4883398416110332,-4.475323932413121,3.997969857544048,2.068361639250272,0.011198542120304168,0.5210709109853057,-0.11228370388425184,-0.048912299717266156,0.5216834155504355,0.05629052518072592,5.225783959031105,-1.5105295926332474,1.1271730065345764,-1.6049282892570949,163.4249448776245,-53.84986400604248,-6.254167854785919,0.0,0.0,0.0,0.0,0.0,0.0,0.0,0.0,0.0,0.0,0.0,0.0,0.0,0.0,0.0,0.0,False,0,6.302052021026611,0.0349208984375,985,1495,1493,1494
STABILIZE,2.8441600799560547,29.85545993579477,0.032436402638753255,0.03254580497741699,-10,40,10,1.3402562177632793,-1.4838405612169931,-4.403045163068755,3.995926568523487,2.0991031290681668,0.022293334941841946,0.5210943974238171,-0.10636816894749497,-0.034573931773125524,0.5226174571974568,0.11139198526283747,0.1396283507347107,0.7584522012621164,1.0730132460594177,3.153888087464401,-191.00492000579834,78.04791927337646,3.17622646689415,0.0,0.0,0.0,0.0,0.0,0.0,0.0,0.0,0.0,0.0,0.0,0.0,0.0,0.0,0.0,0.0,False,0,6.330730438232422,0.02993212890625,982,1494,1494,1492
STABILIZE,2.877717971801758,29.801155297243913,0.03234842618306478,0.03249216079711914,-10,40,10,1.3581249531273847,-1.4889676854061455,-4.414260760572739,3.9973137164367216,2.0656735895662197,0.014985625668200456,0.5210940504490221,-0.18980131331749728,-0.011654057519953347,0.5354638387927952,0.07460370535022581,-4.841181635856628,1.2173625640571117,1.8659364432096481,-1.846413362622598,-44.876110553741455,-16.6712686419487,21.782653033733368,0.0,0.0,0.0,0.0,0.0,0.0,0.0,0.0,0.0,0.0,0.0,0.0,0.0,0.0,0.0,0.0,False,0,6.359563827514648,0.034919921875,982,1495,1494,1494
STABILIZE,2.9110472202301025,30.001530725377854,0.03226188023885091,0.03239774703979492,-10,40,10,1.3397773574694378,-1.4997877722685036,-4.46912895083592,3.999585665438832,2.171675966031738,0.002258877555665749,0.5210900574533351,-0.045108517875140294,-0.06385684256974167,0.5501029948829306,0.010933396348384947,3.8293633610010147,-1.483600214123726,1.4010608196258545,-1.6161916980852689,163.47054243087769,-51.34885311126709,15.694844722747803,0.0,0.0,0.0,0.0,0.0,0.0,0.0,0.0,0.0,0.0,0.0,0.0,0.0,0.0,0.0,0.0,False,0,6.416969537734985,0.034920166015625,985,1495,1494,1493
STABILIZE,2.9445559978485107,29.844838014188433,0.032405885060628255,0.03252673149108887,-10,40,10,1.3302980153968123,-1.5093675394662696,-4.416744388109684,3.9984312194793783,2.226611446667298,0.008177989439885196,0.5210787069928151,-0.02516015279499757,-0.06819444076227033,0.5683951517526273,0.040393865705995,0.8919288404285908,-0.2731350949034095,2.014561742544174,1.7889030630893847,-59.50103998184204,21.157194674015045,46.481895446777344,0.0,0.0,0.0,0.0,0.0,0.0,0.0,0.0,0.0,0.0,0.0,0.0,0.0,0.0,0.0,0.0,False,0,6.44566798210144,0.029931884765625,985,1495,1494,1493
STABILIZE,2.9783170223236084,29.619535895371666,0.03233197530110677,0.032837629318237305,-10,40,10,1.3391546363162032,-1.4984442527144208,-4.444044654222225,3.997322175655839,2.200233488050649,0.014108405879684469,0.5210745896859699,-0.006409824381331948,-0.07152027758177197,0.5831904079925779,0.069809896375499,0.8919288404285908,-0.2731350949034095,2.014561742544174,1.7889030630893847,-59.50103998184204,21.157194674015045,46.481895446777344,0.0,0.0,0.0,0.0,0.0,0.0,0.0,0.0,0.0,0.0,0.0,0.0,0.0,0.0,0.0,0.0,False,0,6.474152326583862,0.029931884765625,985,1495,1494,1494
STABILIZE,3.0118749141693115,29.797979510933658,0.03239873250325521,0.03257250785827637,-10,40,10,1.3449232646788079,-1.4922954816358227,-4.462180514015902,3.9978099940563956,2.239262890561119,0.01140090496095299,0.5210964946372737,0.05191515113121123,-0.1266714870137649,0.584857349613761,0.0560844622787226,3.1979065388441086,-3.2536152750253677,1.2737558223307133,-0.6457606619656787,32.08363354206085,-101.3425350189209,24.08750057220459,0.0,0.0,0.0,0.0,0.0,0.0,0.0,0.0,0.0,0.0,0.0,0.0,0.0,0.0,0.0,0.0,False,0,6.502804756164551,0.069841064453125,985,1495,1494,1494
STABILIZE,3.0452797412872314,29.935579647565145,0.03233769734700521,0.03245425224304199,-10,40,10,1.3405051995028674,-1.4957874158489917,-4.423640317850459,3.9927803625395075,2.3008608386969884,0.03635955751975253,0.5210589234866783,0.06426855054624943,-0.11649591335038714,0.6161910810316926,0.18027505945735406,-0.16386571805924177,1.0823112912476063,1.381976343691349,6.591524004279111,-30.547484755516052,75.46564936637878,60.83465814590454,0.0,0.0,0.0,0.0,0.0,0.0,0.0,0.0,0.0,0.0,0.0,0.0,0.0,0.0,0.0,0.0,False,0,6.531793594360352,0.029931884765625,982,1495,1494,1494
STABILIZE,3.081843852996826,27.34993511870994,0.03237346013387044,0.03565192222595215,-10,40,10,1.3364449722064122,-1.5149697886895608,-4.419036770349869,3.9883578347838315,2.243534732100509,0.06026416018705076,0.521084338244065,0.06117378641677445,-0.09264288350136304,0.6172155775696014,0.298705171698597,-0.16386571805924177,1.0823112912476063,1.381976343691349,6.591524004279111,-30.547484755516052,75.46564936637878,60.83465814590454,0.0,0.0,0.0,0.0,0.0,0.0,0.0,0.0,0.0,0.0,0.0,0.0,0.0,0.0,0.0,0.0,False,0,6.560389041900635,0.029931884765625,982,1495,1493,1494
STABILIZE,3.1152255535125732,29.95567681067299,0.03241589864095052,0.03251957893371582,-10,40,10,1.3446657452027573,-1.5106073255223327,-4.454877761132688,3.9918056015798116,2.227341312409779,0.04296278164708647,0.5211558088311853,0.05251741030478631,-0.08501381089168313,0.5940546326084923,0.21149144755245086,0.642381701618433,-0.5087573081254959,1.325487159192562,-1.0206282307641297,112.23233938217163,-1.5298263169825077,26.472297310829163,0.0,0.0,0.0,0.0,0.0,0.0,0.0,0.0,0.0,0.0,0.0,0.0,0.0,0.0,0.0,0.0,False,0,6.6212263107299805,0.034921142578125,985,1495,1494,1494
STABILIZE,3.148700475692749,29.874172892969323,0.03247121175130208,0.03257274627685547,-10,40,10,1.3304261881654558,-1.5072729125468969,-4.371216054649672,3.9922438825463993,2.1945740046669315,0.04143064577356497,0.5211776277453202,0.008841856625448764,-0.07162037038487659,0.5957183761972054,0.20315175094820098,-2.431224472820759,0.5897747818380594,1.1964155361056328,-0.27558983539739,-13.169316947460175,38.04666996002197,-10.590483248233795,0.0,0.0,0.0,0.0,0.0,0.0,0.0,0.0,0.0,0.0,0.0,0.0,0.0,0.0,0.0,0.0,False,0,6.649737119674683,0.029931640625,985,1495,1493,1493
STABILIZE,3.1822047233581543,29.84738658601672,0.03240803082784017,0.0325319766998291,-10,40,10,1.3365704769324112,-1.5094997676597326,-4.428842787563893,3.992822068726511,2.14275630938253,0.03943631458172291,0.5212058283849544,-0.03470606245305992,-0.05808698285353517,0.5942052998540578,0.19253594505399074,-2.431224472820759,0.5897747818380594,1.1964155361056328,-0.27558983539739,-13.169316947460175,38.04666996002197,-10.590483248233795,0.0,0.0,0.0,0.0,0.0,0.0,0.0,0.0,0.0,0.0,0.0,0.0,0.0,0.0,0.0,0.0,False,0,6.679021120071411,0.029931640625,985,1495,1494,1494
STABILIZE,3.215660333633423,29.88886196821777,0.03232410748799642,0.03249549865722656,-10,40,10,1.3377671474193384,-1.5129340721517797,-4.45861857036374,3.993768233352178,2.1525366627522646,0.03430534849083136,0.5212372781452936,-0.015401768622151073,-0.059679747477498594,0.5910861045340666,0.16632402896898074,1.0609198361635208,-0.24325235281139612,1.0891521349549294,-1.1723782788140051,47.346481680870056,-51.22281312942505,17.663614451885223,0.0,0.0,0.0,0.0,0.0,0.0,0.0,0.0,0.0,0.0,0.0,0.0,0.0,0.0,0.0,0.0,False,0,6.707808494567871,0.03490771484375,985,1495,1494,1493
STABILIZE,3.249202013015747,29.814077138510967,0.03239897092183431,0.03256845474243164,-10,40,10,1.3312155019014154,-1.5182050572003256,-4.379065222666486,3.9918165744093246,2.1638520468890983,0.044675716282421445,0.521277588656053,-0.013269342513472336,-0.08979174642918142,0.583549235863796,0.21744739935561025,0.10749766370281577,-1.8481101840734482,0.645539490506053,3.1225545946469673,-37.583404779434204,-12.966872751712799,0.9490550495684147,0.0,0.0,0.0,0.0,0.0,0.0,0.0,0.0,0.0,0.0,0.0,0.0,0.0,0.0,0.0,0.0,False,0,6.736564874649048,0.029930908203125,985,1494,1495,1492
STABILIZE,3.282627820968628,29.917643282570705,0.03234055836995443,0.03245711326599121,-10,40,10,1.3370102770819365,-1.5206584824945353,-4.439939283644224,3.9938071813913387,2.167861506944828,0.03411736236273591,0.5213319432653685,-0.015463681676248132,-0.053210199014649094,0.5689811484385504,0.16410710415294366,-0.14812464360147715,1.935480535030365,0.41171577759087086,-2.729012541605761,21.632425487041473,81.04208111763,2.778320387005806,0.0,0.0,0.0,0.0,0.0,0.0,0.0,0.0,0.0,0.0,0.0,0.0,0.0,0.0,0.0,0.0,False,0,6.765233278274536,0.034921142578125,985,1495,1493,1494
STABILIZE,3.3163323402404785,29.66856237444473,0.03235438664754232,0.0328371524810791,-10,40,10,1.3338559036241542,-1.5156291153878787,-4.374794220001112,3.9953699648850876,2.196647199568927,0.025577503337094187,0.5213773107364167,-0.006421466056600756,-0.04074578604960953,0.5590560341838667,0.12099900971807748,0.636026868596673,-1.509653776884079,1.1541890911757946,0.7686845369537502,10.027944296598434,-99.00713562965393,13.209562003612518,0.0,0.0,0.0,0.0,0.0,0.0,0.0,0.0,0.0,0.0,0.0,0.0,0.0,0.0,0.0,0.0,False,0,6.822571516036987,0.034919921875,985,1495,1494,1493
STABILIZE,3.34987211227417,29.81577263744544,0.03246024449666341,0.032608985900878906,-10,40,10,1.346158568423228,-1.5168850164215149,-4.407279880354162,3.99682678264901,2.21641010547869,0.0178599438296049,0.5214018538844019,-0.011625595667315119,0.007000874884620249,0.5594318339028513,0.08213612115823915,-0.3204192966222763,2.614072896540165,1.0890670120716095,-1.9711844836160406,-6.487622857093811,39.54654037952423,16.73148274421692,0.0,0.0,0.0,0.0,0.0,0.0,0.0,0.0,0.0,0.0,0.0,0.0,0.0,0.0,0.0,0.0,False,0,6.851192951202393,0.0698408203125,985,1495,1494,1494
STABILIZE,3.3833224773406982,29.895253029223092,0.03239014943440755,0.032514333724975586,-10,40,10,1.3496505026363972,-1.5171384804727457,-4.438591175056793,3.9985145431001823,2.2051356606088572,0.009182558404945553,0.5213898355165356,-0.017829806696311797,0.06434139902351099,0.5780431510915575,0.03862005549887738,-0.3204192966222763,2.614072896540165,1.0890670120716095,-1.9711844836160406,-6.487622857093811,39.54654037952423,16.73148274421692,0.0,0.0,0.0,0.0,0.0,0.0,0.0,0.0,0.0,0.0,0.0,0.0,0.0,0.0,0.0,0.0,False,0,6.880147218704224,0.0698408203125,982,1494,1494,1494
STABILIZE,3.416776657104492,29.891844123264633,0.032250436147054036,0.03238248825073242,-10,40,10,1.3477602477835962,-1.516914151447193,-4.389535902664115,3.996673489188387,2.2051502726073204,0.018826501497450566,0.5213893462708891,-0.029110183056407384,0.010574639981585199,0.5908764213373717,0.08655027775783578,-0.5102338269352913,-3.168686106801033,0.9093476459383965,2.806773604976122,-9.940038621425629,-107.68653154373169,-0.46109985560178757,0.0,0.0,0.0,0.0,0.0,0.0,0.0,0.0,0.0,0.0,0.0,0.0,0.0,0.0,0.0,0.0,False,0,6.908586025238037,0.02993212890625,985,1494,1494,1494
STABILIZE,3.4501802921295166,29.936861639484672,0.032378466924031575,0.03249025344848633,-10,40,10,1.3567680933600792,-1.5148068246448325,-4.443581482019134,3.999304210990743,2.226041674689138,0.005111192865521157,0.5214305876634405,0.0011316562104099065,0.05057055236172899,0.5828482879974904,0.01791384885036136,1.4447818510234356,1.986115612089634,0.9992837905883789,-3.180467128289271,57.520127296447754,106.0025691986084,3.9364438503980637,0.0,0.0,0.0,0.0,0.0,0.0,0.0,0.0,0.0,0.0,0.0,0.0,0.0,0.0,0.0,0.0,False,0,6.937207937240601,0.034920166015625,985,1495,1494,1492
STABILIZE,3.483940601348877,29.61995423858083,0.032413514455159505,0.032776594161987305,-10,40,10,1.3435389774331166,-1.5210735232083192,-4.3721761231148815,3.998003230146448,2.2229564523826557,0.011864634704214031,0.5214627650403711,-0.008474259640104745,0.011927636978130117,0.5794524742020941,0.05150755990038438,-0.506128091365099,-1.920185424387455,1.0639241896569729,1.8526826225070234,-43.196868896484375,-131.42188787460327,11.02568656206131,0.0,0.0,0.0,0.0,0.0,0.0,0.0,0.0,0.0,0.0,0.0,0.0,0.0,0.0,0.0,0.0,False,0,6.9660186767578125,0.0349208984375,985,1494,1494,1494
