Mode,Time,Freq,time2delay,actualDelay,North-Desired,East-Desired,Down-Desired,Roll-UAV,Pitch-UAV,Yaw-UAV,Roll-Control,Pitch-Control,Yaw-Control,Thrust-Control,North-Pos,East-Pos,Down-Pos,Yaw-Ang,North-Vel,East-Vel,Down-Vel,Yaw-Vel,North-Acc,East-Acc,Down-Acc,North-Avg,East-Avg,Down-Avg,Yaw-Avg,North-Dif,East-Dif,Down-Dif,Yaw-Dif,North-One,East-One,Down-One,Yaw-One,North-Two,East-Two,Down-Two,Yaw-Two,Landing-State,Q-Size,Kalman-Time,Kalman-Dt
STABILIZE,0.03436684608459473,29.10609004607783,0.032759936650594075,0.03290390968322754,0.0,0.0,0.0,0.47093535341344384,-1.253088703245342,0.4834104271282077,-0.07436942924114319,0.07189880809363641,0.006187285052756109,0.4,0.031417943614272546,0.032462563394119404,0.6551080269772449,0.03083459393614542,-0.027055718237534165,0.08096317760646343,1.3014375232160091,-0.0005507907235380595,-2.9117122292518616,-0.17860432853922248,19.86842006444931,0.0,0.0,0.0,0.0,0.0,0.0,0.0,0.0,0.0,0.0,0.0,0.0,0.0,0.0,0.0,0.0,False,0,3.5167033672332764,0.034919189453125
STABILIZE,0.06785869598388672,29.856947608200457,0.03229788144429525,0.03251528739929199,0.0,0.0,0.0,0.47105851026191564,-1.2526636306912142,0.48366309076664527,-0.039927545670679826,0.042226558154697204,0.0062516715691389654,0.4,0.03438855858199208,0.032440683568144404,0.6524403676746245,0.03105226391983529,0.22337299305945635,0.06023215828463435,1.2026295065879822,0.06115844764321976,5.27571476995945,-0.1815496478229761,19.99843865633011,0.0,0.0,0.0,0.0,0.0,0.0,0.0,0.0,0.0,0.0,0.0,0.0,0.0,0.0,0.0,0.0,False,0,3.5453379154205322,0.039906982421875
STABILIZE,0.10125494003295898,29.945624857208134,0.032406123479207356,0.03252291679382324,0.0,0.0,0.0,0.47066396011564166,-1.2514655728221118,0.48354409606469895,-0.027265614609203164,0.030308040910779786,0.005353908523723108,0.4,0.034617461254427946,0.031063640626941537,0.6505912267390924,0.02647508864995569,0.07448125397786498,-0.017179410497192293,1.0826054029166698,-0.1912522203310196,1.741296425461769,1.6720350831747055,17.93293058872223,0.0,0.0,0.0,0.0,0.0,0.0,0.0,0.0,0.0,0.0,0.0,0.0,0.0,0.0,0.0,0.0,False,0,3.574204683303833,0.02494189453125
STABILIZE,0.13503360748291016,29.6030207855454,0.032436402638753255,0.0329127311706543,0.0,0.0,0.0,0.4705438981966375,-1.2515364360347507,0.48338305301067475,-0.020532415579481923,0.024045511337113138,0.004388806737370499,0.4,0.03437543749113149,0.029256947769764924,0.6400023228934365,0.021576662161950994,0.07448125397786498,-0.017179410497192293,1.0826054029166698,-0.1912522203310196,1.741296425461769,1.6720350831747055,17.93293058872223,0.0,0.0,0.0,0.0,0.0,0.0,0.0,0.0,0.0,0.0,0.0,0.0,0.0,0.0,0.0,0.0,False,1,3.605518341064453,0.02494189453125
STABILIZE,0.16849732398986816,29.883538171066224,0.03243378003438314,0.03255462646484375,0.0,0.0,0.0,0.4708258569433121,-1.2519710068206926,0.4835829961264563,-0.017586500265999734,0.020001092223240306,0.003930459680730667,0.4,0.0336746009047164,0.02952721376342416,0.6330239946752154,0.01922063681297685,0.2449419815093279,0.09415684035047889,1.0905712842941284,-0.013048262656302777,8.213759958744049,1.6287069767713547,15.216395258903503,0.0,0.0,0.0,0.0,0.0,0.0,0.0,0.0,0.0,0.0,0.0,0.0,0.0,0.0,0.0,0.0,False,0,3.662877082824707,0.06485009765625
STABILIZE,0.2047584056854248,27.578138972174006,0.032441171010335286,0.03530311584472656,0.0,0.0,0.0,0.47109031333023854,-1.2519633228578764,0.48370519247957605,-0.004686548553609083,0.009198255827484845,0.0037424891235600713,0.4,0.038174834564958814,0.031073226979406128,0.6475369663654303,0.01821486480563415,0.2449419815093279,0.09415684035047889,1.0905712842941284,-0.013048262656302777,8.213759958744049,1.6287069767713547,15.216395258903503,0.0,0.0,0.0,0.0,0.0,0.0,0.0,0.0,0.0,0.0,0.0,0.0,0.0,0.0,0.0,0.0,False,0,3.6917896270751953,0.06485009765625
STABILIZE,0.24465537071228027,25.06396405010039,0.032347710927327473,0.03905177116394043,0.0,0.0,0.0,0.47101656863154356,-1.2518874437250658,0.48310397575005626,-0.0047930323027416295,0.007448370345841804,0.0038471982995255095,0.4,0.03718020964836995,0.031251821177308084,0.6607189475640173,0.01866374199435363,-0.036929696216247976,0.02832955215126276,1.140599325299263,0.06175183366757784,-0.5616702139377594,-0.29918227810412645,16.52177721261978,0.0,0.0,0.0,0.0,0.0,0.0,0.0,0.0,0.0,0.0,0.0,0.0,0.0,0.0,0.0,0.0,False,0,3.720341920852661,0.0349189453125
STABILIZE,0.278214693069458,29.799249744230988,0.032488377888997395,0.03262805938720703,0.0,0.0,0.0,0.4713286228992485,-1.2517218116376931,0.48387029095841994,-0.004901583009829989,0.005941220160581297,0.003926085761151942,0.4,0.03477342034367108,0.030448195066412092,0.6548926835237592,0.01899459459203812,-0.036929696216247976,0.02832955215126276,1.140599325299263,0.06175183366757784,-0.5616702139377594,-0.29918227810412645,16.52177721261978,0.0,0.0,0.0,0.0,0.0,0.0,0.0,0.0,0.0,0.0,0.0,0.0,0.0,0.0,0.0,0.0,False,1,3.7488837242126465,0.0349189453125
STABILIZE,0.3144083023071289,27.630279115420848,0.03236821492513021,0.035187721252441406,0.0,0.0,0.0,0.4712749418812404,-1.2519574531640585,0.48481803306661214,-0.004779876623898571,0.005429353833907661,0.004279178197068636,0.4,0.033666747133224706,0.028879707280151063,0.6618072130350271,0.0206853095056959,-0.015153246931731701,0.030694881570525467,1.0695243254303932,0.04338638880433914,-4.663772135972977,-0.30438241083174944,14.748024940490723,0.0,0.0,0.0,0.0,0.0,0.0,0.0,0.0,0.0,0.0,0.0,0.0,0.0,0.0,0.0,0.0,False,0,3.80614972114563,0.034919189453125
STABILIZE,0.3521890640258789,26.46782946714794,0.03231671651204427,0.03680872917175293,0.0,0.0,0.0,0.47177834816741154,-1.2520716453892446,0.4857345057150103,-0.0044306217477655474,0.0038442237888159617,0.005240730933878731,0.4,0.03018120813016296,0.028435073314101986,0.6512223055877191,0.025397021398853806,-0.08398373029194772,0.04558943910524249,0.9684262797236443,0.2649470399687614,0.21173572167754173,-0.23254761472344398,16.131341457366943,0.0,0.0,0.0,0.0,0.0,0.0,0.0,0.0,0.0,0.0,0.0,0.0,0.0,0.0,0.0,0.0,False,0,3.834929943084717,0.029930908203125
STABILIZE,0.38553571701049805,29.986301957476016,0.03235653241475423,0.03248286247253418,0.0,0.0,0.0,0.47198346728592344,-1.2521777267647913,0.48656448042087264,-0.0035340723487099273,0.00012237396390612823,0.006128084608304616,0.4,0.02681114865323761,0.027924690848864942,0.6386605979054614,0.02973441638705456,-0.08398373029194772,0.04558943910524249,0.9684262797236443,0.2649470399687614,0.21173572167754173,-0.23254761472344398,16.131341457366943,0.0,0.0,0.0,0.0,0.0,0.0,0.0,0.0,0.0,0.0,0.0,0.0,0.0,0.0,0.0,0.0,False,0,3.863635301589966,0.029930908203125
STABILIZE,0.41939592361450195,29.535064185168753,0.032468589146931966,0.032964468002319336,0.0,0.0,0.0,0.4727210209945791,-1.2517929950154492,0.4852582601029606,-0.002512825402999485,0.001426261770820632,0.00609071800331722,0.4,0.028440426614838782,0.026275666300794538,0.6319442585299597,0.029447992611044426,0.152806646656245,-0.013014669821131974,1.202397421002388,0.04784959726182513,-1.1754143983125687,-0.35817332100123167,13.00271600484848,0.0,0.0,0.0,0.0,0.0,0.0,0.0,0.0,0.0,0.0,0.0,0.0,0.0,0.0,0.0,0.0,False,0,3.893014907836914,0.069837890625
STABILIZE,0.45285463333129883,29.88609335698966,0.03242925008138021,0.03255605697631836,0.0,0.0,0.0,0.4725735315971891,-1.2513708039473779,0.48512261681491237,-0.001071673153492946,0.0024499665766830984,0.006426680899740038,0.4,0.028461865539413433,0.023249140878002682,0.6263188083625515,0.03102400993657688,0.060771091375499964,-0.02179029688704759,0.8855044841766357,0.06061784884258383,7.431115955114365,-0.10073032462969422,20.32873034477234,0.0,0.0,0.0,0.0,0.0,0.0,0.0,0.0,0.0,0.0,0.0,0.0,0.0,0.0,0.0,0.0,False,0,3.949774742126465,0.029930908203125
STABILIZE,0.48642706871032715,29.786129220105956,0.03241852124532064,0.03273177146911621,0.0,0.0,0.0,0.4724785492790436,-1.2514090103180475,0.48529651983448324,-0.001381509516948532,0.003867061654069512,0.0066603902551159964,0.4,0.030140854631878416,0.0227345300269126,0.6174111904416285,0.03208467007651022,0.15527697978541255,0.0363971630576998,1.0986847802996635,0.12082676678903959,3.5877488553524017,0.005962938303127885,23.34500551223755,0.0,0.0,0.0,0.0,0.0,0.0,0.0,0.0,0.0,0.0,0.0,0.0,0.0,0.0,0.0,0.0,False,0,3.9784669876098633,0.034919189453125
STABILIZE,0.5199005603790283,29.874385675009616,0.03248289426167806,0.03259682655334473,0.0,0.0,0.0,0.4733704225742592,-1.2506999513048356,0.4857576643251649,-0.00016613773195167577,0.003477157125146524,0.006172558259414885,0.4,0.027279112834431896,0.020386149341493548,0.6119527923665423,0.029546697857362247,-0.07513415766879916,-0.05948888137936592,1.095382310450077,-0.06907571744853558,3.5329345613718033,-0.10849885875359178,19.594238698482513,0.0,0.0,0.0,0.0,0.0,0.0,0.0,0.0,0.0,0.0,0.0,0.0,0.0,0.0,0.0,0.0,False,0,4.007192850112915,0.0349189453125
STABILIZE,0.5534746646881104,29.785706169753436,0.03132465680440267,0.031473636627197266,0.0,0.0,0.0,0.4729897462497368,-1.2501437177743027,0.4860234547334136,0.0009523277514711789,0.003259197760496183,0.005693748635636923,0.4,0.02450188221123122,0.01811739437644574,0.6070115572486362,0.027062050701411915,-0.07513415766879916,-0.05948888137936592,1.095382310450077,-0.06907571744853558,3.5329345613718033,-0.10849885875359178,19.594238698482513,0.0,0.0,0.0,0.0,0.0,0.0,0.0,0.0,0.0,0.0,0.0,0.0,0.0,0.0,0.0,0.0,False,0,4.0359132289886475,0.0349189453125
STABILIZE,0.5886054039001465,28.4652930477509,0.03233054478963216,0.0342409610748291,0.0,0.0,0.0,0.47367468615744207,-1.2508653699487968,0.48608167142391734,-0.00013215361962476717,0.004050798976897016,0.0052436462767283054,0.4,0.0270792492514299,0.01882039539514503,0.6020106061371521,0.024724467811973495,0.19474676810204983,0.08869816665537655,1.0683740489184856,-0.06430453682859077,-0.8594182319939137,-0.3164667636156082,13.974612951278687,0.0,0.0,0.0,0.0,0.0,0.0,0.0,0.0,0.0,0.0,0.0,0.0,0.0,0.0,0.0,0.0,False,0,4.064545631408691,0.064848876953125
STABILIZE,0.6225831508636475,29.430201309317486,0.032444270451863606,0.03307986259460449,0.0,0.0,0.0,0.4740081914880091,-1.250888742002363,0.4863836938512789,-0.00203404543077556,0.005109063039026572,0.005182805630714097,0.4,0.02890668324411081,0.019906303869475395,0.618639430706604,0.024337624201605342,0.12194979935884476,0.09778449311852455,1.3477528467774391,0.005250364413956818,-1.9154898822307587,-0.10957815684378147,19.32966858148575,0.0,0.0,0.0,0.0,0.0,0.0,0.0,0.0,0.0,0.0,0.0,0.0,0.0,0.0,0.0,0.0,False,1,4.093230724334717,0.034919189453125
STABILIZE,0.6560897827148438,29.84462565284834,0.0324278195699056,0.032562255859375,0.0,0.0,0.0,0.47331706172136845,-1.2505818103765356,0.4857789553054683,-0.0014124469192605136,0.0027350738303185246,0.005542955977265746,0.4,0.026053379468711023,0.018482919143975634,0.6118698361073136,0.026051189655203085,-0.13519562780857086,-0.06940072635188699,1.0474040172994137,0.1914066733197118,1.081110630184412,-0.2135974820703268,15.9581258893013,0.0,0.0,0.0,0.0,0.0,0.0,0.0,0.0,0.0,0.0,0.0,0.0,0.0,0.0,0.0,0.0,False,0,4.15064811706543,0.034919921875
STABILIZE,0.6895344257354736,29.900367846245974,0.03234842618306478,0.03249168395996094,0.0,0.0,0.0,0.47257385176230643,-1.250859500254979,0.48522896499472357,-0.0022840593920514024,0.004636291085113766,0.005819009645038137,0.4,0.02724340853400154,0.018287592068582038,0.6075962019625627,0.02733994036379606,0.12152581475675106,0.03758333623409271,1.117691583931446,0.11979712911187339,-3.3255595713853836,1.719883643090725,16.757488250732422,0.0,0.0,0.0,0.0,0.0,0.0,0.0,0.0,0.0,0.0,0.0,0.0,0.0,0.0,0.0,0.0,False,0,4.1792614459991455,0.029929931640625
STABILIZE,0.7230172157287598,29.865664096155626,0.0323975404103597,0.03253054618835449,0.0,0.0,0.0,0.47288686652536344,-1.2509687832816991,0.4853325384101845,-0.003040331402175645,0.005383468512901441,0.005335075292765295,0.4,0.026534090977551415,0.017956312972940515,0.5974716980613349,0.02483720855105233,0.03015106194652617,0.03127492091152817,0.9351002052426338,-0.06662406640268445,2.6351723819971085,-0.43674916960299015,10.090255737304688,0.0,0.0,0.0,0.0,0.0,0.0,0.0,0.0,0.0,0.0,0.0,0.0,0.0,0.0,0.0,0.0,False,0,4.208055734634399,0.034333740234375
STABILIZE,0.7563862800598145,29.967662420245638,0.03233054478963216,0.03244924545288086,0.0,0.0,0.0,0.47388332709224484,-1.2502420084653274,0.48590744823922916,-0.00291563623414848,0.005207254917280414,0.0053828470826387444,0.4,0.027968540965886298,0.01821514794499969,0.5943191893895919,0.024992520829850314,0.13506177347153425,0.05866591818630695,1.1303624138236046,0.061728034727188574,1.4197666198015213,-0.2357330173254013,16.72457605600357,0.0,0.0,0.0,0.0,0.0,0.0,0.0,0.0,0.0,0.0,0.0,0.0,0.0,0.0,0.0,0.0,False,0,4.236759901046753,0.034919189453125
STABILIZE,0.7899327278137207,29.810262970859984,0.032441171010335286,0.03256416320800781,0.0,0.0,0.0,0.47495897516481606,-1.2507008050784818,0.4860010965360524,-0.003916058462573789,0.001608919749768317,0.005652982003006241,0.4,0.02313034517744624,0.020673637270440304,0.5879477431091717,0.026255371507453308,-0.19733356311917305,0.1738838735036552,0.9231236763298512,0.11904021875383168,-5.271695181727409,1.569262146949768,12.266981601715088,0.0,0.0,0.0,0.0,0.0,0.0,0.0,0.0,0.0,0.0,0.0,0.0,0.0,0.0,0.0,0.0,False,0,4.265511989593506,0.029930908203125
STABILIZE,0.823702335357666,29.61096246302428,0.03232911427815755,0.032853126525878906,0.0,0.0,0.0,0.4743097870285475,-1.2499776588001068,0.4857075584843005,-0.00586346502258943,2.6738388946612423e-05,0.005890942043341674,0.4,0.018373023629490337,0.022985431748754302,0.5793052169804473,0.027352626884502126,-0.19733356311917305,0.1738838735036552,0.9231236763298512,0.11904021875383168,-5.271695181727409,1.569262146949768,12.266981601715088,0.0,0.0,0.0,0.0,0.0,0.0,0.0,0.0,0.0,0.0,0.0,0.0,0.0,0.0,0.0,0.0,False,1,4.294244289398193,0.029930908203125
STABILIZE,0.857079267501831,29.961026344362534,0.032413514455159505,0.032520294189453125,0.0,0.0,0.0,0.4741158736891426,-1.2505072119041944,0.4856389897883359,-0.006692798118170268,0.0018258484079079333,0.00484178858612256,0.4,0.022267948744542937,0.02424836663411635,0.5646528849933757,0.022033218090513076,0.10200225515291095,0.07387296645902097,0.7348468992859125,-0.06070049813360495,-1.9921539351344109,1.5536333434283733,12.062282860279083,0.0,0.0,0.0,0.0,0.0,0.0,0.0,0.0,0.0,0.0,0.0,0.0,0.0,0.0,0.0,0.0,False,0,4.351735591888428,0.0349189453125
STABILIZE,0.8906702995300293,29.770695663900856,0.032468350728352864,0.03273606300354004,0.0,0.0,0.0,0.47514925996622437,-1.2504310126062663,0.48573135742468976,-0.0068146200980040315,0.001190628582990878,0.004929981597562953,0.4,0.020675014717324303,0.024214492026418923,0.56446236366047,0.022398960351342402,-0.03743071865756065,0.0403060985263437,1.1626500636339188,0.06983792387122668,-3.34528349339962,-0.25654116179794073,17.604011297225952,0.0,0.0,0.0,0.0,0.0,0.0,0.0,0.0,0.0,0.0,0.0,0.0,0.0,0.0,0.0,0.0,False,0,4.38035774230957,0.029930908203125
STABILIZE,0.9241800308227539,29.841652911377995,0.032459529240926106,0.03257560729980469,0.0,0.0,0.0,0.47608713031663175,-1.2504871482235074,0.4859761770177524,-0.006360833333958911,-0.00013845623890072536,0.004776182674817063,0.4,0.019432450986790233,0.023623072287925064,0.56273424984128,0.02155784265937419,-0.017009134171530604,0.017262541223317385,1.2099401094019413,0.005805177211781516,2.209373190999031,-0.42342678643763065,12.28492259979248,0.0,0.0,0.0,0.0,0.0,0.0,0.0,0.0,0.0,0.0,0.0,0.0,0.0,0.0,0.0,0.0,False,0,4.40908408164978,0.034919189453125
STABILIZE,0.9576566219329834,29.872257990997664,0.03239181836446126,0.03252887725830078,0.0,0.0,0.0,0.4761696261952008,-1.2503137254516126,0.48654580412236087,-0.005871632972182101,0.003118102573093357,0.004621973402598947,0.4,0.021519985198086986,0.024532730559060554,0.5615897360302704,0.02071748518121631,0.1683592447079718,0.09385892772115767,1.0692257434129715,-0.0005529475129328781,1.942552998661995,-0.4264707211405039,11.78140714764595,0.0,0.0,0.0,0.0,0.0,0.0,0.0,0.0,0.0,0.0,0.0,0.0,0.0,0.0,0.0,0.0,False,0,4.438301086425781,0.0349189453125
STABILIZE,0.9912264347076416,29.789937214125402,0.032372506459554036,0.032505035400390625,0.0,0.0,0.0,0.47601754776446226,-1.2503898180278348,0.48659206798181714,-0.004627355115459395,0.006352007600712212,0.0042457625338161884,0.4,0.023664284469528177,0.024036669643066857,0.5590170839402125,0.018773606923714024,0.1701447879895568,0.013696742826141417,0.9785650297999382,-0.06444041357037039,0.8820337243378162,-0.4417375661432743,11.679735034704208,0.0,0.0,0.0,0.0,0.0,0.0,0.0,0.0,0.0,0.0,0.0,0.0,0.0,0.0,0.0,0.0,False,0,4.467840909957886,0.02993115234375
STABILIZE,1.0244739055633545,30.077044431058717,0.03224948247273763,0.0323488712310791,0.0,0.0,0.0,0.47529034606126747,-1.2504897095444463,0.4865547153847936,-0.0037390800955812292,0.005847804980640766,0.00430129666941515,0.4,0.02557110079885117,0.023421903240662772,0.556494076443224,0.018987871129068593,0.16381994355469942,0.014912846381776035,1.1231794022023678,0.06135023988872225,3.946412354707718,-0.23745631333440542,18.372704088687897,0.0,0.0,0.0,0.0,0.0,0.0,0.0,0.0,0.0,0.0,0.0,0.0,0.0,0.0,0.0,0.0,False,0,4.496440410614014,0.034918701171875
STABILIZE,1.0581278800964355,29.715435461816945,0.032408746083577473,0.03260087966918945,0.0,0.0,0.0,0.47582416803358624,-1.2516420905234742,0.4862183819290234,-0.002819790108172611,0.006515231639986863,0.0038222341523796582,0.4,0.025570277864493726,0.021828267092766182,0.5614024256644464,0.016537106476844424,-0.21613661665469408,0.02497892128303647,1.1962875723838806,-0.05822334727017867,-5.534586310386658,-0.17618166748434305,20.530471205711365,0.0,0.0,0.0,0.0,0.0,0.0,0.0,0.0,0.0,0.0,0.0,0.0,0.0,0.0,0.0,0.0,False,0,4.55373740196228,0.02993115234375
STABILIZE,1.0915844440460205,29.88779705704208,0.03227809270222982,0.032427310943603516,0.0,0.0,0.0,0.4744446832646553,-1.2507000580265415,0.48743319510593364,-0.002585561636740851,0.005391121486986538,0.0028439153274418287,0.4,0.022770278955787177,0.021006087991619255,0.5572180101303239,0.011606672113635285,-0.110363878775388,0.00020770510218426352,0.995912216603756,-0.2458306211423651,-4.519412666559219,-0.2942576538771391,15.221349895000458,0.0,0.0,0.0,0.0,0.0,0.0,0.0,0.0,0.0,0.0,0.0,0.0,0.0,0.0,0.0,0.0,False,0,4.5825018882751465,0.0349189453125
STABILIZE,1.125117301940918,29.821920437982154,0.032299073537190755,0.0325932502746582,0.0,0.0,0.0,0.47467979118249176,-1.2510869242099991,0.4877256659406277,-0.001790643081803584,0.0029539754588542343,0.00186590226261028,0.4,0.020099535378009424,0.020296484188324807,0.5560938130361817,0.006694109731238426,-0.110363878775388,0.00020770510218426352,0.995912216603756,-0.2458306211423651,-4.519412666559219,-0.2942576538771391,15.221349895000458,0.0,0.0,0.0,0.0,0.0,0.0,0.0,0.0,0.0,0.0,0.0,0.0,0.0,0.0,0.0,0.0,False,0,4.611226558685303,0.0349189453125
STABILIZE,1.1585638523101807,29.897597103122838,0.03237632115681966,0.032512664794921875,0.0,0.0,0.0,0.47452707242151854,-1.250973692480165,0.48818510288401684,-0.0028588187118051634,0.00230185212375784,0.0015102743513377625,0.4,0.020511189642227402,0.021754230807802342,0.5569295990413619,0.004899579617223083,0.07159019005484879,0.12767051812261343,1.1092540808022022,-0.06286146593333385,2.185957320034504,1.6481557860970497,15.08573293685913,0.0,0.0,0.0,0.0,0.0,0.0,0.0,0.0,0.0,0.0,0.0,0.0,0.0,0.0,0.0,0.0,False,0,4.639935493469238,0.034918701171875
STABILIZE,1.1920356750488281,29.875449630679594,0.032395156224568684,0.032510995864868164,0.0,0.0,0.0,0.47523762553861143,-1.2515232025432337,0.4884223985968219,-0.003815962264785302,0.0017885840583935471,0.0011728548113426368,0.4,0.020992525131305752,0.022937404270451225,0.5561568667490018,0.003201774003733658,0.07432664278894663,0.11040715035051107,1.0119639337062836,-0.05996553909642117,2.4231337010860443,1.5971856191754341,12.559826672077179,0.0,0.0,0.0,0.0,0.0,0.0,0.0,0.0,0.0,0.0,0.0,0.0,0.0,0.0,0.0,0.0,False,0,4.672191143035889,0.02993115234375
STABILIZE,1.225489854812622,29.891418064681652,0.03235820134480794,0.03249788284301758,0.0,0.0,0.0,0.4757326008100258,-1.2514511653918312,0.4887569711444467,-0.005103386810790024,0.0020364107264794966,0.0008733573037212176,0.4,0.021408149933835198,0.023989213014032642,0.5527362190425283,0.0016986028760861147,0.07432664278894663,0.11040715035051107,1.0119639337062836,-0.05996553909642117,2.4231337010860443,1.5971856191754341,12.559826672077179,0.0,0.0,0.0,0.0,0.0,0.0,0.0,0.0,0.0,0.0,0.0,0.0,0.0,0.0,0.0,0.0,False,0,4.700745344161987,0.02993115234375
STABILIZE,1.259202480316162,29.663526549548784,0.03236368497212728,0.03283834457397461,0.0,0.0,0.0,0.47680067164148654,-1.2523628889243221,0.4884978508428094,-0.007614547083388933,0.002667473581065227,0.00029312628635849627,0.4,0.020478741155285564,0.027689480568147684,0.5637669213773349,-0.0011985061882236027,-0.13159816153347492,0.15009366907179356,0.7600302342325449,-0.1180788162672995,-2.7910862118005753,1.3733730651438236,7.782511413097382,0.0,0.0,0.0,0.0,0.0,0.0,0.0,0.0,0.0,0.0,0.0,0.0,0.0,0.0,0.0,0.0,False,0,4.758041620254517,0.02993017578125
STABILIZE,1.2926936149597168,29.858860547728714,0.03245428403218587,0.032584190368652344,0.0,0.0,0.0,0.47634422290585926,-1.2523308724125877,0.4883272028352648,-0.008905909565570679,0.0018568066425207943,-0.00018694413621842432,0.4,0.017204695886526334,0.029375659363395708,0.5544053839349323,-0.0035868519407697974,-0.13159816153347492,0.15009366907179356,0.7600302342325449,-0.1180788162672995,-2.7910862118005753,1.3733730651438236,7.782511413097382,0.0,0.0,0.0,0.0,0.0,0.0,0.0,0.0,0.0,0.0,0.0,0.0,0.0,0.0,0.0,0.0,False,0,4.78883695602417,0.02993017578125
STABILIZE,1.3261020183563232,29.931734330509745,0.03240707715352376,0.03252840042114258,0.0,0.0,0.0,0.47565448052139375,-1.250959071606473,0.48906753130827074,-0.008350303907106242,0.004044596443211796,0.0002820251299528134,0.4,0.021208729032018606,0.029461408530494542,0.5529446379574455,-0.0012378676421751218,0.27510456275194883,0.06115471478551626,1.1730880476534367,0.14574700546052202,7.364527881145477,-0.2298199338838458,18.29979121685028,0.0,0.0,0.0,0.0,0.0,0.0,0.0,0.0,0.0,0.0,0.0,0.0,0.0,0.0,0.0,0.0,False,0,4.817511320114136,0.034919921875
STABILIZE,1.3595914840698242,29.860773732397373,0.03243592580159505,0.03255581855773926,0.0,0.0,0.0,0.4753045400481364,-1.2508329265502394,0.4893904711899654,-0.007698494076868187,0.004432883465170313,0.00021225679211620067,0.4,0.022205735454147765,0.029188891230513672,0.5518749975012588,-0.0015814195383819034,0.10046148672699928,0.028978558839298785,1.0259134694933891,-0.0006912765089861148,3.488250821828842,-0.36969154607504606,15.114960074424744,0.0,0.0,0.0,0.0,0.0,0.0,0.0,0.0,0.0,0.0,0.0,0.0,0.0,0.0,0.0,0.0,False,0,4.846327066421509,0.069837890625
STABILIZE,1.3930041790008545,29.928103549155882,0.03239897092183431,0.03251028060913086,0.0,0.0,0.0,0.47561445988172574,-1.2501510815720016,0.49047033476991503,-0.007852041292044408,0.005343595605589847,3.0509849340313536e-06,0.4,0.02404200822142204,0.03019039544559068,0.5686389196576289,-0.002618695186749134,0.10046148672699928,0.028978558839298785,1.0259134694933891,-0.0006912765089861148,3.488250821828842,-0.36969154607504606,15.114960074424744,0.0,0.0,0.0,0.0,0.0,0.0,0.0,0.0,0.0,0.0,0.0,0.0,0.0,0.0,0.0,0.0,False,0,4.875125169754028,0.069837890625
STABILIZE,1.426457166671753,29.892057157110788,0.03242495854695638,0.03255009651184082,0.0,0.0,0.0,0.47596226592086743,-1.2510541606463244,0.4909834527313122,-0.0066034965630647246,0.008357165705164206,0.00011549821859608775,0.4,0.02850137673386367,0.030669438191205715,0.5857062136906142,-0.0020496029241009084,0.216090795584023,0.01972078316612169,1.1379375122487545,0.06529708871299791,7.672811299562454,-0.2442969474941492,18.855546414852142,0.0,0.0,0.0,0.0,0.0,0.0,0.0,0.0,0.0,0.0,0.0,0.0,0.0,0.0,0.0,0.0,False,0,4.903724431991577,0.02993115234375
STABILIZE,1.4599215984344482,29.883112349223765,0.03241685231526693,0.03255295753479004,0.0,0.0,0.0,0.4759877724085492,-1.2506860774830841,0.49211256837847994,-0.006012864408924308,0.01004025358678707,0.00034631966758090537,0.4,0.029028209423490162,0.030856943461940574,0.5767212228882573,-0.0008925093516497771,0.08795305620878935,0.07969437865540385,0.9548492729663849,0.05553295309838784,-0.6752615794539452,-0.3921014256775379,15.84530770778656,0.0,0.0,0.0,0.0,0.0,0.0,0.0,0.0,0.0,0.0,0.0,0.0,0.0,0.0,0.0,0.0,False,0,4.93238377571106,0.0349189453125
STABILIZE,1.4960694313049316,27.66435817272811,0.03241017659505208,0.035314321517944336,0.0,0.0,0.0,0.4758541568329108,-1.2504329335969704,0.49258609258703223,-0.006190708641725811,0.00877194810242125,0.0005626756778928284,0.4,0.02975478387634741,0.031232514335065062,0.5711505625255302,0.00018858778643112252,0.08795305620878935,0.07969437865540385,0.9548492729663849,0.05553295309838784,-0.6752615794539452,-0.3921014256775379,15.84530770778656,0.0,0.0,0.0,0.0,0.0,0.0,0.0,0.0,0.0,0.0,0.0,0.0,0.0,0.0,0.0,0.0,False,1,4.96156644821167,0.0349189453125
STABILIZE,1.5296075344085693,29.817256357212425,0.03249243100484212,0.03262925148010254,0.0,0.0,0.0,0.47517636727949286,-1.251542625893686,0.4928943048733291,-0.005731014483203467,0.006220305852906237,0.0010463141964409087,0.4,0.026121284177504443,0.030249938382724554,0.5635912472310793,0.0025980850441134906,0.01206751330755651,0.10791511740535498,1.0116379708051682,0.0669691110176891,-4.290862008929253,-0.3678901353850961,17.09708273410797,0.0,0.0,0.0,0.0,0.0,0.0,0.0,0.0,0.0,0.0,0.0,0.0,0.0,0.0,0.0,0.0,False,0,5.019099473953247,0.029929931640625
STABILIZE,1.5631535053253174,29.81174614230985,0.03240636189778646,0.03253293037414551,0.0,0.0,0.0,0.47553548581944743,-1.25090880568305,0.49284617338402165,-0.005770335131539389,0.004918788425793779,0.001292045577008186,0.4,0.025211123471615957,0.031022307899367007,0.5577061439218229,0.003813984846793894,0.01206751330755651,0.10791511740535498,1.0116379708051682,0.0669691110176891,-4.290862008929253,-0.3678901353850961,17.09708273410797,0.0,0.0,0.0,0.0,0.0,0.0,0.0,0.0,0.0,0.0,0.0,0.0,0.0,0.0,0.0,0.0,False,0,5.047782897949219,0.029929931640625
STABILIZE,1.5966212749481201,29.87821627012395,0.0322907288869222,0.03244900703430176,0.0,0.0,0.0,0.47661070700519553,-1.2510937543991691,0.4936099806322995,-0.006040531908987201,0.006672257440948276,0.001508838289385927,0.4,0.03135887065147961,0.03181494840598783,0.5471600362600866,0.00488160413439544,0.38083374965935946,0.10987069690600038,0.7351554464548826,0.06190466582036349,6.147989258170128,-0.5431395024061203,15.726380050182343,0.0,0.0,0.0,0.0,0.0,0.0,0.0,0.0,0.0,0.0,0.0,0.0,0.0,0.0,0.0,0.0,False,0,5.076507329940796,0.029929931640625
STABILIZE,1.6300022602081299,29.956104703067528,0.03231862386067708,0.03246450424194336,0.0,0.0,0.0,0.4770227595112177,-1.2508181989548415,0.4934125454766038,-0.0064238056784081095,0.009938889034666245,0.0017178369548824716,0.4,0.037277028540406806,0.03259148231694788,0.5373548634309431,0.0059068325540025295,0.38083374965935946,0.10987069690600038,0.7351554464548826,0.06190466582036349,6.147989258170128,-0.5431395024061203,15.726380050182343,0.0,0.0,0.0,0.0,0.0,0.0,0.0,0.0,0.0,0.0,0.0,0.0,0.0,0.0,0.0,0.0,False,0,5.10496973991394,0.029929931640625
STABILIZE,1.663748025894165,29.633347463614527,0.03241136868794759,0.03282618522644043,0.0,0.0,0.0,0.4760722959995281,-1.2519457137764225,0.4937144611822595,-0.0032339232848798208,0.010097277997155851,0.0012451157813436389,0.4,0.03801816499618888,0.02738290721683556,0.5336165546176921,0.0035313190725762035,0.21975233685225248,-0.20683754701167345,0.8150643669068813,0.0042894788606870115,-0.8188891224563122,1.470083836466074,16.618889570236206,0.0,0.0,0.0,0.0,0.0,0.0,0.0,0.0,0.0,0.0,0.0,0.0,0.0,0.0,0.0,0.0,False,0,5.162505865097046,0.034919921875
STABILIZE,1.6971583366394043,29.92981204241533,0.03239944775899251,0.032510995864868164,0.0,0.0,0.0,0.4768762306091798,-1.2518667397141443,0.4939111492860147,-0.0008463572657102694,0.013407740286750817,0.0012471926899038624,0.4,0.0410518826509577,0.022620786072273028,0.528956792960265,0.0035298910356082354,0.21975233685225248,-0.20683754701167345,0.8150643669068813,0.0042894788606870115,-0.8188891224563122,1.470083836466074,16.618889570236206,0.0,0.0,0.0,0.0,0.0,0.0,0.0,0.0,0.0,0.0,0.0,0.0,0.0,0.0,0.0,0.0,False,0,5.191147089004517,0.034919921875
STABILIZE,1.730712890625,29.80263756252842,0.03243068059285482,0.0325627326965332,0.0,0.0,0.0,0.4767350377924309,-1.2517244796803375,0.49356286299919694,-0.0009271397134722079,0.01392677899126877,0.0014996286207269098,0.4,0.04127708147927702,0.023301213126326856,0.5303675465910223,0.004776103445163048,0.06629250710830092,0.09438840206712484,1.1446047574281693,0.07389917836410007,3.3385012298822403,-0.6175993010401726,12.026207149028778,0.0,0.0,0.0,0.0,0.0,0.0,0.0,0.0,0.0,0.0,0.0,0.0,0.0,0.0,0.0,0.0,False,0,5.219811677932739,0.02979833984375
STABILIZE,1.7641174793243408,29.93707531547993,0.032324822743733723,0.03245711326599121,0.0,0.0,0.0,0.4783688403862391,-1.2508856470728953,0.4934831952458311,-0.0011348874374961934,0.01302998999063907,0.002132526668028542,0.4,0.04411174672519544,0.02421091940288783,0.5216568944005574,0.007914114829345965,0.23550738114863634,0.11028501903638244,0.7087131962180138,0.1850269964904422,5.23991733789444,1.4366763643920422,14.942702651023865,0.0,0.0,0.0,0.0,0.0,0.0,0.0,0.0,0.0,0.0,0.0,0.0,0.0,0.0,0.0,0.0,False,0,5.24849009513855,0.034919921875
STABILIZE,1.7975916862487793,29.873534565034685,0.03233197530110677,0.032536983489990234,0.0,0.0,0.0,0.47804835510377747,-1.2524262816175564,0.4932573721163976,-0.0014067268283136883,0.012465197457641129,0.0023551606066223563,0.4,0.047352709716338134,0.02522009501660869,0.5216644657154514,0.008997136646223869,0.23977092932909727,0.11059957323595881,1.0388458147644997,0.06582957666399446,4.971689358353615,1.5136915259063244,17.43839681148529,0.0,0.0,0.0,0.0,0.0,0.0,0.0,0.0,0.0,0.0,0.0,0.0,0.0,0.0,0.0,0.0,False,0,5.277242183685303,0.034919189453125
STABILIZE,1.8311188220977783,29.827222301237377,0.03242019017537435,0.032552242279052734,0.0,0.0,0.0,0.4773899889008117,-1.252104622396331,0.49399359180373087,-0.001934329725906138,0.010294831556043023,0.0016735016845500585,0.4,0.04417695295460483,0.022438026436983876,0.5177019027059808,0.005570203525539919,-0.12200467754155397,-0.10577455395832658,0.8071404881775379,-0.18934862526499588,-2.998829632997513,-0.642631808295846,13.021281361579895,0.0,0.0,0.0,0.0,0.0,0.0,0.0,0.0,0.0,0.0,0.0,0.0,0.0,0.0,0.0,0.0,False,0,5.306133270263672,0.029929931640625
STABILIZE,1.864497423171997,29.958458329762006,0.03234461148579915,0.032520294189453125,0.0,0.0,0.0,0.4770182771995749,-1.2524216925842078,0.4948311971115566,-0.004031283906985884,0.01013449229358229,0.0014064806279418906,0.4,0.046051657833694915,0.022611298777880803,0.5174515527126015,0.004220969084514898,0.15483531169593334,-0.014893955085426569,1.0518641211092472,-0.18310908737563056,2.9701653867959976,-0.5847156047821045,14.253097772598267,0.0,0.0,0.0,0.0,0.0,0.0,0.0,0.0,0.0,0.0,0.0,0.0,0.0,0.0,0.0,0.0,False,0,5.363349676132202,0.0349189453125
STABILIZE,1.8980274200439453,29.823828891606702,0.03247693379720052,0.032633066177368164,0.0,0.0,0.0,0.4768592618579605,-1.2537137722761038,0.495431133180607,-0.0039402790826096115,0.010324957115352612,0.0018370162214686242,0.4,0.04652561713815134,0.022935230406073884,0.5156815847498776,0.006352369972558371,0.09188915137201548,0.06887034978717566,0.9009880945086479,0.13170585741448151,1.6337772831320763,-0.5621655378490686,14.087489247322083,0.0,0.0,0.0,0.0,0.0,0.0,0.0,0.0,0.0,0.0,0.0,0.0,0.0,0.0,0.0,0.0,False,0,5.392015695571899,0.02993017578125
STABILIZE,1.9315381050109863,29.841440595362602,0.032425912221272786,0.032561540603637695,0.0,0.0,0.0,0.4765287447351554,-1.255072659755819,0.4949535001863821,-0.0038634993775480907,0.009672337507993387,0.002449503897024671,0.4,0.04742200591749839,0.023445667134776502,0.5122229402294228,0.009383404412341416,0.13852784177288413,0.08407167042605579,0.9386058896780014,0.1884099278213687,0.9289225563406944,1.2973470613360405,10.853703320026398,0.0,0.0,0.0,0.0,0.0,0.0,0.0,0.0,0.0,0.0,0.0,0.0,0.0,0.0,0.0,0.0,False,0,5.4205121994018555,0.034920166015625
STABILIZE,1.9649600982666016,29.919777436958306,0.03237489064534505,0.03250384330749512,0.0,0.0,0.0,0.47585533077167447,-1.2547653012431683,0.494991653196199,-0.003809992388641912,0.009047353384924904,0.0030778897141952814,0.4,0.048649984362456475,0.02406496742815229,0.5114700778353433,0.01248358349173999,0.13852784177288413,0.08407167042605579,0.9386058896780014,0.1884099278213687,0.9289225563406944,1.2973470613360405,10.853703320026398,0.0,0.0,0.0,0.0,0.0,0.0,0.0,0.0,0.0,0.0,0.0,0.0,0.0,0.0,0.0,0.0,False,0,5.449182987213135,0.034920166015625
STABILIZE,1.9984097480773926,29.897383990305794,0.03239897092183431,0.0325164794921875,0.0,0.0,0.0,0.4765509428499579,-1.2543045836393099,0.4934638786170847,-0.005122706223439618,0.0115480108553489,0.0024658476926043013,0.4,0.05062925822002045,0.02431218414519728,0.5114065227502314,0.009391968550058753,0.1846002647653222,0.061623944202438,0.9769012220203876,-0.17356591238273436,2.519349381327629,1.2987006455659866,11.128633469343185,0.0,0.0,0.0,0.0,0.0,0.0,0.0,0.0,0.0,0.0,0.0,0.0,0.0,0.0,0.0,0.0,False,0,5.478193044662476,0.034918701171875
STABILIZE,2.031895637512207,29.860773732397373,0.03238085110982259,0.03250718116760254,0.0,0.0,0.0,0.47599919163106785,-1.254942245831354,0.49388297475568843,-0.00577611287936433,0.011200040676488878,0.0014556801267279578,0.4,0.05135877346525984,0.025543023359482886,0.5092349921738942,0.00432663301179906,0.11347474064677954,0.11872894829139113,0.8516053669154644,-0.28559109997213983,1.0745750740170479,1.3626376166939735,11.346568167209625,0.0,0.0,0.0,0.0,0.0,0.0,0.0,0.0,0.0,0.0,0.0,0.0,0.0,0.0,0.0,0.0,False,0,5.506784200668335,0.02993017578125
STABILIZE,2.0654470920562744,29.807085243222115,0.03235939343770345,0.03268241882324219,0.0,0.0,0.0,0.4762963048599634,-1.255499973465768,0.4940234738813497,-0.005787860962852786,0.010243662769906585,0.0008000931265694361,0.4,0.05005527952136216,0.025788863040187307,0.5040483793756125,0.0010451900999071601,-0.002804926953103859,0.0032991243642754853,1.0597349144518375,0.11561538581317275,3.667834773659706,-0.5212267395108938,14.384734630584717,0.0,0.0,0.0,0.0,0.0,0.0,0.0,0.0,0.0,0.0,0.0,0.0,0.0,0.0,0.0,0.0,False,0,5.564232110977173,0.0349189453125
STABILIZE,2.098917007446289,29.87736494187372,0.032451661427815755,0.03258657455444336,0.0,0.0,0.0,0.4777673568524549,-1.2554791627331405,0.49512943091836287,-0.005716126093041458,0.011523149985197741,0.0005662942361841853,0.4,0.052855560286421875,0.026024334521592706,0.5060174965266779,-0.0001233913269891334,0.24150388780981302,0.05912992055527866,1.0618451051414013,-0.057308141942036636,3.0522864311933517,-0.52021867595613,13.901160657405853,0.0,0.0,0.0,0.0,0.0,0.0,0.0,0.0,0.0,0.0,0.0,0.0,0.0,0.0,0.0,0.0,False,0,5.593480587005615,0.0349189453125
STABILIZE,2.13252854347229,29.752956281788453,0.03244069417317708,0.03264808654785156,0.0,0.0,0.0,0.4777476133368853,-1.2560675194971136,0.49529922515226116,-0.005843452529378209,0.014074534644776572,0.0013810234902087528,0.4,0.05806109437826304,0.026674592754193954,0.5033508170922207,0.003937051663471954,0.3850701730698347,0.0840426073409617,0.7850197143852711,0.25313433452093015,9.315299242734909,-0.7012099027633667,8.916548639535904,0.0,0.0,0.0,0.0,0.0,0.0,0.0,0.0,0.0,0.0,0.0,0.0,0.0,0.0,0.0,0.0,False,0,5.622229099273682,0.034920166015625
STABILIZE,2.1658666133880615,29.994236146370415,0.03232887585957845,0.03243756294250488,0.0,0.0,0.0,0.4789850515154212,-1.2568494694353742,0.4960027879976253,-0.0036842931460155967,0.011603712402394842,0.0011620055748434647,0.4,0.05525982831617514,0.023179479850134518,0.5056749479661089,0.0028324961976796087,-0.09012289228849113,-0.16173176700249314,1.0832653380930424,-0.0571646679488267,3.1720686703920364,-0.6653536576777697,12.359554320573807,0.0,0.0,0.0,0.0,0.0,0.0,0.0,0.0,0.0,0.0,0.0,0.0,0.0,0.0,0.0,0.0,False,0,5.651379346847534,0.029930908203125
STABILIZE,2.1995186805725098,29.717961980203633,0.03244808514912923,0.03256559371948242,0.0,0.0,0.0,0.47867897366324,-1.2579157259978369,0.496057642954397,-0.003213083964191191,0.012710130366601298,0.0011042450750179738,0.4,0.05764402804092578,0.023247345397671527,0.5042359950177864,0.0025352157874054763,0.24568985681980848,0.05713414866477251,1.0014046914875507,-0.009210696858747312,-1.4020523987710476,1.4198081567883492,14.89291787147522,0.0,0.0,0.0,0.0,0.0,0.0,0.0,0.0,0.0,0.0,0.0,0.0,0.0,0.0,0.0,0.0,False,0,5.680140733718872,0.0349189453125
STABILIZE,2.232872724533081,29.978586234007576,0.032223018010457356,0.0323481559753418,0.0,0.0,0.0,0.47772818998643307,-1.2570660077764049,0.49613522963450013,-0.002704362290449706,0.01204026753446299,0.0006997975770396275,0.4,0.05556935351116023,0.022552920312778633,0.5084687677903664,0.0005112683543745901,-0.04378615412861109,0.005083787982584909,1.1822204105556011,-0.11236489611912104,-0.18618532922118902,-0.41035907343029976,20.75151354074478,0.0,0.0,0.0,0.0,0.0,0.0,0.0,0.0,0.0,0.0,0.0,0.0,0.0,0.0,0.0,0.0,False,0,5.708783388137817,0.039761474609375
STABILIZE,2.2666237354278564,29.62769572004775,0.03232863744099935,0.03279900550842285,0.0,0.0,0.0,0.4792021234649807,-1.2577648215058619,0.49699065746719134,-0.0019153763755277535,0.009644737081182471,-0.00017385198021809868,0.4,0.05346179811200942,0.021367749395575834,0.5091125570041986,-0.003843993467843895,-0.05870034801773727,-0.02794891770463437,0.8271718397736549,-0.2448555582774929,-0.4406202118843794,-0.6095189601182938,12.379839271306992,0.0,0.0,0.0,0.0,0.0,0.0,0.0,0.0,0.0,0.0,0.0,0.0,0.0,0.0,0.0,0.0,False,1,5.737420320510864,0.02494189453125
STABILIZE,2.2999677658081055,29.992520290321426,0.03237202962239583,0.03247475624084473,0.0,0.0,0.0,0.47930831156223325,-1.2573261952951,0.4975656740179418,-0.002269187664552204,0.007782962722982669,0.0003892062340806786,0.4,0.05397843762384047,0.022423687024649395,0.5152092436971208,-0.001025275233267538,-0.09717738721519709,0.18575924914330244,1.3076459057629108,0.004817591221746513,-2.2229980677366257,-0.5029277876019478,14.831818640232086,0.0,0.0,0.0,0.0,0.0,0.0,0.0,0.0,0.0,0.0,0.0,0.0,0.0,0.0,0.0,0.0,False,0,5.794768810272217,0.0349189453125
STABILIZE,2.333375930786133,29.93152073075002,0.032451899846394856,0.03256797790527344,0.0,0.0,0.0,0.4807490545902828,-1.2535414167212668,0.5039119869739415,-0.003962163800386861,0.010030492075163978,0.0007709137817521642,0.4,0.055790135519788994,0.02280660149916815,0.5187614121878605,0.0008803193996826393,0.19788395147770643,0.0666655192617327,1.1290669441223145,0.1203532425804873,6.671053171157837,-0.38995721843093634,19.82377916574478,0.0,0.0,0.0,0.0,0.0,0.0,0.0,0.0,0.0,0.0,0.0,0.0,0.0,0.0,0.0,0.0,False,0,5.823477506637573,0.02993115234375
STABILIZE,2.3669815063476562,29.75738914508691,0.03248408635457357,0.03266620635986328,0.0,0.0,0.0,0.4845899687813572,-1.25098596547633,0.5187786407544147,-0.0036302548993749784,0.009942355387542028,0.00019694189717802443,0.4,0.05732526083808731,0.022285921387271954,0.5172808559307281,-0.0019828934621676938,0.20196677651256323,0.018099939916282892,0.9886886924505234,-0.16875623190742892,1.4986013993620872,-0.7206658367067575,9.807296097278595,0.0,0.0,0.0,0.0,0.0,0.0,0.0,0.0,0.0,0.0,0.0,0.0,0.0,0.0,0.0,0.0,False,0,5.852116107940674,0.034919189453125
STABILIZE,2.4004085063934326,29.915936178255816,0.03234151204427083,0.032468557357788086,0.0,0.0,0.0,0.48678245950493126,-1.2451812651771712,0.537394534780696,-0.008668498352269578,0.004083184610750551,-0.0009517246404101427,0.4,0.04588410934005805,0.03034458114760477,0.5170707268979701,-0.007700474940465652,-0.5981812253594398,0.5267010070383549,0.8972533978521824,-0.33739779134199566,-12.755729258060455,18.88972669839859,11.055436730384827,0.0,0.0,0.0,0.0,0.0,0.0,0.0,0.0,0.0,0.0,0.0,0.0,0.0,0.0,0.0,0.0,False,0,5.8811376094818115,0.034918701171875
STABILIZE,2.4340310096740723,29.742196253066897,0.03239897092183431,0.03259086608886719,0.0,0.0,0.0,0.48336939263233475,-1.2466630960619465,0.5220628411672801,-0.013967907765843814,-0.001875373947021883,-0.0021162125681224984,0.4,0.034244180189013596,0.03851810595804482,0.5167342163562535,-0.013477721853863749,-0.5981812253594398,0.5267010070383549,0.8972533978521824,-0.33739779134199566,-12.755729258060455,18.88972669839859,11.055436730384827,0.0,0.0,0.0,0.0,0.0,0.0,0.0,0.0,0.0,0.0,0.0,0.0,0.0,0.0,0.0,0.0,False,0,5.910072088241577,0.034918701171875
STABILIZE,2.467384099960327,29.982014954179594,0.03224328358968099,0.03243374824523926,0.0,0.0,0.0,0.4815406094820638,-1.2519398440826046,0.48852346405219693,-0.018652557910938727,-0.0031132480965251493,-0.005072574704082447,0.4,0.03249165903708674,0.047214285441675476,0.5241345577131058,-0.02816535800227627,-0.0019240629626438022,0.5536168813705444,1.364382542669773,-0.8658484068479715,0.7408119272440672,-4.225826635956764,15.282198786735535,0.0,0.0,0.0,0.0,0.0,0.0,0.0,0.0,0.0,0.0,0.0,0.0,0.0,0.0,0.0,0.0,False,1,5.938556432723999,0.0349189453125
STABILIZE,2.500775098800659,29.94797683734015,0.03240564664204915,0.03252768516540527,0.0,0.0,0.0,0.4299925314857429,-1.2966530371538583,0.49376936949988404,-0.0007874448252523376,0.0028522806887340533,0.002571310141537112,0.4,0.04392102395753275,0.017134027615066393,0.5235076831205513,0.010020554749444271,0.44907378032803535,-1.5530728735029697,1.275165006518364,1.7569457819016587,9.448647499084473,-29.761630296707153,21.378543972969055,0.0,0.0,0.0,0.0,0.0,0.0,0.0,0.0,0.0,0.0,0.0,0.0,0.0,0.0,0.0,0.0,False,0,5.995975971221924,0.034919189453125
STABILIZE,2.5342750549316406,29.850572912959933,0.03244736989339193,0.03257560729980469,0.0,0.0,0.0,0.4078924939308146,-1.3249781518070185,0.519237010480746,-0.00018120645731118764,0.006717963090894929,0.0024963208983514737,0.4,0.05156731239377327,0.01572970898794082,0.5210033224080046,0.009613448903952689,0.5409946199506521,-0.02292009594384581,0.7713183760643005,-0.043536906430130654,12.845529615879059,20.70104032754898,18.955716490745544,0.0,0.0,0.0,0.0,0.0,0.0,0.0,0.0,0.0,0.0,0.0,0.0,0.0,0.0,0.0,0.0,False,0,6.024694919586182,0.029930908203125
STABILIZE,2.5677876472473145,29.841440595362602,0.032415183385213216,0.03254365921020508,0.0,0.0,0.0,0.4675435241602978,-1.2833073811241824,0.5174144705502632,-0.0035261530948670393,0.013112213367690959,0.0009858973314929424,0.4,0.05428103995511508,0.027139466913906653,0.5308651979128429,0.0020544598550683163,0.2623411361128092,0.7418361492455006,1.6778115183115005,-0.4583416585227039,1.7486773431301117,-11.984437704086304,76.7444372177124,0.0,0.0,0.0,0.0,0.0,0.0,0.0,0.0,0.0,0.0,0.0,0.0,0.0,0.0,0.0,0.0,False,0,6.053388357162476,0.0349189453125
STABILIZE,2.601250648498535,29.88162206833661,0.03234580357869466,0.03256630897521973,0.0,0.0,0.0,0.5120106169780196,-1.2228328862128894,0.51528457210713,0.008473566497796224,0.013728412164814388,0.003053352855293602,0.4,0.04704181612255271,0.012512254812226637,0.5307103626795546,0.012350308343438613,-0.3550409572198987,-0.8281244896352291,0.9029945358633995,0.6095440107785092,-25.558459758758545,-15.642966330051422,15.096116065979004,0.0,0.0,0.0,0.0,0.0,0.0,0.0,0.0,0.0,0.0,0.0,0.0,0.0,0.0,0.0,0.0,False,0,6.082038879394531,0.0349189453125
STABILIZE,2.6347672939300537,29.836345917184175,0.03242996533711751,0.03257465362548828,0.0,0.0,0.0,0.5279352030279043,-1.1566945636540693,0.5484577870496771,-0.0016828574083837119,-0.005399454716014906,0.0059188299080047205,0.4,0.013283716042102739,0.03596554346509038,0.5389810964911338,0.026588710293548277,-1.9286394119262695,1.456567458808422,1.4164332300424576,0.8377532241099174,-25.475454330444336,80.3418517112732,-37.78092563152313,0.0,0.0,0.0,0.0,0.0,0.0,0.0,0.0,0.0,0.0,0.0,0.0,0.0,0.0,0.0,0.0,False,0,6.110778093338013,0.029930908203125
STABILIZE,2.668839931488037,29.350090269127957,0.03237870534261068,0.03310990333557129,0.0,0.0,0.0,0.4937886327677776,-1.2493189724320237,0.5645071841344731,-0.027763731096407784,-0.02964776418707656,0.008696452235789085,0.4,-0.020166683997192125,0.05919033410797703,0.5443076361202253,0.04033948718674485,-1.9286394119262695,1.456567458808422,1.4164332300424576,0.8377532241099174,-25.475454330444336,80.3418517112732,-37.78092563152313,0.0,0.0,0.0,0.0,0.0,0.0,0.0,0.0,0.0,0.0,0.0,0.0,0.0,0.0,0.0,0.0,False,1,6.1394243240356445,0.029930908203125
STABILIZE,2.702258825302124,29.92233882416728,0.0323522408803304,0.03248906135559082,0.0,0.0,0.0,0.4808002810090579,-1.2728036173977606,0.5067094296867377,-0.04556216341555822,-0.008136015086069343,0.007171391568347968,0.4,0.021840170113220012,0.08839461421118625,0.5112173483840646,0.03260507437561433,0.9878876619040966,-0.5940961185842752,-2.097712643444538,3.1269884546353635,67.39851236343384,-45.57738900184631,-93.6893880367279,0.0,0.0,0.0,0.0,0.0,0.0,0.0,0.0,0.0,0.0,0.0,0.0,0.0,0.0,0.0,0.0,False,0,6.196774959564209,0.03477587890625
STABILIZE,2.7357661724090576,29.84398858696039,0.032398255666097005,0.0325624942779541,0.0,0.0,0.0,0.47946882100772853,-1.2865050835945118,0.48583386362309283,-0.012489684503384795,0.004948083593058277,0.02007709241814121,0.4,0.045997879470266276,0.04025479549645546,0.47770224524285154,0.09680947503849259,1.5230552293360233,-2.8589438647031784,-1.066095009446144,3.8513827366378717,41.8063759803772,-72.09168076515198,-12.482437491416931,0.0,0.0,0.0,0.0,0.0,0.0,0.0,0.0,0.0,0.0,0.0,0.0,0.0,0.0,0.0,0.0,False,0,6.225605249404907,0.0349189453125
STABILIZE,2.7693402767181396,29.783379607603656,0.03238037427266439,0.03273129463195801,0.0,0.0,0.0,0.4845369280935838,-1.2475981916480037,0.5933083843171244,-0.03466856784242493,0.00207598204346524,0.02362925943274089,0.4,0.03601183509963064,0.06768415681657103,0.4442824992950893,0.1141858849377247,-0.5467049777507782,1.7239678651094437,-1.0337043553590775,0.998603005124954,-28.195956349372864,108.19251537322998,-37.300896644592285,0.0,0.0,0.0,0.0,0.0,0.0,0.0,0.0,0.0,0.0,0.0,0.0,0.0,0.0,0.0,0.0,False,0,6.254222869873047,0.029930908203125
STABILIZE,2.8029677867889404,29.741141767179336,0.03248003323872884,0.03262162208557129,0.0,0.0,0.0,0.46868480608192464,-1.2595667107862758,0.5592985779229567,-0.04542283825624577,0.00605927864429683,0.012976119018385726,0.4,0.01873387321010885,0.10262298820577614,0.4580953527551942,0.06071690022007477,-0.9717816486954689,2.211553603410721,1.8941977992653847,-3.1628851541486003,-70.0587809085846,35.955506563186646,-14.255380630493164,0.0,0.0,0.0,0.0,0.0,0.0,0.0,0.0,0.0,0.0,0.0,0.0,0.0,0.0,0.0,0.0,False,0,6.283064603805542,0.034919189453125
STABILIZE,2.836350440979004,29.953537532047392,0.032273324330647786,0.03238868713378906,0.0,0.0,0.0,0.48317697339681076,-1.2417422649300698,0.41534841914225046,-0.015912909684355915,0.0032024970667658983,0.027781479464123026,0.4,-0.00948692271404565,0.06871847852235735,0.4298733265312332,0.1342949803242433,-1.625845581293106,-1.9921733066439629,-0.7530217990279198,4.4501000438082645,-14.895221590995789,-120.01031637191772,8.508327603340149,0.0,0.0,0.0,0.0,0.0,0.0,0.0,0.0,0.0,0.0,0.0,0.0,0.0,0.0,0.0,0.0,False,0,6.312347173690796,0.0349189453125
STABILIZE,2.869746446609497,29.94541105915111,0.032354148228963216,0.03247213363647461,0.0,0.0,0.0,0.4589370589192586,-1.2601512255688407,0.4926756320981829,0.01685316068083326,-0.031089690014804803,0.0428155689802927,0.4,-0.03804632627643633,0.03400913262402653,0.40141340369229134,0.20876729774614577,-1.625845581293106,-1.9921733066439629,-0.7530217990279198,4.4501000438082645,-14.895221590995789,-120.01031637191772,8.508327603340149,0.0,0.0,0.0,0.0,0.0,0.0,0.0,0.0,0.0,0.0,0.0,0.0,0.0,0.0,0.0,0.0,False,1,6.3408918380737305,0.0349189453125
STABILIZE,2.9034132957458496,29.701126634895232,0.032383235295613606,0.03275012969970703,0.0,0.0,0.0,0.3804337460851882,-1.3848416649527127,0.5614826909926269,0.0161869146461329,0.01537086533481928,0.05238049177180391,0.4,0.05849634985962715,0.0004643690474842744,0.4004800058938532,0.25573063020019826,5.407576635479927,0.6077101454138756,0.3993382677435875,-4.251659142757299,129.11795377731323,40.754634141922,2.4337252601981163,0.0,0.0,0.0,0.0,0.0,0.0,0.0,0.0,0.0,0.0,0.0,0.0,0.0,0.0,0.0,0.0,False,0,6.398202657699585,0.0349189453125
STABILIZE,2.9368906021118164,29.870343334496535,0.03243258794148763,0.03255891799926758,0.0,0.0,0.0,0.32648346921343263,-1.4119523933157858,0.6392655255909667,0.02254199238384052,0.07268210493477151,0.03811015801766633,0.4,0.14879963880686578,0.00876674657825219,0.3921065297027987,0.18376413662680557,5.407576635479927,0.6077101454138756,0.3993382677435875,-4.251659142757299,129.11795377731323,40.754634141922,2.4337252601981163,0.0,0.0,0.0,0.0,0.0,0.0,0.0,0.0,0.0,0.0,0.0,0.0,0.0,0.0,0.0,0.0,False,0,6.430967092514038,0.0349189453125
STABILIZE,2.970323085784912,29.91230922835544,0.03240779240926107,0.03252458572387695,0.0,0.0,0.0,0.30921579049628833,-1.409488722737821,0.6496031236214869,0.05608245931032613,0.09775359150411275,0.03892006004583366,0.4,0.17888955245798616,-0.023534977470532695,0.3551792127720302,0.18718763564275456,1.757611334323883,-1.8326254561543465,-1.3137486763298512,0.35409749714097105,-33.230701088905334,-81.14221096038818,-42.394110560417175,0.0,0.0,0.0,0.0,0.0,0.0,0.0,0.0,0.0,0.0,0.0,0.0,0.0,0.0,0.0,0.0,False,0,6.459729194641113,0.034919189453125
STABILIZE,3.0038607120513916,29.819164213908913,0.0324125607808431,0.03255963325500488,0.0,0.0,0.0,0.30907070233727846,-1.4030089009278888,0.5670956657473493,0.012082109545058726,0.10805155206835389,0.011810725243072985,0.4,0.17654760802853212,0.02750021254931508,0.3074626007335416,0.051468611949824966,-0.1513966592028737,3.1287532299757004,-1.943347416818142,-7.880933519096465,-139.06303644180298,-1.5489161014556885,13.677234947681427,0.0,0.0,0.0,0.0,0.0,0.0,0.0,0.0,0.0,0.0,0.0,0.0,0.0,0.0,0.0,0.0,False,0,6.488271236419678,0.064849853515625
STABILIZE,3.0373990535736084,29.815348744633056,0.032308133443196614,0.03244948387145996,0.0,0.0,0.0,0.31334954904802703,-1.3962990938419975,0.5464468299476372,-0.002448197088907913,0.14843138772589787,0.03935776180660443,0.4,0.2248218257452016,0.026827488828811478,0.2685749052412015,0.18857302908474904,1.9876670092344284,-0.01489338610554114,-1.240985468029976,7.960566694629644,5.05017451941967,-45.37464678287506,-94.96147632598877,0.0,0.0,0.0,0.0,0.0,0.0,0.0,0.0,0.0,0.0,0.0,0.0,0.0,0.0,0.0,0.0,False,0,6.5169782638549805,0.0349189453125
STABILIZE,3.0707595348358154,29.97387302404025,0.03225711186726888,0.03238415718078613,0.0,0.0,0.0,0.28175010573978615,-1.4186334922628219,0.6639352083777008,-0.015850213824734605,0.12795357264310275,0.06799987059052995,0.4,0.258291784151396,0.025475709401207948,0.23058533737623854,0.3306776884676013,1.9876670092344284,-0.01489338610554114,-1.240985468029976,7.960566694629644,5.05017451941967,-45.37464678287506,-94.96147632598877,0.0,0.0,0.0,0.0,0.0,0.0,0.0,0.0,0.0,0.0,0.0,0.0,0.0,0.0,0.0,0.0,False,0,6.545627593994141,0.0349189453125
STABILIZE,3.104095458984375,29.99745390568008,0.032352479298909505,0.03245735168457031,0.0,0.0,0.0,0.2549422002168679,-1.4426495046016445,0.6037896831244792,0.002904970843598167,0.08152395612301822,0.051935909834397075,0.4,0.24339075493042217,0.00018682719414235896,0.26501875686810616,0.2495243291826364,-0.6393733434379101,-1.3278930447995663,2.696332149207592,-4.292275289543603,-22.760367393493652,-10.386475175619125,60.0097119808197,0.0,0.0,0.0,0.0,0.0,0.0,0.0,0.0,0.0,0.0,0.0,0.0,0.0,0.0,0.0,0.0,False,1,6.574584245681763,0.034919921875
STABILIZE,3.137667655944824,29.788456211870486,0.032447131474812825,0.03259396553039551,0.0,0.0,0.0,0.2826996621169766,-1.4158254307403004,0.5614466190560727,-0.021987924256847168,0.14806499425894223,0.030543108780666423,0.4,0.377977463671604,0.01949520535931929,0.2791264511243015,0.14208458845788197,4.040149599313736,0.5882995668798685,1.136156264692545,-2.6797790439644285,129.69119548797607,-4.03958186507225,3.920935094356537,0.0,0.0,0.0,0.0,0.0,0.0,0.0,0.0,0.0,0.0,0.0,0.0,0.0,0.0,0.0,0.0,False,0,6.632209539413452,0.029929931640625
STABILIZE,3.172567129135132,28.65470643693552,0.0323360284169515,0.033987998962402344,0.0,0.0,0.0,0.3190433654948789,-1.3973416581857765,0.6139772837975235,0.024676007639313505,0.15335028321236016,0.03246753826825633,0.4,0.38521965444228046,-0.02494854904059281,0.28217904505046976,0.15117844265956126,0.8819730952382088,-2.464038133621216,0.8981172926723957,0.8322534277241762,-9.238612651824951,-50.14801621437073,0.712079182267189,0.0,0.0,0.0,0.0,0.0,0.0,0.0,0.0,0.0,0.0,0.0,0.0,0.0,0.0,0.0,0.0,False,0,6.66057825088501,0.03492041015625
STABILIZE,3.208493232727051,27.83417502272893,0.03239610989888509,0.03493690490722656,0.0,0.0,0.0,0.33048318530270976,-1.3946604887714291,0.5899841632645909,0.024728390368066053,0.12629561612856166,0.03704258527496226,0.4,0.37287645900587213,-0.025498335058903813,0.28033380985946366,0.17343123122851054,-0.4426711704581976,0.028617068892344832,0.5719311069697142,1.5341695571681726,-22.84369319677353,55.775195360183716,18.23739856481552,0.0,0.0,0.0,0.0,0.0,0.0,0.0,0.0,0.0,0.0,0.0,0.0,0.0,0.0,0.0,0.0,False,0,6.689752101898193,0.029929931640625
STABILIZE,3.2419304847717285,29.90697707583158,0.032328160603841145,0.03246593475341797,0.0,0.0,0.0,0.3362455170846734,-1.3952304894020078,0.5431730882619383,0.013205323719468783,0.09482788535902249,0.0351288343131913,0.4,0.343205768208911,-0.00669181428030843,0.27908448038598926,0.1633163020276917,-1.1776641942560673,1.092540379613638,0.6277197040617466,-0.24676227495341072,-21.477870643138885,20.12772113084793,0.6795018445700407,0.0,0.0,0.0,0.0,0.0,0.0,0.0,0.0,0.0,0.0,0.0,0.0,0.0,0.0,0.0,0.0,False,0,6.718117952346802,0.034829345703125
STABILIZE,3.2754063606262207,29.873534565034685,0.03234365781148275,0.03249311447143555,0.0,0.0,0.0,0.3569229543015349,-1.3077305367705612,0.5546576778253445,0.005506591272097338,0.09903207471619817,0.0335809473903559,0.4,0.33969854933149013,-0.011613843341111398,0.2924673635322774,0.15505793786672098,0.14424927067011595,-0.24768714793026447,1.410256139934063,-0.19955881091902614,20.30472308397293,-39.46942687034607,26.76004469394684,0.0,0.0,0.0,0.0,0.0,0.0,0.0,0.0,0.0,0.0,0.0,0.0,0.0,0.0,0.0,0.0,False,1,6.746699333190918,0.034919921875
STABILIZE,3.308868169784546,29.883964005044422,0.032346280415852864,0.032463788986206055,0.0,0.0,0.0,0.4121041593277737,-1.2841990409759863,0.5536408334126589,0.051862780481271395,0.024311409049831933,0.05014863975509943,0.4,0.3079560681214485,-0.07634042665576671,0.2997525753111969,0.2371036073414723,-0.44753882102668285,-1.8563153222203255,0.8621117100119591,2.6810394273097073,-19.695036113262177,-12.560056149959564,9.148667007684708,0.0,0.0,0.0,0.0,0.0,0.0,0.0,0.0,0.0,0.0,0.0,0.0,0.0,0.0,0.0,0.0,False,0,6.804196357727051,0.029930908203125
STABILIZE,3.3423659801483154,29.85354743195536,0.03233912785847982,0.03248453140258789,0.0,0.0,0.0,0.4675505677928794,-1.265325840917066,0.5023196991236822,0.052500732400179106,0.015296902719086986,0.03326355257790362,0.4,0.29762434007961436,-0.10756776196555808,0.3288475880405873,0.15216881293428128,-0.05562037695199251,-1.8678376451134682,2.383132092654705,-4.621919001908636,1.099320501089096,-35.03093421459198,14.434537291526794,0.0,0.0,0.0,0.0,0.0,0.0,0.0,0.0,0.0,0.0,0.0,0.0,0.0,0.0,0.0,0.0,False,0,6.832707166671753,0.069838134765625
STABILIZE,3.3759169578552246,29.80454354885701,0.03228905995686849,0.032413482666015625,0.0,0.0,0.0,0.47514040206464453,-1.2566286622261125,0.4825398981741484,0.04399388072546103,0.010237291840109145,0.05609420956792053,0.4,0.2806768088305869,-0.09347080869117891,0.3770059308832644,0.2654344945901545,-1.2024126015603542,1.39603978022933,2.5422081351280212,6.167231799264273,94.28743124008179,42.70547032356262,103.94220352172852,0.0,0.0,0.0,0.0,0.0,0.0,0.0,0.0,0.0,0.0,0.0,0.0,0.0,0.0,0.0,0.0,False,0,6.861439943313599,0.029929931640625
STABILIZE,3.40925931930542,29.991233527110996,0.03220203717549642,0.03231382369995117,0.0,0.0,0.0,0.4660606260584646,-1.2853806637023986,0.5126244802296746,0.05826393039736847,0.06831048414844557,0.0548528054901368,0.4,0.358044638079811,-0.1047564409648612,0.37304646357824855,0.2583635466988882,4.858890548348427,-0.7520203478634357,0.5570780020207167,0.04616354105282368,-4.819870740175247,-56.38543367385864,58.002251386642456,0.0,0.0,0.0,0.0,0.0,0.0,0.0,0.0,0.0,0.0,0.0,0.0,0.0,0.0,0.0,0.0,False,0,6.890060901641846,0.039908203125
STABILIZE,3.4426653385162354,29.933443238344,0.03229502042134603,0.032427072525024414,0.0,0.0,0.0,0.4770874328649213,-1.2311742547367674,0.5698929483775869,0.06794841707373073,0.028216136692096303,0.053062250101699224,0.4,0.2872867137856958,-0.1243720761688337,0.3546185666739063,0.24857893817162652,-3.4475117921829224,-1.0773087851703167,-0.4728799220174551,-0.3425133895869236,21.39974683523178,-9.929145127534866,-84.657883644104,0.0,0.0,0.0,0.0,0.0,0.0,0.0,0.0,0.0,0.0,0.0,0.0,0.0,0.0,0.0,0.0,False,0,6.918929815292358,0.029930908203125
STABILIZE,3.476421594619751,29.62392908853339,0.03234437306722005,0.032781362533569336,0.0,0.0,0.0,0.4917687110424521,-1.2581474188210884,0.541339129108937,0.05061804270070519,-0.0020611122672630528,0.050327876289594696,0.4,0.21289788792764458,-0.14082207712454953,0.33206365281174505,0.23411704554204832,-3.4475117921829224,-1.0773087851703167,-0.4728799220174551,-0.3425133895869236,21.39974683523178,-9.929145127534866,-84.657883644104,0.0,0.0,0.0,0.0,0.0,0.0,0.0,0.0,0.0,0.0,0.0,0.0,0.0,0.0,0.0,0.0,False,0,6.9474592208862305,0.029930908203125
STABILIZE,3.5097548961639404,30.000028610256777,0.032351048787434895,0.032471656799316406,0.0,0.0,0.0,0.47550837850617894,-1.2568338880663303,0.48226685068990655,0.029678780370518756,0.01611536023569134,0.042426242361644016,0.4,0.23655329548740112,-0.1275212594975548,0.38399393464217657,0.19396059319225684,0.12432285584509373,0.2717844443395734,1.4100533910095692,-2.5464093551361744,-14.695493876934052,-15.470930933952332,89.01219367980957,0.0,0.0,0.0,0.0,0.0,0.0,0.0,0.0,0.0,0.0,0.0,0.0,0.0,0.0,0.0,0.0,False,0,7.004869222640991,0.029930908203125
STABILIZE,3.544144868850708,29.082074287734965,0.03246048291524251,0.03256416320800781,0.0,0.0,0.0,0.47964918069049917,-1.2409954264330112,0.5320191225430431,0.05123736114783638,0.003384460682332236,0.04336423425701854,0.4,0.20270723371045135,-0.15400238875388444,0.3117428536763013,0.1979887592447949,-1.3445721007883549,-1.6964828595519066,-3.323936089873314,0.6515164303627367,-44.91168558597565,-26.786625385284424,-35.46066880226135,0.0,0.0,0.0,0.0,0.0,0.0,0.0,0.0,0.0,0.0,0.0,0.0,0.0,0.0,0.0,0.0,False,0,7.0337207317352295,0.039908203125
STABILIZE,3.576657295227051,30.75318581086035,0.03148034413655599,0.03159737586975098,0.0,0.0,0.0,0.4809683676956637,-1.255983849679781,0.5810292516541753,0.04886340649967643,-0.05552220534540956,0.022545666981868686,0.4,0.15779687172913132,-0.15778686364192776,0.3086827200239475,0.09358300033852618,-1.9977392628788948,-0.2512844279408455,0.4165663383901119,-5.528026411354514,-46.962523460388184,25.351420044898987,80.22056221961975,0.0,0.0,0.0,0.0,0.0,0.0,0.0,0.0,0.0,0.0,0.0,0.0,0.0,0.0,0.0,0.0,False,0,7.0624449253082275,0.029929931640625
STABILIZE,3.610175848007202,29.83570920472329,0.032421143849690755,0.03254199028015137,0.0,0.0,0.0,0.4797790610064352,-1.2613349827293687,0.507014440321861,0.04069697196076834,-0.05190355687850617,0.0017962296882137476,0.4,0.11376902494510502,-0.15798885373923938,0.3033569622986271,-0.01013030111033704,-1.9977392628788948,-0.2512844279408455,0.4165663383901119,-5.528026411354514,-46.962523460388184,25.351420044898987,80.22056221961975,0.0,0.0,0.0,0.0,0.0,0.0,0.0,0.0,0.0,0.0,0.0,0.0,0.0,0.0,0.0,0.0,False,0,7.091176509857178,0.029929931640625
STABILIZE,3.643707036972046,29.826373876436456,0.032335789998372395,0.032479286193847656,0.0,0.0,0.0,0.4830832717391347,-1.2537480299436596,0.4926742980768606,0.019201915543371587,-0.006416648449651394,0.006251834481178225,0.4,0.13857448154430724,-0.13300686818639726,0.31511850608972297,0.012107208213467405,1.8876472488045692,1.1949628591537476,1.3820548541843891,1.5621231735635075,5.73902390897274,35.97637712955475,46.52621150016785,0.0,0.0,0.0,0.0,0.0,0.0,0.0,0.0,0.0,0.0,0.0,0.0,0.0,0.0,0.0,0.0,False,0,7.119899034500122,0.034919921875
