E-kp,E-ki,E-kd,E-I-Tot,E-P,E-I,E-D,E-PID,N-kp,N-ki,N-kd,N-I-Tot,N-P,N-I,N-D,N-PID,D-kp,D-ki,D-kd,D-I-Tot,D-P,D-I,D-D,D-PID,Y-kp,Y-ki,Y-kd,Y-I-Tot,Y-P,Y-I,Y-D,Y-PID,errorN,desiredN,actualN,errorE,desiredE,actualE,errorD,desiredD,actualD,errorY,desiredY,actualY,roll,pitch,yaw-rate,thrust,dt,Time,Mode
0.2,0.015,0.15,0.0023123575508452883,0.014043817413630942,3.468536326267933e-05,0.3198502013810096,0.3339287041579032,0.2,0.015,0.15,-0.002401669671898111,-0.014586243527806684,-3.6025045078471664e-05,-0.33220404341295146,-0.34682631198583663,0.002,8e-05,0,-0.01795243528138725,-0.0010903189393425138,-1.43619482251098e-06,-0.0,-0.0010917551341650248,0.2,0.02,0.0,-0.0002279226701049699,-0.0013842601297586257,-4.558453402099398e-06,-0.0,-0.0013888185831607252,-0.07293121763903342,0.0,0.07293121763903342,0.0702190870681547,0.0,-0.0702190870681547,-0.5451594696712568,0.0,0.5451594696712568,-0.006921300648793128,0,0.006921300648793128,0.33388680528175774,0.34686664787064053,0.0013888185831607252,0.4,0.032930612564086914,0.03321552276611328,STABILIZE
0.2,0.015,0.15,0.00484960226344705,0.01520336533025382,7.274403395170575e-05,0.17295278863886815,0.18822889800307369,0.2,0.015,0.15,-0.004896515692692587,-0.014949309110185872,-7.34477353903888e-05,-0.1701811158467183,-0.18520387269229455,0.002,8e-05,0,-0.03622702519242148,-0.0010950274732984824,-2.8981620153937183e-06,-0.0,-0.0010979256353138762,0.2,0.02,0.0,-0.0007886501078089027,-0.003359921904169944,-1.5773002156178054e-05,-0.0,-0.003375694906326122,-0.07474654555092936,0.0,0.07474654555092936,0.0760168266512691,0.0,-0.0760168266512691,-0.5475137366492412,0.0,0.5475137366492412,-0.016799609520849718,0,0.016799609520849718,0.1881745865631615,0.18525905504308934,0.003375694906326122,0.4,0.03337740898132324,0.06653285026550293,STABILIZE
0.2,0.015,0.15,0.007420823126707466,0.015361196979825957,0.00011131234690061198,0.11648052245313023,0.1319530317798568,0.2,0.015,0.15,-0.007362215506791956,-0.014730784538467137,-0.00011043323260187933,-0.11182216812569483,-0.12666338589676385,0.002,8e-05,0,-0.0543411633547225,-0.0010821895870821842,-4.3472930683778e-06,-0.0,-0.001086536880150562,0.2,0.02,0.0,-0.0013654233831831464,-0.0034458058513450306,-2.730846766366293e-05,-0.0,-0.0034731143190086934,-0.07365392269233569,0.0,0.07365392269233569,0.07680598489912978,0.0,-0.07680598489912978,-0.5410947935410921,0.0,0.5410947935410921,-0.01722902925672515,0,0.01722902925672515,0.1319149377181325,0.1267030588800035,0.0034731143190086934,0.4,0.033476829528808594,0.10002326965332031,STABILIZE
0.2,0.015,0.15,0.009778575035114007,0.014069440388739458,0.0001466786255267101,0.08013384734120398,0.09434996635547015,0.2,0.015,0.15,-0.009887416665712773,-0.015068662249126766,-0.00014831124998569158,-0.08575683383776556,-0.10097380733687801,0.002,8e-05,0,-0.0726088899706812,-0.001090092175282012,-5.808711197654496e-06,-0.0,-0.0010959008864796665,0.2,0.02,0.0,-0.001800042548008138,-0.0025935079978120323,-3.600085096016276e-05,-0.0,-0.002629508848772195,-0.07534331124563383,0.0,0.07534331124563383,0.07034720194369729,0.0,-0.07034720194369729,-0.5450460876410059,0.0,0.5450460876410059,-0.01296753998906016,0,0.01296753998906016,0.09432711091414345,0.10099515862641233,0.002629508848772195,0.4,0.03351593017578125,0.1335759162902832,STABILIZE
0.2,0.015,0.15,0.012076978155150235,0.013675014398156514,0.00018115467232725352,0.06234701420532078,0.07620318327580455,0.2,0.015,0.15,-0.01216572491687578,-0.013555454161410041,-0.00018248587375313668,-0.06185301505041394,-0.07559095508557712,0.002,8e-05,0,-0.09106670062152789,-0.001098200851749612,-7.285336049722231e-06,-0.0,-0.0011054861877993342,0.2,0.02,0.0,-0.0023232776938397113,-0.003113138896520252,-4.6465553876794225e-05,-0.0,-0.003159604450397046,-0.0677772708070502,0.0,0.0677772708070502,0.06837507199078256,0.0,-0.06837507199078256,-0.549100425874806,0.0,0.549100425874806,-0.015565694482601257,0,0.015565694482601257,0.07618264447118372,0.07561165461417184,0.003159604450397046,0.4,0.0336146354675293,0.16715455055236816,STABILIZE
0.2,0.015,0.15,0.014333604049109643,0.013145616051912501,0.00021500406073664464,-0.003935970614614534,0.00942464949803461,0.2,0.015,0.15,-0.014205657735126604,-0.011883304925377017,-0.00021308486602689906,0.011893423653936728,-0.00020296613746718754,0.002,8e-05,0,-0.10977305802392746,-0.0010897091662381657,-8.781844641914198e-06,0.0,-0.0010984910108800799,0.2,0.02,0.0,-0.0029350241765146497,-0.003563632059651151,-5.8700483530293e-05,-0.0,-0.003622332543181444,-0.059416524626885084,0.0,0.059416524626885084,0.0657280802595625,0.0,-0.0657280802595625,-0.5448545831190829,0.0,0.5448545831190829,-0.017818160298255753,0,0.017818160298255753,0.009424585922758478,0.0002058970575435726,0.003622332543181444,0.4,0.0343327522277832,0.20153474807739258,STABILIZE
0.2,0.015,0.15,0.016467460325939917,0.012759798862792627,0.00024701190488909876,-0.010877346160635841,0.002129464607045885,0.2,0.015,0.15,-0.01637331556352706,-0.012961921659894286,-0.00024559973345290593,0.008687716101295064,-0.004519805292052127,0.002,8e-05,0,-0.12841150945133448,-0.0011145216006811702,-1.0272920756106758e-05,-0.0,-0.001124794521437277,0.2,0.02,0.0,-0.0033647278267133853,-0.0025694945843720398,-6.729455653426771e-05,0.0,-0.0026367891409063075,-0.06480960829947142,0.0,0.06480960829947142,0.06379899431396313,0.0,-0.06379899431396313,-0.5572608003405851,0.0,0.5572608003405851,-0.012847472921860198,0,0.012847472921860198,0.0021284510744019945,0.004520282669767511,0.0026367891409063075,0.4,0.033446550369262695,0.23496198654174805,STABILIZE
0.2,0.015,0.15,0.01907299447781615,0.013377731102999219,0.00028609491716724225,-0.009205032663922924,0.004458793356243537,0.2,0.015,0.15,-0.018946533804508506,-0.013211809821181572,-0.00028419800706762756,0.00674631018604103,-0.006749697642208169,0.002,8e-05,0,-0.14976239579957626,-0.00109622979292671,-1.1980991663966101e-05,-0.0,-0.0011082107845906762,0.2,0.02,0.0,-0.003948769127821909,-0.0029986739853896808,-7.897538255643818e-05,0.0,-0.003077649367946119,-0.06605904910590786,0.0,0.06605904910590786,0.06688865551499609,0.0,-0.06688865551499609,-0.548114896463355,0.0,0.548114896463355,-0.014993369926948403,0,0.014993369926948403,0.004457026917939836,0.006750864204505356,0.003077649367946119,0.4,0.038953304290771484,0.2739429473876953,STABILIZE
0.2,0.015,0.15,0.021302664052330087,0.013334538683732479,0.0003195399607849513,-0.00361753125957418,0.010036547384943249,0.2,0.015,0.15,-0.02107482353653433,-0.01272823654512832,-0.00031612235304801493,0.010427483830300377,-0.0026168750678759577,0.002,8e-05,0,-0.16795342064327978,-0.0010879142239180557,-1.3436273651462384e-05,-0.0,-0.001101350497569518,0.2,0.02,0.0,-0.004520547084507127,-0.003419518016962965,-9.041094169014254e-05,-0.0,-0.0035099289586531077,-0.06364118272564159,0.0,0.06364118272564159,0.06667269341866239,0.0,-0.06667269341866239,-0.5439571119590279,0.0,0.5439571119590279,-0.017097590084814825,0,0.017097590084814825,0.010035766038384077,0.0026198699498064353,0.0035099289586531077,0.4,0.033442020416259766,0.3073694705963135,STABILIZE
0.2,0.015,0.15,0.02347354076673308,0.012975989748865028,0.0003521031115009962,-0.003464834539271075,0.009863258321094949,0.2,0.015,0.15,-0.023139304784329084,-0.012340031716391532,-0.00034708957176493626,0.005415345474352797,-0.0072717758138036714,0.002,8e-05,0,-0.18596692433244116,-0.0010767218500290624,-1.4877353946595294e-05,0.0,-0.0010915992039756577,0.2,0.02,0.0,-0.005076893048863538,-0.0033254488762142955,-0.00010153786097727076,-0.0,-0.0034269867371915664,-0.06170015858195766,0.0,0.06170015858195766,0.06487994874432514,0.0,-0.06487994874432514,-0.5383609250145313,0.0,0.5383609250145313,-0.016627244381071476,0,0.016627244381071476,0.009861147635297305,0.007274637826705819,0.0034269867371915664,0.4,0.03345990180969238,0.3408193588256836,STABILIZE
0.2,0.015,0.15,0.025582564258301233,0.012616342791830888,0.0003837384638745185,-0.0027654670771072435,0.010234614178598164,0.2,0.015,0.15,-0.02513746799828915,-0.011953167976617628,-0.00037706201997433724,-0.0001545977802032422,-0.012484827776795207,0.002,8e-05,0,-0.20377837021183207,-0.0010654945652855377,-1.6302269616946567e-05,0.0,-0.0010817968349024843,0.2,0.02,0.0,-0.005615970296473316,-0.003224802082249294,-0.00011231940592946632,0.0,-0.00333712148817876,-0.05976583988308813,0.0,0.05976583988308813,0.06308171395915443,0.0,-0.06308171395915443,-0.5327472826427688,0.0,0.5327472826427688,-0.01612401041124647,0,0.01612401041124647,0.01023110032972033,0.012487707477523497,0.00333712148817876,0.4,0.03343319892883301,0.37425708770751953,STABILIZE
0.2,0.015,0.15,0.027521470714651858,0.011592902451902361,0.00041282206071977786,-0.005624600610377373,0.006381123902244767,0.2,0.015,0.15,-0.027013179137778044,-0.011215051761171258,-0.00040519768706667064,0.007992696674337165,-0.003627552773900764,0.002,8e-05,0,-0.22173127428588701,-0.001073420870703639,-1.7738501942870963e-05,0.0,-0.00109115937264651,0.2,0.02,0.0,-0.00611246837001182,-0.002968608266395117,-0.0001222493674002364,-0.0,-0.0030908576337953537,-0.05607525880585629,0.0,0.05607525880585629,0.057964512259511804,0.0,-0.057964512259511804,-0.5367104353518195,0.0,0.5367104353518195,-0.014843041331975585,0,0.014843041331975585,0.006380183934517989,0.003629205745745638,0.0030908576337953537,0.4,0.03344988822937012,0.40770864486694336,STABILIZE
0.2,0.015,0.15,0.029464796223595238,0.011616095363284722,0.00044197194335392854,-0.00790013659186591,0.00415793071477274,0.2,0.015,0.15,-0.028940598389345786,-0.011521016797342966,-0.00043410897584018676,0.007583293312804334,-0.004371832460378819,0.002,8e-05,0,-0.24052560138891182,-0.0011234180527800786,-1.9242048111112946e-05,-0.0,-0.0011426601008911917,0.2,0.02,0.0,-0.006564603157155047,-0.002702604777400256,-0.00013129206314310094,0.0,-0.002833896840543357,-0.05760508398671483,0.0,0.05760508398671483,0.0580804768164236,0.0,-0.0580804768164236,-0.5617090263900393,0.0,0.5617090263900393,-0.013513023887001279,0,0.013513023887001279,0.004156899516627082,0.004372812973263093,0.002833896840543357,0.4,0.03345918655395508,0.44118213653564453,STABILIZE
0.2,0.015,0.15,0.031460126175043,0.011935963826626076,0.00047190189262564494,-0.006271324552799328,0.006136541166452393,0.2,0.015,0.15,-0.03055073665372872,-0.009631766448249174,-0.00045826104980593076,0.013890336582369161,0.0038003090843140575,0.002,8e-05,0,-0.25998972252583247,-0.0011643339771388944,-2.07991778020666e-05,-0.0,-0.001185133154940961,0.2,0.02,0.0,-0.007387701473114463,-0.004923732898371049,-0.00014775402946228927,-0.0,-0.005071486927833338,-0.04815883224124587,0.0,0.04815883224124587,0.05967981913313038,0.0,-0.05967981913313038,-0.5821669885694472,0.0,0.5821669885694472,-0.024618664491855242,0,0.024618664491855242,0.006138173504398647,-0.0037976720045026623,0.005071486927833338,0.4,0.03343391418457031,0.47460055351257324,STABILIZE
0.2,0.015,0.15,0.03311236023539665,0.00987569390679694,0.0004966854035309497,-0.01389990467033531,-0.00352752536000742,0.2,0.015,0.15,-0.03205178521429036,-0.008972031553551188,-0.0004807767782143554,0.015107536643121361,0.005654728311355819,0.002,8e-05,0,-0.2792017307998331,-0.0011483355633539597,-2.2336138463986653e-05,-0.0,-0.0011706717018179463,0.2,0.02,0.0,-0.008402740444045959,-0.006067066658972037,-0.00016805480888091917,-0.0,-0.006235121467852956,-0.04486015776775594,0.0,0.04486015776775594,0.04937846953398469,0.0,-0.04937846953398469,-0.5741677816769799,0.0,0.5741677816769799,-0.030335333294860184,0,0.030335333294860184,-0.0035245309616520047,-0.005656595172106707,0.006235121467852956,0.4,0.03346061706542969,0.5080883502960205,STABILIZE
0.2,0.015,0.15,0.03434050166380703,0.007348881526139366,0.0005151075249571055,-0.023626172736894973,-0.0157621836857985,0.2,0.015,0.15,-0.03311014315809886,-0.00633294094749662,-0.000496652147371483,0.025215577979209442,0.018385984884341337,0.002,8e-05,0,-0.29845486421032763,-0.0011520578425875008,-2.3876389136826213e-05,-0.0,-0.001175934231724327,0.2,0.02,0.0,-0.009312045627127688,-0.005441047673329663,-0.00018624091254255376,-0.0,-0.0056272885858722164,-0.0316647047374831,0.0,0.0316647047374831,0.03674440763069683,0.0,-0.03674440763069683,-0.5760289212937504,0.0,0.5760289212937504,-0.027205238366648312,0,0.027205238366648312,-0.015753451857873777,-0.018393467027010807,0.0056272885858722164,0.4,0.03342390060424805,0.5415294170379639,STABILIZE
0.2,0.015,0.15,0.03515642630445852,0.004880019940797943,0.0005273463945668778,-0.03011137719869414,-0.024704010863329316,0.2,0.015,0.15,-0.03373605475094142,-0.0037435578018693164,-0.0005060408212641213,0.03352089387750653,0.02927129525437309,0.002,8e-05,0,-0.3178824456035282,-0.0011619576107493733,-2.5430595648282256e-05,-0.0,-0.0011873882063976556,0.2,0.02,0.0,-0.010129189707061073,-0.004887313369278693,-0.00020258379414122147,-0.0,-0.005089897163419914,-0.01871778900934658,0.0,0.01871778900934658,0.024400099703989715,0.0,-0.024400099703989715,-0.5809788053746866,0.0,0.5809788053746866,-0.024436566846393462,0,0.024436566846393462,-0.024691524451901856,-0.029281828816611,0.005089897163419914,0.4,0.03343939781188965,0.5749399662017822,STABILIZE
0.2,0.015,0.15,0.03593164931725245,0.004633248287858916,0.0005389747397587867,-0.03132150636565733,-0.026149283338039626,0.2,0.015,0.15,-0.03502268061320571,-0.0076897318256412914,-0.0005253402091980856,0.017203837409093925,0.008988765374254548,0.002,8e-05,0,-0.3369648869991968,-0.0011404936059109475,-2.6957190959935747e-05,-0.0,-0.0011674507968708833,0.2,0.02,0.0,-0.009832481584298648,0.001773325067877301,-0.00019664963168597297,0.0,0.001576675436191328,-0.038448659128206455,0.0,0.038448659128206455,0.023166241439294577,0.0,-0.023166241439294577,-0.5702468029554737,0.0,0.5702468029554737,0.008866625339386505,0,-0.008866625339386505,-0.026150674052593765,-0.008984718617824015,-0.001576675436191328,0.4,0.033463478088378906,0.6084249019622803,STABILIZE
0.2,0.015,0.15,0.036483484635162,0.0033014043678716515,0.00054725226952743,-0.038732491141177036,-0.03488383450377795,0.2,0.015,0.15,-0.036615827586698645,-0.009531144901844006,-0.0005492374138004796,0.0004654723153788998,-0.009614910000265585,0.002,8e-05,0,-0.35537572410439683,-0.0011014448706460533,-2.843005792835175e-05,0.0,-0.001129874928574405,0.2,0.02,0.0,-0.008764666638587434,0.0063882988482941855,-0.0001752933327717487,0.0,0.006213005515522437,-0.047655724509220024,0.0,0.047655724509220024,0.016507021839358257,0.0,-0.016507021839358257,-0.5507224353230267,0.0,0.5507224353230267,0.03194149424147093,0,-0.03194149424147093,-0.03487846892248689,0.009634355693210247,-0.006213005515522437,0.4,0.03343033790588379,0.6418311595916748,STABILIZE
0.2,0.015,0.15,0.03731022178490248,0.0049431384886636075,0.0005596533267735372,-0.022134483060427625,-0.01663169124499048,0.2,0.015,0.15,-0.03795654593139757,-0.008016279967845952,-0.0005693481889709636,0.0043010975854882475,-0.0042845305713286675,0.002,8e-05,0,-0.37419096712066696,-0.0011249809199511591,-2.993527736965336e-05,0.0,-0.0011549161973208124,0.2,0.02,0.0,-0.00802273557037277,0.004436075021400071,-0.00016045471140745538,0.0,0.004275620309992616,-0.04008139983922976,0.0,0.04008139983922976,0.024715692443318036,0.0,-0.024715692443318036,-0.5624904599755796,0.0,0.5624904599755796,0.022180375107000355,0,-0.022180375107000355,-0.0166300313688617,0.004290968720000031,-0.004275620309992616,0.4,0.03344988822937012,0.6753084659576416,STABILIZE
0.2,0.015,0.15,0.03803305254167547,0.0043208561617535226,0.0005704957881251321,-0.013584494737065671,-0.008693142787187018,0.2,0.015,0.15,-0.039634538821692496,-0.0100305166202086,-0.0005945180823253874,-0.0165729880071344,-0.02719802270966839,0.002,8e-05,0,-0.3928394005660495,-0.0011147450188652886,-3.142715204528396e-05,0.0,-0.0011461721709105726,0.2,0.02,0.0,-0.006984445785158839,0.006206571557851283,-0.00013968891570317679,0.0,0.0060668826421481055,-0.050152583101042994,0.0,0.050152583101042994,0.021604280808767612,0.0,-0.021604280808767612,-0.5573725094326443,0.0,0.5573725094326443,0.03103285778925641,0,-0.03103285778925641,-0.008678410368939219,0.027202727148253857,-0.0060668826421481055,0.4,0.03345775604248047,0.7087681293487549,STABILIZE
0.2,0.015,0.15,0.038661043148356146,0.0037581895422986733,0.0005799156472253422,-0.005035301560176935,-0.0006971963706529196,0.2,0.015,0.15,-0.041626782356000085,-0.011922517210761627,-0.0006244017353400013,-0.03668021556014104,-0.049227134506242665,0.002,8e-05,0,-0.4112259661724102,-0.0011003380917726103,-3.2898077293792815e-05,0.0,-0.0011332361690664032,0.2,0.02,0.0,-0.005683581588589951,0.007784979850792477,-0.00011367163177179902,0.0,0.007671308219020678,-0.059612586053808134,0.0,0.059612586053808134,0.018790947711493367,0.0,-0.018790947711493367,-0.5501690458863051,0.0,0.5501690458863051,0.038924899253962385,0,-0.038924899253962385,-0.0006637528895004846,0.049227596798712796,-0.007671308219020678,0.4,0.03341984748840332,0.7421717643737793,STABILIZE
0.2,0.015,0.15,0.039769012547600756,0.006556747676405643,0.0005965351882140114,0.00849184462854672,0.015645127493166374,0.2,0.015,0.15,-0.04783982652374249,-0.03676758847132831,-0.0007175973978561373,-0.1292627243633182,-0.16674791023250266,0.002,8e-05,0,-0.4318124743187679,-0.0012182695618305308,-3.4544997945501436e-05,-0.0,-0.0012528145597760323,0.2,0.02,0.0,-0.003589859887830942,0.012390238309696253,-7.179719775661884e-05,0.0,0.012318441111939634,-0.18383794235664153,0.0,0.18383794235664153,0.032783738382028214,0.0,-0.032783738382028214,-0.6091347809152654,0.0,0.6091347809152654,0.061951191548481256,0,-0.061951191548481256,0.015825414868758693,0.1667308964331922,-0.012318441111939634,0.4,0.03379631042480469,0.7759721279144287,STABILIZE
0.2,0.015,0.15,0.041093177003253926,0.007916569178693092,0.0006163976550488089,0.02056506123336116,0.02909802806710306,0.2,0.015,0.15,-0.056973227731244386,-0.054604397654127994,-0.0008545984159686658,-0.20097895790611583,-0.2564379539762125,0.002,8e-05,0,-0.4535775894775717,-0.0013012359537463868,-3.628620715820574e-05,-0.0,-0.0013375221609045924,0.2,0.02,0.0,-0.0029405363987449543,0.0038820059689368192,-5.8810727974899086e-05,-0.0,0.0038231952409619203,-0.27302198827063995,0.0,0.27302198827063995,0.03958284589346545,0.0,-0.03958284589346545,-0.6506179768731933,0.0,0.6506179768731933,0.019410029844684096,0,-0.019410029844684096,0.029184899606679308,0.2564280817536333,-0.0038231952409619203,0.4,0.03345298767089844,0.8094251155853271,STABILIZE
0.2,0.015,0.15,0.04252599056963249,0.008567597617352686,0.0006378898585444872,0.016122648923417342,0.025328136399314517,0.2,0.015,0.15,-0.0653973711782261,-0.050372688407061474,-0.0009809605676733915,-0.18879427090522485,-0.2401479198799597,0.002,8e-05,0,-0.47437037688094347,-0.0012433176234191348,-3.794963015047548e-05,-0.0,-0.0012812672535696102,0.2,0.02,0.0,-0.001448147750654031,0.008923830514715944,-2.8962955013080622e-05,0.0,0.008894867559702863,-0.25186344203530736,0.0,0.25186344203530736,0.04283798808676343,0.0,-0.04283798808676343,-0.6216588117095674,0.0,0.6216588117095674,0.04461915257357972,0,-0.04461915257357972,0.025515144162264684,0.24012812274807105,-0.008894867559702863,0.4,0.033447265625,0.8428723812103271,STABILIZE
0.2,0.015,0.15,0.043948718943892816,0.0085128752761471,0.0006592307841583922,0.01866693297726965,0.027839039037575144,0.2,0.015,0.15,-0.074046718732383,-0.05175324979855417,-0.0011107007809857449,-0.18595934071045017,-0.23882329128999008,0.002,8e-05,0,-0.4952928940430534,-0.0012518958803832666,-3.962343152344427e-05,-0.0,-0.0012915193119067108,0.2,0.02,0.0,-0.0003890126659901914,0.006337319926596881,-7.780253319803827e-06,0.0,0.006329539673277077,-0.25876624899277084,0.0,0.25876624899277084,0.04256437638073549,0.0,-0.04256437638073549,-0.6259479401916332,0.0,0.6259479401916332,0.031686599632984404,0,-0.031686599632984404,0.02797111253006669,0.2388078587922714,-0.006329539673277077,0.4,0.033425331115722656,0.8763022422790527,STABILIZE
0.2,0.015,0.15,0.045619447908670265,0.009979983450897126,0.000684291718630054,0.02776512976338522,0.0384294049329124,0.2,0.015,0.15,-0.0844285683851143,-0.06201525795523737,-0.0012664285257767145,-0.22344192312709024,-0.28672360960810434,0.002,8e-05,0,-0.5175140389480747,-0.0013273646599024503,-4.140112311584598e-05,-0.0,-0.0013687657830182963,0.2,0.02,0.0,0.0011517287271702395,0.009203511718551853,2.303457454340479e-05,0.0,0.009226546293095257,-0.31007628977618684,0.0,0.31007628977618684,0.04989991725448563,0.0,-0.04989991725448563,-0.6636823299512251,0.0,0.6636823299512251,0.04601755859275926,0,-0.04601755859275926,0.03865967684884543,0.28669265225349116,-0.009226546293095257,0.4,0.033481597900390625,0.9097874164581299,STABILIZE
0.2,0.015,0.15,0.047584773609194386,0.011755893078260872,0.0007137716041379158,0.023311291340186936,0.03578095602258572,0.2,0.015,0.15,-0.0952560295349012,-0.06476609732014035,-0.0014288404430235178,-0.12551161548848253,-0.1917065532516464,0.002,8e-05,0,-0.539170734196554,-0.0012954279980244862,-4.313365873572433e-05,-0.0,-0.0013385616567602105,0.2,0.02,0.0,0.002856961762329993,0.010200109442170431,5.713923524659986e-05,-0.0,0.01025724867741703,-0.32383048660070174,0.0,0.32383048660070174,0.05877946539130435,0.0,-0.05877946539130435,-0.6477139990122431,0.0,0.6477139990122431,0.05100054721085215,0,-0.05100054721085215,0.03595158509401027,0.1916746276968986,-0.01025724867741703,0.4,0.03343558311462402,0.9432363510131836,STABILIZE
0.2,0.015,0.15,0.04984035691435589,0.013489515747468551,0.0007476053537153383,0.024989929325783762,0.039227050426967655,0.2,0.015,0.15,-0.10652475447823286,-0.06739260847919776,-0.0015978713171734928,-0.057313954878484785,-0.12630443467485603,0.002,8e-05,0,-0.5603162553911498,-0.0012646078754449091,-4.482530043129199e-05,0.0,-0.001309433175876201,0.2,0.02,0.0,0.004725044947952405,0.011172071318478928,9.45008989590481e-05,0.0,0.011266572217437976,-0.3369630423959888,0.0,0.3369630423959888,0.06744757873734275,0.0,-0.06744757873734275,-0.6323039377224545,0.0,0.6323039377224545,0.05586035659239463,0,-0.05586035659239463,0.03935017191222037,0.1262661303525753,-0.011266572217437976,0.4,0.033442020416259766,0.9767847061157227,STABILIZE
0.2,0.015,0.15,0.05227785508979764,0.014400056829511133,0.0007841678263469646,0.026104696971152284,0.04128892162701038,0.2,0.015,0.15,-0.11589202134694279,-0.05533919024254202,-0.0017383803202041417,-0.022885615482932796,-0.07996318604567895,0.002,8e-05,0,-0.5816557785691827,-0.0012606792881912768,-4.653246228553462e-05,-0.0,-0.0013072117504768115,0.2,0.02,0.0,0.00557793902502668,0.005038659434974631,0.00011155878050053361,-0.0,0.005150218215475164,-0.27669595121271007,0.0,0.27669595121271007,0.07200028414755566,0.0,-0.07200028414755566,-0.6303396440956384,0.0,0.6303396440956384,0.025193297174873154,0,-0.025193297174873154,0.041324077925944204,0.07994502333020963,-0.005150218215475164,0.4,0.033854007720947266,1.0105178356170654,STABILIZE
0.2,0.015,0.15,0.053544480204963475,0.00757224416972952,0.0008031672030744521,-0.004263680660061475,0.004111730712742498,0.2,0.015,0.15,-0.12652737590638544,-0.06358116588048368,-0.0018979106385957816,-0.05364483910927261,-0.11912391562835206,0.002,8e-05,0,-0.6026395655358296,-0.0012544702976005247,-4.821116524286638e-05,-0.0,-0.001302681462843391,0.2,0.02,0.0,0.007816803908485352,0.013384569244359585,0.00015633607816970704,0.0,0.013540905322529292,-0.3179058294024184,0.0,0.3179058294024184,0.0378612208486476,0.0,-0.0378612208486476,-0.6272351488002623,0.0,0.6272351488002623,0.06692284622179792,0,-0.06692284622179792,0.004250867470112151,0.11911903177005928,-0.013540905322529292,0.4,0.03345441818237305,1.0439836978912354,STABILIZE
0.2,0.015,0.15,0.0559817487978724,0.014561758081411176,0.000839726231968086,0.020483344409381887,0.03588482872276115,0.2,0.015,0.15,-0.13698147894276794,-0.06245931195964684,-0.002054722184141519,-0.002643304610088255,-0.06715733875387661,0.002,8e-05,0,-0.6233055921158138,-0.001234716930408451,-4.986444736926511e-05,0.0,-0.0012845813777777161,0.2,0.02,0.0,0.00850013521257321,0.004082646109884222,0.0001700027042514642,-0.0,0.004252648814135686,-0.3122965597982342,0.0,0.3122965597982342,0.07280879040705587,0.0,-0.07280879040705587,-0.6173584652042255,0.0,0.6173584652042255,0.02041323054942111,0,-0.02041323054942111,0.03590875313273279,0.06714454951384582,-0.004252648814135686,0.4,0.03347492218017578,1.077467918395996,STABILIZE
0.2,0.015,0.15,0.05866238117513913,0.01601747587417728,0.000879935717627087,0.01903990968862349,0.035937321280427856,0.2,0.015,0.15,-0.1457767170543693,-0.0525538359735335,-0.002186650755815539,0.054088463929621765,-0.0006520227997272726,0.002,8e-05,0,-0.6432364139860182,-0.0011909184607552688,-5.145891311888146e-05,0.0,-0.0012423773738741502,0.2,0.02,0.0,0.009108869862056687,0.003637347905130948,0.00018217739724113373,-0.0,0.0038195253023720816,-0.26276917986766746,0.0,0.26276917986766746,0.08008737937088639,0.0,-0.08008737937088639,-0.5954592303776344,0.0,0.5954592303776344,0.01818673952565474,0,-0.01818673952565474,0.0359375264340903,0.0006406155969986071,-0.0038195253023720816,0.4,0.03347134590148926,1.1109716892242432,STABILIZE
0.2,0.015,0.15,0.06160232939261106,0.017586999220325878,0.0009240349408891659,0.01830572020569056,0.0368167543669056,0.2,0.015,0.15,-0.15300700636897624,-0.04325215382469129,-0.0022951050955346435,0.10760189155717463,0.0620546326369487,0.002,8e-05,0,-0.6625404206439655,-0.0011547807135678801,-5.300323365151724e-05,0.0,-0.0012077839472193974,0.2,0.02,0.0,0.009641726270377059,0.003187588537098278,0.0001928345254075412,-0.0,0.003380423062505819,-0.21626076912345643,0.0,0.21626076912345643,0.08793499610162939,0.0,-0.08793499610162939,-0.57739035678394,0.0,0.57739035678394,0.01593794268549139,0,-0.01593794268549139,0.03679949123187854,-0.06206487153692189,-0.003380423062505819,0.4,0.03343319892883301,1.1443769931793213,STABILIZE
0.2,0.015,0.15,0.06375322601673519,0.012848140129670851,0.0009562983902510278,-0.0069589792407896995,0.006845459279132179,0.2,0.015,0.15,-0.1603404415856189,-0.0438054540783222,-0.002405106623784283,0.051716918335589286,0.005506357633482804,0.002,8e-05,0,-0.6819862180807031,-0.001161572934738969,-5.4558897446456256e-05,0.0,-0.0012161318321854252,0.2,0.02,0.0,0.011412762910619205,0.010579089052166084,0.0002282552582123841,0.0,0.010807344310378468,-0.21902727039161096,0.0,0.21902727039161096,0.06424070064835426,0.0,-0.06424070064835426,-0.5807864673694845,0.0,0.5807864673694845,0.05289544526083041,0,-0.05289544526083041,0.006840372895069775,-0.005512675011867282,-0.010807344310378468,0.4,0.03348183631896973,1.1778528690338135,STABILIZE
0.2,0.015,0.15,0.0674688638254734,0.02222771030157307,0.001012032957382101,0.06573786095027633,0.0889776042092315,0.2,0.015,0.15,-0.16803872113438315,-0.04605269308758732,-0.0025205808170157473,0.07858898446602129,0.030015710561418225,0.002,8e-05,0,-0.7010351909661341,-0.0011395487736832613,-5.6082815277290735e-05,0.0,-0.0011956315889605522,0.2,0.02,0.0,0.011918204662067644,0.003023656611280634,0.00023836409324135287,-0.0,0.003262020704521987,-0.23026346543793658,0.0,0.23026346543793658,0.11113855150786534,0.0,-0.11113855150786534,-0.5697743868416306,0.0,0.5697743868416306,0.01511828305640317,0,-0.01511828305640317,0.08896968105188383,-0.030039187486474203,-0.003262020704521987,0.4,0.0334324836730957,1.2112932205200195,STABILIZE
0.2,0.015,0.15,0.07061128130825942,0.018516664279850943,0.0010591692196238911,0.01801760749194261,0.03759344099141744,0.2,0.015,0.15,-0.17466933382199024,-0.03907082040457871,-0.0026200400073298534,0.10441745716111688,0.0627265967492083,0.002,8e-05,0,-0.720036929744614,-0.0011196755988723522,-5.760295437956912e-05,0.0,-0.0011772785532519214,0.2,0.02,0.0,0.012566909007799252,0.0038224840119407202,0.00025133818015598506,-0.0,0.004073822192096705,-0.19535410202289355,0.0,0.19535410202289355,0.09258332139925471,0.0,-0.09258332139925471,-0.5598377994361761,0.0,0.5598377994361761,0.0191124200597036,0,-0.0191124200597036,0.037572514897193564,-0.06273913347834142,-0.004073822192096705,0.4,0.03394150733947754,1.2452311515808105,STABILIZE
0.2,0.015,0.15,0.0753516395202794,0.028321444112229234,0.001130274592804191,0.05542815079578343,0.08487986950081686,0.2,0.015,0.15,-0.17983196944789426,-0.03084435601936062,-0.0026974795417184136,0.09688859510783718,0.06334675954675814,0.002,8e-05,0,-0.737838489987617,-0.0010635607500173582,-5.9027079199009366e-05,0.0,-0.0011225878292163676,0.2,0.02,0.0,0.011927581103662353,-0.003819688027054423,0.00023855162207324707,-0.0,-0.0035811364049811757,-0.1542217800968031,0.0,0.1542217800968031,0.14160722056114616,0.0,-0.14160722056114616,-0.531780375008679,0.0,0.531780375008679,-0.019098440135272114,0,0.019098440135272114,0.08490098020227094,-0.06331846296495272,0.0035811364049811757,0.4,0.033475399017333984,1.2787227630615234,STABILIZE
0.2,0.015,0.15,0.07917667552777727,0.022666201136452308,0.001187650132916659,0.0232527322080491,0.04710658347741807,0.2,0.015,0.15,-0.18495866346889436,-0.03037949907327793,-0.002774379952033415,0.057222023778441544,0.024068144753130197,0.002,8e-05,0,-0.7555596228616891,-0.0010501097540053406,-6.0444769828935136e-05,0.0,-0.0011105545238342758,0.2,0.02,0.0,0.013539433047949585,0.0095514291368188,0.0002707886609589917,0.0,0.009822217797777791,-0.15189749536638963,0.0,0.15189749536638963,0.11333100568226154,0.0,-0.11333100568226154,-0.5250548770026703,0.0,0.5250548770026703,0.04775714568409399,0,-0.04775714568409399,0.047086505849602056,-0.02410740064063268,-0.009822217797777791,0.4,0.03375101089477539,1.3124659061431885,STABILIZE
0.2,0.015,0.15,0.08160043432845557,0.013699860161337108,0.0012240065149268335,0.006472544495377683,0.021396411171641625,0.2,0.015,0.15,-0.18897497336412028,-0.022701468443885986,-0.002834624600461804,0.09224984573963876,0.06671375269529098,0.002,8e-05,0,-0.7741534505804921,-0.0010509826288833178,-6.193227604643937e-05,0.0,-0.0011129149049297572,0.2,0.02,0.0,0.01745193148508659,0.02211469287093522,0.0003490386297017318,0.0,0.022463731500636953,-0.11350734221942993,0.0,0.11350734221942993,0.06849930080668554,0.0,-0.06849930080668554,-0.5254913144416589,0.0,0.5254913144416589,0.1105734643546761,0,-0.1105734643546761,0.021267622469302534,-0.06675492074909245,-0.022463731500636953,0.4,0.03538370132446289,1.3478569984436035,STABILIZE
0.2,0.015,0.15,0.08241881516586293,0.004896595630360712,0.0012362822274879439,-0.07511459380319838,-0.06898171594534971,0.2,0.015,0.15,-0.191497295708891,-0.015091742141584203,-0.0028724594356333653,0.1364807306156752,0.11851652903845764,0.002,8e-05,0,-0.7918198457435587,-0.001057028578940675,-6.33455876594847e-05,0.0,-0.0011203741666001596,0.2,0.02,0.0,0.023267146859593846,0.034794018739035086,0.00046534293719187694,0.0,0.035259361676226966,-0.07545871070792101,0.0,0.07545871070792101,0.02448297815180356,0.0,-0.02448297815180356,-0.5285142894703374,0.0,0.5285142894703374,0.17397009369517544,0,-0.17397009369517544,-0.06934125518045689,-0.11830653033576484,-0.035259361676226966,0.4,0.033426523208618164,1.3812768459320068,STABILIZE
0.2,0.015,0.15,0.08622344064919066,0.022751129352119603,0.00129335160973786,0.021361597664940123,0.04540607862679759,0.2,0.015,0.15,-0.1916325479361063,-0.000808789440648311,-0.0028744882190415945,0.16968281593196063,0.16599953827227074,0.002,8e-05,0,-0.8078761420057132,-0.0009601441055815079,-6.463009136045706e-05,0.0,-0.001024774196941965,0.2,0.02,0.0,0.024472570248504355,0.0072082636163142595,0.0004894514049700871,0.0,0.007697715021284347,-0.004043947203241555,0.0,0.004043947203241555,0.113755646760598,0.0,-0.113755646760598,-0.48007205279075393,0.0,0.48007205279075393,0.036041318081571294,0,-0.036041318081571294,0.04530164935597436,-0.16602806765272654,-0.007697715021284347,0.4,0.03344559669494629,1.4147305488586426,STABILIZE
0.2,0.015,0.15,0.08829687313795712,0.012341563564503577,0.0013244530970693566,-0.06904282450948328,-0.05537680784791034,0.2,0.015,0.15,-0.19257922018768547,-0.005634818510327797,-0.002888688302815282,0.11127657582816154,0.10275306901501846,0.002,8e-05,0,-0.823945605641788,-0.0009564927143110556,-6.591564845134305e-05,0.0,-0.0010224083627623987,0.2,0.02,0.0,0.029889396088595088,0.03224223638122773,0.0005977879217719018,0.0,0.032840024302999635,-0.028174092551638986,0.0,0.028174092551638986,0.061707817822517885,0.0,-0.061707817822517885,-0.47824635715552777,0.0,0.47824635715552777,0.16121118190613865,0,-0.16121118190613865,-0.0556657010733367,-0.10259685065070688,-0.032840024302999635,0.4,0.033600807189941406,1.4483320713043213,STABILIZE
0.2,0.015,0.15,0.09257989590670797,0.01866391643877007,0.0013886984386006194,-0.0232462108325855,-0.0031935959552148105,0.2,0.015,0.15,-0.1919012379377775,0.0029544097107245706,-0.0028785185690666623,0.1372822480205938,0.1373581391622517,0.002,8e-05,0,-0.846656065677869,-0.000989642482155338,-6.773248525422952e-05,0.0,-0.0010573749674095676,0.2,0.02,0.0,0.03273013116038569,0.012378930691523383,0.0006546026232077138,0.0,0.013033533314731097,0.014772048553622852,0.0,-0.014772048553622852,0.09331958219385035,0.0,-0.09331958219385035,-0.49482124107766895,0.0,0.49482124107766895,0.06189465345761691,0,-0.06189465345761691,-0.003341977320746152,-0.1373546090847675,-0.013033533314731097,0.4,0.045896291732788086,1.4942643642425537,STABILIZE
0.2,0.015,0.15,0.09443227407785251,0.01099241252510502,0.0014164841111677876,-0.01937901204415222,-0.006970115407879413,0.2,0.015,0.15,-0.19121088257203256,0.004096717985236891,-0.0028681632385804882,0.10981726207851511,0.1110458168251715,0.002,8e-05,0,-0.8635607700693139,-0.0010031617041292421,-6.908486160554512e-05,0.0,-0.0010722465657347874,0.2,0.02,0.0,0.03828552055133138,0.032966881641201255,0.0007657104110266276,0.0,0.03373259205222788,0.020483589926184452,0.0,-0.020483589926184452,0.054962062625525096,0.0,-0.054962062625525096,-0.5015808520646211,0.0,0.5015808520646211,0.16483440820600626,0,-0.16483440820600626,-0.0072895541824131195,-0.11102530496688746,-0.03373259205222788,0.4,0.033702850341796875,1.5279672145843506,STABILIZE
0.2,0.015,0.15,0.09496028544303804,0.0031559494410897423,0.0014244042816455706,-0.015003952394059036,-0.010423598671323723,0.2,0.015,0.15,-0.19030408256574116,0.005419987450516312,-0.0028545612384861174,0.08160089613969895,0.08416632235172915,0.002,8e-05,0,-0.8806551086134525,-0.001021736874076897,-7.04524086890762e-05,0.0,-0.0010921892827659733,0.2,0.02,0.0,0.04737869003407194,0.05435031334355085,0.0009475738006814389,0.0,0.05529788714423229,0.027099937252581557,0.0,-0.027099937252581557,0.01577974720544871,0.0,-0.01577974720544871,-0.5108684370384485,0.0,0.5108684370384485,0.27175156671775424,0,-0.27175156671775424,-0.010822677397421387,-0.08411593714289432,-0.05529788714423229,0.4,0.03346133232116699,1.5614237785339355,STABILIZE
0.2,0.015,0.15,0.09577612413170025,0.004877627914404133,0.0014366418619755038,-0.08735966026031722,-0.08104539048393758,0.2,0.015,0.15,-0.18864374985967652,0.009926576499551277,-0.002829656247895148,0.03775089516379164,0.044847815415447766,0.002,8e-05,0,-0.8976320705838678,-0.0010149960373227766,-7.181056564670944e-05,-0.0,-0.001086806602969486,0.2,0.02,0.0,0.05302475841567484,0.03375596319157085,0.0010604951683134969,0.0,0.034816458359884346,0.04963288249775638,0.0,-0.04963288249775638,0.024388139572020663,0.0,-0.024388139572020663,-0.5074980186613883,0.0,0.5074980186613883,0.16877981595785424,0,-0.16877981595785424,-0.0811771497141998,-0.04460888062382182,-0.034816458359884346,0.4,0.03345227241516113,1.5948541164398193,STABILIZE
0.2,0.015,0.15,0.09680190898591998,0.006129331382363555,0.0014520286347887996,-0.03528006039157306,-0.027698700374420706,0.2,0.015,0.15,-0.18517003336058235,0.02075635983875762,-0.002777550500408735,0.10782823000467119,0.12580703934302007,0.002,8e-05,0,-0.9144517250360211,-0.0010050181132038047,-7.31561380028817e-05,-0.0,-0.0010781742512066864,0.2,0.02,0.0,0.05849932132435169,0.03271193769613711,0.0011699864264870339,0.0,0.03388192412262414,0.1037817991937881,0.0,-0.1037817991937881,0.030646656911817772,0.0,-0.030646656911817772,-0.5025090566019024,0.0,0.5025090566019024,0.16355968848068553,0,-0.16355968848068553,-0.028057722732509328,-0.1257274566105342,-0.03388192412262414,0.4,0.03347134590148926,1.6283509731292725,STABILIZE
0.2,0.015,0.15,0.09649398050547503,-0.0018406083230523063,0.0014474097075821255,-0.09167258632001685,-0.09206578493548703,0.2,0.015,0.15,-0.1833555235290761,0.010846031173552498,-0.0027503328529361417,0.0353281713875854,0.04342386970820176,0.002,8e-05,0,-0.9316412184012475,-0.001027482891851053,-7.45312974720998e-05,-0.0,-0.0011020141893231528,0.2,0.02,0.0,0.06792879302190837,0.05636362074540753,0.0013585758604381674,0.0,0.057722196605845696,0.05423015586776249,0.0,-0.05423015586776249,-0.009203041615261531,0.0,0.009203041615261531,-0.5137414459255265,0.0,0.5137414459255265,0.28181810372703764,0,-0.28181810372703764,-0.09227825737742429,-0.042970506531900134,-0.057722196605845696,0.4,0.03345942497253418,1.6617841720581055,STABILIZE
0.2,0.015,0.15,0.09761318940415467,0.00669925556651385,0.00146419784106232,-0.019191477570381008,-0.011028024162804838,0.2,0.015,0.15,-0.18219850544419275,0.0069255702441754115,-0.002732977581662891,0.012644097933387733,0.016836690595900254,0.002,8e-05,0,-0.9495355914648875,-0.0010711045855451194,-7.596284731719101e-05,-0.0,-0.0011470674328623103,0.2,0.02,0.0,0.07384936012681764,0.035438774817886425,0.0014769872025363528,0.0,0.03691576202042278,0.034627851220877054,0.0,-0.034627851220877054,0.03349627783256925,0.0,-0.03349627783256925,-0.5355522927725597,0.0,0.5355522927725597,0.17719387408943213,0,-0.17719387408943213,-0.011080040769739624,-0.01680250468526616,-0.03691576202042278,0.4,0.033412933349609375,1.6952030658721924,STABILIZE
0.2,0.015,0.15,0.10018558288882785,0.015380251574943556,0.0015027837433324177,0.05486524220334335,0.07174827752161933,0.2,0.015,0.15,-0.18171808854428181,0.002872396009984228,-0.0027257713281642272,-0.01146317751623557,-0.011316552834415568,0.002,8e-05,0,-0.9681861992088655,-0.001115113379182018,-7.745489593670924e-05,-0.0,-0.0011925682751187272,0.2,0.02,0.0,0.07621815777335787,0.014162959108315316,0.0015243631554671575,-0.0,0.015687322263782475,0.01436198004992114,0.0,-0.01436198004992114,0.07690125787471777,0.0,-0.07690125787471777,-0.557556689591009,0.0,0.557556689591009,0.07081479554157658,0,-0.07081479554157658,0.07176220942625697,0.011227866833707153,-0.015687322263782475,0.4,0.03345060348510742,1.7286536693572998,STABILIZE
0.2,0.015,0.15,0.10256483149824575,0.014239247691274468,0.0015384724724736862,0.04202375391003865,0.05780147407378681,0.2,0.015,0.15,-0.17919637602345218,0.015091860954819118,-0.0026879456403517826,0.02317726033865066,0.035581175653118,0.002,8e-05,0,-0.9865470018930576,-0.0010988511927502737,-7.892376015144461e-05,-0.0,-0.0011777749529017184,0.2,0.02,0.0,0.07885911210213059,0.015805495348356572,0.0015771822420426118,-0.0,0.017382677590399184,0.07545930477409558,0.0,-0.07545930477409558,0.07119623845637234,0.0,-0.07119623845637234,-0.5494255963751369,0.0,0.5494255963751369,0.07902747674178286,0,-0.07902747674178286,0.05775234235946047,-0.035660866758343845,-0.017382677590399184,0.4,0.03341817855834961,1.7620742321014404,STABILIZE
0.2,0.015,0.15,0.10300270303854887,0.0026181867277477277,0.0015450405455782331,-0.01570047036078668,-0.011537243087460718,0.2,0.015,0.15,-0.17865801157478114,0.0032190688922736133,-0.0026798701736217173,-0.07859949436059886,-0.07806029564194697,0.002,8e-05,0,-1.0054430126679141,-0.0011298584188380557,-8.043544101343314e-05,-0.0,-0.001210293859851489,0.2,0.02,0.0,0.08436479459663698,0.032920396754560995,0.0016872958919327396,0.0,0.034607692646493736,0.016095344461368066,0.0,-0.016095344461368066,0.013090933638738637,0.0,-0.013090933638738637,-0.5649292094190278,0.0,0.5649292094190278,0.16460198377280497,0,-0.16460198377280497,-0.011312940533348808,0.07809311820036538,-0.034607692646493736,0.4,0.03344845771789551,1.795515775680542,STABILIZE
0.2,0.015,0.15,0.10655795307016439,0.021259292766304422,0.0015983692960524656,0.10363012766676628,0.12648778972912317,0.2,0.015,0.15,-0.17631656041856344,0.014001151869877125,-0.0026447484062784516,0.014184057722092708,0.025540461185691383,0.002,8e-05,0,-1.0239555470391801,-0.0011069921511713825,-8.191644376313441e-05,-0.0,-0.0011889085949345168,0.2,0.02,0.0,0.08643895829040428,0.01240285572573395,0.0017287791658080857,-0.0,0.014131634891542035,0.07000575934938562,0.0,-0.07000575934938562,0.10629646383152211,0.0,-0.10629646383152211,-0.5534960755856912,0.0,0.5534960755856912,0.06201427862866975,0,-0.06201427862866975,0.12646007184141023,-0.025677350681136225,-0.014131634891542035,0.4,0.033446550369262695,1.8289926052093506,STABILIZE
0.2,0.015,0.15,0.1093968965538622,0.01696910690947493,0.001640953448307933,0.046059619640669174,0.06466967999845204,0.2,0.015,0.15,-0.17407321769137182,0.013409045580126795,-0.002611098265370577,0.0291297224961684,0.03992766981092462,0.002,8e-05,0,-1.0418939989097094,-0.0010722281346192651,-8.335151991277675e-05,-0.0,-0.001155579654532042,0.2,0.02,0.0,0.09008278695050022,0.02178011589453628,0.0018016557390100043,-0.0,0.023581771633546286,0.06704522790063397,0.0,-0.06704522790063397,0.08484553454737465,0.0,-0.08484553454737465,-0.5361140673096325,0.0,0.5361140673096325,0.10890057947268139,0,-0.10890057947268139,0.06459367376193807,-0.0400505135743441,-0.023581771633546286,0.4,0.033460140228271484,1.8624420166015625,STABILIZE
0.2,0.015,0.15,0.11154099322437534,0.012828806335977123,0.00167311489836563,-0.011447453987444145,0.0030544672468986074,0.2,0.015,0.15,-0.17190251892061387,0.012987975088424017,-0.0025785377838092077,0.04541551567389466,0.055824952978509465,0.002,8e-05,0,-1.0593306937856701,-0.0010432924260345435,-8.474645550285362e-05,0.0,-0.0011280388815373972,0.2,0.02,0.0,0.0953013863969757,0.03122452572432228,0.001906027727939514,0.0,0.03313055345226179,0.06493987544212008,0.0,-0.06493987544212008,0.06414403167988561,0.0,-0.06414403167988561,-0.5216462130172718,0.0,0.5216462130172718,0.1561226286216114,0,-0.1561226286216114,0.002902341254501753,-0.05583306869998806,-0.03313055345226179,0.4,0.03342628479003906,1.895862102508545,STABILIZE
0.2,0.015,0.15,0.11527709387110861,0.022310823983250763,0.0017291564080666292,0.03614175924009388,0.06018173963141127,0.2,0.015,0.15,-0.16763011800506433,0.02551344137263827,-0.002514451770075965,0.04666615504945783,0.06966514465202013,0.002,8e-05,0,-1.076855882597499,-0.0010465494370335766,-8.614847060779992e-05,0.0,-0.0011326979076413766,0.2,0.02,0.0,0.09980616842428558,0.026901148656715376,0.001996123368485712,0.0,0.02889727202520109,0.12756720686319134,0.0,-0.12756720686319134,0.1115541199162538,0.0,-0.1115541199162538,-0.5232747185167883,0.0,0.5232747185167883,0.13450574328357687,0,-0.13450574328357687,0.060018030278544264,-0.06980623328853672,-0.02889727202520109,0.4,0.03349137306213379,1.9294304847717285,STABILIZE
0.2,0.015,0.15,0.11832336053499422,0.018230934954343404,0.0017748504080249132,0.06994391660501569,0.089949701967384,0.2,0.015,0.15,-0.16361805442519597,0.024010921638742272,-0.0024542708163779394,0.09316575372395065,0.114722404546315,0.002,8e-05,0,-1.0943484178743792,-0.001046872477055524,-8.754787342995035e-05,0.0,-0.0011344203504854743,0.2,0.02,0.0,0.1030768172528724,0.019573790685944073,0.002061536345057448,-0.0,0.02163532703100152,0.12005460819371135,0.0,-0.12005460819371135,0.09115467477171701,0.0,-0.09115467477171701,-0.5234362385277619,0.0,0.5234362385277619,0.09786895342972035,0,-0.09786895342972035,0.08975360942964791,-0.11487588338402355,-0.02163532703100152,0.4,0.03341865539550781,1.9627933502197266,STABILIZE
0.2,0.015,0.15,0.12003750043183134,0.010014449734810115,0.0018005625064774701,-0.04965923658180322,-0.03784422434051563,0.2,0.015,0.15,-0.16048466272800727,0.01830608674873482,-0.002407269940920109,0.019813775604303353,0.03571259241211806,0.002,8e-05,0,-1.1122398601194223,-0.0010452644464833134,-8.89791888095538e-05,0.0,-0.0011342436352928672,0.2,0.02,0.0,0.10909606468483425,0.03516600422170463,0.002181921293696685,0.0,0.03734792551540131,0.09153043374367409,0.0,-0.09153043374367409,0.05007224867405057,0.0,-0.05007224867405057,-0.5226322232416567,0.0,0.5226322232416567,0.17583002110852314,0,-0.17583002110852314,-0.03795364122796161,-0.0355962875911031,-0.03734792551540131,0.4,0.03423333168029785,1.9970197677612305,STABILIZE
0.2,0.015,0.15,0.12306767639206667,0.018120158469801705,0.001846015145881,0.005926949010495664,0.02589312262617837,0.2,0.015,0.15,-0.15605386230288593,0.02649575698073582,-0.002340807934543289,0.05919823160125719,0.08335318064744972,0.002,8e-05,0,-1.1294823361020125,-0.0010310833473578824,-9.035858688816101e-05,0.0,-0.0011214419342460433,0.2,0.02,0.0,0.11252396988902912,0.02049854078924339,0.0022504793977805825,-0.0,0.02274902018702397,0.1324787849036791,0.0,-0.1324787849036791,0.09060079234900853,0.0,-0.09060079234900853,-0.5155416736789412,0.0,0.5155416736789412,0.10249270394621693,0,-0.10249270394621693,0.02574397617877124,-0.08339936578828136,-0.02274902018702397,0.4,0.03344535827636719,2.030489444732666,STABILIZE
0.2,0.015,0.15,0.12813749501409077,0.030294564231864274,0.0019220624252113616,0.07906736630996923,0.11128399296704486,0.2,0.015,0.15,-0.15004196451999532,0.03592393281053279,-0.00225062946779993,0.10334113722684686,0.13701444056957973,0.002,8e-05,0,-1.146993217945829,-0.0010463580146034773,-9.175945743566633e-05,-0.0,-0.0011381174720391436,0.2,0.02,0.0,0.11145321879455619,-0.006398244242295639,0.002229064375891124,-0.0,-0.004169179866404515,0.17961966405266397,0.0,-0.17961966405266397,0.15147282115932137,0.0,-0.15147282115932137,-0.5231790073017386,0.0,0.5231790073017386,-0.031991221211478196,0,0.031991221211478196,0.11136047792264175,-0.1369522835593661,0.004169179866404515,0.4,0.03347015380859375,2.0639567375183105,STABILIZE
0.2,0.015,0.15,0.13166005815543333,0.02106758972477627,0.0019749008723315,-0.004788575993529417,0.018253914603578354,0.2,0.015,0.15,-0.14447751713660048,0.033279600624501,-0.002167162757049007,0.03538118461353655,0.06649362248098854,0.002,8e-05,0,-1.1634846277745117,-0.0009863109398272158,-9.307877022196094e-05,0.0,-0.0010793897100491768,0.2,0.02,0.0,0.11321861225040021,0.010558387043234538,0.002264372245008004,-0.0,0.012822759288242542,0.166398003122505,0.0,-0.166398003122505,0.10533794862388135,0.0,-0.10533794862388135,-0.4931554699136079,0.0,0.4931554699136079,0.05279193521617269,0,-0.05279193521617269,0.018192640099626945,-0.06651041328396931,-0.012822759288242542,0.4,0.033440589904785156,2.09747314453125,STABILIZE
0.2,0.015,0.15,0.1356742218615017,0.02401252622656354,0.0020351133279225254,0.026736397489698995,0.052784037044185064,0.2,0.015,0.15,-0.13817910803697506,0.03767676775656815,-0.0020726866205546257,0.06185298601391848,0.097457067149932,0.002,8e-05,0,-1.1798179215874163,-0.0009770494547983429,-9.438543372699331e-05,0.0,-0.0010714348885253362,0.2,0.02,0.0,0.11348991318133783,0.0016229085798325467,0.0022697982636267567,-0.0,0.0038927068434593034,0.18838383878284073,0.0,-0.18838383878284073,0.1200626311328177,0.0,-0.1200626311328177,-0.48852472739917147,0.0,0.48852472739917147,0.008114542899162733,0,-0.008114542899162733,0.05277023410989062,-0.09746454173767809,-0.0038927068434593034,0.4,0.03343391418457031,2.1308281421661377,STABILIZE
0.2,0.015,0.15,0.14001758470391384,0.025957530322635876,0.0021002637705587078,0.0714565690200704,0.09951436311326499,0.2,0.015,0.15,-0.13109268233864407,0.04235108062981341,-0.001966390235079661,0.10780138635686444,0.14818607675159817,0.002,8e-05,0,-1.1965454540126548,-0.0009996987263211443,-9.572363632101239e-05,0.0,-0.0010954223626421567,0.2,0.02,0.0,0.11253243157148599,-0.005722261487896469,0.0022506486314297198,-0.0,-0.0034716128564667493,0.21175540314906705,0.0,-0.21175540314906705,0.12978765161317937,0.0,-0.12978765161317937,-0.4998493631605721,0.0,0.4998493631605721,-0.028611307439482342,0,0.028611307439482342,0.09958834912689404,-0.14813636463424218,0.0034716128564667493,0.4,0.03346514701843262,2.164290428161621,STABILIZE
0.2,0.015,0.15,0.14328778187124713,0.019495978991577873,0.002149316728068707,0.006211615792608733,0.027856911512255313,0.2,0.015,0.15,-0.12463714657668368,0.03848605547450544,-0.001869557198650255,0.053789681019697416,0.0904061792955526,0.002,8e-05,0,-1.2138708297504381,-0.0010328892850227146,-9.710966638003506e-05,-0.0,-0.0011299989514027497,0.2,0.02,0.0,0.11307453085076218,0.003231840656487574,0.0022614906170152437,-0.0,0.005493331273502818,0.1924302773725272,0.0,-0.1924302773725272,0.09747989495788936,0.0,-0.09747989495788936,-0.5164446425113572,0.0,0.5164446425113572,0.01615920328243787,0,-0.01615920328243787,0.027831413032265447,-0.0904140322209372,-0.005493331273502818,0.4,0.033547401428222656,2.1978373527526855,STABILIZE
0.2,0.015,0.15,0.1465569945185977,0.019544141112227173,0.0021983549177789653,-0.04813331521940729,-0.02639081918940115,0.2,0.015,0.15,-0.1183902180311174,0.03734564440508098,-0.001775853270466761,0.006423084353349457,0.041992875487963675,0.002,8e-05,0,-1.23040234387648,-0.000988293756724516,-9.84321875101184e-05,0.0,-0.0010867259442346345,0.2,0.02,0.0,0.11273209949402103,-0.00204713717929119,0.0022546419898804206,0.0,0.00020750481058923057,0.1867282220254049,0.0,-0.1867282220254049,0.09772070556113585,0.0,-0.09772070556113585,-0.49414687836225807,0.0,0.49414687836225807,-0.01023568589645595,0,0.01023568589645595,-0.02638331689144024,-0.04199758944321839,-0.00020750481058923057,0.4,0.03345465660095215,2.231311321258545,STABILIZE
0.2,0.015,0.15,0.1515349450568695,0.02980377967950274,0.0022730241758530424,0.03932445826610454,0.07140126212146033,0.2,0.015,0.15,-0.1105461438413863,0.0469637167229833,-0.0016581921576207944,0.061473106762665486,0.10677863132802799,0.002,8e-05,0,-1.2465822500809316,-0.0009687166556699225,-9.972658000647453e-05,0.0,-0.001068443235676397,0.2,0.02,0.0,0.1117430420772647,-0.00592164367901049,0.002234860841545294,-0.0,-0.003686782837465196,0.2348185836149165,0.0,-0.2348185836149165,0.1490188983975137,0.0,-0.1490188983975137,-0.48435832783496124,0.0,0.48435832783496124,-0.029608218395052448,0,0.029608218395052448,0.07145643160671045,-0.1067417196922549,0.003686782837465196,0.4,0.03340482711791992,2.2646946907043457,STABILIZE
0.2,0.015,0.15,0.15578571179131737,0.025344916046316487,0.0023367856768697604,0.006172851230373435,0.03385455295355968,0.2,0.015,0.15,-0.10302605596697105,0.0448380275241648,-0.0015453908395045657,0.032239670467139006,0.07553230715179923,0.002,8e-05,0,-1.26298497446433,-0.0009780016133538862,-0.00010103879795714641,-0.0,-0.0010790404113110326,0.2,0.02,0.0,0.10995997571391118,-0.01063141548511149,0.0021991995142782235,-0.0,-0.008432215970833266,0.22419013762082396,0.0,-0.22419013762082396,0.12672458023158242,0.0,-0.12672458023158242,-0.4890008066769431,0.0,0.4890008066769431,-0.05315707742555744,0,0.05315707742555744,0.033924614681482626,-0.07550086554518466,0.008432215970833266,0.4,0.03354334831237793,2.298248052597046,STABILIZE
0.2,0.015,0.15,0.15938338819497752,0.021493684299061223,0.0023907508229246625,-0.019801572023430355,0.004082863098555531,0.2,0.015,0.15,-0.09660255687546736,0.03837606445861125,-0.0014490383531320103,-0.017666281929831277,0.01926074417564796,0.002,8e-05,0,-1.2791991817987944,-0.0009686892719199179,-0.00010233593454390357,0.0,-0.0010710252064638215,0.2,0.02,0.0,0.10975125806334915,-0.0012469468583272026,0.002195025161266983,0.0,0.0009480783029397805,0.19188032229305624,0.0,-0.19188032229305624,0.10746842149530611,0.0,-0.10746842149530611,-0.48434463595995897,0.0,0.48434463595995897,-0.006234734291636013,0,0.006234734291636013,0.004084958963870275,-0.019260299778165426,-0.0009480783029397805,0.4,0.03347659111022949,2.3317301273345947,STABILIZE
0.2,0.015,0.15,0.16231757801356658,0.01755730980286527,0.0024347636702034985,-0.008575694321238095,0.011416379151830676,0.2,0.015,0.15,-0.09129868110362208,0.03173679817585114,-0.001369480216554331,-0.030180182260797685,0.00018713569849912806,0.002,8e-05,0,-1.2952297894588192,-0.0009592233714128899,-0.00010361838315670554,0.0,-0.0010628417545695953,0.2,0.02,0.0,0.11114987354016691,0.008368894563671883,0.002222997470803338,0.0,0.010591892034475222,0.1586839908792557,0.0,-0.1586839908792557,0.08778654901432635,0.0,-0.08778654901432635,-0.4796116857064449,0.0,0.4796116857064449,0.041844472818359416,0,-0.041844472818359416,0.01141623943759038,-0.00019547330153483737,-0.010591892034475222,0.4,0.03342413902282715,2.365140199661255,STABILIZE
0.2,0.015,0.15,0.16588153359955313,0.02130891892449199,0.002488223003993297,0.008031537790311093,0.03182867971879638,0.2,0.015,0.15,-0.08450038719651232,0.04064705358873577,-0.0012675058079476846,0.01488892313479644,0.054268470915584524,0.002,8e-05,0,-1.3112892242816772,-0.000960194891201816,-0.00010490313794253418,0.0,-0.0010650980291443501,0.2,0.02,0.0,0.11283702056903759,0.010087465565862541,0.002256740411380752,0.0,0.012344205977243294,0.20323526794367883,0.0,-0.20323526794367883,0.10654459462245994,0.0,-0.10654459462245994,-0.48009744560090795,0.0,0.48009744560090795,0.050437327829312706,0,-0.050437327829312706,0.031780894996738654,-0.05429646859017293,-0.012344205977243294,0.4,0.03345036506652832,2.3986005783081055,STABILIZE
0.2,0.015,0.15,0.16835666952809053,0.014795904660630575,0.002525350042921358,-0.06723822087196937,-0.04991696616841744,0.2,0.015,0.15,-0.07863604853009062,0.03505593159778405,-0.0011795407279513593,-0.05336679024510826,-0.019490399375275566,0.002,8e-05,0,-1.3272579383026877,-0.0009545801807634951,-0.00010618063506421502,0.0,-0.00106076081582771,0.2,0.02,0.0,0.11605292580639523,0.01922408654044437,0.0023210585161279047,0.0,0.021545145056572276,0.17527965798892026,0.0,-0.17527965798892026,0.07397952330315287,0.0,-0.07397952330315287,-0.4772900903817475,0.0,0.4772900903817475,0.09612043270222184,0,-0.09612043270222184,-0.04988419849517398,0.019574113511491516,-0.021545145056572276,0.4,0.033457040786743164,2.4321117401123047,STABILIZE
0.2,0.015,0.15,0.17124748668888992,0.01718792798884312,0.002568712300333349,-0.0366322732308573,-0.01687563294168083,0.2,0.015,0.15,-0.071819973105542,0.040526331153807216,-0.00107729959658313,-0.019467068237193273,0.019981963320030816,0.002,8e-05,0,-1.3437347192152858,-0.0009796597572963373,-0.00010749877753722287,-0.0,-0.0010871585348335602,0.2,0.02,0.0,0.11901960634470188,0.017638988777905446,0.0023803921268940377,0.0,0.020019380904799485,0.20263165576903608,0.0,-0.20263165576903608,0.0859396399442156,0.0,-0.0859396399442156,-0.4898298786481686,0.0,0.4898298786481686,0.08819494388952723,0,-0.08819494388952723,-0.016906371016174072,-0.0199559631280695,-0.020019380904799485,0.4,0.03363776206970215,2.4657444953918457,STABILIZE
0.2,0.015,0.15,0.17364158257577728,0.01430442877356538,0.002604623738636659,-0.032297308832956874,-0.015388256320754835,0.2,0.015,0.15,-0.06543733052471826,0.03813550521705342,-0.000981559957870774,-0.0012263411296905369,0.035927604129492106,0.002,8e-05,0,-1.3601582066495592,-0.000981283195480314,-0.00010881265653196474,-0.0,-0.0010900958520122786,0.2,0.02,0.0,0.12189615225605964,0.017187008393554793,0.0024379230451211926,0.0,0.019624931438675986,0.19067752608526709,0.0,-0.19067752608526709,0.07152214386782689,0.0,-0.07152214386782689,-0.4906415977401569,0.0,0.4906415977401569,0.08593504196777396,0,-0.08593504196777396,-0.015442124988643594,-0.03590448366031544,-0.019624931438675986,0.4,0.03347349166870117,2.499171495437622,STABILIZE
0.2,0.015,0.15,0.1754243569231017,0.010664314754025728,0.0026313653538465255,-0.03096274949303178,-0.017667069385159526,0.2,0.015,0.15,-0.05963134061107886,0.03473064551925693,-0.0008944701091661829,0.013293631768022418,0.04712980717811316,0.002,8e-05,0,-1.3768510990881782,-0.0009985462231251957,-0.00011014808792705426,-0.0,-0.00110869431105225,0.2,0.02,0.0,0.12552721276592718,0.021720512316242037,0.0025105442553185436,0.0,0.02423105657156058,0.17365322759628463,0.0,-0.17365322759628463,0.05332157377012864,0.0,-0.05332157377012864,-0.4992731115625979,0.0,0.4992731115625979,0.10860256158121018,0,-0.10860256158121018,-0.01775637083728364,-0.047096235093635995,-0.02423105657156058,0.4,0.033434391021728516,2.5326404571533203,STABILIZE
0.2,0.015,0.15,0.17694762730478703,0.009108424830149514,0.002654214409571805,-0.054763530690232896,-0.04300089145051158,0.2,0.015,0.15,-0.05381032412974047,0.03480688109793861,-0.000807154861946107,-0.02632034536922107,0.007679380866771435,0.002,8e-05,0,-1.3935773833365734,-0.0010001514149816648,-0.00011148619066692589,-0.0,-0.0011116376056485907,0.2,0.02,0.0,0.1291349110157351,0.021572301748479628,0.002582698220314702,0.0,0.02415499996879433,0.17403440548969307,0.0,-0.17403440548969307,0.045542124150747564,0.0,-0.045542124150747564,-0.5000757074908324,0.0,0.5000757074908324,0.10786150874239814,0,-0.10786150874239814,-0.04301527197532679,-0.007598416474784747,-0.02415499996879433,0.4,0.0334475040435791,2.566065788269043,STABILIZE
0.2,0.015,0.15,0.17876694594219558,0.010876712855676922,0.0026815041891329336,-0.01763461344246769,-0.004076396397657837,0.2,0.015,0.15,-0.047471590836227366,0.03789582565947117,-0.0007120738625434104,0.012597009092258067,0.04978076088918583,0.002,8e-05,0,-1.4100736481797582,-0.0009862216117683077,-0.00011280589185438067,-0.0,-0.0010990275036226883,0.2,0.02,0.0,0.13188395624283986,0.0164350405408247,0.002637679124856797,-0.0,0.019072719665681498,0.18947912829735586,0.0,-0.18947912829735586,0.05438356427838461,0.0,-0.05438356427838461,-0.49311080588415385,0.0,0.49311080588415385,0.08217520270412348,0,-0.08217520270412348,-0.004147789134283422,-0.04977486321020533,-0.019072719665681498,0.4,0.03345346450805664,2.5995118618011475,STABILIZE
0.2,0.015,0.15,0.180070351567242,0.007050035369280172,0.0027010552735086298,-0.04382498631579519,-0.034073895673006394,0.2,0.015,0.15,-0.04114875933380434,0.03419978007574914,-0.000617231390007065,-0.026790752523297642,0.006791796162444436,0.002,8e-05,0,-1.4282210038767125,-0.0009815785436546706,-0.000114257680310137,-0.0,-0.0010958362239648076,0.2,0.02,0.0,0.13500556445934217,0.01688457369868529,0.0027001112891868436,-0.0,0.019584684987872133,0.1709989003787457,0.0,-0.1709989003787457,0.03525017684640086,0.0,-0.03525017684640086,-0.49078927182733534,0.0,0.49078927182733534,0.08442286849342645,0,-0.08442286849342645,-0.034083866100618865,-0.006741582387110848,-0.019584684987872133,0.4,0.036975860595703125,2.6365203857421875,STABILIZE
0.2,0.015,0.15,0.18127481478802937,0.007202367917654665,0.0027191222218204405,-0.030220390245571827,-0.02029890010609672,0.2,0.015,0.15,-0.03534297152103399,0.034717058319200945,-0.0005301445728155098,-0.01375719494639386,0.02042971879999158,0.002,8e-05,0,-1.4444577762000639,-0.0009709155584802582,-0.00011555662209600512,0.0,-0.0010864721805762634,0.2,0.02,0.0,0.13780268309223545,0.016726021314503153,0.002756053661844709,-0.0,0.019482074976347862,0.17358529159600472,0.0,-0.17358529159600472,0.03601183958827332,0.0,-0.03601183958827332,-0.48545777924012906,0.0,0.48545777924012906,0.08363010657251577,0,-0.08363010657251577,-0.020328698112914757,-0.020400068352777617,-0.019482074976347862,0.4,0.033446311950683594,2.6699554920196533,STABILIZE
0.2,0.015,0.15,0.18248776945563433,0.007202367917654665,0.002737316541834515,-0.013889388356645566,-0.003949703897156386,0.2,0.015,0.15,-0.029496252995232716,0.034717058319200945,-0.0004424437949284907,0.0015183623185061818,0.035792976842778636,0.002,8e-05,0,-1.4608090175136623,-0.0009709155584802582,-0.000116864721401093,0.0,-0.0010877802798813512,0.2,0.02,0.0,0.1406195213676249,0.016726021314503153,0.002812390427352498,-0.0,0.019538411741855652,0.17358529159600472,0.0,-0.17358529159600472,0.03601183958827332,0.0,-0.03601183958827332,-0.48545777924012906,0.0,0.48545777924012906,0.08363010657251577,0,-0.08363010657251577,-0.004001943841595627,-0.03578717364687542,-0.019538411741855652,0.4,0.03368210792541504,2.7036314010620117,STABILIZE
