Mode,Time,Freq,North-Vision,East-Vision,Down-Vision,Yaw-Vision,North-Desired,East-Desired,Down-Desired,Roll-UAV,Pitch-UAV,Yaw-UAV,Roll-Control,Pitch-Control,Yaw-Control,Thrust-Control,northVraw,eastVraw,downVraw,yawVraw,zGyro
GUIDED_NOGPS,0.004565238952636719,220.26593845184328,296.67812560047463,-96.90870240258029,15.900757319636247,8.151521944529783,299.2355437237806,-95.57929638811501,21.217522301802397,-0.8157649775417952,0.45656527572997174,-10.615131668386146,-1.5988309775381147,3.0,-0.5706065361170849,0.5079751474732492,296.67812560047463,-96.90870240258029,15.900757319636247,8.454595890411134,-1.0313240312354819
GUIDED_NOGPS,0.020844221115112305,61.448701232108064,296.1445450583007,-97.21480782490346,14.510757287621555,8.380346748972343,299.23539637805516,-95.57908516758525,21.217525570857205,-0.8554027530903477,0.5572207063113919,-10.624740037001063,-0.14055647250138475,0.2544692693517507,-0.586624272428064,0.5100601524248535,295.6109645161268,-97.52091324722664,13.120757255606863,8.460507825502106,-1.0313240312354819
GUIDED_NOGPS,0.04670405387878418,38.686060561340724,295.7738956737544,-97.58925970212294,13.985078387314127,8.378627811905329,299.234376848558,-95.57762366905968,21.217548322909913,-0.8980508811547304,0.6802699793037565,-10.64660432630792,-0.138183772317378,0.19523996231268803,-0.586503946833373,0.5108487049033936,295.0325969046617,-98.3381634565619,12.933720586699275,8.342078951221048,-0.6875493541569879
GUIDED_NOGPS,0.08900141716003418,23.645867628819484,295.6559829477087,-97.15270502017215,11.94915551703793,8.366861662825952,299.23164543339885,-95.57370817741491,21.217609680989057,-0.9329037356637188,0.7281052091559408,-10.693956320276325,-0.022500723764636216,0.15419242347799217,-0.5856803163978167,0.5139026812459266,295.3022447695716,-95.59903835672789,9.792988708807654,9.001197529471552,-0.8594366926962349
GUIDED_NOGPS,0.13475394248962402,21.860362332436885,295.3080552103772,-97.68441978885382,11.910436389958639,8.316599578356936,299.22639742664654,-95.56618514433754,21.217728377834767,-0.8487425715976448,0.8278716479282014,-10.853400256261104,-0.13216013398255738,0.18719836677634094,-0.5821619704849855,0.5139609379818142,293.91634426105117,-99.11605755327166,13.004599874368981,8.355428472923412,-2.119943841984046
GUIDED_NOGPS,0.18932819366455078,18.326942235427772,294.5492334611505,-98.48867309681397,11.58707150065014,8.233146777132449,299.21786263562603,-95.55395049636805,21.21792275854482,-0.679589041460018,0.9851619398903094,-11.046231864456196,-0.17770212730757468,0.24252848130592913,-0.5763202743992715,0.514446276886842,292.88401685434127,-100.75092338044236,11.96362591877378,8.073405090892258,-2.4064227395494577
GUIDED_NOGPS,0.2318885326385498,23.499081170722963,293.914691034313,-100.12321999010474,11.448938404568716,8.121348901769673,299.2053048982155,-95.53594894294484,21.21821078322065,-0.5106777162336622,0.9876445002101976,-11.142515333638572,-0.3388210184629885,0.27082125010840674,-0.5684944231238772,0.5146539085679779,292.4382523819393,-100.50267903660016,9.378589420563388,8.14611664784401,-2.291831180523293
GUIDED_NOGPS,0.27985668182373047,20.85141584473433,293.2762345249788,-101.00496516565384,10.489230674099852,8.013180002541459,299.18802160014343,-95.5111732844483,21.218610029613362,-0.2057854354819919,0.8427819508863393,-11.290970349022446,-0.29636008482875,0.28961576068291517,-0.5609226001779022,0.5160940690332703,291.8403143579909,-101.76129307991896,10.125476682962388,7.888139359828702,-3.0366763141933633
GUIDED_NOGPS,0.32268404960632324,23.355146223578412,292.7795955054827,-100.31957600263235,9.259914611645458,7.892716921740005,299.1653431922859,-95.47866372024473,21.219137695769778,0.021633250154053454,0.8714698126174507,-11.423387226461482,-0.133604201214511,0.3013065857384567,-0.5524901845218004,0.5179388346261865,292.81904967209084,-98.6947558913779,8.275677731410598,8.509177521677639,-2.9220847551671985
GUIDED_NOGPS,0.3646268844604492,23.84590544197576,292.1168760701859,-101.19638617707324,9.356271238961867,7.776895336314113,299.13663270796354,-95.43750715673033,21.219810602678436,0.21032827167220408,0.6931457396628768,-11.52067985609373,-0.31898205141074676,0.34290521949072117,-0.544382673541988,0.5177953090455748,290.60274708456757,-103.13310955992281,9.667659302512611,7.5930521258578905,-2.635605857601787
GUIDED_NOGPS,0.40781545639038086,23.160794058367156,291.659767193025,-101.56419735158738,9.121910451622002,7.6589799135717325,299.10128528023876,-95.38683651537532,21.220645196915626,0.3198762216867973,0.6828381304316813,-11.6575534319662,-0.2874186127199684,0.33883950527993884,-0.5361285939500213,0.5181481021179405,290.59847246853667,-102.86472660346139,9.422394320942795,7.634794370893858,-3.0939720937064457
GUIDED_NOGPS,0.45479559898376465,21.288073655253623,291.25274630885895,-103.05401005276072,9.306987117156078,7.5199561397537105,299.05872765921265,-95.32583004076778,21.221657553291415,0.42556864997683735,0.49326793756526993,-11.830305137775103,-0.44331328477484944,0.34581733278941285,-0.5263969297827598,0.517872005654203,290.40314796110874,-103.16419399489789,8.830907728012825,7.558194624042514,-3.8388172273765155
GUIDED_NOGPS,0.49778175354003906,23.27156514067901,291.00074521178567,-102.99703792556166,9.522033469480007,7.359387988051352,299.00841772932245,-95.25371060865778,21.222863377495653,0.498602261946197,0.22537511171267605,-12.006411320240126,-0.31342010361555556,0.341912356454392,-0.5151571591635947,0.5175512448620234,290.5803088726246,-102.96219317832563,10.312798359484395,7.604681529101549,-4.010704565915763
GUIDED_NOGPS,0.5410985946655273,23.086217525319242,290.17675094448686,-104.24107242968908,9.904710711073355,7.190212667352151,298.94984402663835,-95.1697450340013,21.224278008744022,0.47462979206333317,0.09703073456625895,-12.196819918827156,-0.48819234537666245,0.4248501400219014,-0.5033148867146506,0.516979350946506,288.69907833559694,-106.59683011584366,10.570426045722831,6.844454772421708,-4.18259190445501
GUIDED_NOGPS,0.5819544792175293,24.48013540724312,289.74031171731906,-105.61818767903769,10.430142131397629,6.998165797262415,298.8825252561607,-95.07324337900427,21.22591642242404,0.42326463507072165,-0.09759529238984282,-12.394297763205149,-0.5694482172917387,0.4054929129183207,-0.48987160580836914,0.5161936614365397,288.4205509487282,-107.29553974294376,10.407201988985646,6.673638572225069,-5.099324376664327
GUIDED_NOGPS,0.6242749691009521,23.636806275641316,289.22566490952914,-107.42224087221075,10.76805419470517,6.79526387499674,298.8060098091173,-94.96355826116657,21.227793232741085,0.3386759972121401,-0.250645957868077,-12.633352676608304,-0.682596197658191,0.42856770043549736,-0.47566847124977185,0.5156896085570539,288.0252384295872,-108.37435275784483,11.326534549407022,6.433048060461728,-5.557690612768986
GUIDED_NOGPS,0.6734013557434082,20.359710693655646,288.6705906246992,-108.35125707852528,11.382797303663986,6.572680103965147,298.7198752802602,-94.84008416132603,21.229922695364426,0.2937198521776748,-0.5801983164529609,-12.910413323874346,-0.6319709854195454,0.4453305073801992,-0.4600876072775603,0.5147706880875507,287.6277765369589,-109.38387873478726,12.414655372599283,6.219457391098618,-5.500394833255903
GUIDED_NOGPS,0.7141056060791016,24.570337305074222,288.08309214795565,-109.21351298529889,11.803087700011325,6.31755420333129,298.62372798516316,-94.70225673170239,21.232318710073248,0.20137165251449596,-0.7249792236718964,-13.149225765561965,-0.6813910504347537,0.4737451978038002,-0.44222879423319034,0.5141438465150929,287.64281648890704,-109.88230746326455,11.66807317802766,6.076756600048418,-5.614986392282068
GUIDED_NOGPS,0.7570035457611084,23.316974461035567,287.7238993347605,-110.4251527626083,12.43035231231738,6.079243545537776,298.5172024775185,-94.54955210394138,21.23499482340266,0.1228340019715903,-0.8558378574848187,-13.321786226074106,-0.7680030380735523,0.46071725192398894,-0.42554704818764433,0.5132069637666279,286.90311426962114,-112.00927208977308,13.208328386325187,5.5561785715988705,-5.901465289847479
GUIDED_NOGPS,0.8060405254364014,20.39495463253815,287.38409435315873,-111.55136580110513,13.025561827803001,5.809966172923843,298.3999610664342,-94.38148619715865,21.237964231289723,-0.07986237373655755,-0.985645602660911,-13.737773774831854,-0.7995247866848947,0.4648441633997379,-0.4066976321046691,0.5123186036052301,286.72152604071914,-112.76251785027772,14.200283919056147,5.373248040034272,-7.16197243913529
GUIDED_NOGPS,0.8434383869171143,26.747852482956972,287.0894778442995,-112.77746791213526,13.83046486462887,5.4766413682315696,298.2716933337313,-94.1976140259838,21.241239781719496,-0.2383526578986854,-0.9933930648921153,-14.005915048815508,-0.9045645244700579,0.47182582064550943,-0.3833648957762099,0.511116162375636,286.5521558852912,-113.56061379635496,14.08278228850527,5.1805073250895335,-7.792226013779196
GUIDED_NOGPS,0.8833482265472412,25.065162308170386,286.7926831396675,-113.66960854314186,14.228588880972195,5.223619106890561,298.1321156512409,-93.99752900860437,21.24483397737102,-0.46455579664609326,-0.9680946845366227,-14.302820810715025,-0.9012730014143001,0.4757066959887107,-0.3656533374823393,0.5105243676445982,286.14380301379896,-114.68569398279286,14.402700435355161,4.904086756372798,-6.932789321082962
GUIDED_NOGPS,0.9255492687225342,23.698775030511232,286.4470564947054,-114.57716445568288,14.187819208082482,4.958311296398931,297.98097069810103,-93.78086227480988,21.248758978263375,-0.6875482395554927,-0.9384318133014921,-14.56220578218272,-0.9477442383309287,0.48717291038789534,-0.3470817907479252,0.5105914096552714,285.9146832640968,-115.48518558790076,14.07797490038701,4.6753592342704104,-5.958761069360562
GUIDED_NOGPS,0.9611415863037109,28.10272765646671,286.46428698996243,-114.94522659826708,14.286028976238791,4.703126526644218,297.81802697805404,-93.54728197403574,21.25302660440168,-0.8393515417365532,-1.0136214171710485,-14.743414115957744,-0.932350901731158,0.4418058255053707,-0.3292188568650953,0.5104504964422444,286.9892667459063,-114.66480022410755,14.377411592974196,4.710937849197101,-5.958761069360562
GUIDED_NOGPS,1.0052964687347412,22.654402272837753,286.55899826521124,-114.93572692223627,14.649265664742913,4.48751288859358,297.64307833674366,-93.2964925834074,21.257648338423124,-1.0773569005241994,-0.8636238462518101,-15.051689581504391,-0.8982262120176941,0.4267431342594508,-0.3141259022015506,0.5099125740105204,287.1950824169634,-114.65719495470043,15.492410500867525,4.665568908080725,-6.302535746439056
GUIDED_NOGPS,1.0469985008239746,23.983348962741015,286.5605393427901,-115.20229847325201,15.35068243946435,4.23280549714447,297.4559434790121,-93.02823421578418,21.262635328243004,-1.2897461150773888,-0.8051116433447206,-15.304625146848304,-0.9490418293180972,0.4265742681782704,-0.29629638480011294,0.5088679293331679,286.5598612731852,-116.28490024094792,16.182225224551324,4.299645640099697,-6.016056848873644
GUIDED_NOGPS,1.0888557434082031,23.89562799813133,286.7987332966601,-115.5652469114948,15.885154272593882,4.0135497823872655,297.25646548619716,-92.74228192780339,21.267998389700715,-1.4358515453867777,-0.7572156888419468,-15.513070567486047,-0.9873427069652655,0.3855208399114706,-0.2809484847671086,0.5080742661756602,287.33477278314933,-115.75364553883593,15.980827092362794,4.380510394123472,-4.755549699585833
GUIDED_NOGPS,1.1289706230163574,24.933740741181087,287.06836271922225,-116.11271974702576,16.15190749772955,3.817092853533866,297.0445113334293,-92.4384450279243,21.273748009205807,-1.5252587216222446,-0.6314001892357268,-15.696596042936996,-1.045205299180311,0.3604765830862247,-0.26719649974737064,0.5076827607672144,287.2628303769074,-116.29961346129338,16.292670176274527,4.24471406667844,-4.469070802020421
GUIDED_NOGPS,1.1691417694091797,24.898661363568905,287.14135370138746,-116.20544125700656,16.4279654144032,3.63631927767229,296.8199714069288,-92.11656638447211,21.279894346383983,-1.5371180644555025,-0.5776803245267534,-15.891507443734357,-1.0190540402356847,0.3674256680272174,-0.25454234943706033,0.5072778933979711,287.3542216567323,-116.56306477089034,17.010398974572283,4.188270153592697,-4.698253920072751
GUIDED_NOGPS,1.2149043083190918,21.856033683157378,286.98555536895293,-117.09872901940719,16.94240725075752,3.462555148216374,296.58275902130305,-91.77652173368197,21.286447236723138,-1.5627657449540175,-0.4965466418102876,-16.08478472177279,-1.1369529391239384,0.3870136427734414,-0.2423788603751462,0.5065160599789484,286.4160907547906,-118.43350882603782,17.524152601425744,3.8069925214268996,-4.297183463481175
GUIDED_NOGPS,1.2645134925842285,20.161045952701404,286.7823383097968,-118.3371715125118,17.528048024545413,3.275878026367384,296.3328099368432,-91.41821898774305,21.293416194219372,-1.6984977187397439,-0.23652688963660282,-16.273487480614612,-1.2213302993925261,0.38905255008365974,-0.2293114618457169,0.5056480522545109,285.5437759774046,-120.01494094060719,18.04959249763821,3.4902069603607657,-4.010704565915763
GUIDED_NOGPS,1.3069336414337158,23.57555829103643,286.45130092275133,-119.59508164484068,18.14089455878835,3.0645119886808576,296.0700818768219,-91.0415975428424,21.300810414023015,-1.8634341940342698,-0.2796981675027262,-16.494375798372825,-1.3140851177439834,0.40236772054423503,-0.21451583920766004,0.504739873782852,285.67958584792166,-120.33679516787696,18.848938577301105,3.455451701295694,-4.698253920072751
GUIDED_NOGPS,1.3523743152618408,22.01121997554486,285.72494754120476,-121.34648083028395,18.85361151640811,2.867059499191205,295.79455404478983,-90.64662758720905,21.30863877508466,-2.0327123217633964,-0.21668369599383483,-16.7080753420296,-1.4365550849286783,0.45415905843042187,-0.20069416494338438,0.5036825408880148,283.6310634691747,-123.68770638236765,19.662303474285025,2.7479331309559063,-5.042028597151244
GUIDED_NOGPS,1.3920798301696777,25.19116631331119,284.57836456983165,-123.63238594184712,19.403766469152767,2.644630673721827,295.5062266418733,-90.23330940915804,21.31690984280117,-2.121264443692142,-0.3049401987975662,-16.89774628018627,-1.6294312092448964,0.5359156825075152,-0.1851241471605279,0.5028697150604726,281.62130679986683,-126.87265627529668,19.70005735587218,2.0980393308287986,-5.042028597151244
GUIDED_NOGPS,1.4311203956604004,25.714415336795188,283.50735613813305,-126.10990044383351,19.702795079720328,2.4489580703081417,295.2051203840709,-89.8016727051343,21.325631871661713,-2.2044254119316324,-0.1386485712830276,-17.104006040289605,-1.7754568034119058,0.5600992901993139,-0.17142706492156995,0.5024342551879121,281.0610485962975,-127.76933867383616,19.74602440900379,1.8910312580671742,-4.984732817638163
GUIDED_NOGPS,1.4746694564819336,22.967008536712243,282.5702741172116,-127.5969587152304,19.89797733257615,2.2446011558588217,294.8912760195511,-89.35177588775674,21.334812807893776,-2.2925751930295823,-0.06258737124235403,-17.340374981801652,-1.729889827131091,0.5626304849971218,-0.15712208091011753,0.5021552532129765,280.85836587279744,-128.14888119655828,20.247850232852485,1.7847224008902005,-5.7868737308213145
GUIDED_NOGPS,1.515151023864746,24.70973177097141,281.54445237671035,-128.1702539546585,19.954889058873594,2.0007611773722003,294.56475384594904,-88.88370539386229,21.344460292109197,-2.4183887716450982,0.022992978067201676,-17.603465330894082,-1.6998976885701425,0.6036108385468824,-0.14005328241605403,0.5020843568498534,280.55047714541524,-128.59254199358102,19.870792534764508,1.6697266098727497,-6.016056848873644
GUIDED_NOGPS,1.557969093322754,23.36008911166806,280.95708771369766,-128.41010441830915,19.730530268861614,1.7774247377487633,294.2256332276637,-88.39757499254975,21.35458166195018,-2.624947779411447,0.34670488458149007,-17.88342624723644,-1.6953067623030609,0.5680569549490548,-0.12441973164241345,0.5024360770896329,280.6942401541114,-128.48889006478808,19.072948038967855,1.6793684896579801,-5.614986392282068
GUIDED_NOGPS,1.6005630493164062,23.48118953780007,280.97174653883275,-128.1300651617156,19.23281202982663,1.5543810442758075,293.87401211315506,-87.89352509322394,21.36518395473533,-2.7298396348255674,0.4439917512416245,-18.050827353604284,-1.6597167250918587,0.49565917478978627,-0.10880667309930653,0.503198557887363,281.6946009255423,-127.30876342677767,18.754695515747525,1.8421243079896064,-5.099324376664327
GUIDED_NOGPS,1.642193078994751,24.115451398870785,280.9767651198558,-128.01463865482697,18.84473356903884,1.3419513672441772,293.51000655224135,-87.37172205363966,21.376273910105652,-2.8439144661353586,0.5794045204053585,-18.316158004744477,-1.6955458007439026,0.48078412710958884,-0.09393659570709241,0.5037973105116003,281.0861415014127,-128.24626247291508,18.706557152401142,1.5639008620666202,-5.500394833255903
GUIDED_NOGPS,1.68060302734375,25.94377400738546,280.77918587120666,-128.43688460605293,18.68543435604481,1.1245894235372995,293.1337502133958,-86.83235748794561,21.387857972670606,-2.927310649014391,0.7233003845182484,-18.571383391007636,-1.7929140972685065,0.49193594276084734,-0.07872125964761097,0.5040536354249388,279.87046962955156,-129.75562791846596,18.595050399985755,1.1520864930304513,-5.67228217179515
GUIDED_NOGPS,1.7221148014068604,24.09757835167045,280.58512408868137,-129.37275800786608,18.46563308348621,0.9211029180077062,292.74539390104417,-86.27564757472854,21.3999422946541,-2.946808277773839,0.8521017440088217,-18.81398658768461,-1.90188991128708,0.4838625368388761,-0.06447720426053943,0.5044014638167519,279.5801682327888,-130.1163836322171,18.09529169807174,0.9439629469460554,-4.92743703812508
GUIDED_NOGPS,1.766385555267334,22.590830748017925,280.3623097044168,-129.9961317276334,18.261877932043078,0.7305891933103426,292.3451050728616,-85.7018323650571,21.412532738540538,-2.9855666131058993,0.8859246273353133,-18.992794109966376,-1.9157379191023598,0.48002718386710264,-0.05114124353172399,0.5047259822097462,279.5801682327888,-130.1163836322171,18.09529169807174,0.9439629469460554,-4.239887683968092
GUIDED_NOGPS,1.8072714805603027,24.46271659949725,279.58088649861736,-130.8479487029829,18.045933701551462,0.5290446255350069,291.93306735706983,-85.11117509052595,21.425634879720825,-2.9632762907495627,0.8823917119871242,-19.207256927262897,-2.008711944575307,0.5475749463373927,-0.03703312378745048,0.5050695517672541,277.78748489654487,-132.3110788445144,17.9472177085109,0.2353865379671224,-4.640958140559668
GUIDED_NOGPS,1.8498375415802002,23.497896323187504,278.9033960224939,-131.54874682355975,18.20591527901772,0.33814515989573946,291.5094800697343,-84.50396147129968,21.43925400913839,-2.9405439270878793,0.8436280405697746,-19.400978167597383,-2.0453908616748717,0.5460720774589622,-0.023670161192701763,0.504850008095181,277.69868912079545,-132.21877799394753,18.57523643047051,0.14417885723743365,-4.92743703812508
GUIDED_NOGPS,1.8891549110412598,25.438833561785078,278.0758215525324,-133.0647553024526,18.497284776010694,0.14454307994180893,291.07455773206135,-83.88049902415689,21.453395135935235,-2.916333254357711,0.807297197157419,-19.59275451156571,-2.224510544909052,0.5777916495005849,-0.010118015595926625,0.5044341655398868,275.73259727974397,-134.6644090688957,18.969400189050667,-0.6007962423148108,-4.411775022507339
GUIDED_NOGPS,1.932119607925415,23.282157745446874,277.30630736192336,-133.84919871057969,18.838012269523947,-0.01283164747956483,290.628529587695,-83.24111637053413,21.46806299009792,-2.9289618472462418,0.8277766656100559,-19.745976145216606,-2.200915360669112,0.581918825017285,0.0008982153235695382,0.5039450760808609,275.73259727974397,-134.6644090688957,18.969400189050667,-0.6007962423148108,-3.4377467707849396
GUIDED_NOGPS,1.9718997478485107,25.143898520490133,276.19726075749475,-135.21057178893105,18.845702840947165,-0.15670814108808645,290.1716391200147,-82.58616254456993,21.483262025103606,-2.9380242276143793,0.7030802498106603,-19.81827540512848,-2.353030774435613,0.6437748532340132,0.010969569876166053,0.5039563387762347,274.0349352106455,-136.30289722900156,18.598308144740166,-1.2363940341126405,-2.2345354010102105
GUIDED_NOGPS,2.015407085418701,22.9880299907923,275.441294466549,-135.70303674500065,18.81871854799051,-0.24703490258511293,289.7041435694316,-81.9160063011488,21.498996420566087,-2.935173477409545,0.7245658905054049,-19.887045164786755,-2.3067406037859373,0.6171055367897975,0.017292443180957906,0.5040204168088633,274.00765344181593,-136.14180393710453,18.888447310180705,-1.326031170274522,-1.0313240312354819
GUIDED_NOGPS,2.057919979095459,23.52728945331344,274.68895293505466,-136.14136342714025,18.93564400491683,-0.3176616527769517,289.2263134506866,-81.2310354239452,21.515270084881795,-2.9653644076448824,0.7189657757162291,-19.947483801204907,-2.352751049183328,0.6279968165091877,0.02223631569438662,0.5038694391199474,273.93698146332395,-135.97938911531446,19.32017655982963,-1.4021173628175518,-0.7448451336700702
GUIDED_NOGPS,2.1006903648376465,23.3841830903465,274.3187659998139,-135.8729407784613,19.458461607528843,-0.3682650015515341,288.73843207014664,-80.53165603346758,21.53208665787583,-3.009710051161425,0.5389318075916248,-19.96061825497884,-2.306906722655284,0.5870619067062565,0.025778550108607388,0.5031104375755204,273.88166260353995,-135.4976292829648,20.166760952576208,-1.450418467563824,-0.6302535746439055
GUIDED_NOGPS,2.1409683227539062,24.849097404482468,273.84351843874873,-135.76447567888408,19.81074703381006,-0.39070647559670424,288.24079504310237,-79.81829189510239,21.549449513447986,-3.0673557805392746,0.49053586189726484,-19.94586333882432,-2.353553619010842,0.5955058649157503,0.0273494532917693,0.5026080537194569,273.3563594744183,-135.81640863837288,19.945303589024363,-1.5734938767702165,0.5156620156177409
GUIDED_NOGPS,2.1740095615386963,30.25844058405956,273.7614964968757,-135.51199022629854,19.976522133442177,-0.3776825624493165,287.73370981106507,-79.09138372715802,21.56736176221877,-3.0569275757805463,0.4236800493104759,-19.913179176098517,-2.3708147128540578,0.5302229664201406,0.026437779371452155,0.5023862594431648,273.6248255012801,-135.22193275755788,19.817501858725986,-1.472563732921951,1.3750987083139758
GUIDED_NOGPS,2.211716651916504,26.524236234514422,273.66440110290534,-135.3763350954118,19.89856612706761,-0.30695906086424,287.2174951590636,-78.35138850890884,21.585826254175423,-3.1431834734876984,0.3565202933056215,-19.746623305640465,-2.404269112584458,0.5205467421520489,0.021487134260496803,0.5025308901906618,273.52217647196414,-135.0906638903046,19.93289293345251,-1.4857907583642365,3.9534087864026803
GUIDED_NOGPS,2.2520432472229004,24.802223404884394,273.58055648522884,-135.02784944039092,20.16168754662507,-0.18156419294991039,286.692480732942,-77.59877878863924,21.60484558131795,-3.0193267440693914,0.36918282369659045,-19.56644462288282,-2.3988541505424354,0.5040152122424043,0.012709493506493728,0.5021647370520393,273.51775837494137,-134.77095167331024,20.73466784769675,-1.4483362869390262,5.271211715203574
GUIDED_NOGPS,2.2982070446014404,21.6663601706735,273.32815197952425,-135.0365262033513,21.027018349416306,-0.0008451695634127399,286.15900655665587,-76.83404199168751,21.624422080305138,-2.908079397632574,0.42031895590859497,-19.258182817714513,-2.4594585931662407,0.5127902932087625,5.91618694388918e-05,0.5008961055963332,272.61964007501695,-135.24796304643888,22.41349426709969,-1.5317567642526777,6.359831525952138
GUIDED_NOGPS,2.3312487602233887,30.267829952443837,273.142335613097,-135.1126440292064,22.000301813427768,0.2467160536195997,285.61742254957034,-76.05767972849003,21.644557835100578,-2.837990984577665,0.4173742906026732,-19.050312840514344,-2.531171066995041,0.4804745004449993,-0.01727012375337198,0.4994663840325092,272.4272776422819,-135.31901736786995,22.852743325486898,-1.4507421149502815,6.875493541569879
GUIDED_NOGPS,2.3881497383117676,17.57763100546485,272.9028260412973,-135.29533259405966,22.706326972691148,0.4496805874817667,285.0680880437565,-75.27020710262506,21.665254679618698,-2.713277706748756,0.44627346131123186,-18.732031147833627,-2.5390045937292607,0.4898208625871897,-0.03147764112372367,0.4984383915603913,272.4272776422819,-135.31901736786995,22.852743325486898,-1.4507421149502815,7.333859777674538
GUIDED_NOGPS,2.417069673538208,34.58848948154012,272.81711695624836,-134.78676294535836,22.95022250353301,0.7571533718735308,284.5113713012888,-74.47215201885692,21.68651420037077,-2.553476893379845,0.4018674133092171,-18.356855686913995,-2.5237878138974232,0.4283196979851147,-0.05300073603114716,0.49810443754525663,273.0936310467191,-133.72225410033496,23.145180859625267,-0.8224876426279203,9.396507840145501
GUIDED_NOGPS,2.462909698486328,21.81885524337653,272.7663096993542,-133.94554861481024,23.229143044216556,1.014866117552678,283.94764903154226,-73.66405449117985,21.70833773911094,-2.4497483045587423,0.3773184327717219,-17.86948924623503,-2.482462766628083,0.4282491719611154,-0.07104062822868747,0.4977187920423416,273.26372209047076,-132.7953743762255,23.689504947537536,-0.296005270569711,10.485127650894066
GUIDED_NOGPS,2.500739336013794,26.443133101326474,272.85645778301523,-133.1072332370426,23.899873201051378,1.4397835702210104,283.37730590848935,-72.84646595086213,21.73072639548226,-2.374871715452243,0.2958110106416094,-17.539415231952287,-2.4846218544146934,0.3773063013318819,-0.10078484991547074,0.4967462797916463,273.070380493322,-132.80407123456712,24.86493379599136,-0.10732628062218233,10.771606548459477
GUIDED_NOGPS,2.538688898086548,26.352917522728845,272.94222414141717,-132.80288914772535,24.357635017636365,1.8049956408914938,282.8007340879973,-72.01994855448999,21.753681029662694,-2.2138739114312873,0.20408007598445724,-17.136963410582208,-2.564907413983505,0.3513897150642857,-0.12634969486240458,0.4960940690180395,272.85610943429185,-132.80922183238314,24.518466309380226,0.12852713014859643,10.657014989433312
GUIDED_NOGPS,2.586017370223999,21.139899297907835,272.96612863807354,-132.8609500918158,24.907609358206077,2.17616361141599,282.21833272512504,-71.18507449201164,21.777202265011155,-1.985420091950228,0.08006497155477041,-16.57548600231402,-2.6247045755303393,0.3455437703267172,-0.15233145279911933,0.4953043893602076,272.54680012556383,-132.96955720849687,25.339427969246678,0.3437921349735545,10.542423430407148
GUIDED_NOGPS,2.6264023780822754,24.764003282734354,272.52136922237,-133.25500617757453,25.290807380918352,2.6405109624938237,281.63050749142053,-70.3424252947813,21.801290490713523,-1.733429867476128,0.02215478578999417,-16.0306418122221,-2.7220041159151322,0.37781259097160025,-0.18483576737456767,0.49476572466469276,270.86983396820165,-133.9862394918433,26.014527864128176,0.60881559271464,11.516451682129548
GUIDED_NOGPS,2.6625709533691406,27.674397429383937,272.2977619274635,-132.88827497043658,25.626386299944297,3.0827901407296463,281.03767009221775,-69.49259114360319,21.825945864428668,-1.5748643578516375,-0.11319501756732882,-15.576473506003982,-2.675979695207382,0.3363407503208937,-0.21579530985107526,0.49429933934672654,272.14568561593796,-131.7090282109694,25.525203066458058,1.395186334533642,12.032113697747288
GUIDED_NOGPS,2.6992135047912598,27.30666666666667,272.06437113401773,-132.42116629866493,25.722434437107523,3.4854882577841875,280.4402377839338,-68.63617017677548,21.85116831493447,-1.468891838444774,-0.15917414351256215,-15.200872865808519,-2.682780945966786,0.32329194113124815,-0.24398417804489314,0.4941931008167404,271.9034265260929,-131.56823119318187,25.62757238073637,1.6825631883724135,12.433184154338864
GUIDED_NOGPS,2.751845598220825,19.000158549678144,271.78996701241056,-131.63493884659,25.90242220600548,3.88207725539307,279.83863289136605,-67.77376779813437,21.87695754477384,-1.3888947418948805,-0.1594868381105018,-14.668008827520802,-2.653467342042795,0.3171262655277547,-0.27174540787751494,0.49396180300815257,271.4840888262563,-131.62755713561856,26.554491170822033,1.927698267856561,12.490479933851947
GUIDED_NOGPS,2.779360055923462,36.35618504425009,271.4349787798543,-131.80376136074807,26.105896201375582,4.3145694703921205,279.2332823249894,-66.905995985098,21.90331303290077,-1.3278051030714633,-0.41951448769041444,-14.336758313153524,-2.7910432638833838,0.31623341846964614,-0.3020198629274485,0.4936961252472878,270.7718589627824,-132.21549575344366,26.13562505256837,2.0770307779102573,11.745634800181877
GUIDED_NOGPS,2.8228259086608887,23.01022602589423,271.3533070841416,-131.83124767791892,26.39127110664192,4.759116865357936,278.62461709825294,-66.0334725967106,21.9302340373263,-1.283675677730834,-0.2650047230507363,-13.732302793306674,-2.811614695283541,0.2713648095701345,-0.33313818057505556,0.49330844439602656,270.46147548963796,-131.6506901446944,26.48369709653538,2.820407665863527,10.943493886998723
GUIDED_NOGPS,2.854534387588501,31.542049257379208,270.9942797317445,-131.59020678647903,26.182115806071838,5.215360358581115,278.0130718448777,-65.15682068168624,21.95771959776461,-1.243893240910095,-0.3449145212453005,-13.401561128032563,-2.8361105087273577,0.27830442782642756,-0.3650752251006781,0.49366340568753914,270.3505488539524,-130.90443446129882,25.927025269111795,3.2754052373864706,10.771606548459477
GUIDED_NOGPS,2.8975071907043457,23.279314880697996,270.8517621370878,-130.52551122978778,25.82785054127776,5.5363682600594295,277.39908433615324,-64.27666778645316,21.985768538278975,-1.2312415961331156,-0.3408347638766872,-12.8803698830364,-2.7344899502634106,0.24746864368986163,-0.3875457782041601,0.49423687699550184,271.19083855280957,-129.02140908336995,25.072829258186133,3.9823247354566473,10.657014989433312
GUIDED_NOGPS,2.940112590789795,23.473304828636028,270.80381345220695,-129.40334859976454,25.16740687450415,5.971109737230615,276.78309499823513,-63.39364526319742,22.014379469927846,-1.308443117600064,-0.31626550621509353,-12.418382717765907,-2.722253973918493,0.2151305420365353,-0.4179776816061431,0.49527045889313553,271.2443454018521,-128.2842022546247,24.502366096214544,4.407215942543757,10.657014989433312
GUIDED_NOGPS,2.982877492904663,23.392008031008615,271.03428908409506,-127.94504024166046,24.803797984622438,6.384102319946607,276.16554642944186,-62.50838757790723,22.043550793410834,-1.4016542823164049,-0.3009814638433091,-11.9651339257648,-2.671801051786896,0.1568075488596118,-0.4468871623962626,0.4958596292131826,271.9242371222231,-126.52950938698653,24.836198599466666,5.055236081140008,9.797578296737077
GUIDED_NOGPS,3.0268216133117676,22.7632124521052,271.26577220118605,-126.90528830785168,24.661202223630422,6.785162142162838,275.5468829175519,-61.62153161841668,22.07328070171475,-1.4253693394449238,-0.32529992549631637,-11.574612737327444,-2.70762776909993,0.12389644750631186,-0.47496134995139866,0.4961181177171265,271.61889107509296,-125.90215328194357,24.645041975210084,5.714293352474448,9.167324722093172
GUIDED_NOGPS,3.0688083171844482,23.819633588133073,271.66006606302415,-125.48738443006219,24.41525859065842,7.172107398292933,274.9275499571011,-60.733716002449924,22.10356718275963,-1.4939729334072955,-0.42324590541135704,-11.18611328488441,-2.652638054020647,0.06457450686821038,-0.5020475178805054,0.49653246288815184,272.322018163143,-124.0304906212562,23.764535197298535,6.394775301608917,8.651662706475431
GUIDED_NOGPS,3.1135246753692627,22.367593338204003,271.7909171069779,-124.52103151304878,24.182202316876054,7.528016415581895,274.30799376667954,-59.84558038566513,22.13440802204474,-1.4956967023990775,-0.6721878378032216,-10.833209363300899,-2.6958085869427593,0.06366069216299708,-0.5269611490907327,0.49692830855775305,271.845093772578,-123.63045063594632,24.137029778119565,6.692547778914243,8.59436692696235
GUIDED_NOGPS,3.162806510925293,20.295674054001744,271.5789037312758,-124.2672138724818,23.934232623166235,7.886373015166479,273.68866080622877,-58.95776476969839,22.165800805294623,-1.5152257073400248,-0.7960230094369609,-10.447135481786868,-2.7973056223584427,0.07214503855974524,-0.5520461110616536,0.4973473522731926,270.1842785233419,-125.14070036024262,23.90113289408063,6.535519354316058,8.995437383553925
GUIDED_NOGPS,3.1898231506347656,37.021413314032515,271.35904361998956,-123.76603530290417,23.74775894530319,8.208840385140821,273.0699972943388,-58.07090881020785,22.197742921105107,-1.558223242269136,-0.9642594265959549,-10.104888362855869,-2.788651895441845,0.057694331642518644,-0.5746188269598576,0.49767497596370286,270.824936565792,-122.52695491252331,23.20511416370939,7.496328008680454,8.995437383553925
GUIDED_NOGPS,3.232379674911499,23.502504734901546,271.18235391140075,-123.27471723584274,23.387758256271635,8.527836575471445,272.4524487255455,-57.18565112491764,22.23023156358933,-1.6680812855400904,-1.054045891773769,-9.767826211278555,-2.8043150804324832,0.03995806854315014,-0.5969485602830013,0.4982637099609765,270.73544253214897,-122.15649643476208,23.057027711024904,7.774747911719601,8.36518380891002
GUIDED_NOGPS,3.283189535140991,19.685930320424667,270.7339532329856,-122.32162277390883,23.137698900985175,8.854875443319232,271.83645938762743,-56.30262860166192,22.263263735023767,-1.7536877816675627,-1.2521830628500805,-9.361967833059936,-2.7622354163887417,0.061613095250902014,-0.6198412810323463,0.4986883472510579,270.0800147710672,-122.2814169744409,23.150954828221266,7.929763814618478,7.505747116213785
GUIDED_NOGPS,3.31640625,30.10835062128967,270.6385244078409,-120.94321654045899,22.816717942567152,9.244519918703698,271.222471878903,-55.4224757064288,22.296836248494245,-1.8556193904067173,-1.1568467488065135,-9.087715247316414,-2.690329497962363,-0.008015765906973976,-0.6471163943092589,0.49922017745889063,271.3679496468546,-118.39173621217375,22.242171288455324,9.168171401901038,7.7349302342661135
GUIDED_NOGPS,3.3618202209472656,22.036430504111173,270.8752586325435,-119.68829646626288,22.54509913504396,9.49608645233568,270.6109266255277,-54.54582379140449,22.33094573054198,-1.8338511506350634,-1.2689370899972987,-8.745614123678923,-2.7042537013523242,-0.055119897559059675,-0.6647260516634976,0.49967876989324705,271.3679496468546,-118.39173621217375,22.242171288455324,9.168171401901038,7.964113352318443
GUIDED_NOGPS,3.405172109603882,23.07148672138001,270.9342397859461,-118.13183997983232,21.766770242168246,9.835196756231058,270.0022613987913,-53.67330040301704,22.365588623809586,-1.8100033317045525,-1.3024971177624505,-8.38929852260499,-2.64966903982808,-0.06864083003383621,-0.6884637729361741,0.500898227572462,271.11984233280486,-117.61204751514926,20.815968149594113,9.479693849916462,7.677634454753031
GUIDED_NOGPS,3.446617603302002,24.130990599146212,270.5743661915153,-118.33519078307044,21.742538799884738,10.125416858933292,269.39691083241456,-52.80552858998068,22.4007611896871,-1.721116957393299,-1.2358356454018897,-8.092707803180941,-2.8609548756737992,-0.039855077160841516,-0.7087791801253305,0.5009873335847035,268.936074559995,-119.00178862188811,22.1694769616048,9.423534098885721,6.64631042351755
GUIDED_NOGPS,3.487135887145996,24.686898175397292,270.62130183330487,-117.09314157472731,21.304602420012515,10.389662995904134,268.79530593984686,-51.94312621133959,22.436459510958016,-1.685202328633491,-1.1265267920288864,-7.830373043765445,-2.708654100421703,-0.106739783787947,-0.7272764097132894,0.5016977856364182,270.314692980015,-114.66558858714438,20.92836214883865,10.721904753535473,5.557690612768986
GUIDED_NOGPS,3.5304319858551025,23.100967152078606,270.41065049993693,-116.11098859872568,21.342067086427363,10.617376152805232,268.1978736315629,-51.086705244511876,22.472679494445295,-1.6053411955367631,-1.0983751001476212,-7.632165222919907,-2.732508342200831,-0.09362007767423232,-0.7432163306963663,0.5016959186120269,270.314692980015,-114.66558858714438,20.92836214883865,10.721904753535473,5.213915935690491
GUIDED_NOGPS,3.577702760696411,21.15760110168936,270.1866794380466,-113.705848486157,20.38079911488171,10.855038676808455,267.60503623236013,-50.236871093333775,22.509416873657397,-1.667421852120067,-0.856554493739141,-7.360783024175083,-2.55328932483875,-0.10411633208302552,-0.7598527073765919,0.5031929266381635,270.24809433740296,-111.78636828418205,19.28567304696784,11.596620393939903,5.156620156177409
GUIDED_NOGPS,3.611956834793091,29.20133116114569,270.20473609692147,-111.70879637076057,19.213978164539675,11.11012630413767,267.0172109986556,-49.394221896103446,22.546667211434297,-1.7556857187214971,-0.5664840436515158,-7.208554329274778,-2.505928115619153,-0.16805370416588147,-0.777708841289637,0.5049990335703419,271.2101256271789,-108.67443224095506,17.42789929781254,12.374900442410581,5.385803274229739
GUIDED_NOGPS,3.648819923400879,27.143733578390133,270.52723383565746,-109.61928134206453,18.560722885874206,11.27582664650456,266.4348096357834,-48.55934783362507,22.584425902593516,-1.867100724958097,-0.519006011348582,-7.075669156990771,-2.452002788393185,-0.23515510046649918,-0.7893078652553193,0.506035554525079,270.548563253675,-108.39704350105627,18.968596312842248,12.482487544250176,4.354479242994256
GUIDED_NOGPS,3.687617063522339,25.776362932417236,270.3591138813629,-108.58448842579118,18.24616006328309,11.421845666885213,265.8582378152913,-47.73283043725296,22.622688176576126,-2.0292289252866897,-0.4525589428949361,-6.907598692084267,-2.566168138615693,-0.19082067800999922,-0.799529196681965,0.5065647921699395,269.4740932085421,-108.68198953536206,18.3419845791945,12.471539706028675,3.380450991271857
GUIDED_NOGPS,3.7331950664520264,21.94649294927138,270.0762822540638,-108.34055807563279,18.51928336395088,11.53758154325228,265.28789469223835,-46.915241896935214,22.661449100092806,-2.1486398418855535,-0.3739650233326572,-6.828070530709578,-2.6631576945577526,-0.18714205349566812,-0.8076307080276597,0.5062132486042129,268.90053484351955,-107.94264119047988,18.24726919981592,12.683097881160567,1.088619810748564
GUIDED_NOGPS,3.7834177017211914,19.914838660665108,269.3689471250833,-108.33416511419921,18.24540977025704,11.611988042084226,264.7241724224918,-46.10714436925812,22.70070357976983,-2.2928281234722845,-0.17008921269306565,-6.803496790736341,-2.7116846490799635,-0.144888962545682,-0.8128391629458959,0.5066829407142692,266.7114186925008,-108.37786461675555,18.146975531760738,12.628390213859484,0.0
GUIDED_NOGPS,3.8232553005218506,25.105971364267585,268.16869041273003,-107.92646405290822,17.314494418357096,11.644920487777965,264.16745568002415,-45.30908928549,22.740446364795112,-2.4359419309252077,-0.06369087368013421,-6.828470523662847,-2.7051434264839522,-0.06615257393558027,-0.8151444341444576,0.508138927919657,265.20884206541245,-107.45888635148908,15.549238523494662,12.744139922747465,-0.4583662361046586
GUIDED_NOGPS,3.861978769302368,25.829539856143462,267.1007461750775,-107.76521243991128,16.415150859583346,11.628604692273571,263.6181211742103,-44.52161665962501,22.780672049564217,-2.5063293781997165,0.018336710043957045,-6.891289054119923,-2.758173320098636,-0.056540734139212595,-0.8140023284591501,0.5095482817849714,265.20884206541245,-107.45888635148908,15.549238523494662,12.744139922747465,-1.432394487827058
GUIDED_NOGPS,3.9079880714416504,21.739015958411727,266.02730431126423,-106.96171475882845,15.187892386983542,11.561268819914192,263.07653716712474,-43.745254396427555,22.821375076326397,-2.7088850413387915,0.12754076270188278,-7.0643024415514,-2.692871725040026,-0.04226432708412167,-0.8092888173939935,0.5114502240340143,264.1068838894758,-105.96737157350705,14.465200113961334,12.815328811942633,-3.380450991271857
GUIDED_NOGPS,3.954200267791748,21.642323827018437,264.9984670624816,-106.1182634736334,14.416233408013474,11.43119212425848,262.5430629908387,-42.98051759947583,22.862549737830594,-2.8463959592381887,0.3223898380230678,-7.259347031037577,-2.6883235297743284,-0.026905738750701673,-0.8001834486980937,0.5126694744947257,263.7563485996066,-104.92853249590392,13.234261586584463,12.895290033120919,-4.755549699585833
GUIDED_NOGPS,3.9911158084869385,27.096212361024076,263.92220238080864,-105.520308938633,13.419066512464019,11.243699943508531,262.018048564717,-42.22790787920624,22.90419017997149,-2.8583944671757857,0.3247191459734537,-7.440456327069636,-2.7204131555680426,0.01272595576368138,-0.7870589960455973,0.5142276855012612,261.3300952841357,-105.66502274648784,12.557737836846293,12.259842213609248,-5.213915935690491
GUIDED_NOGPS,4.033516883850098,23.590674653392952,263.015745437396,-105.21293154829569,12.575299291605745,11.044734119398392,261.5018339127156,-41.48791266095702,22.9462904044355,-2.8745546947520357,0.36592461001908283,-7.729410041227964,-2.7643519954146734,0.005013529387356691,-0.7731313883578875,0.5155564866692446,260.6765573483492,-105.04523940249517,11.933898451386511,12.105734691727434,-6.932789321082962
GUIDED_NOGPS,4.071694374084473,26.197371708389547,261.7786968022266,-105.63883691160203,12.111837187049133,10.785568783921189,260.9947486806783,-40.76100449301268,22.988844271346828,-2.8922318646542635,0.2371206892075708,-8.009604891549397,-2.8927131961996335,0.0737287616385636,-0.7549898148744832,0.5163155106264465,259.02359888956533,-106.20624858582293,11.843875272914625,11.496608494771841,-7.16197243913529
GUIDED_NOGPS,4.105388879776001,29.687041703236034,260.67009886845335,-105.64491188508437,11.705887910799518,10.5216780157229,260.497111653634,-40.047640354647484,23.03184550191345,-3.0204221356575323,0.3950329552709731,-8.304018488175503,-2.888585413533501,0.09437958424387241,-0.7365174611006031,0.5169889363866709,258.5638942206097,-105.6832476669349,11.33989000809745,11.252940569988445,-8.13600069085769
GUIDED_NOGPS,4.137384414672852,31.262048507073327,259.2576033366343,-106.19563614234765,11.947249455867441,10.259648814443857,260.0092302730941,-39.34826096416987,23.07528768107317,-3.096857288555264,0.42705416276046226,-8.501644889167945,-3.0,0.17438340281063436,-0.71817541701107,0.5166920573378085,256.6938709405112,-106.69741217428496,12.657983086590278,10.5565856353606,-8.823550045014677
GUIDED_NOGPS,4.176803827285767,25.372048006194348,258.1526657802215,-106.22401700399013,11.785993485909053,9.97254457976337,259.531400154349,-38.66329008696624,23.11916426013964,-3.22388365263528,0.2360605157823379,-9.010018430412932,-2.958787435303685,0.14752551632486827,-0.698078120583436,0.5169997561613459,255.80540750207177,-106.29139117075042,11.360107363039463,10.207432037488218,-10.370536091867901
GUIDED_NOGPS,4.21367621421814,27.12881046783134,256.93018498374704,-106.36655063610016,11.709761197024433,9.57374502630036,259.063904603766,-37.99313384354514,23.16346855944836,-3.34723686904571,0.44302271815312894,-9.426361149007523,-3.0,0.19649468494636468,-0.6701621518410252,0.5171805610436359,254.5641533659768,-106.11084856326498,11.111193141443588,9.74976626911986,-11.974817918234207
GUIDED_NOGPS,4.247522592544556,29.550046146584094,255.5209757959292,-107.29451156981725,11.13314028607293,9.146104848612858,258.6070141360856,-37.33818001758095,23.208193771002726,-3.4332744141428337,0.4239760953223137,-9.814899875038282,-3.0,0.26454292513821087,-0.6402273394029001,0.5181125802273947,251.9775529504762,-109.48129497543627,10.928120353735773,8.451918473868128,-13.178029288008934
GUIDED_NOGPS,4.291248083114624,22.874320337254517,254.14185061571706,-107.74229295511434,10.696168642212257,8.729945384886719,258.1609859917194,-36.69879736395822,23.253332961120037,-3.557657068127232,0.6226095223305089,-10.451655359470124,-3.0,0.27538318162277886,-0.6110961769420704,0.5188357464783617,251.66826831954904,-107.63473532664165,10.049192431457442,8.323051340368131,-13.178029288008934
GUIDED_NOGPS,4.330411434173584,25.538429689164918,252.84904463638708,-108.01722505566936,10.028231015665659,8.17532914862663,257.72606365404636,-36.07533491681539,23.298879073077526,-3.6239993358658005,0.702293283952228,-10.977941071813468,-3.0,0.3123191903319139,-0.5722730404038642,0.5199059720861178,250.2298410438613,-106.93564486493004,9.107380261803792,7.21937325688964,-13.57909974460051
GUIDED_NOGPS,4.370330810546875,25.06171762498581,251.4143884672863,-107.97393213449065,9.556204555438747,7.678346535995064,257.30247636671083,-35.468121297589136,23.34482492975838,-3.610454216968019,0.7521359490901613,-11.508835454299282,-3.0,0.36704120637534887,-0.5374842575196546,0.5206829305614794,248.63212665656778,-109.35141621190012,9.51204097305504,5.950110702947379,-12.83425461093044
GUIDED_NOGPS,4.413870811462402,22.970907816333686,250.60467528284047,-106.04627220505041,9.210301021729428,7.1919753407733396,256.89043865091907,-34.87746402305791,23.391163236297768,-3.5612205058832744,0.8434656101335752,-12.038019728171651,-2.92567007376009,0.3175978589219812,-0.5034382738541339,0.5212712933218525,250.5155874437477,-101.85175553832097,9.011481830329489,6.970875740916763,-12.261296815799618
GUIDED_NOGPS,4.451777219772339,26.38557642707062,249.8852825652039,-105.55714978450834,7.810449207572089,6.655232894881987,256.4901498227365,-34.30364881338656,23.437886582728854,-3.5594064503284013,0.8706994953451201,-12.571594106133048,-3.0,0.3279765803959117,-0.4658663026417391,0.5234411560627351,248.38058936229325,-105.46827760330382,4.907824819331774,5.449967196340767,-12.204001036286535
GUIDED_NOGPS,4.4860475063323975,29.184466694963017,249.15543679363083,-103.17333911042267,9.549180033922273,6.176331017846474,256.1017935103848,-33.746938900169454,23.484987446628825,-3.591307916064004,1.0407206195898973,-13.03592061119427,-2.7699699083634544,0.34805437034977893,-0.4323431712492532,0.5209037111190599,248.01903946168363,-102.19998418964313,14.728233452105588,4.5691629811384376,-13.120733508495853
GUIDED_NOGPS,4.530989170074463,22.257561928212095,248.11607222799043,-104.06446228412155,8.297765016808405,5.723612943870581,255.7255371715393,-33.20757433447537,23.532458195764924,-3.6207131611013783,1.1302565022025366,-13.592781665357178,-3.0,0.3948080650107661,-0.40065290607094073,0.5228520397684348,245.03301821565938,-104.52512505941758,5.257236778987887,3.336221408825634,-13.464508185574346
GUIDED_NOGPS,4.562833070755005,31.40930229075088,247.19269816263812,-103.71439764725879,11.211075588245064,5.1416825677602604,255.36153161062558,-32.68577129489111,23.58029109074045,-3.5945714658268004,1.1343371133447961,-13.98767246731605,-3.0,0.4273244101246136,-0.35991777974321826,0.5185538232537431,244.01525632980645,-104.41808369271554,13.647756533641749,2.4741647194982583,-13.235325067522018
GUIDED_NOGPS,4.600359916687012,26.65385544159327,245.51653297217868,-103.8300387310248,12.5632756188987,4.719023751207036,255.00991049611693,-32.18172139556529,23.628478287640803,-3.644317014212473,1.4997654674319951,-14.502042060878663,-3.0,0.5547960101349828,-0.33033166258449254,0.5165978040031132,242.13476149145058,-102.54690744094117,18.784833544066494,1.9983950314036105,-13.006141949469688
GUIDED_NOGPS,4.645095109939575,22.359008257413816,248.29281429892666,-74.81652978783036,28.07966637064757,4.3579842464825465,254.67078987783157,-31.69559099425277,23.6770118406795,-3.616399469753692,1.4715102554961217,-15.116333906903977,0.5799133307190458,0.01145581615236313,-0.30505889725377827,0.4933960182050479,262.2619959960331,-17.484598229834273,51.806409034234484,19.58741649588512,-13.006141949469688
GUIDED_NOGPS,4.679306507110596,29.261429199310726,246.19072430005014,-74.68254595767381,25.748998015636946,3.792340276999653,254.34426770422948,-31.22752050035828,23.725883704844193,-3.698109876568201,1.7551368489886632,-15.56028425012376,-1.994794141571688,0.565960173146965,-0.2654638193899757,0.49696532853381087,237.50858946730094,-104.01613220224583,6.655751468609899,0.03544824435423614,-12.433184154338864
GUIDED_NOGPS,4.7134926319122314,29.24694233317063,244.6858385503784,-75.17228754477536,21.705970657151415,3.377392548102603,254.0304233397097,-30.77762368298076,23.775085738542693,-3.639085089308243,1.7326642459588517,-15.924521163087613,-2.104046970729578,0.5444986416464408,-0.23641747836718222,0.5031036726220869,237.50858946730094,-104.01613220224583,6.655751468609899,0.03544824435423614,-11.974817918234207
GUIDED_NOGPS,4.75506067276001,24.06356819524845,237.3146730508817,-124.78005883389928,16.691019880435082,2.8800467621017383,253.72931708190734,-30.345986978956972,23.824609706249003,-3.2573848767405464,1.9492679006733507,-16.41107651880264,-3.0,1.3700231008802368,-0.2016032733471217,0.5107003847387209,207.15942883232313,-166.30791209720604,36.76155670408548,-18.055802445154146,-10.542423430407148
GUIDED_NOGPS,4.7927916049957275,26.506970688979614,233.96372842921568,-132.50635395696918,20.258568659001842,2.3837695369597958,253.44098967899083,-29.932668800906043,23.874447281149322,-2.9383693656108765,2.0045424871921482,-16.745299873006168,-3.0,1.1395191542308705,-0.16686386758718572,0.5054238179332212,225.38003838312036,-127.19501757145554,17.358397804310187,-9.182641541704712,-9.568395178684748
GUIDED_NOGPS,4.8229639530181885,33.184097472210134,226.5873369066331,-140.23264908003907,23.826117437568602,1.9730424260380823,253.16546184695875,-29.537698845272672,23.924590047788094,-2.7426251086215965,1.9625171870027058,-17.083290076536958,-3.0,2.051648428788954,-0.13811296982266577,0.5001477089153292,225.38003838312036,-127.19501757145554,17.358397804310187,-9.182641541704712,-9.052733163067007
GUIDED_NOGPS,4.86823582649231,22.08667628566313,220.09639183078352,-144.35942492350722,23.32778382800879,1.5784907480791215,252.9027337869374,-29.161077400372022,23.975029504714005,-2.784593632863563,2.271087631344134,-17.473258019651542,-3.0,1.8911820884663502,-0.11049435236553852,0.5009708685150578,205.05386408805296,-178.68823962761053,35.26655587540604,-22.97739938696846,-8.422479588423101
GUIDED_NOGPS,4.907920598983765,25.203881861611034,221.3120414373543,-127.29387589535247,24.46099423831484,1.1974332223686255,252.65278470247762,-28.80277465443308,24.02575706712602,-3.000051950231615,2.49246131942024,-17.798412590184583,-2.4939214532608163,1.1429913191901182,-0.0838203255658038,0.49934714424321675,243.58683750015493,-75.99837048699132,20.758029035228333,0.6466911396048914,-7.276563998161455
GUIDED_NOGPS,4.944759845733643,27.150410398487868,227.9099325909824,-114.83849202806685,29.76576276786407,0.9034997275581499,252.4155723168518,-28.46273000364303,24.076764069519406,-3.3461512958545017,2.783452564385348,-18.02898953128046,-2.386679911990668,0.27879069330268313,-0.0632449809290705,0.491466501952483,240.14888460046356,-89.82886596959867,33.27270339295787,-3.542370745333352,-5.67228217179515
GUIDED_NOGPS,4.9820945262908936,26.79090682626775,231.1441379278546,-79.66320650104986,23.59874704085432,0.6981233450054757,252.19103239035135,-28.140851360190737,24.12804176833175,-3.641355273433626,3.016647602367454,-18.20784315733912,1.4328334826969167,0.5097811360530344,-0.048868634150383304,0.5007939420912162,241.55106506748123,-73.16238304655954,16.765508694376784,-0.9328936641492094,-4.18259190445501
GUIDED_NOGPS,5.016565799713135,29.018694045856453,234.2645808464008,-77.77324694789937,22.91901205429323,0.5211843062176515,251.97907823758345,-27.83701446031168,24.179581344588986,-3.8836357436723183,3.2938794312495707,-18.32015195786164,-2.058101480873506,0.35847338515186966,-0.03648290143523561,0.5018908539354436,240.9822529758515,-70.32849182753982,18.718824075545058,-0.9948245559061532,-3.896113006889598
GUIDED_NOGPS,5.058448791503906,23.878079189319973,241.54508461231484,-69.08475853971943,17.564685813694872,0.4000773058469077,251.7796002447685,-27.551062172330802,24.231373906551415,-4.023842878746578,3.210370550249233,-18.466251411755508,-1.1121226104572566,-0.26026168523525295,-0.028005411409283542,0.5100000321392848,241.45638291762316,-63.763400745058874,17.209724671162803,-0.10188374984990804,-2.635605857601787
GUIDED_NOGPS,5.098897457122803,24.726775376416352,240.97026725407517,-66.34646276252319,18.102970606271974,0.29837931519284566,251.59246538703692,-27.282803804707584,24.283410492359728,-3.6320487138026607,2.892895673664224,-18.483985997935445,-1.56772721434608,0.5035508305940828,-0.020886552063499198,0.5092706598291317,240.7127507089565,-64.94749571497077,18.380363072108082,-1.014980406179938,-0.40107045659157625
GUIDED_NOGPS,5.134943246841431,27.751485397451336,240.82002542308493,-64.95120405530419,18.075869358614202,0.2703984285078983,251.41751674572657,-27.03201441407927,24.335682072681035,-3.2209921347388373,2.3470487264247843,-18.408334822688385,-1.6395306315876783,0.4618454265945133,-0.018927889995552883,0.5093897190711002,239.39767544551236,-66.14271570588285,18.637520332571746,-1.9269966422079796,1.432394487827058
GUIDED_NOGPS,5.171085357666016,27.693217832241707,239.9037605868603,-67.97215511698377,17.710075349959066,0.30903694602138215,251.25457302567963,-26.798434113305206,24.388179553354874,-2.931271945289587,2.0326990882718796,-18.28731411587951,-2.259339249483578,0.5785119456702859,-0.021632586221496754,0.5100171563050937,236.96974088635807,-72.82625393009758,16.112342645197383,-4.111673587143827,3.6096341093241864
GUIDED_NOGPS,5.207395315170288,27.54029298016376,239.45919598405493,-67.47028087630446,18.020335643840728,0.4190651221373548,251.10342807253977,-26.58176737951075,24.440893778039257,-2.735167395821589,1.6237696862476922,-18.064608967802076,-1.8580813747794045,0.5394215081103991,-0.02933455854961484,0.5096308372012978,238.75942996182462,-63.44187299293283,19.31114395375307,-2.5409855764034552,5.385803274229739
GUIDED_NOGPS,5.242439031600952,28.54044637996734,239.0759226084137,-64.4349555886875,18.635726150704517,0.5741561457922572,250.9638503900493,-26.381682362131272,24.49381553085666,-2.709058143945569,1.3645891935682728,-17.862937387273696,-1.4527416462948763,0.5453665591610147,-0.040190930205458004,0.5087871340702282,239.54001603941694,-57.036739843031995,20.48369185316311,-1.6120746448572487,5.901465289847479
GUIDED_NOGPS,5.284096717834473,24.011220453283414,238.5011734016276,-60.838824800160744,18.514169490912547,0.7504730973964264,250.83558265734644,-26.197810190956346,24.546935539040085,-2.778685519231502,1.1159182275873873,-17.560336101380035,-1.3151228835944493,0.5786440822524642,-0.05253311681774985,0.5090491490721913,237.8390046750259,-62.0378615645173,15.747672665821476,-3.2781559224982204,6.990085100596044
GUIDED_NOGPS,5.322101354598999,26.31720156862745,238.5766926503316,-56.30535291279684,19.94077631870155,1.023261477209011,250.71834124626213,-26.029744284173688,24.600244475579053,-2.755305354815725,0.9799494383365319,-17.19868441501703,-1.0093697651952085,0.5083204758069548,-0.07162830340463078,0.5069892022353163,239.77527168903222,-49.841457330841145,23.590964437120075,-0.9077366529390339,8.651662706475431
GUIDED_NOGPS,5.358499050140381,27.49515886906986,239.22646016916048,-51.879894372825824,21.87250856188568,1.3320321345466022,250.61181573861745,-25.877039656412677,24.653732961865636,-2.593294548363492,1.0844485578733767,-16.8548270789892,-0.8274848052473351,0.41535135607606527,-0.09324224941826216,0.5041718365999699,240.21857848050237,-43.76036422311895,26.278888582715517,-0.2503958824559507,10.084057194302488
GUIDED_NOGPS,5.395943880081177,26.705786471067643,239.5657923926013,-44.84711219542444,25.388738053366136,1.673787996930654,250.51566844352038,-25.739212226788965,24.707391570340484,-2.2766898805674254,0.8801452200804246,-16.433346350591467,-0.2877477654039008,0.43527621654053317,-0.11716515978514579,0.49897798027546153,240.4560910790289,-40.93951503231313,26.29636114026285,0.09014828655830663,11.287268564077218
GUIDED_NOGPS,5.4318883419036865,27.82641925018742,239.80836218145964,-40.97337248229062,26.689782511057487,2.0673780401240136,250.4295339146633,-25.615738126948457,24.76121082713884,-1.8547365884564933,0.9345459692722837,-16.029926349906543,-0.4568332514006588,0.43240801073170176,-0.14471646280868097,0.497107142474122,240.75286498370852,-38.2202381914397,27.494097810194138,0.4205903078709868,12.146705256773453
GUIDED_NOGPS,5.473160982131958,24.23444577979107,240.44482117703538,-38.18836880323275,27.62149049569835,2.480158004264247,250.35301846761996,-25.50605300911073,24.81518121473658,-1.2956705571304343,0.8741799036140647,-15.43650243934291,-0.5083562680365753,0.37176254234447637,-0.17361106029849732,0.49579053607855733,241.02129965290464,-35.40535318594533,29.07401253663811,0.8005970060761802,13.06343772898277
GUIDED_NOGPS,5.5209245681762695,20.94105077112801,240.71655922348577,-35.33139156947423,28.53524432311681,2.983064117985423,250.28569969714232,-25.409551354113745,24.86929317459621,-0.6279951264910639,0.5725480776957236,-14.775020816341979,-0.426764703295487,0.3994019230487538,-0.20881448825897964,0.4945010732772191,241.13396192128425,-32.368583331037584,29.03762262251822,1.2835787789914326,13.80828286265284
GUIDED_NOGPS,5.561550140380859,24.61836089051669,240.92725181181805,-31.33911074076757,29.19403121965141,3.5801839676876517,250.22712599445822,-25.325585779457327,24.923537109812912,-0.2889974166968457,0.5556463477077038,-14.235843121940233,-0.11647456722582078,0.3908423154038568,-0.2506128777381356,0.49359425883524227,241.27204142216377,-26.243395705319717,29.470458499797946,2.3440250544462353,13.865578642165923
GUIDED_NOGPS,5.6023876667022705,24.504305761658273,241.13491943734851,-27.536245282618314,29.365656591785207,4.095173366078416,250.17681606456796,-25.2534663473472,24.977903387760552,0.09228943602393296,0.09468776623753301,-13.61328503947191,0.013396460912292019,0.3821265840310078,-0.2866621356254892,0.493418370193963,241.49442920668133,-23.99675681149757,29.58888865303949,2.7209287042211043,13.006141949469688
GUIDED_NOGPS,5.646085262298584,22.883555477961036,241.32164032785158,-23.805239960198147,29.457212176574888,4.58525453180858,250.13425844354197,-25.192459872739647,25.032382342737712,0.3065649834072358,-0.11891807576156481,-13.101667158371166,0.1291601824777588,0.37772726126406575,-0.32096781722660067,0.4933627552492442,241.68646943622377,-21.17556736377708,29.31228937688726,3.252248569883452,11.802930579694959
GUIDED_NOGPS,5.676448345184326,32.94352723102782,241.50348167343685,-21.25274099172857,29.493679824942106,5.077269812489641,250.09891101581712,-25.141789231384877,25.086964278613713,0.3696766250292412,-0.27583099977202963,-12.851125574331343,0.2245707401128348,0.36156607817805986,-0.3554088868742749,0.4933899266805074,241.93050638083105,-18.585898799910982,29.57986144489959,3.7368481504543065,11.401860123103383
GUIDED_NOGPS,5.710536956787109,29.343930150556893,241.72852684935347,-18.74842579214234,29.506942021580073,5.3965882606170155,250.07020053149478,-25.100632667870258,25.14163947147463,0.46775691421100785,-0.30777515418994456,-12.414410962763545,0.2852238388612203,0.35027153266228356,-0.3777611782431911,0.49345204617484184,242.25918780086724,-16.483811212738885,29.628675242953392,4.106860321236014,10.886198107485642
GUIDED_NOGPS,5.745557546615601,28.56610455771379,241.9340875476367,-16.121232464999675,29.83329749940752,5.7350410592377,250.0475221236373,-25.068123103666693,25.19639817226932,0.6532519921030074,-0.7377648041896313,-12.060841097735958,0.39143112398972046,0.3456391332544961,-0.40145287414663905,0.4930446510092927,242.29984491357985,-13.293987382349085,30.29135581036961,4.721757456108931,10.542423430407148
GUIDED_NOGPS,5.7905192375183105,22.24375135897667,242.1520140158509,-13.547257553871228,30.090917200908134,6.084395116203084,250.03023882556505,-25.043347445170156,25.251230609455444,0.7540532045345251,-0.9699373415086453,-11.64295817148353,0.42663708789415056,0.34152699266630915,-0.42590765813421594,0.49274047011282096,242.58406154775258,-10.863974066525639,30.352720549401425,5.127882928730137,9.969465635276325
GUIDED_NOGPS,5.828001499176025,26.683529808444717,242.40141859140687,-10.131325416887622,30.570865987896,6.513216698722125,250.0176810881547,-25.02534589174715,25.306126991645492,0.9711266481978738,-1.2832773923248577,-11.32784056393582,0.7065112290611114,0.3237131549217964,-0.4559251689105488,0.49210289150562425,242.93349231400342,-6.236014801788068,31.068521603916988,5.858637437382554,9.224620501606255
