Mode,Time,Freq,North-Vision,East-Vision,Down-Vision,Yaw-Vision,North-Desired,East-Desired,Down-Desired,Roll-UAV,Pitch-UAV,Yaw-UAV,Roll-Control,Pitch-Control,Yaw-Control,Thrust-Control,northVraw,eastVraw,downVraw,yawVraw,zGyro
STABILIZE,0.005453348159790039,228.1496953872933,308.4321497939363,-50.35363858192558,-78.40480099226966,-0.9751549571568348,308.3192663475825,-50.31820012738312,-78.34600548417377,-0.2074315777730311,1.5227261088223452,91.62322428148838,-0.009272998147412998,-0.029537630870945516,0.04875774785784174,0.500029397754048,308.4321497939363,-50.35363858192558,-78.40480099226966,-3.0930721292447174,0.0
STABILIZE,0.009288787841796875,327.0922561023161,308.0963122618863,-50.35942110946756,-78.31234496987088,-1.019211861742703,308.31909181727457,-50.318049541624525,-78.34595771062506,-0.2074315777730311,1.5227261088223452,91.62322428148838,-0.00262960493848986,0.042867579287019036,0.05096059308713516,0.4999831936296229,307.76047472983623,-50.36520363700955,-78.21988894747211,-2.642975190932006,0.0
STABILIZE,0.040866851806640625,31.965613163329852,307.74365917775555,-50.3123190350122,-78.19289004649153,-1.0570686357764874,308.31788418945536,-50.31700759336124,-78.34562521503756,-0.2070647485898338,1.5229081760524081,91.622807639949,0.0009524905172011083,0.03420744564619174,0.05285343178882437,0.49992363241572696,307.03835300949413,-50.21811488610148,-77.95398019973284,-2.492740760072536,0.0
STABILIZE,0.09207534790039062,26.3708118779511,307.81167826674937,-50.31113069787447,-78.14390686156518,-1.0993870675067532,308.31464884124705,-50.314216116224735,-78.34472853591892,-0.20816422228322073,1.5225165073921902,91.62206997951864,0.00013342009009288314,0.024235760906815455,0.05496935337533766,0.4998995891628231,308.01573553373083,-50.350073570512365,-78.2578514374906,-2.768566270466593,0.057295779513082325
STABILIZE,0.10979199409484863,57.56820115841774,307.6147801828992,-50.29880780934446,-78.09029375833317,-1.139548079408882,308.3084326023182,-50.30885270934306,-78.34299391540132,-0.20784162924706986,1.5236042150175149,91.62069028130631,0.0006160741873690672,0.03781423678647481,0.056977403970444096,0.49987364992146593,306.8271878474987,-50.32823497141955,-78.05904963777606,-2.7677811371253966,0.0
STABILIZE,0.14860272407531738,27.413751633986926,307.20389161640577,-50.317127408730904,-78.02376248347012,-1.1685853041477952,308.29832318312424,-50.30013024402359,-78.34015326057293,-0.20826323334575947,1.5235177704358318,91.62043073411785,-0.0012190291079506865,0.06022381564162268,0.05842926520738976,0.4998418046114486,306.3777069614691,-50.27307368426081,-77.7543863751437,-2.3638431861371316,0.0
STABILIZE,0.18018794059753418,32.10016607608887,307.28993963884074,-50.30694095645362,-78.01307997139536,-1.214397246666107,308.28344860314843,-50.28729637043591,-78.33594410480917,-0.20736770483212089,1.5225658128202613,91.61876416796036,-0.0010221220150007841,0.048213486426437746,0.060719862333305355,0.49983856793329307,308.190714842011,-50.319514213680534,-78.22580390126633,-3.1397291247291577,0.0
STABILIZE,0.21394824981689453,29.72449080832849,307.39240029332103,-50.28808277378139,-78.04626865528763,-1.2500042709420194,308.26297661914265,-50.269633024294556,-78.33010956910412,-0.20769456673650302,1.5223209932271986,91.61787624336826,-0.0009055026724835866,0.04174644640790173,0.06250021354710097,0.49985807954309175,307.55065628189567,-50.271660423402864,-78.1586156894529,-2.780247557820573,0.0
STABILIZE,0.25171446800231934,26.55479933396223,307.4395668283303,-50.28374062868543,-78.25594966159626,-1.2889692516540034,308.2361141533679,-50.246455933541846,-78.3223983234019,-0.20746052603572432,1.5224535415857792,91.61678341310106,-0.002114195464497812,0.03888065264867663,0.06444846258270018,0.4999667756690972,308.25156820877714,-50.26004724897293,-78.38342939406961,-3.000802674803978,0.0
STABILIZE,0.29077792167663574,25.850712784512883,307.63977825520954,-50.291193907976414,-78.25177347770091,-1.3240719199825923,308.2021067218352,-50.21711412503069,-78.31256454792796,-0.20751287303241012,1.5217154542685947,91.61613454512991,-0.004182065992756304,0.025113255125413812,0.06620359599912962,0.4999696044648865,307.82824498189495,-50.3418740515535,-78.21327534958021,-2.900686522564442,0.0
STABILIZE,0.33302831649780273,24.116976684012304,307.9247644772049,-50.29541308754665,-78.27102549093307,-1.3590448738873557,308.16023786254624,-50.180989431207394,-78.30036789452052,-0.20701608349199746,1.522549377677571,91.61513050732191,-0.006212048113611701,0.00784505149613229,0.0679522436943678,0.4999853287982063,307.8026380714459,-50.284317962113576,-78.21637172914937,-2.964066916677652,0.0
STABILIZE,0.3675072193145752,29.997668447515036,307.7397628997454,-50.29024279134408,-78.14581820051978,-1.3837001648513392,308.1098285637343,-50.13749599679445,-78.28557344796187,-0.20855087502326694,1.5224217385174563,91.61293801659833,-0.008200083743831944,0.020473942134635822,0.06918500824256696,0.499930122376279,307.2657069547135,-50.244536360365224,-78.00780752282974,-2.5394949167417167,0.0
STABILIZE,0.40511012077331543,26.90122181958118,307.9573271020004,-50.275479869097914,-78.23470372446894,-1.415926368379695,308.0502366921049,-50.08607978547337,-78.26795168730975,-0.208382121326,1.5232210840937594,91.61131926176505,-0.009969263505080617,0.0009270835993224424,0.07079631841898475,0.4999833760185796,308.63847729317047,-50.29758528481499,-78.47993192142766,-2.9584663134908027,0.0
STABILIZE,0.44470787048339844,25.785236962308577,307.8457620817388,-50.29354818961783,-78.20189975479786,-1.4475211230381222,307.98085642107617,-50.02621808656747,-78.24727844722871,-0.2086850775682871,1.5226951595276685,91.60965952579673,-0.01434461885121864,0.00728379802415232,0.0723760561519061,0.4999773106537846,307.69374310746906,-50.33852292367332,-78.11795982013618,-2.991104321189326,0.0
STABILIZE,0.4793365001678467,29.016887240828243,307.89842011496677,-50.308800269613535,-78.28895238536217,-1.4708339333736125,307.90111765902043,-49.95741902172468,-78.22333487932146,-0.20888608790112648,1.5228738116631466,91.60845741250282,-0.01877129193049867,-0.0017392214195273226,0.07354169666868063,0.5000328087530204,308.0915351480347,-50.29029260035236,-78.26896541452267,-2.6328031894789774,0.0
STABILIZE,0.5142853260040283,28.922444645184424,307.9170836470831,-50.32909626123117,-78.20725654543699,-1.4932636440480003,307.81048547750413,-49.879221051600375,-78.19590741346022,-0.20885391130683337,1.5229687939812921,91.60758314828905,-0.02392230762994471,-0.006901438217557109,0.07466318220240002,0.5000056745659884,307.89595573202746,-50.35847325966791,-78.23484440165215,-2.633483937661694,0.0
STABILIZE,0.557025671005249,23.92506987621927,307.96757847804264,-50.32526388182774,-78.18543179846627,-1.5182035799949716,307.70845953952886,-49.79119248254012,-78.16478771911815,-0.20743536639358634,1.5235128612373658,91.60529503491709,-0.02772646434779396,-0.014779104919879087,0.07591017899974858,0.5000103220396741,307.51818110951154,-50.32702578546302,-78.05248557922401,-2.8107707294609696,0.0
STABILIZE,0.5936279296875,27.554224149257653,307.6504783388188,-50.30890775656857,-78.12706837972793,-1.5371794202681042,307.59457352777235,-49.692930973262555,-78.12977266670059,-0.2069695261478503,1.522807644205562,91.6045642046759,-0.03192421062991239,-6.194545172106365e-05,0.07685897101340522,0.49999864785651366,307.0529765970515,-50.241224224574864,-78.09387515830765,-2.5393070682965515,0.0
STABILIZE,0.6296439170837402,28.0502915841849,307.6979320908571,-50.287626943874294,-78.09706923393372,-1.5641124513578584,307.46839457282886,-49.584063041542144,-78.09066428887651,-0.20609865034824723,1.522087913021772,91.60293178946426,-0.03641884437488481,-0.013894350418640969,0.07820562256789293,0.5000032024725286,307.9310118676603,-50.294630821585045,-78.1448469642695,-3.0132206073021024,0.0
STABILIZE,0.6670050621032715,26.973536466941486,307.5904582350825,-50.26049082730126,-78.14367825894531,-1.5847731946143595,307.32952268144993,-49.464243570891995,-78.04726974190984,-0.20562696708911968,1.521711398843775,91.60248099697905,-0.041080862291056584,-0.013476173620686222,0.07923865973071798,0.5000482042585177,307.5541658691619,-50.24561743574395,-78.19231265425877,-2.71683007958039,0.0
STABILIZE,0.7007882595062256,29.88907495955932,307.68630042915754,-50.280194558416724,-78.24808328015399,-1.6034625518921306,307.17759016478544,-49.333155317246685,-77.9994012669908,-0.20581439708489835,1.5226693328748693,91.59993333641863,-0.04962022763683914,-0.02912731388817065,0.08017312759460654,0.5001243410065815,308.37516670240285,-50.300335417921254,-78.4070902219337,-2.645977593459932,0.0
STABILIZE,0.7381694316864014,27.062994005794184,307.6480658693408,-50.27948466161629,-78.23326925029711,-1.6232179941706264,307.0122610666241,-49.19050841564504,-77.94687615156734,-0.20544132468191284,1.5230189531830094,91.5988473363406,-0.05638844360463344,-0.0335143621772396,0.08116089970853133,0.5001431965493649,307.32700831042786,-50.29250113118372,-78.10040487469887,-2.744802291677857,0.0
STABILIZE,0.7759363651275635,28.605068608996916,307.79617954189627,-50.318491153047596,-78.28280833793804,-1.647763983263753,306.8332305916341,-49.03603988691295,-77.88951669067639,-0.20543169304796607,1.521861876448927,91.5975496003983,-0.06690363822763848,-0.052807298859495616,0.08238819916318765,0.5001966458236308,307.7935449598285,-50.36263691003787,-78.34092991718157,-3.065593127000156,0.0
STABILIZE,0.8074531555175781,31.875244138769617,307.81318579594114,-50.33085150632673,-78.1943486375,-1.6724656830725748,306.64022453360417,-48.86951314434619,-77.82715014827532,-0.2054261701996919,1.5216565438870033,91.59651824183362,-0.07573397954701233,-0.061760630806020046,0.08362328415362874,0.5001835992446123,308.01604313788465,-50.33741647775867,-78.14171112061956,-3.12374763953828,0.0
STABILIZE,0.8439574241638184,28.291337839113954,307.924406463979,-50.331235603484,-78.28594489014496,-1.6903254256697633,306.4329987036841,-48.690717500393205,-77.75960871857322,-0.2057983087877518,1.5217634790361965,91.59463993981187,-0.08460607765266547,-0.07910539518561852,0.08451627128348817,0.5002631680857859,308.11026920935126,-50.293653422655495,-78.37519363263378,-2.7572577374291853,0.0
STABILIZE,0.8790693283081055,29.17025878556476,307.72919841402893,-50.307969286035124,-78.18591425991501,-1.705864603617373,306.2113383586255,-48.49946767333793,-77.68672948736231,-0.2054692857688276,1.5215715934092013,91.59380665673314,-0.09286113388099056,-0.07632026963160383,0.08529323018086865,0.5002495923862763,307.39912645265247,-50.29283795769127,-78.04083802649174,-2.6495137516761105,0.0
STABILIZE,0.9172930717468262,26.887770605091255,307.7707465714694,-50.28608079183703,-78.19290911021632,-1.7191489342501685,305.97505762902244,-48.29560329398258,-77.60835439334929,-0.2048662547703095,1.5204811110195264,91.59148439241532,-0.10199962891234376,-0.09351713910616899,0.08595744671250843,0.5002922773584335,307.5347490976298,-50.271750995164375,-78.16269567152348,-2.538988230850208,0.0
STABILIZE,0.9505412578582764,30.341399191244022,307.9208697309341,-50.29257875103074,-78.18010484098772,-1.7394633561156851,305.72399894755256,-48.078988412330474,-77.52433018948666,-0.20560124715802636,1.5210371311066477,91.59029593949974,-0.11402089034075574,-0.11579078192379269,0.08697316780578426,0.5003278873257505,308.5441607571523,-50.31314730023664,-78.33678082494801,-3.013232583759205,0.0
STABILIZE,0.982184648513794,32.54476326448269,307.90091129030577,-50.30670818908336,-78.28190653716413,-1.7625564284751354,305.4580324772174,-47.84951100426885,-77.43450840430414,-0.20612180895840182,1.5213380863169514,91.58888209034156,-0.12687466425992044,-0.1261971270400729,0.08812782142375677,0.50042369906643,307.9162509347429,-50.3352262718491,-78.34624311502095,-3.233400343133937,0.0
STABILIZE,1.0182383060455322,27.85025431269173,307.84950164231475,-50.33521639234826,-78.30901388663801,-1.779157811958558,305.1770555395833,-47.60708247825162,-77.33874530323997,-0.20608400279412872,1.521510762036906,91.58737261853499,-0.14018870001015005,-0.13684011225894518,0.08895789059792791,0.500485134291699,307.8532209693965,-50.35727560495909,-78.24401771994509,-2.852941074551282,0.0
STABILIZE,1.0586016178131104,25.36989947134752,308.04470969226486,-50.33094576490979,-78.33245035229992,-1.792161225255956,304.8809920430223,-47.35163718198225,-77.23690184997233,-0.20617082090178193,1.5218603823450458,91.58709258077901,-0.15225718857363832,-0.16451882936005066,0.0896080612627978,0.5005477742511638,308.37516670240285,-50.300335417921254,-78.4070902219337,-2.645977593459932,0.0
STABILIZE,1.0927197933197021,29.580681561724216,308.03174716726903,-50.33359323221282,-78.27888891651112,-1.8049631655286034,304.5697919109525,-47.083131909096494,-77.12884366775063,-0.2065266310688573,1.5217647596966657,91.58485227873125,-0.1665451313632002,-0.17751765814494133,0.09024815827643018,0.5005750226243803,307.4699364726507,-50.34316867375818,-78.18555880765462,-2.658141322536281,0.0
STABILIZE,1.1364655494689941,27.233087686264327,307.9544161713435,-50.319991202217814,-78.28630626498546,-1.8225823993499164,304.24343051007924,-46.80154540584526,-77.01444100072692,-0.20590022801677307,1.5212945438609926,91.58377993903156,-0.17970062388218877,-0.18907658968720625,0.09112911996749583,0.5006359326321292,308.1575057775244,-50.316469514974074,-78.26626976536805,-3.0142616469265278,0.0
STABILIZE,1.1621298789978027,39.729322168756866,307.7540080701794,-50.2916825108394,-78.13743378732327,-1.824671304377152,303.90190807863553,-46.50687787777737,-76.89356867528724,-0.20520000022471455,1.5221195026466834,91.5819016370098,-0.19345460009907994,-0.19489785472963456,0.09123356521885762,0.5006219325560181,306.91421042892256,-50.215409343786014,-77.96047278894713,-1.9679147465312923,0.0
STABILIZE,1.1989057064056396,27.980493792569764,307.81486503180497,-50.2827827912447,-78.16433743989442,-1.841518906686233,303.5452491546229,-46.199150496422405,-76.76610606138297,-0.2048587308900519,1.5223532231823447,91.58069269352671,-0.20844086508081183,-0.2193795394379263,0.09207594533431165,0.5006991156892557,308.1575057775244,-50.316469514974074,-78.26626976536805,-3.0142616469265278,0.0
STABILIZE,1.2579317092895508,16.99674597096093,307.83240562430103,-50.303978504271555,-78.22761560140951,-1.8550681054923868,303.1735020040522,-45.878404905973476,-76.63193703386217,-0.20529492918200715,1.5227660227403073,91.57977061798876,-0.224403088069079,-0.23647952121595445,0.09275340527461934,0.5007978392837736,308.4628696648829,-50.38005665405464,-78.45610424991334,-2.8114761746401626,0.0
STABILIZE,1.2734553813934326,68.93877483933532,307.8654692987545,-50.35243153107776,-78.29724743457986,-1.867115135676352,302.78673804918407,-45.54470272997005,-76.49094993380099,-0.20527892092613992,1.523796527531333,91.57981842931295,-0.25352076470915197,-0.26836268573679833,0.0933557567838176,0.5009031487503894,307.63525484491817,-50.360768424204615,-78.16936828845822,-2.7287652666369553,0.0
STABILIZE,1.3087105751037598,28.48481802685284,307.7610191122332,-50.36719783415461,-78.26494694227658,-1.8788315185867455,302.3850512967701,-45.198125077980755,-76.34303752983497,-0.2047757280833804,1.5226599413647606,91.5778035235078,-0.2636435538567687,-0.2731081314799771,0.09394157592933727,0.5009609547062208,307.63525484491817,-50.360768424204615,-78.16936828845822,-2.7287652666369553,0.0
STABILIZE,1.3499915599822998,27.271334664074537,307.9751297033057,-50.35202697152085,-78.1737822232725,-1.8939010965215066,301.9685577662933,-44.83877205228619,-76.18809697949044,-0.20425004364112742,1.522997608841853,91.57653310832217,-0.28053549292281016,-0.30910544708652393,0.09469505482607533,0.500992842621891,307.98476338428515,-50.33454406615337,-78.18261009290107,-3.001809382239827,0.0
STABILIZE,1.3855688571929932,28.269028314158426,308.19779995393066,-50.361982178591155,-78.33860352540552,-1.9132118020612539,301.5373949182089,-44.4667622545617,-76.02602979051586,-0.20407880866420108,1.5234599272712983,91.57538563654161,-0.29975546937754477,-0.34143188535264196,0.0956605901030627,0.5011562868674448,309.2708570306491,-50.39063404541553,-78.66383219485726,-3.35190794736522,0.0
STABILIZE,1.4207658767700195,28.97058945419884,308.31398195103577,-50.34674398259662,-78.47723596875433,-1.93014841953655,301.091721082185,-44.08223229256024,-75.8567417822132,-0.20539727529785154,1.524484028759977,91.57271503257613,-0.31878818053089597,-0.36949646685859544,0.0965074209768275,0.5013102470932705,309.04377965040834,-50.31505383622102,-78.58526561850466,-3.208454626185798,0.0
STABILIZE,1.4557995796203613,28.949593810177866,308.3511805019298,-50.348291385135184,-78.49639805933039,-1.9453826751732501,300.6317148853435,-43.68533628679513,-75.68014304676927,-0.2057872630912034,1.5242957716709786,91.57239401368514,-0.3390347145921952,-0.3932984560174858,0.09726913375866252,0.5014081275062806,307.82124759938824,-50.33918627376905,-78.24009636462925,-3.110191278786928,0.0
STABILIZE,1.4943311214447021,26.226857757434782,308.53700645505126,-50.32831395584042,-78.41348192708115,-1.9576387166661386,300.15757468050066,-43.27624537722287,-75.49614791058708,-0.2072857692425072,1.5249036585071098,91.57076842866267,-0.35789571354419175,-0.4278088747938697,0.09788193583330694,0.501458667008247,308.5643846105254,-50.330701757531244,-78.41508379810956,-2.9067283456946456,0.0
STABILIZE,1.5324993133544922,26.605163336504916,308.70290393353264,-50.35692674965134,-78.400023343956,-1.976418212353618,299.66951797440805,-42.855147229925976,-75.30467489561725,-0.20716701466439888,1.524236007515741,91.56953899461207,-0.3812905350262248,-0.46061611537901886,0.0988209106176809,0.5015476742241693,308.81425077669206,-50.40089221765379,-78.54488986912915,-3.449059837405329,0.0
STABILIZE,1.5668067932128906,29.58819379779339,308.49336854217694,-50.34664201807639,-78.40266844244559,-1.985632184918086,299.167780855993,-42.422245543795746,-75.10564668068928,-0.2075517997745939,1.5247486985903151,91.56753774918526,-0.40269610406560796,-0.47088811361133287,0.0992816092459043,0.5016485108808781,308.2231800738707,-50.3083320790442,-78.24803166009805,-2.717065238272653,0.0
STABILIZE,1.60075044631958,30.38844250595915,308.239108921515,-50.36120970927981,-78.32397261774902,-1.9920432502951742,298.6526174245995,-41.97775955721511,-74.89899006284298,-0.20714559028196325,1.5248404792572872,91.5667795981874,-0.42625793730023037,-0.48351428055003226,0.09960216251475872,0.501712491277453,307.7724815470988,-50.37440483114151,-78.17899632401985,-2.5072809564389473,0.0
STABILIZE,1.6373071670532227,28.36864389584038,308.2733169110962,-50.32374748597201,-78.23988780228059,-2.0045336064219708,298.12429921822917,-41.52192355474137,-74.68463591865984,-0.20700319684602436,1.5255704557248322,91.56452563576129,-0.44620892935369616,-0.515615719856345,0.10022668032109855,0.5017776259418104,307.99228754729387,-50.28850554773038,-78.29263542272386,-3.0207104384680434,0.0
STABILIZE,1.673741340637207,27.755525556526113,308.3228633992338,-50.335061780848186,-78.3264497106018,-2.0157946884520355,297.58311464178155,-41.05498637378909,-74.46251916559429,-0.20719388185382936,1.5247862646307502,91.56298884319803,-0.47074500435122035,-0.5452871028169345,0.10078973442260178,0.5019319652725037,308.8121170512138,-50.34227496367275,-78.50771738506165,-2.942930279117107,0.0
STABILIZE,1.7081568241119385,29.941135739015596,308.0987618653893,-50.323101145025454,-78.30610420930725,-2.0283370741296607,297.0293683952951,-40.57721091131285,-74.23257872330518,-0.20834890419507554,1.5242611938383055,91.55918442783033,-0.4945057306775912,-0.5587140831869825,0.10141685370648304,0.502036762743001,307.69374310746906,-50.33852292367332,-78.11795982013618,-2.991104321189326,-0.057295779513082325
STABILIZE,1.7431056499481201,28.929027630253955,308.01893138666986,-50.3396681678847,-78.28338069761574,-2.035699652247994,296.46338090218796,-40.08887363049003,-73.99475747498704,-0.20863032933322123,1.5249384497831946,91.56240827711858,-0.5200026918346227,-0.5850233261333019,0.10178498261239971,0.5021443116113143,307.8240276802736,-50.33820661630814,-78.22446488764935,-2.8701308854569163,0.17188733853924698
STABILIZE,1.7841558456420898,24.506596552731523,307.9752682510825,-50.30744899190844,-78.1782457873481,-2.0434406096270212,295.88548773749864,-39.59026406740368,-73.74900222870154,-0.20895009424416888,1.5247591573174817,91.55979914485565,-0.5419536447049813,-0.6114622098542875,0.10217203048135107,0.5022146217793233,307.5541658691619,-50.24561743574395,-78.19231265425877,-2.71683007958039,-0.057295779513082325
STABILIZE,1.8199946880340576,28.07357232738079,307.9986845667237,-50.306690290062214,-78.20292248004247,-2.053169741931371,295.29603905612674,-39.0816843377253,-73.49526367870874,-0.20986798095516868,1.5248101702928452,91.5570055974851,-0.5687513644007349,-0.6441547607651037,0.10265848709656855,0.5023538294006669,308.1093691254996,-50.33624681813465,-78.19198989821929,-2.8208952295614296,-0.057295779513082325
STABILIZE,1.8566844463348389,27.42576160802443,307.8246061101922,-50.31269543639297,-78.21518830482921,-2.05783060978004,294.6953990210736,-38.563448643397614,-73.23349636679852,-0.2086888395084159,1.5254966043044316,91.5582828428599,-0.5950290304913843,-0.6627482997598856,0.102891530489002,0.5024908459690154,307.9417247685564,-50.35622205530043,-78.26126236200955,-2.512170518492539,0.057295779513082325
STABILIZE,1.8918745517730713,28.833172931503835,307.86910767564694,-50.34256504842802,-78.2664984584166,-2.0697521222341817,294.08394523168334,-38.035882779317404,-72.96365864362191,-0.20894299725073442,1.5250394085168637,91.55933469199208,-0.6237552853684172,-0.6991433400655083,0.1034876061117091,0.5026514199073974,307.9162509347429,-50.3352262718491,-78.34624311502095,-3.233400343133937,0.057295779513082325
STABILIZE,1.9291462898254395,26.89259769820152,307.7776808721743,-50.310837058107914,-78.24146685192721,-2.0757717108450824,293.4620681518833,-37.499323640018346,-72.68571263002246,-0.20937543360256086,1.525105149087625,91.55647967291901,-0.6477465151276179,-0.7233476182586777,0.10378858554225412,0.5027778771109523,307.36689366291034,-50.241062847174305,-78.11689507875111,-2.664484354525996,0.0
STABILIZE,1.9647090435028076,28.387652198631482,307.9539983339617,-50.30195460242967,-78.29538609219036,-2.0867530145480515,292.8301705384249,-36.95411872635375,-72.39962417836762,-0.20860773101202199,1.5255668271868357,91.55631574837894,-0.6754577281034192,-0.7681701873972967,0.10433765072740259,0.5029478809569113,308.4357531780988,-50.32957468826569,-78.423020082799,-3.108464805412268,0.0
STABILIZE,2.0027120113372803,26.591837899181506,308.0709921748293,-50.29747999405211,-78.33803478664014,-2.1002415864007635,292.18866686912435,-36.400625652179414,-72.10536283388004,-0.21032512338188353,1.5259390724966013,91.55569420116446,-0.7026189987409874,-0.804734014988686,0.10501207932003818,0.5031163359763801,308.6943383298379,-50.321802446716454,-78.4741891983703,-3.3428802382739775,0.0
STABILIZE,2.041853189468384,25.85836266900119,308.2966093643171,-50.329527771555604,-78.49237138701183,-2.1136043000770783,291.53798277110343,-35.83921165103642,-71.80290179596896,-0.20919133866008785,1.5270252860180449,91.55026420077431,-0.7326697025754004,-0.8497899364914547,0.10568021500385393,0.5033447347955214,309.06981071599535,-50.33720617968477,-78.57990487986623,-3.260112773536605,-0.057295779513082325
STABILIZE,2.0779707431793213,27.908628158124124,308.3001949416524,-50.34785511977177,-78.41638912852818,-2.126184001964626,290.87855444903033,-35.27025308283393,-71.49221787956162,-0.20920206419151888,1.5277522742778282,91.55136386123067,-0.7625216260440321,-0.880852341132121,0.1063092000982313,0.5034620856244832,307.9341788214197,-50.384556732914206,-78.19507330734801,-3.3392306551188824,0.057295779513082325
STABILIZE,2.1140618324279785,28.24884662270924,308.4136519733543,-50.368773215171025,-78.32335049818742,-2.1366771490282632,290.2108281133601,-34.69413494053201,-71.17329147643453,-0.2089101002849273,1.5281362589752299,91.55188978579676,-0.7926451607835615,-0.9217211752403297,0.10683385745141316,0.5035750295108764,307.9341788214197,-50.384556732914206,-78.19507330734801,-3.3392306551188824,0.11459155902616465
STABILIZE,2.149951696395874,28.538310278898557,308.35870967857466,-50.37537128810061,-78.24578464115176,-2.1461818198403293,289.53525940857554,-34.1112503568244,-70.84610651654488,-0.20931574948860257,1.5285531139580122,91.5499226913158,-0.8220579225721847,-0.9505526271314891,0.10730909099201646,0.5036998390623034,308.1610417042007,-50.35700039847351,-78.34720730875927,-3.1528778441844025,0.0
STABILIZE,2.184654951095581,29.352555040799473,308.20615078749375,-50.36586413134026,-78.26826366699773,-2.1532474044822747,288.8523128414282,-33.52200011082137,-70.51065042936189,-0.20897493372118953,1.5273217589167059,91.54859080442765,-0.85109100554362,-0.9759697720691712,0.10766237022411373,0.5038788066188179,307.93154387443315,-50.35603526263317,-78.2625103848859,-2.88273338336343,0.0
STABILIZE,2.2208845615386963,28.22299529650838,307.85250889518966,-50.337959408415934,-78.18957102325392,-2.1595301997549354,288.16246120917873,-32.926792134732494,-70.16691410519819,-0.20846872599024166,1.5274880313343133,91.5493762761822,-0.8790514317052407,-0.9898737368285585,0.10797650998774677,0.5040113284590279,307.3016012544749,-50.30084256414122,-77.9589953761166,-2.7950991769612585,0.0
STABILIZE,2.2559356689453125,28.86055184751944,307.7486533976286,-50.35267885373437,-78.11734412151664,-2.1686391684208024,287.4661850278377,-32.32604102054946,-69.81489185654111,-0.2091844284296385,1.527527731808864,91.54786680437563,-0.9107802294719931,-1.023320178518655,0.10843195842104013,0.5041512261324878,307.4149013336144,-50.4011587344288,-78.1305266035474,-3.0752027914273157,0.0
STABILIZE,2.2900986671447754,29.695238769513963,307.83942308542436,-50.35907060734909,-78.15802632226514,-2.177783261821013,286.7639719604066,-31.720167526728883,-69.45458137938412,-0.20985154581247834,1.5280579252431863,91.54453367206067,-0.9414150520616221,-1.0659312668985341,0.10888916309105066,0.5043517224714406,308.38802726039853,-50.375210523477335,-78.38455698713145,-3.0888798468845238,0.0
STABILIZE,2.3226306438446045,31.05856566329742,307.792419119579,-50.38833555562536,-78.30222644221045,-2.185764813972514,286.05631624511824,-31.109598084875117,-69.08598371455815,-0.21015404848751587,1.528426755458367,91.5458450683813,-0.9743556126519776,-1.097622674959907,0.10928824069862571,0.5046081213638262,307.9260218749736,-50.38863740897003,-78.39159573595254,-3.084663197191219,0.057295779513082325
STABILIZE,2.357844591140747,29.09720564974887,308.00693003429126,-50.378340991455595,-78.43082599246483,-2.1954614443065084,285.3437181236778,-30.49476430642302,-68.70910320906295,-0.2100496212984087,1.528326650498344,91.5446361248982,-1.0035668571521232,-1.1472789823182798,0.10977307221532542,0.5048608613917009,309.00409844799447,-50.37117504191951,-78.5163252543105,-3.2132231736901815,0.0
STABILIZE,2.3962090015411377,26.385244457864673,308.2647723942545,-50.36893722434564,-78.48059337841771,-2.2081433014566394,284.62668326950325,-29.876102489320818,-68.32394747739845,-0.209722065702939,1.5284762743298494,91.54320178517251,-1.0333555155800627,-1.195495657345899,0.11040716507283198,0.5050783229505096,308.59081305429146,-50.34699922214749,-78.53385914499009,-3.524113171345334,0.0
STABILIZE,2.4309394359588623,28.993218815884976,308.3086005304764,-50.35911774206201,-78.38195787091045,-2.215310422795109,283.9057222159665,-29.25405312471291,-67.93052736289611,-0.2101622393784346,1.5283375361123337,91.54322227574002,-1.0647878390376404,-1.2319861969224504,0.11076552113975545,0.5052257152540072,307.63404201472383,-50.359178962119124,-78.09568921343076,-2.9679847703716575,0.0
STABILIZE,2.4658637046813965,29.00504819993638,308.1756552211878,-50.36221843099738,-78.2880727863547,-2.2231017208521773,283.1813497846336,-28.629060403622585,-67.52885689905031,-0.2099924451445363,1.5286090361318416,91.542860275714,-1.0963808026992132,-1.2590293268889534,0.11115508604260887,0.5053796079436522,307.72330071395544,-50.38047710872563,-78.23467000064329,-3.037518529208242,0.0
STABILIZE,2.5053579807281494,25.63630140335436,307.9442783227984,-50.351534294452904,-78.07381759876209,-2.225982166172605,282.454084513506,-28.001571723634946,-67.11895327084969,-0.21118743476459764,1.529913175376491,91.54008038872182,-1.1263725374426043,-1.28193383372448,0.11129910830863027,0.5054774321639562,306.76913738302676,-50.31494681251405,-77.89109358221226,-2.530811603292122,0.0
STABILIZE,2.5416207313537598,27.843783399828727,307.7902227246496,-50.334817583048185,-78.13905111813942,-2.2315557294479067,281.7244480852611,-27.37203719557962,-66.70083677610847,-0.2106952342575336,1.5293270597683393,91.54030578496442,-1.1571746269625285,-1.3119439069849457,0.11157778647239534,0.5057191071710154,308.2338204572501,-50.30902882790495,-78.2913897715627,-2.9266443021667214,0.057295779513082325
STABILIZE,2.576775074005127,29.119224654433868,307.6561939937169,-50.31083626549747,-78.12289638395617,-2.2346833964019552,280.9929647554928,-26.74090915021366,-66.2745307867979,-0.21081484260928815,1.5295477602558953,91.53932223772394,-1.1881027073485428,-1.342734253770982,0.11173416982009776,0.5059241827985791,307.9206693996279,-50.3085331560735,-78.18620579809357,-2.6266995557496955,0.0
STABILIZE,2.612539291381836,28.324581307401406,307.54001375003816,-50.309143402135156,-78.15098999355274,-2.237472331071056,280.26016078095245,-26.10864164490424,-65.84006171037751,-0.2098111783272665,1.5293996305282707,91.53831819991595,-1.2196292491726755,-1.3735148722836863,0.1118736165535528,0.5061554641415876,307.05314079633035,-50.309868222427085,-77.97537441100198,-2.561753107371402,0.0
STABILIZE,2.6490495204925537,27.857283281528122,307.732193959593,-50.32826785127914,-78.23551278737665,-2.24977279077642,279.5265638477897,-25.475689970311556,-65.39745895112657,-0.20890756564441498,1.5294416788803484,91.53689752056859,-1.2524960892903088,-1.4240328529855981,0.112488639538821,0.506419026918125,308.68420176172947,-50.366402175336916,-78.54495815303444,-3.598508380317142,0.0
STABILIZE,2.68750262260437,26.446801266126084,307.9229696211584,-50.33473160506707,-78.22802427400433,-2.256870975605141,278.7927024997929,-24.8425101570716,-64.94675487147535,-0.20952377677359707,1.529924914764127,91.53569540727466,-1.2839561765894896,-1.4697272304652964,0.11284354878025704,0.5066406347012645,307.7230156908537,-50.32792441743729,-78.16374025797658,-3.0411170457969945,0.0
STABILIZE,2.7249021530151367,26.930585251532953,307.8018175837703,-50.32857930225631,-78.27013794274639,-2.2611421661840105,278.05910556663014,-24.20955848247892,-64.4879847533366,-0.20924349889378854,1.5304414478201092,91.53359853919947,-1.3151923604455884,-1.496325681237854,0.11305710830920053,0.5068910765947049,307.6280602703096,-50.29141131399479,-78.10171541722814,-2.7366593855154804,0.0
STABILIZE,2.76019549369812,29.01628502248357,307.8995576731239,-50.31829349299784,-78.19081447787836,-2.265347727887874,277.3263015920898,-23.577290977169497,-64.0211867594368,-0.20897223899811854,1.5303729324849975,91.53346876560524,-1.346887559225805,-1.5416195710490748,0.11326738639439371,0.5070848138592208,308.4093698463962,-50.33554474756149,-78.30698775843038,-2.7356222106996597,0.0
STABILIZE,2.794020652770996,29.673389977997722,308.2053189289805,-50.335281240442946,-78.29961178174136,-2.269972634915911,276.5948182623215,-22.946162931803542,-63.546401894647545,-0.20965998035060066,1.5311562698054333,91.5324305768514,-1.379825920853825,-1.5967010915027404,0.11349863174579555,0.5073766049435469,308.5819470756131,-50.3788876597726,-78.49013216956557,-2.7902660166043205,0.0
STABILIZE,2.835073232650757,27.64521253106071,308.1408129792996,-50.35495890217442,-78.3614827572493,-2.2756798410852617,275.86518183407657,-22.31662840374821,-63.06367396731693,-0.2109863710709054,1.5320678866162185,91.5313377465842,-1.4118743038222432,-1.624112391128325,0.1137839920542631,0.5076489043949662,308.36167201332495,-50.3504442991892,-78.28732834375197,-2.922626518110235,0.0
STABILIZE,2.864176034927368,35.52207053084454,308.1481533512075,-50.36988170220994,-78.35002997334496,-2.282579700512831,275.13791656294893,-21.68913972376056,-62.57304955060091,-0.2111382360582324,1.5308721766246431,91.53277891649907,-1.4447151051745752,-1.6627293197524886,0.11412898502564156,0.5078884902113721,307.75971755039296,-50.38031314766807,-78.27262940671731,-3.297483768855699,0.11459155902616465
STABILIZE,2.9016032218933105,27.00184119381462,308.0959200297276,-50.3239400980105,-78.22561760974014,-2.2850637423561455,274.4135441316161,-21.064147002670246,-62.07457794379464,-0.2118385705719967,1.530769723787093,91.5304498219921,-1.471774979440776,-1.6943058468519263,0.11425318711780728,0.5080755198329727,307.36689366291034,-50.241062847174305,-78.11689507875111,-2.664484354525996,0.0
STABILIZE,2.9380784034729004,27.596647059597593,308.00386278007426,-50.31220074623278,-78.1836414509647,-2.2916903070969075,273.6925830780793,-20.44209763806233,-61.56831113366381,-0.212658059870266,1.530624155380407,91.52223993460974,-1.50288256026341,-1.725357284375794,0.11458451535484537,0.5083076651586504,307.9490835981293,-50.31522624385604,-78.16139986742563,-3.013012867741253,-0.057295779513082325
STABILIZE,2.978193521499634,26.044783348443264,307.83771182524384,-50.318495985537844,-78.14350832194536,-2.297612327325042,272.97554822390475,-19.82343582096013,-61.05430375577609,-0.21387975659719916,1.5308100645918783,91.52394065171308,-1.534197792221767,-1.7517341466925436,0.11488061636625212,0.5085446022830846,307.7511923014609,-50.39919886558322,-78.15223001965929,-3.194748281929378,0.11459155902616465
STABILIZE,3.011385679244995,30.26215196357838,307.86739908670154,-50.34515276668753,-78.26145948952428,-2.303877139281946,272.26295010246434,-19.208602042508048,-60.53261305583237,-0.21464188297861092,1.529611366392541,91.52686397267783,-1.5668665102734223,-1.791823542712505,0.1151938569640973,0.508864423216846,308.5101083206133,-50.32103319062336,-78.47074858148788,-3.1545590467180205,0.0
STABILIZE,3.051962375640869,24.88374190180118,308.1313750740325,-50.36661289326624,-78.38481825531913,-2.3108674478044744,271.555294387176,-18.598032600654278,-60.00329885099821,-0.21551014409642236,1.5278696681541877,91.51930978345581,-1.5975813876918707,-1.8423822736939401,0.11554337239022372,0.5091907597021604,309.07959748704786,-50.37960662359219,-78.53147616481017,-3.074136869304425,-0.057295779513082325
STABILIZE,3.0885298252105713,27.575237995056014,308.2873179018153,-50.379116585233106,-78.42700296353051,-2.312334733300835,270.8530813197449,-17.992159106833697,-59.46642349123518,-0.21445986910940065,1.5270459900289666,91.52199404779962,-1.6290003515166034,-1.8848329311831855,0.11561673666504176,0.5094802897361477,308.1466078018243,-50.436709941483834,-78.2787841442934,-2.807415650532249,0.17188733853924698
STABILIZE,3.1336774826049805,22.242335859322385,308.19206902764097,-50.35955469078056,-78.28777078515537,-2.3157954062322554,270.15680513840385,-17.391407992650656,-58.92205182063219,-0.2173582438754397,1.526442158617655,91.52260193463574,-1.6562930776421347,-1.9100974945760487,0.11578977031161278,0.5096828594822616,307.47283922725774,-50.262347507265716,-78.05305204636248,-2.785099610000273,-0.057295779513082325
STABILIZE,3.168306589126587,31.430956573869384,308.3505840466484,-50.36036462155467,-78.236859995015,-2.3247415063985555,269.46695350615437,-16.796200016561784,-58.37025113873686,-0.2171776173884046,1.5280282566089791,91.51492480200865,-1.6887018586614324,-1.958837178660885,0.11623707531992777,0.5099333044281391,308.5437673964979,-50.382036415914506,-78.37874379438904,-2.9674504404218425,-0.2291831180523293
STABILIZE,3.2007954120635986,31.096098812295192,308.2257054321438,-50.33034014690798,-78.20918344674506,-2.3268157760820416,268.784006939007,-16.206949770558765,-57.81109116188691,-0.21941813287958034,1.5272794971212165,91.51415299063244,-1.715291897303859,-1.9813787377034677,0.11634078880410209,0.5101990461424291,307.8857152480903,-50.34663651754376,-78.1957544994836,-2.7687856991773288,0.17188733853924698
STABILIZE,3.236994981765747,27.99244512370109,308.04204714557045,-50.35885954714009,-78.26491012401762,-2.327877394693481,268.1084382342225,-15.62406518685114,-57.24464398454146,-0.22017180156580893,1.5274267730751947,91.51862676453881,-1.7464663431588212,-2.0,0.11639386973467405,0.510510133069738,308.16130605418124,-50.34790570796206,-78.22023207818019,-2.9909912456191847,0.2291831180523293
STABILIZE,3.2775585651397705,24.919223365574275,308.0651414512319,-50.351819361149275,-78.21413319340358,-2.33852670119383,267.4407118985522,-15.047947044549218,-56.67098404061246,-0.21983015870517608,1.5301697343571896,91.50970653748277,-1.7736387996119878,-2.0,0.11692633505969151,0.5107715745763955,308.26207933013154,-50.36091585794208,-78.22641300254693,-3.430500346215723,-0.2291831180523293
STABILIZE,3.3122081756591797,29.481503349289024,308.0235015290551,-50.33557655072161,-78.14846232667077,-2.3423161423254353,266.7812835764791,-14.478988476346728,-56.090188064795996,-0.21935842208519563,1.530846776858667,91.50855223551304,-1.8020938471403942,-2.0,0.11711580711627177,0.5110291371309373,307.26463961637353,-50.297908086260776,-77.99874189928516,-2.6770273035339045,0.0
STABILIZE,3.347386121749878,28.54044637996734,307.8169367963974,-50.32717092146894,-78.11186836574443,-2.3470006750424686,266.13059947845824,-13.917574475203736,-55.50233505390365,-0.21894773028092215,1.5308930940789762,91.51390710382232,-1.829499526067274,-2.0,0.11735003375212344,0.5113047666559204,307.5109437332093,-50.32268882020406,-78.11045019540114,-3.019078427785871,0.057295779513082325
STABILIZE,3.3892834186553955,24.730420221578882,307.90420870803104,-50.3126944381576,-78.16797207507462,-2.3526033113824196,265.4890958091577,-13.364081401029395,-54.907506228193895,-0.21899079248920497,1.5325361814611875,91.5081287637845,-1.8556137453647792,-2.0,0.11763016556912098,0.5116302329234403,308.3220748062587,-50.31748640800806,-78.39472413053748,-3.100947835284771,0.0
STABILIZE,3.421919822692871,30.80083715806866,307.93808004796864,-50.33938135624806,-78.26162204335851,-2.3584062781987267,264.85719819569925,-12.818876487364804,-54.30578499270342,-0.21832399527148247,1.5305488098561253,91.51021197148134,-1.8856892976117319,-2.0,0.11792031390993635,0.5119779185253276,308.3306627538694,-50.377968840532176,-78.2796918041369,-3.381653181935377,0.11459155902616465
STABILIZE,3.461045026779175,25.84880102056538,307.902402704774,-50.33952606332025,-78.3148410573172,-2.361491535901924,264.2353211158992,-12.282317348065732,-53.69725689857851,-0.2199536890796181,1.5290841611659807,91.50968604691525,-1.9112263716360551,-2.0,0.11807457679509621,0.5123087920793693,308.0836926141583,-50.32312294142062,-78.27010723727716,-2.7520809956229755,-0.057295779513082325
STABILIZE,3.4984676837921143,26.934908810685847,308.0639244639307,-50.32297978987759,-78.27506853760981,-2.3660917465089235,263.62386732650896,-11.754751483985515,-53.08200960440638,-0.22001860255715966,1.5297234241836115,91.50424921633592,-1.936679469304595,-2.0,0.11830458732544619,0.5125965294666017,308.0722484121571,-50.26784758768008,-78.27540657141539,-2.588416244808542,-0.17188733853924698
STABILIZE,3.5335187911987305,28.657055793170358,308.2278682680627,-50.32297978987759,-78.27506853760981,-2.3723523299842197,263.02322729145584,-11.236515789657872,-52.46013283754657,-0.21971415221099164,1.5282092566219843,91.50649634857285,-1.9630413057907772,-2.0,0.11861761649921099,0.5129074678500316,308.3306627538694,-50.377968840532176,-78.2796918041369,-3.381653181935377,0.17188733853924698
STABILIZE,3.5744359493255615,25.089151552854478,308.1757869798462,-50.324302079766795,-78.25433307824302,-2.3746773426833934,262.4337786100839,-10.727936059979456,-51.83171835546226,-0.2192652540360484,1.5277985914981373,91.50807412227113,-1.987788282761908,-2.0,0.11873386713416967,0.5132113073613904,308.0616683651763,-50.327089811088236,-78.2079008591768,-2.9152868494525137,0.057295779513082325
STABILIZE,3.6101648807525635,28.711590591714355,308.1819888317373,-50.351834316936504,-78.25830700235524,-2.3796907991123075,261.8558854453946,-10.229326496893137,-51.19685990705169,-0.21749548798907464,1.528681606891773,91.49918121597177,-2.0,-2.0,0.11898453995561538,0.5135307235476517,308.36167201332495,-50.3504442991892,-78.28732834375197,-2.922626518110235,-0.11459155902616465
STABILIZE,3.651714563369751,27.575781881775924,308.18665253636726,-50.358171561380004,-78.26288835315934,-2.3877548581620576,261.28989795228745,-9.740989216070275,-50.55565319397942,-0.1969387530214519,1.5252833743362801,91.49661989503302,-2.0,-2.0,0.11938774290810289,0.5138536175795899,308.10701113730795,-50.39698057386267,-78.29343585654925,-3.3905651398437158,0.0
STABILIZE,3.6813013553619385,34.17143136472141,308.24020459421797,-50.35854456281749,-78.29143234008244,-2.4477255408166614,260.73615170580103,-9.263213753594059,-49.908195832007806,0.431342187537908,1.3803881681704528,91.40585351115273,-2.0,-2.0,0.12238627704083307,0.5141916182540374,308.3400087014105,-50.32820881540071,-78.29353281994604,-2.876377523058565,-3.20856365273261
STABILIZE,3.7235403060913086,26.02910530659865,307.9496303284685,-50.32783850404696,-78.1991037837477,-2.4922911238830614,260.19496712935336,-8.796276572641787,-49.25458731232827,0.30581715773439877,1.4090638636271051,91.38575909461454,-2.0,-2.0,0.12461455619415307,0.5144722582357097,306.87779142512204,-50.25832612287761,-78.0103426747478,-2.522851917894286,-1.088619810748564
STABILIZE,3.7556140422821045,31.509822629234247,307.9601188661222,-50.32016191622352,-78.20085369884633,-2.5148072650317905,259.6666489229831,-8.34044057016807,-48.59492896289274,0.21235601076247806,1.4263470169915877,91.4228948331319,-2.0,-2.0,0.12574036325158952,0.5148029623679768,308.11411105344456,-50.37395081039234,-78.29868560184512,-3.124158813487199,0.5156620156177409
STABILIZE,3.789564371109009,29.807508901096558,307.9102906319332,-50.34028850488493,-78.24244545887808,-2.536857903129527,259.1514854915896,-7.895954583587397,-47.92932390974487,-0.0017182594837210007,1.4612134251572102,91.41030679449158,-2.0,-2.0,0.12684289515647637,0.5151565607745666,308.1125308423802,-50.38858858138495,-78.4183081000413,-3.4106883027865678,-0.5156620156177409
STABILIZE,3.8311235904693604,25.537341240364828,307.6720124639668,-50.39042825409502,-78.26895637764676,-2.503095782164396,258.6497483731746,-7.46305289745716,-47.25787703835158,-0.14654863221328615,1.5083778023668524,91.46855464773344,-2.0,-2.0,0.1251547891082198,0.5155055396696476,306.9156202974756,-50.40874537050787,-78.08987543105384,-2.704008381277376,2.4064227395494577
STABILIZE,3.861717462539673,33.074977131501754,307.5374089240353,-50.403319544997316,-78.20652695427566,-2.4364128181195,258.16169166708187,-7.041954750160286,-46.58069495493426,-0.18057007127338412,1.501237906806662,91.53450012416991,-2.0,-2.0,0.121820640905975,0.5158129159996707,307.66699100175293,-50.412624683099224,-78.11139733173187,-2.549221557652558,2.864788975654116
STABILIZE,3.902064085006714,25.022544907857608,307.7770933154676,-50.34897129395589,-78.15054958451968,-2.4859926050559444,257.68755146223907,-6.63286384058803,-45.89788594780023,-0.19641013373228994,1.5029949729706475,91.38126483014068,-2.0,-2.0,0.12429963025279722,0.5161263318183598,308.07621338228375,-50.22554382826066,-78.25037599077339,-3.1424901061839563,-4.1252961249419275
STABILIZE,3.952014446258545,24.923221363250125,307.6733927341159,-50.34820062260096,-78.14971744654042,-2.4393527432576096,257.22754526539757,-6.235967834822887,-45.20955994867407,-0.22396099575021897,1.39720900310549,91.4963740082229,-2.0,-2.0,0.12196763716288049,0.5164700787489331,307.595608146686,-50.40643335644307,-78.08737901711608,-2.5840373267928953,3.9534087864026803
STABILIZE,3.9765396118164062,40.98641702659918,307.6473017608596,-50.195298741561636,-78.20828155894752,-2.326004272393089,256.78187142937367,-5.851437872821421,-44.51582849402891,-0.21237916937263263,1.3661388994579253,91.59999480812117,-2.0,-2.0,0.11630021361965447,0.5168462265324593,307.98207597609866,-49.95391903998127,-78.28708966895314,-2.4836223320001665,4.698253920072751
STABILIZE,4.012736797332764,27.73203565100103,307.9006932980081,-50.169923633870695,-78.18830801190276,-2.2034913955234914,256.35070858128927,-5.479428075096948,-43.81680468641789,-0.6352775488893255,0.8293311739764686,91.855498524593,-2.0,-2.0,0.11017456977617457,0.5171857516627424,308.18257798321815,-50.14941850518785,-78.19045534963911,-2.978731052582873,4.5263665815335035
STABILIZE,4.0512566566467285,26.058537373335735,308.03551588320346,-50.24070138800678,-78.12339331761832,-2.11912182875229,255.93421505081247,-5.1200750494023595,-43.1126031558055,-0.9977590498756344,0.19447469557730368,91.89652747093727,-2.0,-2.0,0.10595609143761452,0.5175053950809064,308.3411039277298,-50.61876661885132,-77.89263493426277,-1.8968926593097137,0.9167324722093172
STABILIZE,4.08578896522522,29.592368911215218,307.93598161382505,-50.75243943118119,-78.47383615158921,-2.18163042829481,255.5325282983985,-4.773497397413095,-42.4033400208989,-1.3004507290540912,-1.4651342739059148,91.7163539108215,-2.0,-2.0,0.1090815214147405,0.5180352480653452,307.57854203539154,-51.48913316950449,-79.33841817086576,-2.3880756405820875,-6.187944187412891
STABILIZE,4.116153001785278,33.52626993325607,311.2695474380138,-50.84671312855746,-80.78370414751147,-2.403239826838363,255.14576434353035,-4.439795221409625,-41.689132850479254,-1.1350184247145048,-2.4144253409357868,91.53055227482965,-2.0,-2.0,0.12016199134191814,0.5195472856485162,324.2634372676299,-50.43223959731664,-85.12005933740589,-9.056068710621702,-8.422479588423101
STABILIZE,4.160188436508179,27.12530153207396,314.52581969632,-50.78453745471257,-83.19284561522583,-2.685758069431185,254.77401719295966,-4.119049630960731,-40.97010062473319,-0.8372477367504836,-3.2259773190593006,91.30452082462641,-2.0,-2.0,0.13428790347155925,0.5211113724952463,324.2634372676299,-50.43223959731664,-85.12005933740589,-9.056068710621702,-10.485127650894066
STABILIZE,4.177940130233765,60.54833121607576,317.74199155320235,-50.43223959731662,-85.12005933740588,-3.0797865505644877,254.41735826894703,-3.8113222496057944,-40.24636369658405,0.11943871760321961,-4.461307957349432,90.67925115705759,-2.0,-2.0,0.1539893275282244,0.5224368478204109,324.2634372676299,-50.43223959731664,-85.12005933740589,-9.056068710621702,-13.006141949469688
STABILIZE,4.206764459609985,35.27263247302604,320.9264582211824,-50.43223959731662,-85.12005933740586,-3.422029445413922,254.07583583750335,-3.516654721537904,-39.51804375302333,0.7652165084026762,-4.766726269388899,90.31574848942951,-2.0,-2.0,0.1711014722706961,0.5228010077921913,324.2634372676299,-50.43223959731664,-85.12005933740589,-9.056068710621702,-14.438536437296746
STABILIZE,4.233177661895752,38.34441651049047,324.26343726763,-50.43223959731662,-85.12005933740586,-3.820910901872257,253.74947443663007,-3.2350682182866564,-38.785263776441994,1.3805977696006075,-4.819785740182497,89.97487423852169,-2.0,-2.0,0.19104554509361285,0.5231673977804819,324.2634372676299,-50.43223959731664,-85.12005933740589,-9.056068710621702,-13.464508185574346
STABILIZE,4.263231039047241,33.5831792013964,324.2634372676301,-50.43223959731662,-85.12005933740586,-4.142482615827498,253.4382743045603,-2.9665629454008666,-38.04814800596184,1.8202910906984726,-4.673312333431574,89.69806716202858,-2.0,-2.0,0.2071241307913749,0.523535955665722,324.2634372676299,-50.43223959731664,-85.12005933740589,-9.056068710621702,-11.917522138721123
STABILIZE,4.298067808151245,29.122257401544186,324.2634372676301,-50.43223959731662,-85.12005933740586,-4.497880475031645,253.14221080799928,-2.7111176491315376,-37.3068218987669,2.116520236983334,-4.358848289610071,89.45431820111834,-2.0,-2.0,0.22489402375158224,0.5239066187193195,324.2634372676299,-50.43223959731664,-85.12005933740589,-9.056068710621702,-9.912169855763242
STABILIZE,4.340203285217285,36.00693645588311,324.2634372676301,-50.43223959731662,-85.12005933740586,-4.826038249667537,252.8612338703652,-2.468689123114288,-36.5614120914347,2.253960932000327,-3.5665719590979794,89.09699685468912,-2.0,-2.0,0.24130191248337685,0.5242793236229856,324.2634372676299,-50.43223959731664,-85.12005933740589,-9.056068710621702,-7.7349302342661135
STABILIZE,4.356630563735962,62.33083176056233,324.2634372676301,-50.43223959731662,-85.12005933740586,-5.069519948371617,252.59526740002997,-2.239211715052633,-35.812046361267726,2.2499565201559952,-3.1309800598750015,88.9320955975575,-2.0,-2.0,0.2534759974185809,0.524654006488069,324.2634372676299,-50.43223959731664,-85.12005933740589,-9.056068710621702,-7.104676659622208
STABILIZE,4.383383512496948,37.62314992554852,324.2634372676301,-50.43223959731662,-85.12005933740586,-5.298697719648223,252.34420871856008,-2.0225968334005273,-35.05885358762473,2.213597288769902,-2.7569742688507355,88.81548377785788,-2.0,-2.0,0.26493488598241116,0.5250306028748906,324.2634372676299,-50.43223959731664,-85.12005933740589,-9.056068710621702,-5.67228217179515
STABILIZE,4.415069341659546,32.48577978809096,324.2634372676301,-50.43223959731662,-85.12005933740586,-5.445115087670694,252.107927988957,-1.818732454045218,-34.30196371325208,2.1840398585800833,-2.3603016412921365,88.74563826340533,-2.0,-2.0,0.2722557543835347,0.5254090478120769,324.2634372676299,-50.43223959731664,-85.12005933740589,-9.056068710621702,-3.20856365273261
STABILIZE,4.4436354637146,35.198630424383815,324.2634372676301,-50.43223959731662,-85.12005933740586,-5.521400369771684,251.8862676438984,-1.6274826269899023,-33.541507705615196,1.9792114499946865,-1.8730942159547834,88.77243309551929,-2.0,-2.0,0.2760700184885842,0.5257892758158953,324.2634372676299,-50.43223959731664,-85.12005933740589,-9.056068710621702,1.4896902673401404
STABILIZE,4.472338438034058,36.4386217920873,324.2634372676301,-50.43223959731662,-85.12005933740586,-5.513248393103547,251.67904181397842,-1.4486869830369784,-32.77761751822973,1.9075136736165932,-1.7576747978738518,88.86759129103591,-2.0,-2.0,0.27566241965517735,0.5261712209095881,324.2634372676299,-50.43223959731664,-85.12005933740589,-9.056068710621702,3.8388172273765155
STABILIZE,4.503807783126831,31.929112459368316,324.2634372676301,-50.43223959731662,-85.12005933740586,-5.4509465491262405,251.48603575594848,-1.2821602404701906,-32.01042605199321,1.9367929870411453,-1.7438577520697391,88.9874201298346,-2.0,-2.0,0.27254732745631205,0.5265548166427063,324.2634372676299,-50.43223959731664,-85.12005933740589,-9.056068710621702,5.213915935690491
STABILIZE,4.542794466018677,26.20948572142723,321.8101516223145,-45.46511355987667,-79.87598408995727,-5.287752171996348,251.30700528095855,-1.127691711738109,-31.240067116516038,2.1259845312954444,-1.9913597952072004,89.23945411020807,-2.0,-2.0,0.2643876085998174,0.5243179584867206,311.99700904105197,-35.530861484996784,-69.38783359506007,1.1266240022247445,5.557690612768986
STABILIZE,4.572824716567993,33.743937955558415,317.75742611854696,-41.321626666867196,-73.49290747019514,-5.1242663368611785,251.14167618279708,-0.9850448101364435,-30.466675391453194,2.203363104072284,-2.231662925681174,89.37008830827374,-1.9524314334736015,-2.0,0.2562133168430589,0.521513116039371,303.9998097487919,-38.00177891828822,-65.97082947811951,-5.560381189527362,5.557690612768986
STABILIZE,4.605054616928101,31.184880072566134,313.48378594955756,-37.48487987630384,-65.84276383351393,-4.965714719161697,250.9897436661326,-0.853956556491184,-29.690386387835424,2.2087621551677676,-2.53465972221646,89.50367314806086,-1.7757679768382508,-2.0,0.24828573595808484,0.5180761887228392,302.89523642268284,-38.921999225626585,-62.1696284273623,-4.242393145852446,5.7868737308213145
STABILIZE,4.638051986694336,30.55135591862303,309.2101457805682,-38.61525912318044,-63.436695444281334,-4.765277255557536,250.85087177475378,-0.7341370858410272,-28.91133640940052,1.9963168049973372,-3.3318508007231986,89.80566996221296,-1.9142638128283478,-2.0,0.2382638627778768,0.5172626795174404,302.89523642268284,-38.921999225626585,-62.1696284273623,-4.242393145852446,7.276563998161455
STABILIZE,4.670584678649902,30.88066086008997,304.6829472616343,-39.52656811920465,-60.583120454764945,-4.524100874577035,250.72469281981017,-0.6252691541205735,-28.129662513924927,1.8165716258085776,-3.77020038882357,90.01323258090048,-1.961965132988197,-2.0,0.22620504372885175,0.51622672897042,301.62744467296034,-40.73570590636085,-57.410104509570324,-4.176672160097809,8.938141604040842
STABILIZE,4.705879211425781,28.44270843929068,302.60903438801597,-40.13113701278274,-58.99661248216762,-4.250271220216432,250.6108068080536,-0.5270076448429535,-27.345502474554813,1.6131234490440522,-4.18077031690903,90.23153225696326,-1.9915900630463403,-2.0,0.21251356101082164,0.5158255550038064,301.62744467296034,-40.73570590636085,-57.410104509570324,-4.176672160097809,10.427831871380983
STABILIZE,4.740695238113403,29.054072401324447,301.749337842729,-41.36981057790777,-56.658559712341365,-3.9317795510159486,250.50878087007834,-0.438979075782683,-26.55899474113764,1.1136107975866867,-5.155326894009013,90.73047074564352,-2.0,-2.0,0.19658897755079743,0.5150497824856018,299.70132702235713,-42.6380199210017,-55.15547011788352,-3.9442613455797186,10.657014989433312
STABILIZE,4.7748613357543945,29.393489610708155,300.98794195435573,-42.439744024755846,-55.60269431918135,-3.5958937228904513,250.4181486885621,-0.36078110565840404,-25.770278401553426,0.9075627733476195,-5.67842376178361,90.99957336875285,-2.0,-2.0,0.17979468614452257,0.514916207958814,299.0882569808166,-43.945506246905055,-54.24250833009029,-3.1584239108122745,11.058085446024888
STABILIZE,4.811054706573486,28.36768455581482,300.2990441122305,-44.004823584040174,-54.51028499758744,-3.2254636268715737,250.33840992650636,-0.29198204081568235,-24.979493143046156,0.7390525082915903,-6.6898304901162815,91.553064578334,-2.0,-2.0,0.1612731813435787,0.5147653959272707,299.45074721205674,-45.43094458421385,-54.1328765447886,-3.3092666581900687,11.631043241155712
STABILIZE,4.84624719619751,28.512701984323908,299.48393026423327,-45.46610707293063,-54.09491318289935,-2.8610951676311855,250.2690296554777,-0.23212034190974862,-24.18677921355507,0.8243472703164749,-7.191334568603529,91.80935376656039,-2.0,-2.0,0.1430547583815593,0.5149540669846722,297.5518754329741,-47.02187038767306,-53.90935467381923,-2.826885686300187,10.370536091867901
STABILIZE,4.880609035491943,29.27061844878362,298.5373332851558,-47.06238102819475,-53.900226489601785,-2.5099573749180357,250.2094377838481,-0.1807041305886372,-23.392277383046135,1.3894510821471193,-8.173758242966898,92.26416923320238,-2.0,-2.0,0.1254978687459018,0.5152539745532778,296.89445977757305,-48.73432811269742,-53.6584482501976,-2.3670320594207084,9.568395178684748
STABILIZE,4.919495105743408,26.5173608476848,297.73710579639163,-48.74845551846527,-53.62102148142318,-2.1781875641359254,250.1590284850363,-0.1372106961756998,-22.596128904843212,1.75298000331482,-8.575375927484586,92.4708644178653,-2.0,-2.0,0.10890937820679628,0.51551244628829,295.70018957853637,-50.48916805502539,-53.29526152025277,-1.774017956529022,9.740282517223996
STABILIZE,4.953106880187988,30.058938195161105,296.9025796546603,-50.4590941375169,-53.29078978549876,-1.8296192588221147,250.11715962574732,-0.10108600235246001,-21.798475476959695,2.7306037622389625,-9.494310432191748,92.9000052034172,-2.0,-2.0,0.09148096294110575,0.5157461571542695,294.91562627216,-52.15378624482797,-52.91865958604599,-1.7662012390833723,9.339212060632418
STABILIZE,4.993542432785034,24.812494084240416,295.99888796861467,-52.17270619313759,-52.821744587565355,-1.5118512370438795,250.08315219421456,-0.07174419384129749,-20.999459203429538,3.6157023635715273,-10.27791583755251,93.25242930421152,-2.0,-2.0,0.07559256185219398,0.515911142692068,294.93228878182856,-53.87516427955949,-52.2513126563974,-1.86191216766521,9.511099399171666
STABILIZE,5.026424169540405,30.667066367378574,295.2222573434838,-53.870846318997074,-52.214528702081076,-1.2567688422664436,250.05628972843994,-0.04856710308852996,-20.19922255563897,3.946753948679229,-10.55795871616491,93.29400466568939,-2.0,-2.0,0.06283844211332218,0.516007653073221,293.6687223073197,-55.58358843260384,-51.47361386379992,-1.1942574445890273,2.6929016371148693
STABILIZE,5.0616185665130615,28.642965431525464,294.5108020730412,-55.6202263981919,-51.68731817224034,-1.1821858073556393,250.03581774443398,-0.030903756947211036,-19.397908333657483,4.210102137412826,-10.776468420544663,93.26808409778918,-2.0,-2.0,0.059109290367781966,0.5161447049192914,293.3371834253598,-57.40192648241249,-51.33702799652381,-1.0105852401023725,-0.5156620156177409
STABILIZE,5.095691680908203,30.226603825254752,293.6345269699558,-57.25980520078725,-51.04112908705312,-1.2655197331318795,250.02094316445834,-0.018069883359643768,-18.59565962756956,4.475523715446345,-10.83189711320661,92.99094234202676,-2.0,-2.0,0.06327598665659398,0.5162227347297418,291.31881406310947,-58.793900687345534,-50.31274540083576,-0.8813938913574475,-7.563042895726867
STABILIZE,5.132960796356201,27.15920069414766,292.99542431604686,-58.52283103706099,-50.574735333276145,-1.4824093316092237,250.0108337452644,-0.009347418040121624,-17.792619778805644,4.579763928124963,-10.644396467658712,92.73358081410068,-2.0,-2.0,0.07412046658046119,0.5163910577772353,291.7201130026153,-59.37266594142505,-50.074432602468995,-1.4238258557971335,-10.771606548459477
STABILIZE,5.171394348144531,26.320504533902294,292.15154475751535,-58.98480653213935,-49.698563266271485,-1.8059913596985269,250.00461750633553,-0.0039840111584652504,-16.98893234147394,4.636448094933723,-9.869583223307052,92.21906949411277,-2.0,-2.0,0.09029956798492635,0.5163548154623988,290.71289098917106,-58.78785296764758,-48.70851179550983,-0.6330685438229295,-12.490479933851947
STABILIZE,5.203911781311035,30.920956017870044,293.9051548395191,-57.527734476771656,-48.51461716192038,-2.261147433716667,250.00138215812711,-0.001192534021797087,-16.184741043691332,4.534953618301449,-9.253976565866509,91.91598667988264,-2.0,-2.0,0.11305737168583335,0.5161649380591146,302.43677271733867,-54.42268452124243,-46.760907087782456,-6.670646303040968,-13.865578642165923
STABILIZE,5.238250732421875,29.43412539123356,295.7250726979149,-55.87774067004411,-47.41010865702487,-2.7060131869458086,250.0001745303079,-0.00015058575853288403,-15.3801897489151,4.3196647750021775,-7.806043056168214,91.30863259850676,-2.0,-2.0,0.13530065934729044,0.5160149594540548,302.43677271733867,-54.42268452124243,-46.760907087782456,-6.670646303040968,-14.954198452914486
STABILIZE,5.273219347000122,28.725355102935335,297.9486644287607,-54.422684521242395,-46.760907087782414,-3.2053727178433573,250.00000000000006,1.4210854715202004e-14,-14.575422417273984,4.264447391317678,-7.118548657713288,90.99821416110802,-2.0,-2.0,0.1602686358921679,0.5160927423352543,302.43677271733867,-54.42268452124243,-46.760907087782456,-6.670646303040968,-16.04281826366305
STABILIZE,5.304371118545532,34.191209077866176,300.0919963717054,-54.42268452124239,-46.760907087782414,-3.7741549403948045,250.0,0.0,-13.770583066899874,4.256959369553229,-6.3684261203244,90.59732303796329,-2.0,-2.0,0.18870774701974025,0.5164951620104413,302.43677271733867,-54.42268452124243,-46.760907087782456,-6.670646303040968,-18.04817054662093
STABILIZE,5.33044695854187,38.602389235555066,302.43677271733895,-54.42268452124239,-46.760907087782414,-4.3146872235390825,250.0,0.0,-12.965815735258786,4.351367098034792,-5.7110767617713245,90.12959851378999,-2.0,-2.0,0.21573436117695413,0.5168975456762618,302.43677271733867,-54.42268452124243,-46.760907087782456,-6.670646303040968,-20.511889065683473
