Mode,Time,Freq,time2delay,actualDelay,North-Desired,East-Desired,Down-Desired,Roll-UAV,Pitch-UAV,Yaw-UAV,Roll-Control,Pitch-Control,Yaw-Control,Thrust-Control,North-Pos,East-Pos,Down-Pos,Yaw-Ang,North-Vel,East-Vel,Down-Vel,Yaw-Vel,North-Acc,East-Acc,Down-Acc,North-Avg,East-Avg,Down-Avg,Yaw-Avg,North-Dif,East-Dif,Down-Dif,Yaw-Dif,North-One,East-One,Down-One,Yaw-One,North-Two,East-Two,Down-Two,Yaw-Two,Landing-State,Q-Size,Kalman-Time,Kalman-Dt
STABILIZE,0.034319162368774414,29.147149776582513,0.03269222577412923,0.032811880111694336,-10.0,40.0,10.0,2.7426189187626613,-1.1765706275822179,-51.400762768754795,4.000482118100667,3.9995178237828624,-0.0013858003522020605,0.5187376100007047,-0.032015048221558894,0.028794785192154965,0.6435248425703445,-0.006906249344057171,-0.16724695451557636,0.08922513225115836,1.0915876366198063,-0.19893767725116487,-5.121270194649696,0.829112995415926,14.489313960075378,0.0,0.0,0.0,0.0,0.0,0.0,0.0,0.0,0.0,0.0,0.0,0.0,0.0,0.0,0.0,0.0,False,0,3.529068946838379,0.069841796875
STABILIZE,0.06771516799926758,29.942631962192493,0.032324822743733723,0.0324406623840332,-10.0,40.0,10.0,2.7420236250878123,-1.1763381877070258,-51.40378512746253,4.000389894943536,3.999610067048242,-0.0011253034266207698,0.518726374709515,-0.03363957112725611,0.028178646623195795,0.661621611598313,-0.005585105902210638,-0.044810608960688114,0.0003145273240079405,1.1589749716222286,0.04246409982297586,2.165640890598297,0.7303980644792318,9.9918894469738,0.0,0.0,0.0,0.0,0.0,0.0,0.0,0.0,0.0,0.0,0.0,0.0,0.0,0.0,0.0,0.0,False,0,3.552536725997925,0.02993212890625
STABILIZE,0.10120487213134766,29.860348559061396,0.03240993817647298,0.03253579139709473,-10.0,40.0,10.0,2.7429542383622265,-1.1771137343429396,-51.41086803363183,4.000306711069523,3.999693265410753,-0.0008899183055899039,0.5187670764335947,-0.0331152993480691,0.02678761741680189,0.6537787149604143,-0.004393480905323044,-0.044810608960688114,0.0003145273240079405,1.1589749716222286,0.04246409982297586,2.165640890598297,0.7303980644792318,9.9918894469738,0.0,0.0,0.0,0.0,0.0,0.0,0.0,0.0,0.0,0.0,0.0,0.0,0.0,0.0,0.0,0.0,False,0,3.5821664333343506,0.02993212890625
STABILIZE,0.1345839500427246,29.958030370126995,0.03236392339070638,0.032525062561035156,-10.0,40.0,10.0,2.7434445178785865,-1.1776627107974795,-51.41480905278292,4.000345176689824,3.9996547935208677,-0.0010034332506641632,0.5188151758208823,-0.0342267418706283,0.02504125817408841,0.6422580270235019,-0.004944505234647515,-0.05344756646081805,-0.09148999233730137,1.2371608056128025,0.03381639664781205,1.8718035891652107,-1.1296109296381474,14.856868982315063,0.0,0.0,0.0,0.0,0.0,0.0,0.0,0.0,0.0,0.0,0.0,0.0,0.0,0.0,0.0,0.0,False,0,3.6423208713531494,0.0349208984375
STABILIZE,0.16808390617370605,29.851847634231053,0.032474549611409505,0.03260087966918945,-10.0,40.0,10.0,2.7443305214799842,-1.1771699766818866,-51.42303260054362,4.0002585762182665,3.7178317620558046,-0.000814155805649485,0.5188434298736234,-0.03413336978229319,0.022136155864443115,0.6406545663182397,-0.003984788082932181,-0.05344756646081805,-0.09148999233730137,1.2371608056128025,0.03381639664781205,1.8718035891652107,-1.1296109296381474,14.856868982315063,0.0,0.0,0.0,0.0,0.0,0.0,0.0,0.0,0.0,0.0,0.0,0.0,0.0,0.0,0.0,0.0,False,0,3.671048402786255,0.0349208984375
STABILIZE,0.203963041305542,27.87413024263489,0.03241422971089681,0.03486990928649902,-10.0,40.0,10.0,2.744238954256424,-1.1764062761553145,-51.42716144989689,4.000019580404619,1.7242781225481956,-0.00014778873651962468,0.5188723523541449,-0.03273003495283431,0.022574714440298238,0.6395844006582866,-0.0006506257631120889,0.01534037000965327,0.08259423193521798,1.2524728663265705,0.1608051580018068,3.6839351058006287,0.9572864510118961,18.32190304994583,0.0,0.0,0.0,0.0,0.0,0.0,0.0,0.0,0.0,0.0,0.0,0.0,0.0,0.0,0.0,0.0,False,0,3.6995723247528076,0.02993212890625
STABILIZE,0.23838257789611816,29.0498465885873,0.032291682561238606,0.033492326736450195,-10.0,40.0,10.0,2.744765305709338,-1.1756784341218849,-51.43573675239984,3.999997088211601,1.7283681184491468,1.7084052163196439e-06,0.5189150613313589,-0.03573272746401248,0.02184869457903959,0.6311713607073947,9.652660770181871e-05,-0.23224586620926857,0.020532366761472076,1.006457768380642,0.02970590676298706,-5.571283400058746,0.7502883672714233,11.713224649429321,0.0,0.0,0.0,0.0,0.0,0.0,0.0,0.0,0.0,0.0,0.0,0.0,0.0,0.0,0.0,0.0,False,0,3.728788375854492,0.069841796875
STABILIZE,0.27195310592651367,29.789937214125402,0.032412083943684895,0.03254532814025879,-10.0,40.0,10.0,2.7453909083486288,-1.1750000042382323,-51.438827412999274,4.000060518488761,1.7342128398788232,-0.00041880631988092977,0.5189074795057684,-0.03381814684482516,0.02221580991324363,0.6474758198495156,-0.001999359231171562,0.11967645259574056,0.06114476127550006,1.0662098415195942,-0.14417780951935125,3.3579424023628235,0.9247910231351852,20.95334380865097,0.0,0.0,0.0,0.0,0.0,0.0,0.0,0.0,0.0,0.0,0.0,0.0,0.0,0.0,0.0,0.0,False,0,3.7573206424713135,0.03991015625
STABILIZE,0.30565881729125977,29.665834423736605,0.03228166898091634,0.03278851509094238,-10.0,40.0,10.0,2.745554832888709,-1.1754422589869906,-51.44214346984131,4.000143053587698,1.7419507574392057,-0.0009630862301050978,0.518939629729062,-0.030186164624653032,0.022389815857968287,0.6440655036422663,-0.004704836856911131,0.11967645259574056,0.06114476127550006,1.0662098415195942,-0.14417780951935125,3.3579424023628235,0.9247910231351852,20.95334380865097,0.0,0.0,0.0,0.0,0.0,0.0,0.0,0.0,0.0,0.0,0.0,0.0,0.0,0.0,0.0,0.0,False,1,3.7858774662017822,0.03991015625
STABILIZE,0.3391411304473877,29.868641623642514,0.03242185910542806,0.03253650665283203,-10.0,40.0,10.0,2.745777881253792,-1.1753134458881125,-51.44970790434711,4.000160105712313,1.7496813585749276,-0.0010740902574006613,0.518995851438097,-0.025850154608622954,0.023657879695629287,0.6284813655794994,-0.005242338677326195,0.2813408151268959,0.1812297268770635,0.9515027515590191,-0.15759887777437506,6.155642494559288,0.5812630522996187,4.873543977737427,0.0,0.0,0.0,0.0,0.0,0.0,0.0,0.0,0.0,0.0,0.0,0.0,0.0,0.0,0.0,0.0,False,0,3.844069719314575,0.034921142578125
STABILIZE,0.37256741523742676,29.917643282570705,0.032369168599446614,0.032485246658325195,-10.0,40.0,10.0,2.747026098324612,-1.1753734234867617,-51.454000678240455,4.00035468380162,1.7543515293254761,-0.002349574651210657,0.5190316138618931,-0.024713876609325326,0.022240960956087717,0.6231428590512671,-0.011581032988890645,-0.005524054722627625,-0.022347991762217134,1.0456348769366741,-0.339003446085904,-1.5449155122041702,-1.186433993279934,14.759738743305206,0.0,0.0,0.0,0.0,0.0,0.0,0.0,0.0,0.0,0.0,0.0,0.0,0.0,0.0,0.0,0.0,False,0,3.872906446456909,0.034921142578125
STABILIZE,0.4062931537628174,29.649686841696003,0.032377036412556966,0.0327601432800293,-10.0,40.0,10.0,2.747833768193966,-1.1760923008969055,-51.46134654669281,4.000293447115572,1.7623266139575573,-0.0019475136157500682,0.5190618185750945,-0.022545450012862674,0.02128819411437482,0.6206822980870188,-0.009538586650862274,0.051106291357427835,0.0004024206646136008,1.1784843169152737,0.09724323082268305,4.507049545645714,0.8534470573067665,17.262202501296997,0.0,0.0,0.0,0.0,0.0,0.0,0.0,0.0,0.0,0.0,0.0,0.0,0.0,0.0,0.0,0.0,False,0,3.904865026473999,0.029931640625
STABILIZE,0.44777607917785645,24.105749557461092,0.032360108693440755,0.04052233695983887,-10.0,40.0,10.0,2.747736224554882,-1.1758406511146728,-51.465021188466274,4.000336737370595,1.7666232580366465,-0.002232624271343216,0.5191037993120702,-0.02416524100291745,0.02112074630475629,0.6152676661484835,-0.010918835253297421,-0.14918043743818998,0.04411166883073747,1.1547931469976902,-0.09015008603973142,3.845304995775223,0.8362853899598122,17.916549742221832,0.0,0.0,0.0,0.0,0.0,0.0,0.0,0.0,0.0,0.0,0.0,0.0,0.0,0.0,0.0,0.0,False,0,3.933209180831909,0.03492138671875
STABILIZE,0.48117780685424805,29.93857113285795,0.032357247670491536,0.03246307373046875,-10.0,40.0,10.0,2.7478393177226668,-1.1774055114865463,-51.47227826445941,4.0003254270366915,1.771439433495419,-0.0021605855043461786,0.5191337123496309,-0.02184389643404586,0.021638451886536098,0.6128524880253592,-0.010523492640172777,0.15912315575405955,0.07947974372655153,1.2317528948187828,0.08886111461751629,3.1982362270355225,-1.189106423407793,14.413706958293915,0.0,0.0,0.0,0.0,0.0,0.0,0.0,0.0,0.0,0.0,0.0,0.0,0.0,0.0,0.0,0.0,False,0,3.9905731678009033,0.0349208984375
STABILIZE,0.5146770477294922,29.851635173125512,0.03238848050435384,0.03251934051513672,-10.0,40.0,10.0,2.748516146780733,-1.1772069023920868,-51.47575483074695,4.0003394829060355,1.7745823113911425,-0.002254925467751755,0.5191671236674428,-0.02147876018523614,0.020974738542670218,0.608727624698951,-0.010958491747481746,-0.03668091958388686,0.010156546341022477,1.016951072961092,-0.03708575273841394,-3.63241508603096,0.7320964708924294,13.134722411632538,0.0,0.0,0.0,0.0,0.0,0.0,0.0,0.0,0.0,0.0,0.0,0.0,0.0,0.0,0.0,0.0,False,0,4.019609451293945,0.02993212890625
STABILIZE,0.5488452911376953,29.2663294142274,0.032335789998372395,0.033288002014160156,-10.0,40.0,10.0,2.750107794300757,-1.1772654926085608,-51.47995881218109,4.000344466487214,1.7805384426180795,-0.0022872468815095222,0.5192068009172921,-0.01931078226850972,0.021022342474993936,0.6017630685719448,-0.01108214693150145,0.06367164896801114,0.05298836040310562,1.002871710807085,-0.026106081907852952,-0.6510110106319189,0.7427840027958155,13.118238747119904,0.0,0.0,0.0,0.0,0.0,0.0,0.0,0.0,0.0,0.0,0.0,0.0,0.0,0.0,0.0,0.0,False,0,4.049408197402954,0.0349208984375
STABILIZE,0.582474946975708,29.73966561254733,0.03245213826497396,0.03259873390197754,-10.0,40.0,10.0,2.751203612775721,-1.1782649413832043,-51.48736615233597,4.000351255029651,1.7843487388418602,-0.0023336450913229636,0.5192321335005979,-0.019556972845136994,0.020436305156183762,0.6016850350919117,-0.011276378561694089,-0.06730083841830492,0.011943551362492144,1.203553844243288,-0.024902996445892105,-0.30309800058603287,-1.0778908617794514,18.24931651353836,0.0,0.0,0.0,0.0,0.0,0.0,0.0,0.0,0.0,0.0,0.0,0.0,0.0,0.0,0.0,0.0,False,0,4.078184366226196,0.0349208984375
STABILIZE,0.6159896850585938,29.832738239185172,0.032254727681477864,0.032616376876831055,-10.0,40.0,10.0,2.751264657591428,-1.1781402904308516,-51.491556473391775,4.0002584214065395,1.7879127541836157,-0.001739958400520125,0.5192558664478167,-0.023129472895711177,0.01925932667023622,0.6024683265503996,-0.008280081120476518,-0.2523241098970175,-0.02187924546888098,1.2438487261533737,0.1535697998757948,-3.012695536017418,-1.0623122565448284,19.835937023162842,0.0,0.0,0.0,0.0,0.0,0.0,0.0,0.0,0.0,0.0,0.0,0.0,0.0,0.0,0.0,0.0,False,0,4.106796503067017,0.02993212890625
STABILIZE,0.6495006084442139,29.841865230414584,0.032456429799397786,0.032585859298706055,-10.0,40.0,10.0,2.7507752318487144,-1.1783761454006285,-51.49784707761735,4.000164753772135,1.7897764215726593,-0.0011422098296770581,0.5192849311926224,-0.026586893037161965,0.01804744011490645,0.6005184243818755,-0.005273689409914289,-0.2523241098970175,-0.02187924546888098,1.2438487261533737,0.1535697998757948,-3.012695536017418,-1.0623122565448284,19.835937023162842,0.0,0.0,0.0,0.0,0.0,0.0,0.0,0.0,0.0,0.0,0.0,0.0,0.0,0.0,0.0,0.0,False,0,4.135363817214966,0.02993212890625
STABILIZE,0.6832828521728516,29.601767225864734,0.03237322171529134,0.0328059196472168,-10.0,40.0,10.0,2.7506759806623378,-1.179513158454024,-51.50166173826881,4.000172023798857,1.7953093206401851,-0.0011890589765814164,0.5193133377144955,-0.025542304000671645,0.017362297876953682,0.5990066156862185,-0.005489408229373609,0.004317678394727409,0.005954677908448502,1.2481492012739182,-0.02843561163928369,-2.580266073346138,-1.1827744543552399,15.682914853096008,0.0,0.0,0.0,0.0,0.0,0.0,0.0,0.0,0.0,0.0,0.0,0.0,0.0,0.0,0.0,0.0,False,1,4.1640942096710205,0.0349208984375
STABILIZE,0.7168269157409668,29.81132236397882,0.03236869176228841,0.032619476318359375,-10.0,40.0,10.0,2.750933179973271,-1.1798103784046254,-51.50926032372045,4.000142122791716,1.7989470726671577,-0.0009994476915024754,0.519347235248379,-0.026220079441114263,0.015699223142989705,0.594685799079833,-0.004526159298547601,-0.1126771792769432,-0.0214238534681499,1.005578227341175,0.09816435920549596,-2.2027187049388885,-1.375462580472231,9.227421879768372,0.0,0.0,0.0,0.0,0.0,0.0,0.0,0.0,0.0,0.0,0.0,0.0,0.0,0.0,0.0,0.0,False,0,4.221392631530762,0.034921142578125
STABILIZE,0.7503070831298828,29.868854326895686,0.03239253362019857,0.03254055976867676,-10.0,40.0,10.0,2.7511799205570378,-1.1799671525904183,-51.51268566358921,4.000078326788464,1.8034985259444523,-0.0005935344679862444,0.5193713814794135,-0.027326003908149696,0.016328855599312984,0.5952071070285938,-0.0024882627914387953,-0.11139066191390157,0.07665378507226706,1.1729455552995205,0.1035071946424591,0.7813794538378716,0.6528992671519518,13.211533427238464,0.0,0.0,0.0,0.0,0.0,0.0,0.0,0.0,0.0,0.0,0.0,0.0,0.0,0.0,0.0,0.0,False,0,4.250244855880737,0.029931884765625
STABILIZE,0.783750057220459,29.901220485913083,0.032380135854085286,0.0324864387512207,-10.0,40.0,10.0,2.7508885703002544,-1.1806027870700526,-51.51709455069845,4.000087943510987,1.8092682756983387,-0.0006547114554759734,0.5193996408182536,-0.028725083233224334,0.016718537692405736,0.5936539365848419,-0.002784839245104531,-0.1385598792694509,0.06419963319785893,1.2159853242337704,-0.030146320562320653,-2.912381663918495,0.7474519778043032,19.13919895887375,0.0,0.0,0.0,0.0,0.0,0.0,0.0,0.0,0.0,0.0,0.0,0.0,0.0,0.0,0.0,0.0,False,0,4.278829574584961,0.0349208984375
STABILIZE,0.817138671875,29.94968760041415,0.03237012227376302,0.032499074935913086,-10.0,40.0,10.0,2.751013221252607,-1.1800572257100979,-51.52361055116664,4.0000998106129755,1.816459192442252,-0.0007294675629535003,0.5194357953073799,-0.027859840487169156,0.01577039314640401,0.5881664519337096,-0.0031480921514611196,0.004846931551583111,-0.018330418970435858,0.7965443655848503,-0.035095299544097354,0.7430901285260916,-1.351830828934908,12.999387085437775,0.0,0.0,0.0,0.0,0.0,0.0,0.0,0.0,0.0,0.0,0.0,0.0,0.0,0.0,0.0,0.0,False,0,4.307440280914307,0.02993212890625
STABILIZE,0.8506498336791992,29.842926870917708,0.03243068059285482,0.032568931579589844,-10.0,40.0,10.0,2.7508738427048565,-1.181070441584787,-51.52742521181809,4.000044210429592,1.8196926936319517,-0.0003791797676913801,0.5194690565346248,-0.030017205617385443,0.014981394907583871,0.584139156838296,-0.0013919951416339,-0.18506298074498773,-0.007348036888288334,1.0466576553881168,0.09278948724647855,1.5656659379601479,0.5949662066996098,11.882168799638748,0.0,0.0,0.0,0.0,0.0,0.0,0.0,0.0,0.0,0.0,0.0,0.0,0.0,0.0,0.0,0.0,False,0,4.336431264877319,0.0349208984375
STABILIZE,0.8844473361968994,29.58610668284356,0.032370837529500325,0.03291153907775879,-10.0,40.0,10.0,2.751697734273489,-1.1821382989728362,-51.53348700470648,4.00004788449344,1.826584083052621,-0.00040219437134079257,0.5194893442313694,-0.027663256850451987,0.015462319486037424,0.5867399477657556,-0.001501984307917867,0.09392807260155678,0.06483917823061347,1.256276946514845,-0.019268884123318335,-1.183823123574257,0.6780654657632113,15.266293287277222,0.0,0.0,0.0,0.0,0.0,0.0,0.0,0.0,0.0,0.0,0.0,0.0,0.0,0.0,0.0,0.0,False,1,4.364809274673462,0.0349208984375
STABILIZE,0.9179208278656006,29.874172892969323,0.03244665463765462,0.03257608413696289,-10.0,40.0,10.0,2.7529130810589284,-1.1817555949359038,-51.5376500050056,3.999970415929396,1.8326345435318308,8.380894747214121e-05,0.5195239919969907,-0.02712783313212182,0.016250302933549024,0.5820212303838848,0.000924937410548642,-0.02533823426347226,0.03002995508722961,0.9344678372144699,0.03130466461665928,0.26302230544388294,0.7935056462883949,19.6438729763031,0.0,0.0,0.0,0.0,0.0,0.0,0.0,0.0,0.0,0.0,0.0,0.0,0.0,0.0,0.0,0.0,False,0,4.422209024429321,0.029932861328125
STABILIZE,0.9514608383178711,29.816196542311193,0.032429011662801106,0.03254342079162598,-10.0,40.0,10.0,2.752937200164435,-1.181108541233751,-51.54122902413069,3.9999499324500922,1.838698285087825,0.000211905657574759,0.5195602500816309,-0.026592294023087996,0.01612708162923305,0.5764963901557889,0.001560203919100684,-0.02533823426347226,0.03002995508722961,0.9344678372144699,0.03130466461665928,0.26302230544388294,0.7935056462883949,19.6438729763031,0.0,0.0,0.0,0.0,0.0,0.0,0.0,0.0,0.0,0.0,0.0,0.0,0.0,0.0,0.0,0.0,False,0,4.451137065887451,0.029932861328125
STABILIZE,0.9857563972473145,29.15829428694576,0.032317193349202473,0.03335309028625488,-10.0,40.0,10.0,2.7532138228258205,-1.1819129027302258,-51.548373402002525,3.999895855453996,1.8451606675851573,0.0005489046608216977,0.5195905781645864,-0.02404748320248198,0.016237465747289397,0.5742879206074817,0.0032340858672387004,0.09714898187667131,0.04342916945461184,1.1138584464788437,0.0953305043807084,3.847850114107132,-1.2277532368898392,14.907650649547577,0.0,0.0,0.0,0.0,0.0,0.0,0.0,0.0,0.0,0.0,0.0,0.0,0.0,0.0,0.0,0.0,False,0,4.47983717918396,0.034920166015625
STABILIZE,1.0192320346832275,29.87268350355398,0.03237965901692708,0.03250432014465332,-10.0,40.0,10.0,2.7539487084918317,-1.1812980789832188,-51.55297353440853,3.999936997047808,1.8513002629647968,0.0002933808260030807,0.5196161483890601,-0.023748694296752887,0.014490955212933768,0.574110561145412,0.0019499462368433964,-0.03133027348667383,-0.07294680108316243,1.0564712807536125,-0.08665358947364024,-2.1772634238004684,-1.2636474333703518,17.408163845539093,0.0,0.0,0.0,0.0,0.0,0.0,0.0,0.0,0.0,0.0,0.0,0.0,0.0,0.0,0.0,0.0,False,0,4.508506774902344,0.0299326171875
STABILIZE,1.052931308746338,29.67485956049865,0.03232625325520833,0.03270220756530762,-10.0,40.0,10.0,2.7553706684996637,-1.1806930736331438,-51.559793478294786,3.999848281722271,1.85738159810949,0.0008426561117845125,0.5196470574772483,-0.020707581021534412,0.01396913363134903,0.5713589873000009,0.004680557672476199,0.13025935040786862,0.0037185764085734263,1.064735185354948,0.1623326524364435,3.8505379110574722,0.7386977318674326,17.922545969486237,0.0,0.0,0.0,0.0,0.0,0.0,0.0,0.0,0.0,0.0,0.0,0.0,0.0,0.0,0.0,0.0,False,0,4.537918329238892,0.03492138671875
STABILIZE,1.0863542556762695,29.918283496918512,0.03234747250874837,0.03247547149658203,-10.0,40.0,10.0,2.7554970269993087,-1.1810312747187652,-51.56347153516283,3.9997356140216667,1.865358466877439,0.001536386999451593,0.5196759869847237,-0.016107859473142833,0.015145119050279399,0.5695172137893458,0.008122033156599068,0.0891419651452452,0.06711111054755747,0.9979337453842163,0.09669822975168363,1.564083993434906,0.6969157140702009,14.878000319004059,0.0,0.0,0.0,0.0,0.0,0.0,0.0,0.0,0.0,0.0,0.0,0.0,0.0,0.0,0.0,0.0,False,0,4.595118999481201,0.034919921875
STABILIZE,1.1197764873504639,29.920631183969295,0.032379897435506184,0.03251838684082031,-10.0,40.0,10.0,2.7546562734011624,-1.1821004127672836,-51.56715983731464,3.9996807070033866,1.8715510223211218,0.0018738504903134797,0.5197000440688269,-0.014069229294347478,0.01503549077525767,0.5701095102019492,0.009776638308219532,0.07317800191231072,0.02371549344388768,1.0923419147729874,0.09392447925757087,4.573836922645569,-1.2433426454663277,15.00980406999588,0.0,0.0,0.0,0.0,0.0,0.0,0.0,0.0,0.0,0.0,0.0,0.0,0.0,0.0,0.0,0.0,False,0,4.623769760131836,0.0349208984375
STABILIZE,1.1532063484191895,29.913589227894505,0.032418282826741536,0.03254437446594238,-10.0,40.0,10.0,2.75421892785087,-1.1826964534940732,-51.57448863029407,3.999651997036986,1.874699113264983,0.0020532378032141743,0.5197213967965508,-0.015203500712630344,0.015487054638929458,0.5720441126866684,0.010638001023389727,-0.11537079699337482,0.05703663337044418,1.1730333790183067,0.04783357566574469,-0.7283291313797235,0.7664527278393507,13.80692571401596,0.0,0.0,0.0,0.0,0.0,0.0,0.0,0.0,0.0,0.0,0.0,0.0,0.0,0.0,0.0,0.0,False,0,4.652471303939819,0.02993310546875
STABILIZE,1.1867258548736572,29.83316262660749,0.03243854840596517,0.032566070556640625,-10.0,40.0,10.0,2.7541837096879624,-1.1827362606903296,-51.577241196529584,3.999664183954182,1.881154578711841,0.0019785111295437022,0.5197484180448291,-0.012710744646790992,0.015719838366123513,0.5711481710934314,0.010230150841684606,0.10575248161330819,0.04777080612257123,1.1658641509711742,-0.01730361725156617,-1.165697444230318,-1.1969334445893764,15.511034429073334,0.0,0.0,0.0,0.0,0.0,0.0,0.0,0.0,0.0,0.0,0.0,0.0,0.0,0.0,0.0,0.0,False,0,4.68122935295105,0.069793212890625
STABILIZE,1.2201473712921143,29.920844628334997,0.0322752316792806,0.03246784210205078,-10.0,40.0,10.0,2.7542543594571898,-1.1829903650717952,-51.58366157434939,3.999644579776717,1.8866705758247238,0.0020988763102607146,0.5197317366708223,-0.009774583291920696,0.016567496916949784,0.592093910494842,0.010795815187420949,0.10575248161330819,0.04777080612257123,1.1658641509711742,-0.01730361725156617,-1.165697444230318,-1.1969334445893764,15.511034429073334,0.0,0.0,0.0,0.0,0.0,0.0,0.0,0.0,0.0,0.0,0.0,0.0,0.0,0.0,0.0,0.0,False,0,4.710165023803711,0.069793212890625
STABILIZE,1.2536447048187256,29.852697508896796,0.03245595296223958,0.03259086608886719,-10.0,40.0,10.0,2.7544106000344537,-1.1835186375154134,-51.58763332935175,3.9997176736994313,1.892602094560274,0.0016551094646366639,0.5197340335987408,-0.0047296987713660605,0.016357238787832924,0.6035268467796943,0.008548366388383502,0.19053678261116147,-0.005836262062075548,0.7840635254979134,-0.1408271881848501,2.7799759060144424,-1.3457437977194786,7.555188238620758,0.0,0.0,0.0,0.0,0.0,0.0,0.0,0.0,0.0,0.0,0.0,0.0,0.0,0.0,0.0,0.0,False,0,4.738550186157227,0.02993310546875
STABILIZE,1.2872226238250732,29.781053408881125,0.03241446812947591,0.03254556655883789,-10.0,40.0,10.0,2.753294717878803,-1.1824527011180683,-51.592161744771474,3.99979569512888,1.8979067137758252,0.0011832527896765538,0.5197669416451642,-0.0025260515419846465,0.014003041122581245,0.599652687462311,0.006168445954131193,0.04788114165421575,-0.04617762169800699,1.2608610093593597,-0.13451313186442287,0.47933408059179783,-1.0660035535693169,18.700385093688965,0.0,0.0,0.0,0.0,0.0,0.0,0.0,0.0,0.0,0.0,0.0,0.0,0.0,0.0,0.0,0.0,False,0,4.795988321304321,0.0349208984375
STABILIZE,1.3206665515899658,29.904631530914898,0.03228882153828939,0.03241133689880371,-10.0,40.0,10.0,2.7531162791867363,-1.1818513243059898,-51.59898510375232,3.9998570804316063,1.9038479609261967,0.0008127329890747383,0.5198047989900946,-0.001733122357516882,0.01380064706720252,0.5933051965806284,0.004301464241830389,0.012759426317643374,0.023012497695162892,0.890565849840641,-0.08061242055489619,-2.286846749484539,0.8496496826410294,16.43020361661911,0.0,0.0,0.0,0.0,0.0,0.0,0.0,0.0,0.0,0.0,0.0,0.0,0.0,0.0,0.0,0.0,False,0,4.824637413024902,0.02993212890625
STABILIZE,1.3539822101593018,30.012908765652952,0.03226331075032552,0.03238248825073242,-10.0,40.0,10.0,2.7533011211811496,-1.1817457765389718,-51.60271438703914,3.99984320672774,1.9118507323517298,0.0008954426207209544,0.5198417226770662,0.004665942990442224,0.013240511427474852,0.5874305068351202,0.004699301803101015,0.31835490372031927,0.0050192466005682945,1.0407007299363613,0.03519708537098641,5.181355774402618,-1.2659970670938492,10.020720958709717,0.0,0.0,0.0,0.0,0.0,0.0,0.0,0.0,0.0,0.0,0.0,0.0,0.0,0.0,0.0,0.0,False,0,4.853736400604248,0.0349208984375
STABILIZE,1.3875110149383545,29.824677171625236,0.03241113026936849,0.03255176544189453,-10.0,40.0,10.0,2.7541011070876875,-1.1816199516478556,-51.60727353831013,3.9998295434027047,1.919686839684045,0.0009765854997921502,0.5198722550693099,0.01112506340104439,0.012735913969369515,0.5847670581537882,0.005087989893318964,0.31835490372031927,0.0050192466005682945,1.0407007299363613,0.03519708537098641,5.181355774402618,-1.2659970670938492,10.020720958709717,0.0,0.0,0.0,0.0,0.0,0.0,0.0,0.0,0.0,0.0,0.0,0.0,0.0,0.0,0.0,0.0,False,0,4.8821728229522705,0.0349208984375
STABILIZE,1.420886516571045,29.961240365452063,0.03234294255574544,0.03252243995666504,-10.0,40.0,10.0,2.753273586981058,-1.1810981892282901,-51.613348991576856,3.9998053256295942,1.9195807343605464,0.0011251335535067113,0.5198869484286055,0.006845454705283248,0.012182920595524383,0.5900259581086387,0.005811268257881477,-0.2482677111402154,0.0015325404092436656,1.4537029899656773,0.052507686224174656,-4.587918519973755,-0.940309651196003,23.106616735458374,0.0,0.0,0.0,0.0,0.0,0.0,0.0,0.0,0.0,0.0,0.0,0.0,0.0,0.0,0.0,0.0,False,0,4.9109532833099365,0.03492138671875
STABILIZE,1.4544339179992676,29.80941551057539,0.032479079564412434,0.0326235294342041,-10.0,40.0,10.0,2.753649247385409,-1.18053960782023,-51.61773055792942,3.999826935205826,1.922128051604145,0.0009981917774787394,0.5199228581012629,0.004719913706235854,0.010848978256995047,0.5846790153938292,0.005159287595601811,-0.12970527168363333,-0.0412335735745728,0.8796783164143562,-0.021415617915538632,-0.6013978272676468,-1.259666308760643,10.505412518978119,0.0,0.0,0.0,0.0,0.0,0.0,0.0,0.0,0.0,0.0,0.0,0.0,0.0,0.0,0.0,0.0,False,0,4.939538955688477,0.029931640625
STABILIZE,1.4878301620483398,29.943059481995487,0.03238514264424642,0.03249192237854004,-10.0,40.0,10.0,2.7539124231118657,-1.179357878372112,-51.625933615122605,3.999751531277617,1.9259075668672632,0.0014498616503929491,0.5199465921305739,0.0031639333347466946,0.012591206557441998,0.5853928111756422,0.007392938860582973,0.1814436516724527,0.035366183146834373,1.1807369068264961,-0.08963371973641449,4.672551155090332,0.8682246319949627,15.446531772613525,0.0,0.0,0.0,0.0,0.0,0.0,0.0,0.0,0.0,0.0,0.0,0.0,0.0,0.0,0.0,0.0,False,0,4.997069835662842,0.034921142578125
STABILIZE,1.521367073059082,29.822556562051165,0.03242495854695638,0.03253936767578125,-10.0,40.0,10.0,2.7551875340525425,-1.1789607669048991,-51.63001465315168,3.9997710912960938,1.9281907156738032,0.0013363878609889163,0.5199779633562883,0.0037297815047066946,0.013268515265835988,0.582309732259641,0.006802811503477489,0.020807416876778007,0.06520558381453156,0.9658437222242355,-0.019200792339976465,3.5636823624372482,0.8825663477182388,15.63795655965805,0.0,0.0,0.0,0.0,0.0,0.0,0.0,0.0,0.0,0.0,0.0,0.0,0.0,0.0,0.0,0.0,False,0,5.025696754455566,0.029931884765625
STABILIZE,1.5547537803649902,29.94883219444623,0.03231004079182943,0.03243565559387207,-10.0,40.0,10.0,2.7554722675635674,-1.1783715563672799,-51.633566351520095,3.999643378933537,1.929665263178625,0.0021010810977220556,0.5200142290838389,0.0026185121730066454,0.01286167057668563,0.5767852674005739,0.010590850904232013,-0.06531216204166412,0.0077204007538966835,0.979373138397932,0.2274591198223233,-0.39216000586748123,0.8811681531369686,15.675687789916992,0.0,0.0,0.0,0.0,0.0,0.0,0.0,0.0,0.0,0.0,0.0,0.0,0.0,0.0,0.0,0.0,False,0,5.054428339004517,0.0349208984375
STABILIZE,1.5882132053375244,29.886306308874037,0.03234151204427083,0.03247475624084473,-10.0,40.0,10.0,2.7559196449542034,-1.1787101843397243,-51.641813804942885,3.9995129834667162,1.9363305074450459,0.0028754590736564433,0.520044243733026,0.0015899070193908156,0.012519896360533534,0.5743946640912803,0.014414504152181692,-0.06531216204166412,0.0077204007538966835,0.979373138397932,0.2274591198223233,-0.39216000586748123,0.8811681531369686,15.675687789916992,0.0,0.0,0.0,0.0,0.0,0.0,0.0,0.0,0.0,0.0,0.0,0.0,0.0,0.0,0.0,0.0,False,0,5.083072900772095,0.0349208984375
STABILIZE,1.6279406547546387,25.17226810063376,0.03237512906392415,0.038753509521484375,-10.0,40.0,10.0,2.7555239208691655,-1.1783517061300044,-51.64536550331129,3.9995283365231247,1.9452211573403702,0.002782808699129355,0.5200749206619025,0.005006209162556105,0.013411743902318196,0.5740094924137198,0.013896140549454702,0.18638212932273746,0.07690463098697364,1.0900764726102352,-0.01625745105021707,3.9181988686323166,0.8320641703903675,12.787553668022156,0.0,0.0,0.0,0.0,0.0,0.0,0.0,0.0,0.0,0.0,0.0,0.0,0.0,0.0,0.0,0.0,False,0,5.111780405044556,0.034921142578125
STABILIZE,1.6613643169403076,29.917429883876856,0.03234365781148275,0.032491207122802734,-10.0,40.0,10.0,2.7565665919346505,-1.1789956649026898,-51.65217520191379,3.9992699209835636,1.949777332171398,0.004310392906478497,0.520108643894359,0.0023201092757544487,0.01461118854927141,0.5697768042961548,0.021462206272046924,-0.07212130585685372,0.04564204136840999,1.0629093274474144,0.30083469481743313,-2.8253573924303055,0.9169000200927258,17.178452014923096,0.0,0.0,0.0,0.0,0.0,0.0,0.0,0.0,0.0,0.0,0.0,0.0,0.0,0.0,0.0,0.0,False,0,5.169264316558838,0.034921142578125
STABILIZE,1.6948132514953613,29.896531569418507,0.03239181836446126,0.03251838684082031,-10.0,40.0,10.0,2.7576188679536555,-1.1788483889487114,-51.65561761725548,3.9990984940871597,1.954086974258841,0.00532474991859583,0.5201347616967058,0.0011095987192156125,0.014961517884767886,0.5693342929192144,0.026445543894109302,-0.07212130585685372,0.04564204136840999,1.0629093274474144,0.30083469481743313,-2.8253573924303055,0.9169000200927258,17.178452014923096,0.0,0.0,0.0,0.0,0.0,0.0,0.0,0.0,0.0,0.0,0.0,0.0,0.0,0.0,0.0,0.0,False,0,5.197862863540649,0.034921142578125
STABILIZE,1.7282214164733887,29.933443238344,0.03236201604207357,0.03247833251953125,-10.0,40.0,10.0,2.757661556635968,-1.1789004691411327,-51.66332207063925,3.998924696173152,1.9618619765295413,0.006340959898726634,0.520154367589909,0.0040097602906889514,0.014233452360537992,0.5721332921734396,0.03142159304894851,0.1649087993428111,-0.016094518650788814,1.2478841468691826,0.3023181798886482,10.256822407245636,-1.1084855534136295,16.983361542224884,0.0,0.0,0.0,0.0,0.0,0.0,0.0,0.0,0.0,0.0,0.0,0.0,0.0,0.0,0.0,0.0,False,0,5.227414131164551,0.0349208984375
STABILIZE,1.7617003917694092,29.86779084092317,0.03241685231526693,0.03254580497741699,-10.0,40.0,10.0,2.758183639220651,-1.1787645056879672,-51.66728699545244,3.9989752449467297,1.966452605670708,0.006051375692115115,0.520183781010562,0.0027565542341122786,0.013396061293239888,0.5700448987854405,0.029873736155407234,-0.07385367061942816,-0.02191228122683242,0.9653397835791111,-0.06964098230342024,1.8640797585248947,-1.1433160863816738,15.430521965026855,0.0,0.0,0.0,0.0,0.0,0.0,0.0,0.0,0.0,0.0,0.0,0.0,0.0,0.0,0.0,0.0,False,0,5.255269765853882,0.02993310546875
STABILIZE,1.7951946258544922,29.857160144932696,0.03236988385518392,0.0325160026550293,-10.0,40.0,10.0,2.757826761836518,-1.1787872374112986,-51.67089333533421,3.998901276131118,1.9713548345743666,0.006488337056197198,0.5202062195546667,0.004471343271984086,0.013044307687162183,0.5714529395914829,0.03195156403389052,0.10175579227507114,0.009439363930141553,1.3255252502858639,0.16255603430685728,2.8188474476337433,0.9681473486125469,20.259147882461548,0.0,0.0,0.0,0.0,0.0,0.0,0.0,0.0,0.0,0.0,0.0,0.0,0.0,0.0,0.0,0.0,False,0,5.283853769302368,0.03990869140625
STABILIZE,1.8286128044128418,29.923406198276354,0.032362969716389973,0.0325016975402832,-10.0,40.0,10.0,2.7581439387461004,-1.1783765722874515,-51.67857046796131,3.998987607749664,1.977661224569497,0.005986794646515745,0.5202302849526619,0.0047571639946792765,0.013022802324338875,0.5720332893962932,0.02934570283166342,0.012100150343030691,0.02168362698284909,0.9407383389770985,-0.14266453575200996,6.741923838853836,-1.1865299195051193,11.436209082603455,0.0,0.0,0.0,0.0,0.0,0.0,0.0,0.0,0.0,0.0,0.0,0.0,0.0,0.0,0.0,0.0,False,0,5.312732458114624,0.02993310546875
STABILIZE,1.8621025085449219,29.860135976933755,0.03240493138631185,0.03255152702331543,-10.0,40.0,10.0,2.7585356074063183,-1.1781231082362207,-51.68198214745173,3.999049820929975,1.9818878574360612,0.0056325803284575735,0.5202619488986711,0.002841362415290168,0.012163416136117334,0.5688217197917484,0.027482690808740138,-0.021178441238589585,0.046559833572246134,1.0773100890219212,0.045122577534631426,-0.30688135884702206,0.8856138214468956,13.832907378673553,0.0,0.0,0.0,0.0,0.0,0.0,0.0,0.0,0.0,0.0,0.0,0.0,0.0,0.0,0.0,0.0,False,0,5.370523691177368,0.02993310546875
STABILIZE,1.8955538272857666,29.89397459837783,0.03238395055135091,0.03251481056213379,-10.0,40.0,10.0,2.758648518971035,-1.178462269817194,-51.689976883875225,3.9990498250199655,1.9852378908594417,0.005641628642370187,0.5202923501928212,0.002413771218235168,0.012473931129823574,0.5662443851930192,0.02743615156256492,-0.021178441238589585,0.046559833572246134,1.0773100890219212,0.045122577534631426,-0.30688135884702206,0.8856138214468956,13.832907378673553,0.0,0.0,0.0,0.0,0.0,0.0,0.0,0.0,0.0,0.0,0.0,0.0,0.0,0.0,0.0,0.0,False,0,5.398838758468628,0.02993310546875
STABILIZE,1.9289684295654297,29.92703583991552,0.03238633473714193,0.03250718116760254,-10.0,40.0,10.0,2.75801139038752,-1.178763118305792,-51.692500638773545,3.999118504467883,1.9910869931611848,0.0052468375126619735,0.5203177432928967,0.0029921858592522744,0.012445901662517116,0.5661687297613397,0.02537731935016297,0.03839120327029377,0.026309359236620367,1.2099518440663815,-0.07475564673342264,-0.8633785881102085,0.7895886898040771,14.572712779045105,0.0,0.0,0.0,0.0,0.0,0.0,0.0,0.0,0.0,0.0,0.0,0.0,0.0,0.0,0.0,0.0,False,0,5.427412033081055,0.0349208984375
STABILIZE,1.9624438285827637,29.872257990997664,0.032416613896687825,0.03255295753479004,-10.0,40.0,10.0,2.7576598490886757,-1.178855432581293,-51.69565618617009,3.9992902560095414,1.9935765506496483,0.0042661209523178105,0.5203423035149077,0.0008902457401763178,0.011891611106155133,0.5665123823078193,0.020405470746780723,-0.1224515843205154,-0.008595732651883736,1.0557773523032665,-0.2581464393916766,-1.5789203345775604,-1.1104489676654339,14.141210913658142,0.0,0.0,0.0,0.0,0.0,0.0,0.0,0.0,0.0,0.0,0.0,0.0,0.0,0.0,0.0,0.0,False,0,5.456088542938232,0.034921142578125
STABILIZE,1.99591064453125,29.88140918320094,0.032392056783040364,0.032529592514038086,-10.0,40.0,10.0,2.757651738239036,-1.177172111116002,-51.70411196036257,3.9993533357146833,1.999372164870162,0.0039049066051913108,0.5203693319213296,0.0024996626393221067,0.012707087605156183,0.5656230427775872,0.018537383273942883,0.0993057619780302,0.07285375613719225,0.985956471413374,-0.06974471580143982,1.5626102685928345,-1.0492460802197456,14.209280908107758,0.0,0.0,0.0,0.0,0.0,0.0,0.0,0.0,0.0,0.0,0.0,0.0,0.0,0.0,0.0,0.0,False,0,5.484882354736328,0.029931884765625
STABILIZE,2.0293359756469727,29.915936178255816,0.03237775166829427,0.03252220153808594,-10.0,40.0,10.0,2.758006908075877,-1.1769801187673012,-51.7067928096118,3.999498239715406,2.004273298350988,0.003076494684349926,0.5203959766398588,0.0013531475750967637,0.013067010517763315,0.5649304331404995,0.014347310526194678,-0.06467546918429434,0.04899439518339932,1.164045836776495,-0.2062634286619738,-0.037891045212745667,-0.9996058419346809,16.818344593048096,0.0,0.0,0.0,0.0,0.0,0.0,0.0,0.0,0.0,0.0,0.0,0.0,0.0,0.0,0.0,0.0,False,0,5.513756036758423,0.034921142578125
STABILIZE,2.0627999305725098,29.88438985115888,0.0324285348256429,0.03255581855773926,-10.0,40.0,10.0,2.758702306710749,-1.1766885550671065,-51.71397816861865,3.999740265037242,2.0059957738287593,0.0016959100316255174,0.5204195388612016,-0.0032928072438887686,0.013442826600371799,0.565768503215564,0.007419576292455758,-0.2046015579253435,0.01998164807446301,0.9425424970686436,-0.12168363536475885,-2.3141950368881226,0.8069049566984177,12.594038248062134,0.0,0.0,0.0,0.0,0.0,0.0,0.0,0.0,0.0,0.0,0.0,0.0,0.0,0.0,0.0,0.0,False,0,5.570932149887085,0.06485302734375
STABILIZE,2.0962719917297363,29.874385675009616,0.032143624623616536,0.03228425979614258,-10.0,40.0,10.0,2.758777011904796,-1.1774858729309996,-51.71794992362101,3.9996764705836716,2.013522395719396,0.0020596897243088243,0.5204017731586762,0.0008086543808968928,0.014334067129452323,0.587251853103382,0.00920765986958285,0.2527915872633457,0.049872801173478365,1.3272757641971111,0.16827998629537919,5.101475119590759,0.895154383033514,17.661145329475403,0.0,0.0,0.0,0.0,0.0,0.0,0.0,0.0,0.0,0.0,0.0,0.0,0.0,0.0,0.0,0.0,False,0,5.599571704864502,0.034921142578125
STABILIZE,2.135866403579712,25.255937183872057,0.03239610989888509,0.03877091407775879,-10.0,40.0,10.0,2.7599394247241675,-1.176256011993574,-51.72487232034482,3.99970938911962,2.018582576537181,0.0018746885253412753,0.5204316544652778,-0.0023795439630871894,0.014250123604927998,0.5872485172643704,0.008249923877512147,-0.1760711893439293,0.021603454661089927,1.1375551111996174,-0.020370478910607677,-4.58148755133152,0.8663197048008442,15.19676148891449,0.0,0.0,0.0,0.0,0.0,0.0,0.0,0.0,0.0,0.0,0.0,0.0,0.0,0.0,0.0,0.0,False,0,5.628254652023315,0.0349208984375
STABILIZE,2.1716911792755127,27.915500831946755,0.03250006039937337,0.03481459617614746,-10.0,40.0,10.0,2.7607513634617526,-1.1756234724434076,-51.727556584688635,3.999653865755777,2.0232212943610763,0.0021924769264615256,0.5204564281735122,-0.0024669789382780398,0.01595529563109682,0.5883024062870478,0.009803863904139313,-0.0043361258576624095,0.1201609498821199,1.189858466386795,0.11622820852819628,3.718061000108719,0.9793756529688835,21.156568825244904,0.0,0.0,0.0,0.0,0.0,0.0,0.0,0.0,0.0,0.0,0.0,0.0,0.0,0.0,0.0,0.0,False,0,5.656976222991943,0.02989990234375
STABILIZE,2.205437183380127,29.631672648147624,0.03230765660603841,0.03290057182312012,-10.0,40.0,10.0,2.760627139396223,-1.1753656328022395,-51.73558888715257,3.99970040765934,2.026868733826979,0.0019314666430128582,0.5204816267510514,-0.005393050247614127,0.017937263008464436,0.5884426690743205,0.008470149349506042,-0.16606120625510812,0.055077276192605495,1.378997229039669,-0.13621274173005857,-7.2601862251758575,0.8171753957867622,15.01164436340332,0.0,0.0,0.0,0.0,0.0,0.0,0.0,0.0,0.0,0.0,0.0,0.0,0.0,0.0,0.0,0.0,False,0,5.714830160140991,0.049886962890625
STABILIZE,2.238985061645508,29.80962737112926,0.032490046819051106,0.032616376876831055,-10.0,40.0,10.0,2.76121261467414,-1.1750429063639565,-51.73914400061557,3.9995715170210886,2.035768384121739,0.0026579025628412378,0.5204884316451857,-0.0032223141335244263,0.01980302144797078,0.5976292498300478,0.012061953952293689,0.13107158010825515,0.10592130711302161,1.1081630364060402,0.2249479047244329,4.567131400108337,0.7708576042205095,13.30702155828476,0.0,0.0,0.0,0.0,0.0,0.0,0.0,0.0,0.0,0.0,0.0,0.0,0.0,0.0,0.0,0.0,False,0,5.743613958358765,0.019955078125
STABILIZE,2.2724335193634033,29.89567919713752,0.03237727483113607,0.03250861167907715,-10.0,40.0,10.0,2.761498415402223,-1.173963523031683,-51.74310892542876,3.9993728566209916,2.0377121949099117,0.0037851442060960723,0.5205379868484009,-0.005535080624153363,0.020783076780954424,0.5854484556662215,0.01763915853930724,-0.1406426541507244,0.10968056740239263,0.9541170671582222,0.35193574226866203,-9.622298181056976,0.7550729438662529,12.510770559310913,0.0,0.0,0.0,0.0,0.0,0.0,0.0,0.0,0.0,0.0,0.0,0.0,0.0,0.0,0.0,0.0,False,0,5.771813869476318,0.029931884765625
STABILIZE,2.3058788776397705,29.900367846245974,0.03238728841145833,0.032514095306396484,-10.0,40.0,10.0,2.761683897726871,-1.1726200034776002,-51.74989130327458,3.999172672293004,2.042886823646258,0.004915406036011019,0.5205736439087782,-0.007868368071128323,0.02206631051479632,0.5802214808398424,0.02321283374849748,-0.1406426541507244,0.10968056740239263,0.9541170671582222,0.35193574226866203,-9.622298181056976,0.7550729438662529,12.510770559310913,0.0,0.0,0.0,0.0,0.0,0.0,0.0,0.0,0.0,0.0,0.0,0.0,0.0,0.0,0.0,0.0,False,0,5.8005170822143555,0.029931884765625
STABILIZE,2.339329719543457,29.89461380013257,0.03238561948140462,0.032503366470336914,-10.0,40.0,10.0,2.7617221040975406,-1.1722528808097121,-51.75372645449354,3.9991627152061633,2.0465074289947545,0.004978665864842465,0.5206094602412096,-0.010097313664420246,0.022839559208736586,0.5749188178024831,0.02345072291492511,-0.13761528534814715,0.08152022492140532,0.9292016737163067,0.046404031746695565,-1.8756803125143051,0.7131223566830158,8.764316141605377,0.0,0.0,0.0,0.0,0.0,0.0,0.0,0.0,0.0,0.0,0.0,0.0,0.0,0.0,0.0,0.0,False,0,5.829248666763306,0.034921142578125
STABILIZE,2.3727293014526367,29.940708274143926,0.03237918217976888,0.03249073028564453,-10.0,40.0,10.0,2.7616954236710956,-1.1724729409670334,-51.76170411544412,3.9991074072597996,2.0535816111114324,0.005288026443402314,0.5206342972093433,-0.009203458166365057,0.022571657203296094,0.5751002911158766,0.024914257393467042,0.0510809535626322,0.010379939340054989,1.0679752565920353,0.10586753859890757,-0.1935133244842291,-1.1331235989928246,17.725534737110138,0.0,0.0,0.0,0.0,0.0,0.0,0.0,0.0,0.0,0.0,0.0,0.0,0.0,0.0,0.0,0.0,False,0,5.858172416687012,0.0349208984375
STABILIZE,2.40633487701416,29.755911377228518,0.03240350087483724,0.03265690803527832,-10.0,40.0,10.0,2.7620055569480964,-1.172471126698035,-51.764955285489044,3.99900962190758,2.0578791023689966,0.005841136183005602,0.5206656105830325,-0.00902434514426062,0.022566221673153954,0.5721078926679952,0.027587162957745746,0.006747002771589905,0.02788545098155737,0.8854234591126442,0.17828194456121663,0.2589870011433959,0.6901585962623358,11.073081195354462,0.0,0.0,0.0,0.0,0.0,0.0,0.0,0.0,0.0,0.0,0.0,0.0,0.0,0.0,0.0,0.0,False,1,5.886744976043701,0.02993212890625
STABILIZE,2.439769983291626,29.909322988718856,0.03237965901692708,0.03246474266052246,-10.0,40.0,10.0,2.7625289201932484,-1.1734444286547618,-51.76907047446397,3.9989797933401814,2.066948562638524,0.006001336896230511,0.5206949603401977,-0.004548427246703924,0.024738839097644818,0.570036413808349,0.028293628536845594,0.12251179432496428,0.0985223101451993,1.0749565437436104,0.05342116399470436,3.0419163405895233,0.7889942266047001,16.90126359462738,0.0,0.0,0.0,0.0,0.0,0.0,0.0,0.0,0.0,0.0,0.0,0.0,0.0,0.0,0.0,0.0,False,0,5.9442298412323,0.0349208984375
STABILIZE,2.4732563495635986,29.864175555017585,0.032355578740437825,0.032482147216796875,-10.0,40.0,10.0,2.7638469332596496,-1.173552324299307,-51.77687055049613,3.9991150377863187,2.0715349731275623,0.005256376093034035,0.5207189350272398,-0.006518906949796149,0.0243357515024002,0.5706636816212477,0.02448692769768341,-0.12415044475346804,0.007412533886963502,1.0864939540624619,-0.19407230138565473,-0.742094311863184,0.7875081151723862,15.029647946357727,0.0,0.0,0.0,0.0,0.0,0.0,0.0,0.0,0.0,0.0,0.0,0.0,0.0,0.0,0.0,0.0,False,0,5.972755670547485,0.02993212890625
STABILIZE,2.506676197052002,29.92169843625157,0.03229692776997884,0.03244590759277344,-10.0,40.0,10.0,2.763798695048636,-1.1727830742440342,-51.780282229986554,3.999184510004996,2.077205520274684,0.00487450434444586,0.5207628730892894,-0.0069424864361565435,0.02557071669143848,0.5613310186702505,0.02250225463536507,-0.035950361052528024,0.11630839435383677,0.6617461331188679,-0.07398721043115654,-0.07364768534898758,0.6395899690687656,7.585127651691437,0.0,0.0,0.0,0.0,0.0,0.0,0.0,0.0,0.0,0.0,0.0,0.0,0.0,0.0,0.0,0.0,False,0,6.001460075378418,0.0349208984375
STABILIZE,2.5405616760253906,29.51095850893919,0.0323367436726888,0.0329127311706543,-10.0,40.0,10.0,2.763818972172735,-1.1733427228691522,-51.783970532138355,3.9990997972518514,2.0819065178730125,0.005347776344457553,0.5207889933038357,-0.007114399466674347,0.024896585825638286,0.5610666029304091,0.024784617770940095,-0.01799475576262921,-0.0070445414166897535,1.0251139290630817,0.16935374005767279,1.1612484231591225,-1.1044193990528584,16.87776893377304,0.0,0.0,0.0,0.0,0.0,0.0,0.0,0.0,0.0,0.0,0.0,0.0,0.0,0.0,0.0,0.0,False,0,6.030200004577637,0.034921142578125
STABILIZE,2.574002265930176,29.90207317420937,0.03237727483113607,0.03250384330749512,-10.0,40.0,10.0,2.7632179155257734,-1.1737955430667828,-51.791179796807306,3.9991326406407146,2.08629358281515,0.0051727432400685445,0.5208155316894082,-0.007845686663275285,0.024808498044134826,0.5604266169002254,0.023829747690770602,-0.051440426614135504,0.029759580502286553,1.004946231842041,-0.02168523696498224,0.20116304513067007,-1.2909489683806896,9.998348355293274,0.0,0.0,0.0,0.0,0.0,0.0,0.0,0.0,0.0,0.0,0.0,0.0,0.0,0.0,0.0,0.0,False,0,6.058931112289429,0.0349208984375
STABILIZE,2.6074674129486084,29.882899442853276,0.03239014943440755,0.03251004219055176,-10.0,40.0,10.0,2.762726995679179,-1.1734441084896445,-51.794629042338165,3.999133234716632,2.0886089021533922,0.005180099387774517,0.5208443835759786,-0.008692244850538272,0.024615819488487487,0.5586269757541967,0.023787000310842916,-0.04473373992368579,0.09947530925273895,1.0396338999271393,0.04740425425370575,2.9947033151984215,0.9749828837811947,15.099699795246124,0.0,0.0,0.0,0.0,0.0,0.0,0.0,0.0,0.0,0.0,0.0,0.0,0.0,0.0,0.0,0.0,False,0,6.116372585296631,0.0349208984375
STABILIZE,2.641078472137451,29.75443375613632,0.03236511548360189,0.03250765800476074,-10.0,40.0,10.0,2.7635543023423965,-1.1726529804846866,-51.801124552238846,3.9991246933370532,2.094191151557798,0.0052302210411752014,0.5208693553990005,-0.009291881570743973,0.025663109403352678,0.558782015389828,0.023957416453408622,-0.04473373992368579,0.09947530925273895,1.0396338999271393,0.04740425425370575,2.9947033151984215,0.9749828837811947,15.099699795246124,0.0,0.0,0.0,0.0,0.0,0.0,0.0,0.0,0.0,0.0,0.0,0.0,0.0,0.0,0.0,0.0,False,0,6.146294593811035,0.0349208984375
STABILIZE,2.6743853092193604,30.020427298428945,0.03219583829243978,0.03234243392944336,-10.0,40.0,10.0,2.763464869552952,-1.172334949801458,-51.805147533659984,3.999234733152748,2.101129206572988,0.0046277728268995086,0.5208957936825822,-0.0063063839198198544,0.026318831711565693,0.5581987528200759,0.020875332200237434,0.1661891583353281,0.0767736928537488,0.9985423646867275,-0.14357895400757187,3.604068234562874,-0.898701511323452,20.329205691814423,0.0,0.0,0.0,0.0,0.0,0.0,0.0,0.0,0.0,0.0,0.0,0.0,0.0,0.0,0.0,0.0,False,0,6.1743786334991455,0.034921142578125
STABILIZE,2.707789421081543,29.93707531547993,0.032373936971028645,0.03248238563537598,-10.0,40.0,10.0,2.7644947340137427,-1.1717102009358134,-51.80934468490496,3.9992760140467896,2.1022204464000067,0.0044136274350476835,0.5209144689714607,-0.012347510245958617,0.025649519051361726,0.5614814328421324,0.019738623532190528,-0.36732847802340984,-0.00029452596663759323,1.228504255414009,-0.026401959499498757,-6.328456103801727,0.9970664978027344,18.549823760986328,0.0,0.0,0.0,0.0,0.0,0.0,0.0,0.0,0.0,0.0,0.0,0.0,0.0,0.0,0.0,0.0,False,0,6.212597846984863,0.029932861328125
STABILIZE,2.7412455081939697,29.889287953936492,0.03240207036336263,0.032549381256103516,-10.0,40.0,10.0,2.7641696596979326,-1.1723847888380579,-51.81568310045473,3.9993182708441832,2.1104395465006203,0.0041810478944068665,0.5209470512231358,-0.007813707163373863,0.025147033508097404,0.557831989865623,0.01851375778989425,0.25305873714387417,0.019771124061662704,0.9769030846655369,-0.027642629344687853,1.9615232944488525,-1.058986783027649,13.353829085826874,0.0,0.0,0.0,0.0,0.0,0.0,0.0,0.0,0.0,0.0,0.0,0.0,0.0,0.0,0.0,0.0,False,0,6.24113392829895,0.034921142578125
STABILIZE,2.7747960090637207,29.807932571014348,0.03241422971089681,0.03255319595336914,-10.0,40.0,10.0,2.7645026314199708,-1.172134312994589,-51.81988366679428,3.9995081706505684,2.1157352061524435,0.0031516224099905595,0.5209726764215196,-0.0074470259018514185,0.024506967049263355,0.5576569854785273,0.01332205490291722,0.009320468234363943,0.002804431460390333,1.0121521539986134,-0.2670595160934259,0.30569517984986305,-0.9689598344266415,18.51612627506256,0.0,0.0,0.0,0.0,0.0,0.0,0.0,0.0,0.0,0.0,0.0,0.0,0.0,0.0,0.0,0.0,False,0,6.269610166549683,0.0349208984375
STABILIZE,2.8154115676879883,24.619661430818716,0.032274754842122395,0.03964734077453613,-10.0,40.0,10.0,2.763444378985442,-1.1722115795095747,-51.827864742839445,3.999434676136825,2.121891591362088,0.003553399232805183,0.5210077785135832,-0.008090370872447267,0.02363900802355517,0.555472157855842,0.015268833152885549,-0.05085384473204613,-0.00940668469411321,0.8969942107796669,0.15729026528168158,1.6358857974410057,0.8727737702429295,13.928583264350891,0.0,0.0,0.0,0.0,0.0,0.0,0.0,0.0,0.0,0.0,0.0,0.0,0.0,0.0,0.0,0.0,False,0,6.29837965965271,0.029931884765625
STABILIZE,2.8488852977752686,29.87587523416743,0.03240683873494466,0.03253626823425293,-10.0,40.0,10.0,2.764106053561287,-1.1718257805431747,-51.831891139355164,3.999571818814779,2.1276641950433293,0.002813883595231996,0.5210352328932126,-0.004320865437634021,0.023408216519347103,0.5543908077403211,0.011532654991381317,0.0976869254373014,0.03908438957296312,1.067599095404148,-0.07150908573216501,3.739636391401291,1.0214529931545258,19.721996784210205,0.0,0.0,0.0,0.0,0.0,0.0,0.0,0.0,0.0,0.0,0.0,0.0,0.0,0.0,0.0,0.0,False,0,6.3557140827178955,0.034921142578125
STABILIZE,2.8823814392089844,29.85354743195536,0.03237489064534505,0.032510995864868164,-10.0,40.0,10.0,2.7642908955557,-1.1712434001947254,-51.83935995121258,3.9995290087093105,2.1366935681876567,0.003042266942487773,0.5210584258638129,-0.0027096403492242373,0.022469027754709704,0.5554321028361459,0.012632313467348031,0.0811272591818124,-0.013093266170471907,1.0800361633300781,0.10336191972046409,2.6504646986722946,-1.0834349319338799,13.463258743286133,0.0,0.0,0.0,0.0,0.0,0.0,0.0,0.0,0.0,0.0,0.0,0.0,0.0,0.0,0.0,0.0,False,0,6.384277820587158,0.0349208984375
STABILIZE,2.9157633781433105,29.954821062554903,0.03231004079182943,0.03242993354797363,-10.0,40.0,10.0,2.764762178608431,-1.170573614769241,-51.84274430994632,3.9995259946430024,2.139257756743599,0.0030638822850978594,0.5210900215318246,-0.003153740024671493,0.022257099634810776,0.552272582858822,0.012697924845977772,-0.040590669959783554,0.030686391983181238,0.8343702182173729,0.039511046857990346,1.888713613152504,-1.1116540059447289,11.319287121295929,0.0,0.0,0.0,0.0,0.0,0.0,0.0,0.0,0.0,0.0,0.0,0.0,0.0,0.0,0.0,0.0,False,0,6.413102149963379,0.02993212890625
STABILIZE,2.9491357803344727,29.965949603126408,0.032395156224568684,0.032497406005859375,-10.0,40.0,10.0,2.765770698728066,-1.169773308697586,-51.84981697083187,3.9994711101391096,2.144070095671708,0.003361090789275452,0.5211216415586888,-0.0033443422544925765,0.021443196157844936,0.5490954894821537,0.014136726350507839,-0.023354493896476924,0.00026669488306652056,0.9885387495160103,0.12071873774236232,1.8756929785013199,-0.9341711178421974,17.30763614177704,0.0,0.0,0.0,0.0,0.0,0.0,0.0,0.0,0.0,0.0,0.0,0.0,0.0,0.0,0.0,0.0,False,0,6.441710472106934,0.0349208984375
STABILIZE,2.982656717300415,29.832738239185172,0.03244951566060384,0.032579898834228516,-10.0,40.0,10.0,2.765341677470824,-1.1694890020733841,-51.85351551826743,3.999413991311442,2.1493212755059634,0.003669309824408213,0.5211477114885703,-0.0035310566727839803,0.02072710870167147,0.5487051430554704,0.015625559048851757,-0.023354493896476924,0.00026669488306652056,0.9885387495160103,0.12071873774236232,1.8756929785013199,-0.9341711178421974,17.30763614177704,0.0,0.0,0.0,0.0,0.0,0.0,0.0,0.0,0.0,0.0,0.0,0.0,0.0,0.0,0.0,0.0,False,0,6.47057843208313,0.0349208984375
STABILIZE,3.023822784423828,24.291429696639756,0.0323820432027181,0.04022669792175293,-10.0,40.0,10.0,2.766145078471947,-1.1698034042186163,-51.85840934880774,3.999432537116073,2.1551393454185437,0.0035746337902340963,0.5211824248903117,-0.0008767179698691955,0.020357735246996203,0.5469147466255123,0.015090057248148823,0.05916479276493192,0.04064583627041429,1.104005891829729,0.05077103725652619,3.111311048269272,-0.9971211664378643,15.57624489068985,0.0,0.0,0.0,0.0,0.0,0.0,0.0,0.0,0.0,0.0,0.0,0.0,0.0,0.0,0.0,0.0,False,0,6.527747631072998,0.02993310546875
STABILIZE,3.0573008060455322,29.87183249056335,0.03233817418416341,0.032465457916259766,-10.0,40.0,10.0,2.76440145924289,-1.1687904017873387,-51.86593280217851,3.9993892337374466,2.1591772562020406,0.0038097638540957497,0.5212159001272044,-0.0013157850436419333,0.019899067933159664,0.5428261847401136,0.016211499993302698,-0.03507383516989648,0.0191876053577289,0.9248159825801849,0.10089051848893679,-2.714681997895241,0.8675233460962772,12.668903172016144,0.0,0.0,0.0,0.0,0.0,0.0,0.0,0.0,0.0,0.0,0.0,0.0,0.0,0.0,0.0,0.0,False,0,6.556466817855835,0.034919921875
STABILIZE,3.0907554626464844,29.8905659839512,0.032337220509847005,0.032476186752319336,-10.0,40.0,10.0,2.7651713496283974,-1.1682102625947106,-51.86997627416716,3.999615488311505,2.163732837996624,0.002610992120106956,0.5212381159124104,-0.00170824757118358,0.02091922732512595,0.5443740255068662,0.010183566239533445,-0.03348567697685212,0.1020611496642232,1.0976062156260014,-0.3290667748235784,0.4600626416504383,0.9438767097890377,15.619897842407227,0.0,0.0,0.0,0.0,0.0,0.0,0.0,0.0,0.0,0.0,0.0,0.0,0.0,0.0,0.0,0.0,False,0,6.5851757526397705,0.034921875
STABILIZE,3.124119997024536,29.969803717015242,0.03230789502461751,0.03243112564086914,-10.0,40.0,10.0,2.7667288462025716,-1.1681030072804004,-51.877202614309034,3.9998456443344126,2.168144379912277,0.001392866609606643,0.521260337865161,-0.0021215039390073795,0.021960131548951156,0.5459075335539614,0.004079298924176746,-0.03348567697685212,0.1020611496642232,1.0976062156260014,-0.3290667748235784,0.4600626416504383,0.9438767097890377,15.619897842407227,0.0,0.0,0.0,0.0,0.0,0.0,0.0,0.0,0.0,0.0,0.0,0.0,0.0,0.0,0.0,0.0,False,0,6.6139490604400635,0.034921875
STABILIZE,3.157592535018921,29.87630084978168,0.03243830998738607,0.03258061408996582,-10.0,40.0,10.0,2.767269711807472,-1.1673609712601019,-51.88005080319293,3.99992055228194,2.1717828591680215,0.0009976203785191113,0.5212811578670411,-0.004173923111527058,0.02080826626812029,0.5481501048869631,0.0020960531461482537,-0.12923533795401454,-0.028213404584676027,1.1406577192246914,-0.08322608182023015,0.23541345726698637,0.9932104498147964,19.857870042324066,0.0,0.0,0.0,0.0,0.0,0.0,0.0,0.0,0.0,0.0,0.0,0.0,0.0,0.0,0.0,0.0,False,0,6.642696857452393,0.06485302734375
STABILIZE,3.191992998123169,29.068570240487908,0.03242472012837728,0.033600568771362305,-10.0,40.0,10.0,2.7675025785694873,-1.165357804842584,-51.8877108603471,3.9999930516294917,2.175439669438508,0.0006151366560916981,0.5212735495093398,-0.004720110195533911,0.021147170125872555,0.5649640618190837,0.0001830036839191797,-0.01781762402970344,0.03953166014980525,1.103606540709734,-0.06796964034960341,-1.9122902303934097,1.0490152053534985,23.13760817050934,0.0,0.0,0.0,0.0,0.0,0.0,0.0,0.0,0.0,0.0,0.0,0.0,0.0,0.0,0.0,0.0,False,0,6.7004780769348145,0.029931884765625
STABILIZE,3.225595235824585,29.76013396056394,0.032529624303181966,0.03270101547241211,-10.0,40.0,10.0,2.767647293202527,-1.165926311369282,-51.89181580403827,4.000016061392973,2.1805359310394308,0.000493847741415675,0.5213128199552557,-0.004869169646209187,0.020483671289370668,0.5579870626681467,-0.00042202643865779194,-0.017632386879995465,0.011143317533424124,0.858896691352129,-0.018981362507729888,1.78989227861166,-1.17301931604743,14.151254296302795,0.0,0.0,0.0,0.0,0.0,0.0,0.0,0.0,0.0,0.0,0.0,0.0,0.0,0.0,0.0,0.0,False,0,6.7291717529296875,0.034921142578125
STABILIZE,3.2593765258789062,29.602602920521996,0.032414944966634114,0.0328984260559082,-10.0,40.0,10.0,2.768262010227828,-1.165502946362447,-51.89577048356771,4.000042202674928,2.1856249060038766,0.0003562422154075318,0.5213463560979383,-0.005049771437770662,0.01992243924716311,0.5539846463078768,-0.0011063162883994046,-0.017632386879995465,0.011143317533424124,0.858896691352129,-0.018981362507729888,1.78989227861166,-1.17301931604743,14.151254296302795,0.0,0.0,0.0,0.0,0.0,0.0,0.0,0.0,0.0,0.0,0.0,0.0,0.0,0.0,0.0,0.0,False,0,6.757788419723511,0.034921142578125
STABILIZE,3.292835235595703,29.887158146759965,0.03242376645406087,0.032572031021118164,-10.0,40.0,10.0,2.7684135550500377,-1.1654014540202489,-51.902436748197644,4.000099701335012,2.1903740824424576,5.41830643622837e-05,0.5213760251866029,-0.005612644236479285,0.019340490496405616,0.5518073296900234,-0.0026078779644216044,-0.038995707291178405,0.009646386752137914,0.9569449350237846,-0.066581804607195,-1.3262485153973103,0.6953524425625801,9.708069264888763,0.0,0.0,0.0,0.0,0.0,0.0,0.0,0.0,0.0,0.0,0.0,0.0,0.0,0.0,0.0,0.0,False,0,6.786662578582764,0.0349208984375
STABILIZE,3.326373815536499,29.816620459230823,0.03245714505513509,0.0326387882232666,-10.0,40.0,10.0,2.7674720561616337,-1.1654449964762077,-51.906350446592064,4.000196113424853,2.1961107399415525,-0.00045089338720617387,0.521401101316446,-0.005756363028146183,0.018513207737855985,0.551933351753166,-0.005116116254169935,-0.015827365859877318,-0.004417503441800363,1.0811569169163704,-0.12450741165845666,0.9271390736103058,0.683689909055829,11.113474518060684,0.0,0.0,0.0,0.0,0.0,0.0,0.0,0.0,0.0,0.0,0.0,0.0,0.0,0.0,0.0,0.0,False,0,6.815241098403931,0.039909912109375
STABILIZE,3.359844207763672,29.877577769388033,0.03241542180379232,0.03258490562438965,-10.0,40.0,10.0,2.7671845478862584,-1.164818753506682,-51.91282205083065,4.000141329168017,2.2002389995599194,-0.0001661529800167361,0.5214203458379286,-0.0076733885637939835,0.017904747576408836,0.5549564436591218,-0.0036800966150281767,-0.11104774894192815,0.004526817428995855,1.097656972706318,0.09946336246805453,-1.359291933476925,-1.120484247803688,18.231160938739777,0.0,0.0,0.0,0.0,0.0,0.0,0.0,0.0,0.0,0.0,0.0,0.0,0.0,0.0,0.0,0.0,False,0,6.849472522735596,0.0249443359375
STABILIZE,3.3932793140411377,29.907830092483653,0.032429011662801106,0.03254961967468262,-10.0,40.0,10.0,2.767871835671491,-1.1642798088924857,-51.91602540955139,4.000201429842611,2.2099427995730183,-0.0004780074921672537,0.5214737192804597,-0.0003870669797048122,0.016398243970423075,0.5409182637159858,-0.005221912519277612,0.1445692265406251,0.0015300773156923242,0.7781098131090403,0.05447763551076798,8.234887570142746,0.663797976449132,9.95466485619545,0.0,0.0,0.0,0.0,0.0,0.0,0.0,0.0,0.0,0.0,0.0,0.0,0.0,0.0,0.0,0.0,False,0,6.902376174926758,0.0349208984375
STABILIZE,3.426767349243164,29.863537654237483,0.03244188626607259,0.03256821632385254,-10.0,40.0,10.0,2.767583260179058,-1.1638762941229261,-51.92042405137687,4.000331974749278,2.215263059417417,-0.001156383219659784,0.5215038442837304,0.00030784909087271063,0.016716104935327603,0.538518881017534,-0.008585065815502536,0.029722420731559396,0.05703967181034386,0.9126712568104267,-0.18361660244747424,0.2696121111512184,0.720983138307929,11.82040348649025,0.0,0.0,0.0,0.0,0.0,0.0,0.0,0.0,0.0,0.0,0.0,0.0,0.0,0.0,0.0,0.0,False,0,6.929986238479614,0.02993212890625
STABILIZE,3.4618160724639893,28.53015719698258,0.032363208134969075,0.03407621383666992,-10.0,40.0,10.0,2.7665429369911005,-1.1607856335234954,-51.92685808957503,4.000454884048933,2.2209645194979606,-0.0017941612156075603,0.5215399132628469,0.0009308839592396131,0.016998500715758712,0.5337667613607008,-0.011732799145521193,0.029722420731559396,0.05703967181034386,0.9126712568104267,-0.18361660244747424,0.2696121111512184,0.720983138307929,11.82040348649025,0.0,0.0,0.0,0.0,0.0,0.0,0.0,0.0,0.0,0.0,0.0,0.0,0.0,0.0,0.0,0.0,False,0,6.958899021148682,0.02993212890625
STABILIZE,3.4952785968780518,29.884815709410113,0.03239038785298665,0.03250455856323242,-10.0,40.0,10.0,2.7665536091616785,-1.1612070775396262,-51.93075129740193,4.0005473651527605,2.224814650648054,-0.002275654176459788,0.5215705635921869,-0.0007041885619676876,0.017942175820112493,0.5310874806351732,-0.014093209683071864,-0.10053383884951472,0.09525379864498973,1.013572420924902,-0.14287226955231355,-5.355622619390488,-1.194443553686142,12.92252391576767,0.0,0.0,0.0,0.0,0.0,0.0,0.0,0.0,0.0,0.0,0.0,0.0,0.0,0.0,0.0,0.0,False,0,6.987414121627808,0.0349208984375
STABILIZE,3.528670072555542,29.947335351573656,0.03235629399617513,0.03248405456542969,-10.0,40.0,10.0,2.7676513486273464,-1.1612972573810116,-51.93748244882898,4.000603139625096,2.23184483112025,-0.0025633707104648915,0.5215896398584521,0.0011355370996200035,0.016733687261459036,0.5342139852338653,-0.0154800140934098,0.10005135554820299,-0.03456797858234495,1.1944668367505074,-0.07612523306414243,-3.9842240512371063,0.8582647889852524,17.179782688617706,0.0,0.0,0.0,0.0,0.0,0.0,0.0,0.0,0.0,0.0,0.0,0.0,0.0,0.0,0.0,0.0,False,0,7.016449451446533,0.0349208984375
STABILIZE,3.564312696456909,28.055920480541545,0.032418044408162434,0.03384208679199219,-10.0,40.0,10.0,2.7674697082841067,-1.1610775173888075,-51.94135175099379,4.000653111901518,2.233560352430557,-0.0028288861361405898,0.5216213558310168,0.0012594967332465513,0.015152895468725832,0.531517725325109,-0.01674938473935785,0.00023525790311396122,-0.05588972708210349,0.8537333458662033,-0.07240398058567551,2.494245767593384,-1.2621142901480198,11.054400354623795,0.0,0.0,0.0,0.0,0.0,0.0,0.0,0.0,0.0,0.0,0.0,0.0,0.0,0.0,0.0,0.0,False,1,7.044893026351929,0.02993212890625
