Mode,Time,Freq,time2delay,actualDelay,North-Desired,East-Desired,Down-Desired,Roll-UAV,Pitch-UAV,Yaw-UAV,Roll-Control,Pitch-Control,Yaw-Control,Thrust-Control,North-Pos,East-Pos,Down-Pos,Yaw-Ang,North-Vel,East-Vel,Down-Vel,Yaw-Vel,North-Acc,East-Acc,Down-Acc,North-Avg,East-Avg,Down-Avg,Yaw-Avg,North-Dif,East-Dif,Down-Dif,Yaw-Dif,North-One,East-One,Down-One,Yaw-One,North-Two,East-Two,Down-Two,Yaw-Two,Landing-State,Q-Size,Kalman-Time,Kalman-Dt
STABILIZE,0.03438687324523926,29.09236190106262,0.03276637395222982,0.03288769721984863,0.0,0.0,0.0,0.6652447370684921,-1.5115590696944916,59.40964109893123,-0.1402455837453007,0.1355220629351253,0.008805462806306478,0.4,0.08787994667206703,0.09066551567126145,0.1230929504102451,0.08747699223307115,0.10583724360913038,0.14264453202486038,1.729581505060196,-0.037378477037159234,6.135039031505585,1.1616363190114498,17.767734825611115,0.0,0.0,0.0,0.0,0.0,0.0,0.0,0.0,0.0,0.0,0.0,0.0,0.0,0.0,0.0,0.0,False,0,0.15281295776367188,0.034923828125
STABILIZE,0.06772589683532715,29.992305822118617,0.03227117856343587,0.03239750862121582,0.0,0.0,0.0,0.6660874116573424,-1.5120947059358087,59.42525491137388,-0.08502293944193066,0.08120526896526056,0.010412208148393252,0.4,0.10349948717016709,0.10798916093438184,0.15487474635894388,0.10285660700453512,-0.08337334729731083,0.14849136350676417,1.6707642003893852,-0.10362745666466157,2.5122692808508873,1.263735257089138,20.346005260944366,0.0,0.0,0.0,0.0,0.0,0.0,0.0,0.0,0.0,0.0,0.0,0.0,0.0,0.0,0.0,0.0,False,0,0.18152356147766113,0.034925048828125
STABILIZE,0.10121798515319824,29.857797773285117,0.032419713338216145,0.032559871673583984,0.0,0.0,0.0,0.6663358597884016,-1.5112730555229972,59.44243283713646,-0.06574617422717526,0.062000259756437096,0.011757362082663597,0.4,0.11643639064877696,0.12300181488344401,0.1862807765414665,0.1155346327608405,-0.08337334729731083,0.14849136350676417,1.6707642003893852,-0.10362745666466157,2.5122692808508873,1.263735257089138,20.346005260944366,0.0,0.0,0.0,0.0,0.0,0.0,0.0,0.0,0.0,0.0,0.0,0.0,0.0,0.0,0.0,0.0,False,0,0.2102053165435791,0.034925048828125
STABILIZE,0.1346290111541748,29.92959847009041,0.03238490422566732,0.03252291679382324,0.0,0.0,0.0,0.6663164364379494,-1.511090561406111,59.47488306588319,-0.05520253869711505,0.051128074047798684,0.012914771068343225,0.4,0.12570559777238724,0.13517464073048963,0.2179557889872093,0.12626427034305177,-0.26904463302344084,0.0349292007740587,1.75991989672184,-0.039378601886062264,-3.308263421058655,-0.8489013649523258,22.377492487430573,0.0,0.0,0.0,0.0,0.0,0.0,0.0,0.0,0.0,0.0,0.0,0.0,0.0,0.0,0.0,0.0,False,0,0.23894143104553223,0.029934814453125
STABILIZE,0.16805815696716309,29.914229268744965,0.03240660031636556,0.03255057334899902,0.0,0.0,0.0,0.6658515566875653,-1.5108401922843477,59.49166484067391,-0.050203732198675556,0.04495853834006706,0.014153666593734699,0.4,0.1357012072025149,0.1508981829232862,0.27574041131062954,0.13773177681867146,-0.277439272031188,0.0205577613087371,1.8409142270684242,-0.043068664946014544,-6.9579556584358215,-0.7414985913783312,24.707181751728058,0.0,0.0,0.0,0.0,0.0,0.0,0.0,0.0,0.0,0.0,0.0,0.0,0.0,0.0,0.0,0.0,False,0,0.29619717597961426,0.034924072265625
STABILIZE,0.2014937400817871,29.909322988718856,0.032474549611409505,0.032608747482299805,0.0,0.0,0.0,0.6660442960882067,-1.5124272507710237,59.525556239335515,-0.024962673936218843,0.02040067127291035,0.014799573431957121,0.4,0.14171189068030016,0.15773930152208288,0.30827170935470777,0.14323262216048213,0.034354778472334146,0.010176957584917545,1.9026895985007286,-0.04367460411101517,2.333996072411537,1.0713611729443073,19.95236873626709,0.0,0.0,0.0,0.0,0.0,0.0,0.0,0.0,0.0,0.0,0.0,0.0,0.0,0.0,0.0,0.0,False,0,0.32494568824768066,0.039913818359375
STABILIZE,0.23508405685424805,29.769005287625536,0.032490046819051106,0.032622337341308594,0.0,0.0,0.0,0.6659158031544459,-1.5126530739004571,59.54302103304324,-0.02247151586803388,0.01750549806668883,0.015727767961890828,0.4,0.14703231968422412,0.1658535510812589,0.34379689787757917,0.15150002431204737,-0.13588843867182732,0.024568429216742516,1.6098340973258018,0.13794610233514765,-3.895130008459091,-0.896294042468071,18.83808523416519,0.0,0.0,0.0,0.0,0.0,0.0,0.0,0.0,0.0,0.0,0.0,0.0,0.0,0.0,0.0,0.0,False,0,0.3537001609802246,0.0249462890625
STABILIZE,0.26853442192077637,29.89461380013257,0.032354148228963216,0.03251051902770996,0.0,0.0,0.0,0.6654899835483779,-1.5120733615946524,59.558511902080824,-0.017657841313238228,0.012763418636953277,0.015522949278893989,0.4,0.14424816089885933,0.16480914449720688,0.3611247743003458,0.14845794921779348,-0.13296783436089754,0.029882043600082397,1.7382638528943062,-0.16543694673378784,-3.67702916264534,-0.8507359772920609,22.308161854743958,0.0,0.0,0.0,0.0,0.0,0.0,0.0,0.0,0.0,0.0,0.0,0.0,0.0,0.0,0.0,0.0,False,0,0.38228702545166016,0.0349248046875
STABILIZE,0.30214571952819824,29.75527809307605,0.032357009251912434,0.03249979019165039,0.0,0.0,0.0,0.6656852842699579,-1.513220619931803,59.5917954139063,-0.015207495236803717,0.010389779915136845,0.015696382677037806,0.4,0.14536664654104967,0.1683602502538801,0.3917271611564942,0.1491937746772646,-0.10235268855467439,0.04894434823654592,1.8109627068042755,-0.15800500722572638,-5.081227421760559,1.0525855235755444,22.774313390254974,0.0,0.0,0.0,0.0,0.0,0.0,0.0,0.0,0.0,0.0,0.0,0.0,0.0,0.0,0.0,0.0,False,0,0.4109833240509033,0.034924072265625
STABILIZE,0.3354225158691406,30.04881683299542,0.03220823605855306,0.03232979774475098,0.0,0.0,0.0,0.6658116427696031,-1.5133956435292846,59.60857035850785,-0.011353878383505076,0.0074587630293935555,0.015752262672267734,0.4,0.1454356460615222,0.17087084195418478,0.4217494077618739,0.14875756716342495,-0.10235268855467439,0.04894434823654592,1.8109627068042755,-0.15800500722572638,-5.081227421760559,1.0525855235755444,22.774313390254974,0.0,0.0,0.0,0.0,0.0,0.0,0.0,0.0,0.0,0.0,0.0,0.0,0.0,0.0,0.0,0.0,False,0,0.43974995613098145,0.034924072265625
STABILIZE,0.3690366744995117,29.750634832815535,0.032392295201619466,0.03277420997619629,0.0,0.0,0.0,0.6654129304768036,-1.5138434478067435,59.64068590798525,-0.009224016397007246,0.005064758781757436,0.015379923027929784,0.4,0.14351763340707033,0.17054460444675368,0.46971843626077114,0.14406457716273263,-0.15701440861448646,-0.036343568353913724,1.6345120966434479,-0.1204742916752699,-6.733869016170502,-1.0587314143776894,18.517503142356873,0.0,0.0,0.0,0.0,0.0,0.0,0.0,0.0,0.0,0.0,0.0,0.0,0.0,0.0,0.0,0.0,False,0,0.49712467193603516,0.034925048828125
STABILIZE,0.4025752544403076,29.81556068953261,0.032466920216878255,0.03260087966918945,0.0,0.0,0.0,0.6645147606009469,-1.5135159188917002,59.658335116800565,-0.007276666932259052,0.0033605849845705455,0.015573793698954801,0.4,0.14307974958914077,0.17191830094380872,0.500228225192116,0.14503206134684127,0.021185644436627626,0.13526591937988997,1.9968830049037933,0.13412114303908762,3.44264879822731,1.3528692536056042,27.055010199546814,0.0,0.0,0.0,0.0,0.0,0.0,0.0,0.0,0.0,0.0,0.0,0.0,0.0,0.0,0.0,0.0,False,0,0.5257713794708252,0.0349248046875
STABILIZE,0.43976831436157227,26.889666756420613,0.03238728841145833,0.03612518310546875,0.0,0.0,0.0,0.6649126191201002,-1.5145817485673396,59.67410602359412,-0.008310535443194935,0.004305496556584824,0.01557172457017977,0.4,0.14337676371073071,0.17421041825908942,0.5261503104561072,0.14394448038217844,0.11335420422255993,0.2443466568365693,1.705625094473362,0.011884886006525893,-2.580990083515644,1.1433239094913006,16.69585406780243,0.0,0.0,0.0,0.0,0.0,0.0,0.0,0.0,0.0,0.0,0.0,0.0,0.0,0.0,0.0,0.0,False,0,0.554450511932373,0.02993505859375
STABILIZE,0.4730687141418457,30.024080516542828,0.0322296937306722,0.032385826110839844,0.0,0.0,0.0,0.6660950956201587,-1.5163160830079938,59.70816817698498,-0.0064921067308587955,0.0029936056113409855,0.015413350893413634,0.4,0.14031728417830117,0.17183043028360148,0.5408674852933925,0.14141422036374562,-0.016374653205275536,0.050416821613907814,1.4286267571151257,0.026189640000899867,1.3312269002199173,0.8099001832306385,15.50339013338089,0.0,0.0,0.0,0.0,0.0,0.0,0.0,0.0,0.0,0.0,0.0,0.0,0.0,0.0,0.0,0.0,False,0,0.5830304622650146,0.034924072265625
STABILIZE,0.5067572593688965,29.688302495788445,0.03243759473164876,0.03259563446044922,0.0,0.0,0.0,0.6651215802200203,-1.5162904697986064,59.72316044221316,-0.005184224636369149,0.0019470045806447827,0.01543645207039409,0.4,0.13711572349118895,0.1700563782459441,0.5660352728018442,0.1407029929621117,-0.09120566537603736,0.0056921111536212265,1.7712851986289024,0.08748501826274384,-0.8272003382444382,0.8529553189873695,20.594340562820435,0.0,0.0,0.0,0.0,0.0,0.0,0.0,0.0,0.0,0.0,0.0,0.0,0.0,0.0,0.0,0.0,False,0,0.6117675304412842,0.034925048828125
STABILIZE,0.5401520729064941,29.944128334915863,0.03220370610555013,0.032356977462768555,0.0,0.0,0.0,0.6643834929028358,-1.5157269791920802,59.756478104984474,-0.004555067126843035,0.001340805142946584,0.015428536189665108,0.4,0.13346568158465744,0.16776723635799023,0.590257363440463,0.1396888261253754,-0.09120566537603736,0.0056921111536212265,1.7712851986289024,0.08748501826274384,-0.8272003382444382,0.8529553189873695,20.594340562820435,0.0,0.0,0.0,0.0,0.0,0.0,0.0,0.0,0.0,0.0,0.0,0.0,0.0,0.0,0.0,0.0,False,0,0.6405162811279297,0.034925048828125
STABILIZE,0.5795538425445557,25.377113849914387,0.03227737744649251,0.038484811782836914,0.0,0.0,0.0,0.6645841297097049,-1.5155849326016853,59.77329403072105,-0.003523192899368606,0.0008277555468485665,0.01521166014857566,0.4,0.13109001714959603,0.16546026431194832,0.6127146546034087,0.13644170783917103,0.01999810920096934,0.03445967158768326,1.7178181558847427,-0.04478268224193073,1.2290747836232185,0.9742578491568565,23.25405180454254,0.0,0.0,0.0,0.0,0.0,0.0,0.0,0.0,0.0,0.0,0.0,0.0,0.0,0.0,0.0,0.0,False,1,0.674633264541626,0.03001025390625
STABILIZE,0.6137106418609619,29.278995902354577,0.03242972691853841,0.03324317932128906,0.0,0.0,0.0,0.663748071866613,-1.5154027586499161,59.80639312743893,-0.0008238957960010442,-0.0015106203273738004,0.014504291986092443,0.4,0.12401516242570694,0.1589529631136265,0.6474455806726436,0.12849126707493663,0.0713400891982019,0.05556971300393343,1.838371902704239,0.012061537110020637,1.5177732333540916,-0.9554403834044933,21.509523689746857,0.0,0.0,0.0,0.0,0.0,0.0,0.0,0.0,0.0,0.0,0.0,0.0,0.0,0.0,0.0,0.0,False,0,0.7326676845550537,0.034924072265625
STABILIZE,0.6471972465515137,29.86098632360584,0.032403024037679036,0.03253889083862305,0.0,0.0,0.0,0.6638078360218507,-1.5156535546585026,59.82340712866143,-0.0005927044964458508,-0.002179288556809487,0.014178954602351398,0.4,0.11913791995693307,0.15601110912903768,0.6662673834765733,0.124405039030023,-0.10906417155638337,0.04315926635172218,1.652098260819912,-0.055883140365589834,-3.01346555352211,0.930242333561182,21.11152857542038,0.0,0.0,0.0,0.0,0.0,0.0,0.0,0.0,0.0,0.0,0.0,0.0,0.0,0.0,0.0,0.0,False,0,0.7614057064056396,0.029934814453125
STABILIZE,0.6805498600006104,29.981372009406922,0.032347949345906575,0.03253459930419922,0.0,0.0,0.0,0.6651422842309419,-1.5175098720088651,59.856519885757656,0.0005110823546973025,-0.0025195982283547423,0.013622109713131008,0.4,0.11512719449048903,0.1509647852017581,0.675597449921367,0.1180460373423809,-0.007093671592883766,-0.02326964313397184,1.5002761036157608,-0.1531103762726189,0.0452765729278326,-0.9814384393393993,20.240679383277893,0.0,0.0,0.0,0.0,0.0,0.0,0.0,0.0,0.0,0.0,0.0,0.0,0.0,0.0,0.0,0.0,False,0,0.7905194759368896,0.034925048828125
STABILIZE,0.7141671180725098,29.749368740602037,0.03254416783650716,0.03267264366149902,0.0,0.0,0.0,0.665297030704325,-1.5183993974265535,59.87468135876072,0.0014345225248327195,-0.002956303131971381,0.013668672287009142,0.4,0.11041874656830866,0.14600298123364544,0.6911139850667029,0.117723444702717,-0.08475710637867451,-0.06690756417810917,1.5445518307387829,0.199628353450556,-2.968122437596321,0.8987345732748508,17.894247174263,0.0,0.0,0.0,0.0,0.0,0.0,0.0,0.0,0.0,0.0,0.0,0.0,0.0,0.0,0.0,0.0,False,0,0.8186609745025635,0.034925048828125
STABILIZE,0.7475109100341797,29.988017102083422,0.03236416180928548,0.032473087310791016,0.0,0.0,0.0,0.6645380259328073,-1.5184402718398677,59.88983754852897,0.0023629124676087265,-0.005853041582829981,0.012858004339251916,0.4,0.09974142786750446,0.14135460003036854,0.7208265325052952,0.1088891559256526,-0.013628843589685857,0.09145416552200913,1.8182465806603432,-0.037788875356741795,0.7818276062607765,1.1588694527745247,25.403141975402832,0.0,0.0,0.0,0.0,0.0,0.0,0.0,0.0,0.0,0.0,0.0,0.0,0.0,0.0,0.0,0.0,False,0,0.8762197494506836,0.034923583984375
STABILIZE,0.7810659408569336,29.803061093978712,0.03245380719502767,0.03258776664733887,0.0,0.0,0.0,0.6650078148816573,-1.5178767812333418,59.922772720706774,0.001905893049210026,-0.0052738327031135466,0.012896606210281263,0.4,0.09514981788521354,0.13686996727857859,0.7362781761611297,0.10854850104683718,-0.06548502715304494,-0.02033257915172726,1.6903454437851906,0.20068971415476572,0.31737741082906723,-0.9927055798470974,21.684789657592773,0.0,0.0,0.0,0.0,0.0,0.0,0.0,0.0,0.0,0.0,0.0,0.0,0.0,0.0,0.0,0.0,False,0,0.9061541557312012,0.034925048828125
STABILIZE,0.8144910335540771,29.917856684308887,0.032352479298909505,0.032480478286743164,0.0,0.0,0.0,0.6643973667245874,-1.5186939493345104,59.94068147671055,0.0025180464335481166,-0.005321472903729237,0.012939510861294516,0.4,0.09052709875722414,0.13227126719431784,0.7507916247915778,0.1082534941210068,-0.06548502715304494,-0.02033257915172726,1.6903454437851906,0.20068971415476572,0.31737741082906723,-0.9927055798470974,21.684789657592773,0.0,0.0,0.0,0.0,0.0,0.0,0.0,0.0,0.0,0.0,0.0,0.0,0.0,0.0,0.0,0.0,False,0,0.9354290962219238,0.034925048828125
STABILIZE,0.8484601974487305,29.437224089891426,0.03237155278523763,0.03305554389953613,0.0,0.0,0.0,0.6636059185545121,-1.519235668713057,59.97404012061689,0.0018021332321318097,-0.005485150193376726,0.012476859034941975,0.4,0.08628811289660919,0.12976294908025776,0.7622898976607415,0.1029274390184379,-0.04161725519225001,0.1120835542678833,1.5620768070220947,-0.108371956858161,-5.210527405142784,0.9867464192211628,18.69714856147766,0.0,0.0,0.0,0.0,0.0,0.0,0.0,0.0,0.0,0.0,0.0,0.0,0.0,0.0,0.0,0.0,False,0,0.9642624855041504,0.029935302734375
STABILIZE,0.8820493221282959,29.775133815115073,0.03242185910542806,0.03256106376647949,0.0,0.0,0.0,0.6646549929223438,-1.5196303255810368,59.991566386027145,0.0014259575152929217,-0.005565501864560637,0.012080198727804331,0.4,0.08172519163511481,0.12633272942567222,0.7708758700423408,0.09830256586306906,-0.05659962189383805,0.08325891103595495,1.785847544670105,-0.04420091554328961,1.269632764160633,1.1464042589068413,26.79154872894287,0.0,0.0,0.0,0.0,0.0,0.0,0.0,0.0,0.0,0.0,0.0,0.0,0.0,0.0,0.0,0.0,False,0,0.9927921295166016,0.034925048828125
STABILIZE,0.9156310558319092,29.776190712830378,0.032277854283650716,0.03241777420043945,0.0,0.0,0.0,0.664452221681359,-1.5191778255485233,60.007719783414224,0.0010873128249224637,-0.003442193159038537,0.011619285668196854,0.4,0.07842640290922445,0.12305746349237873,0.783143727847375,0.09307065266662198,0.008709800022188574,0.06129388348199427,1.682783104479313,-0.10200316564288113,3.093421272933483,0.9628201834857464,20.171330869197845,0.0,0.0,0.0,0.0,0.0,0.0,0.0,0.0,0.0,0.0,0.0,0.0,0.0,0.0,0.0,0.0,False,0,1.0215673446655273,0.034923828125
STABILIZE,0.9487919807434082,30.155757506039343,0.03216245969136556,0.03228020668029785,0.0,0.0,0.0,0.6639867016007404,-1.5191288402855698,60.041980012291006,0.0007363687846645416,-0.003626593805019282,0.011370201082596945,0.4,0.07368657677245297,0.1200079164093856,0.7929839194815927,0.08998147125137514,-0.0820163986645639,0.07533401949331164,1.5870103612542152,0.029103689517475564,0.7692363578826189,0.876296404749155,17.92152225971222,0.0,0.0,0.0,0.0,0.0,0.0,0.0,0.0,0.0,0.0,0.0,0.0,0.0,0.0,0.0,0.0,False,1,1.0505266189575195,0.0349248046875
STABILIZE,0.9822690486907959,29.870981526058657,0.032448561986287434,0.03256630897521973,0.0,0.0,0.0,0.6634285470795034,-1.5194996982131603,60.056938126573336,0.0012442285721078056,-0.004594982417387597,0.010494366137374355,0.4,0.0665058934626391,0.11422878704682886,0.8144511475160784,0.08068342076894787,0.046718172961845994,0.09167242096737027,1.8395571038126945,-0.1638085469263348,1.646549068391323,1.0740360245108604,23.636415600776672,0.0,0.0,0.0,0.0,0.0,0.0,0.0,0.0,0.0,0.0,0.0,0.0,0.0,0.0,0.0,0.0,False,0,1.1075260639190674,0.029936279296875
STABILIZE,1.0164868831634521,29.225340728559882,0.03240636189778646,0.033225297927856445,0.0,0.0,0.0,0.6625794691883061,-1.5191699281422957,60.09087050636996,0.0012613183214547996,-0.006281839509580469,0.01051598332307912,0.4,0.05739347121898278,0.11183944044443574,0.820555626095746,0.08035127800483341,-0.35899144131690264,0.12853640364483,1.8253572285175323,0.19296027455162526,-7.961671054363251,1.1920047923922539,25.86330473423004,0.0,0.0,0.0,0.0,0.0,0.0,0.0,0.0,0.0,0.0,0.0,0.0,0.0,0.0,0.0,0.0,False,0,1.136279821395874,0.034924072265625
STABILIZE,1.0498876571655273,29.938143741211572,0.032327922185262044,0.03246665000915527,0.0,0.0,0.0,0.6631664385701042,-1.5192999151799373,60.10893635672465,0.000871135558067641,-0.00791062385086473,0.010559338535710781,0.4,0.048269443269027226,0.10986065172674096,0.8319271157089315,0.08024752826041226,-0.35899144131690264,0.12853640364483,1.8253572285175323,0.19296027455162526,-7.961671054363251,1.1920047923922539,25.86330473423004,0.0,0.0,0.0,0.0,0.0,0.0,0.0,0.0,0.0,0.0,0.0,0.0,0.0,0.0,0.0,0.0,False,0,1.1650910377502441,0.034924072265625
STABILIZE,1.0833709239959717,29.866089420879113,0.0323973019917806,0.0325160026550293,0.0,0.0,0.0,0.6635717676086621,-1.5198256263026169,60.126162093811416,7.413318762602128e-05,-0.008063378300411315,0.010425364180261033,0.4,0.044789013699509814,0.10925200800368252,0.8392989628328617,0.07838349432150513,-0.025333877420052886,0.20697684958577156,1.6272308304905891,0.08222156376456227,2.298438176512718,0.9814015589654446,15.569156408309937,0.0,0.0,0.0,0.0,0.0,0.0,0.0,0.0,0.0,0.0,0.0,0.0,0.0,0.0,0.0,0.0,False,0,1.193782091140747,0.034933349609375
STABILIZE,1.1169536113739014,29.781687790677033,0.03235057195027669,0.03249979019165039,0.0,0.0,0.0,0.6632959987209228,-1.5189979994742817,60.15815469988376,0.0002009620702797722,-0.007825614760015276,0.010286826716451007,0.4,0.04115466637062407,0.1060207422231757,0.8434778431301994,0.07648613011698562,-0.04299194843042642,0.04767119535245001,1.4787126332521439,0.07643005693628069,3.893774002790451,-0.966112595051527,18.736930191516876,0.0,0.0,0.0,0.0,0.0,0.0,0.0,0.0,0.0,0.0,0.0,0.0,0.0,0.0,0.0,0.0,False,0,1.222574234008789,0.064860107421875
STABILIZE,1.1502366065979004,30.04085374588168,0.03220322926839193,0.03235912322998047,0.0,0.0,0.0,0.6642718619985883,-1.518930978243051,60.17445836143258,-0.0005598611873933844,-0.007303323318295339,0.01022916910406901,0.4,0.03619897139816606,0.10302504410483472,0.8818733757260844,0.07540493843479154,-0.04104954423382878,-0.023619462444912642,1.7147602513432503,0.07641360845337712,-0.831441767513752,0.900260079652071,17.770633101463318,0.0,0.0,0.0,0.0,0.0,0.0,0.0,0.0,0.0,0.0,0.0,0.0,0.0,0.0,0.0,0.0,False,1,1.2510361671447754,0.034924072265625
STABILIZE,1.1837170124053955,29.868854326895686,0.032392295201619466,0.03250741958618164,0.0,0.0,0.0,0.6645156143745932,-1.5180234168570854,60.19157481549263,0.0009453783831961644,-0.006055241576214343,0.009345056073554816,0.4,0.031858735231705335,0.09627320501425787,0.8872346283239158,0.06612214609926557,0.077516253804788,0.13388238148763776,1.6208657994866371,-0.22155157981943085,2.7995705604553223,1.082532200962305,22.160416841506958,0.0,0.0,0.0,0.0,0.0,0.0,0.0,0.0,0.0,0.0,0.0,0.0,0.0,0.0,0.0,0.0,False,0,1.308506965637207,0.029934814453125
STABILIZE,1.217179775238037,29.885454519544552,0.0323520024617513,0.0325016975402832,0.0,0.0,0.0,0.6645600106041983,-1.5180294999943151,60.22433240275201,0.0014627942112370171,-0.0042518673472713925,0.009197931619338276,0.4,0.029036839296481758,0.09284635503050301,0.884018213403923,0.06422083687367702,-0.04230873310007155,0.05251215770840645,1.6424903646111488,0.07277697294738168,1.2235404923558235,1.0310820303857327,21.857404708862305,0.0,0.0,0.0,0.0,0.0,0.0,0.0,0.0,0.0,0.0,0.0,0.0,0.0,0.0,0.0,0.0,False,0,1.3397932052612305,0.034925048828125
STABILIZE,1.2525851726531982,28.24256952393778,0.03233507474263509,0.03437662124633789,0.0,0.0,0.0,0.6642481697799049,-1.5181910766568683,60.24138055492036,0.001691105939948952,-0.004157675297155441,0.008845929507349082,0.4,0.025997222551210435,0.0914823261831282,0.892036663050487,0.060274755565253524,-0.04939212230965495,0.14951997436583042,1.9724514335393906,-0.04907363519617885,-5.152665823698044,1.165106426924467,24.75488781929016,0.0,0.0,0.0,0.0,0.0,0.0,0.0,0.0,0.0,0.0,0.0,0.0,0.0,0.0,0.0,0.0,False,0,1.3658595085144043,0.0399140625
STABILIZE,1.285973072052002,29.950115321722613,0.03231767018636068,0.03248715400695801,0.0,0.0,0.0,0.6656586038435125,-1.5190086716448599,60.274418179935715,0.0018010516642165974,-0.004912163968222325,0.00918226071488945,0.4,0.02038576614307897,0.08816805991666792,0.9013606550361927,0.06321467456262847,-0.18418710678815842,0.02732760040089488,1.781911589205265,0.3241742516241601,1.648871786892414,1.1334190145134926,25.695469975471497,0.0,0.0,0.0,0.0,0.0,0.0,0.0,0.0,0.0,0.0,0.0,0.0,0.0,0.0,0.0,0.0,False,0,1.3945350646972656,0.024946044921875
STABILIZE,1.319448471069336,29.872257990997664,0.03242185910542806,0.032555341720581055,0.0,0.0,0.0,0.6649211568565627,-1.5205344718724172,60.2922791246153,0.0016005026200820076,-0.004946605299542205,0.008541070204019296,0.4,0.01576807136347665,0.08600881878962187,0.8954887287533587,0.056424938107723616,-0.18406722228974104,0.11309601832181215,1.8188269808888435,-0.21328723768670055,0.21218350157141685,1.220042072236538,27.197766304016113,0.0,0.0,0.0,0.0,0.0,0.0,0.0,0.0,0.0,0.0,0.0,0.0,0.0,0.0,0.0,0.0,False,0,1.4232966899871826,0.034923828125
STABILIZE,1.3570661544799805,26.585095931393365,0.03238561948140462,0.03664660453796387,0.0,0.0,0.0,0.6643984339416452,-1.5217249525004093,60.32665546670797,0.0007048676275801513,-0.0051410544856625795,0.007803138281944895,0.4,0.010722113387072804,0.08215460147392396,0.9070255098170081,0.04867999985804699,0.09640841162763536,0.08293475839309394,1.9296173006296158,0.08243252589646574,4.149626940488815,1.054973155260086,22.172290086746216,0.0,0.0,0.0,0.0,0.0,0.0,0.0,0.0,0.0,0.0,0.0,0.0,0.0,0.0,0.0,0.0,False,0,1.4805796146392822,0.03492529296875
STABILIZE,1.3905773162841797,29.843563891478052,0.03235963185628255,0.03247714042663574,0.0,0.0,0.0,0.6654204009962084,-1.5223200327318467,60.34067101488484,0.0011326921077347602,-0.0057803903175343875,0.007284416094862567,0.4,0.006213850108765748,0.07770447899665785,0.9105500769073017,0.04320382979655346,-0.16840556636452675,-0.051756855100393295,1.7717188224196434,-0.16445966939352066,0.1251572510227561,-0.8828810416162014,24.740467965602875,0.0,0.0,0.0,0.0,0.0,0.0,0.0,0.0,0.0,0.0,0.0,0.0,0.0,0.0,0.0,0.0,False,0,1.5093789100646973,0.034925048828125
STABILIZE,1.4240107536315918,29.9054844137695,0.03219345410664876,0.032355308532714844,0.0,0.0,0.0,0.6651149634742618,-1.5217058493150744,60.35813580859256,0.0019306051337121602,-0.006186282623214613,0.007113288934429284,0.4,0.0023593894012706902,0.07406510412932124,0.9085795775653961,0.04121655894155685,-0.13818007428199053,-0.010101281077368185,1.4775795862078667,0.02774983129814532,2.384711056947708,0.7735245395451784,13.71569037437439,0.0,0.0,0.0,0.0,0.0,0.0,0.0,0.0,0.0,0.0,0.0,0.0,0.0,0.0,0.0,0.0,False,0,1.5381560325622559,0.029934814453125
STABILIZE,1.457451581954956,29.902712722346987,0.03234818776448568,0.03253364562988281,0.0,0.0,0.0,0.6642767711970543,-1.5206336163370882,60.39139882985052,0.0014383980419662532,-0.005948819843860004,0.0069521315257446165,0.4,-0.0020177007363398683,0.07251217453823208,0.9030816023065513,0.039341302798220325,-0.19672107882797718,0.10764605831354856,1.5673449262976646,0.021807786833752403,-2.753281779587269,0.8795316331088543,17.557409405708313,0.0,0.0,0.0,0.0,0.0,0.0,0.0,0.0,0.0,0.0,0.0,0.0,0.0,0.0,0.0,0.0,False,0,1.5666735172271729,0.034924072265625
STABILIZE,1.4909067153930664,29.89163109245494,0.032410415013631184,0.032544851303100586,0.0,0.0,0.0,0.6651068526246224,-1.5210638115330932,60.40938954812434,0.001520816270999412,-0.0041186139039196224,0.006677399781439396,0.4,-0.0006463406391370692,0.07026101517110377,0.9025839866985195,0.036350809651241954,0.14758787583559752,0.056400877656415105,1.5601279214024544,-0.04235424316708708,2.4219900369644165,-1.0829871520400047,16.69253706932068,0.0,0.0,0.0,0.0,0.0,0.0,0.0,0.0,0.0,0.0,0.0,0.0,0.0,0.0,0.0,0.0,False,0,1.595449686050415,0.02993603515625
STABILIZE,1.5243136882781982,29.933443238344,0.03241566022237142,0.03253459930419922,0.0,0.0,0.0,0.665868845603902,-1.5207827065600648,60.442768682598185,0.00246578900515428,-0.004558427229154162,0.006039226870742611,0.4,-0.006062231886183939,0.06423910006357653,0.9011153557342998,0.0297700685039526,-0.057464675046503544,0.052676216000691056,1.8233610317111015,-0.037334981271946684,4.294910654425621,-0.9718006476759911,25.858262181282043,0.0,0.0,0.0,0.0,0.0,0.0,0.0,0.0,0.0,0.0,0.0,0.0,0.0,0.0,0.0,0.0,False,0,1.6527328491210938,0.0399794921875
STABILIZE,1.5577802658081055,29.881196301098555,0.032448800404866536,0.0325775146484375,0.0,0.0,0.0,0.6673926181190495,-1.5205978645656515,60.459543627199736,0.0018118876087047063,-0.004489849650598208,0.005885399171877748,0.4,-0.009947001882433392,0.062148689027983414,0.9026518965748964,0.028044114167787328,-0.1544140512123704,0.04762183816637844,1.4179928228259087,0.0226149230945775,-1.485343836247921,0.8036831393837929,18.692493438720703,0.0,0.0,0.0,0.0,0.0,0.0,0.0,0.0,0.0,0.0,0.0,0.0,0.0,0.0,0.0,0.0,True,0,1.6814930438995361,0.024947021484375
STABILIZE,1.5913758277893066,29.765836349442907,0.03243139584859212,0.03256511688232422,0.0,0.0,0.0,0.6669200544058492,-1.520030105090894,60.4753145339933,0.0010058602755167831,-0.003986149547846967,0.005669706349136678,0.4,-0.01190784428703875,0.06126231865992798,0.8909772017475047,0.025715170418043252,-0.11329184053465724,0.12094357516616583,1.490017119795084,-0.045094723169422465,-6.496599316596985,0.8619842119514942,19.8333278298378,0.0,0.0,0.0,0.0,0.0,0.0,0.0,0.0,0.0,0.0,0.0,0.0,0.0,0.0,0.0,0.0,True,0,1.7185699939727783,0.034924072265625
STABILIZE,1.624742031097412,29.97087448015663,0.032286675771077473,0.03242015838623047,0.0,0.0,0.0,0.6678212124894678,-1.5196866746416893,60.50966355532929,0.000836115743033946,-0.003229793421525098,0.00572251195044117,0.4,-0.01357249330990495,0.060337699041427925,0.8916226511143404,0.02606876729396288,-0.057111820206046104,0.10647880844771862,1.6310742124915123,0.12446394924377716,-1.5403364785015583,1.0324225760996342,26.24378800392151,0.0,0.0,0.0,0.0,0.0,0.0,0.0,0.0,0.0,0.0,0.0,0.0,0.0,0.0,0.0,0.0,True,0,1.7474355697631836,0.034925048828125
STABILIZE,1.6581318378448486,29.947549177108993,0.03237107594807943,0.03249645233154297,0.0,0.0,0.0,0.666364461205551,-1.520467237197775,60.526820990524364,0.0006770843478031917,-0.0046625544207800455,0.005701896978769142,0.4,-0.016672390784121364,0.058747501313060974,0.8910532221803235,0.025690779909800874,-0.14785807579755783,0.06255373009480536,1.570080779492855,0.07476925375090977,-5.716616660356522,0.8286417461931705,23.009975254535675,0.0,0.0,0.0,0.0,0.0,0.0,0.0,0.0,0.0,0.0,0.0,0.0,0.0,0.0,0.0,0.0,True,0,1.7761485576629639,0.029934814453125
STABILIZE,1.691563606262207,29.91230922835544,0.032437833150227864,0.03255438804626465,0.0,0.0,0.0,0.66611302486673,-1.5193243544505615,60.559517106081216,-0.00014011570525120174,-0.0036510972725363514,0.005723979752262019,0.4,-0.01851193275209004,0.05572658910277362,0.8876280179295909,0.025739496900687883,-0.10169019224122167,-0.0226145246415399,1.6710402444005013,0.08965595787185669,2.579868398606777,-1.2721749022603035,21.16774469614029,0.0,0.0,0.0,0.0,0.0,0.0,0.0,0.0,0.0,0.0,0.0,0.0,0.0,0.0,0.0,0.0,True,0,1.8065922260284424,0.034925048828125
STABILIZE,1.7250807285308838,29.83698265682132,0.03244784673055013,0.032570838928222656,0.0,0.0,0.0,0.665789231211389,-1.5194897730945227,60.57721412622072,-0.00022263519079980954,-0.003479306657453279,0.005517875060998689,0.4,-0.02150786795630311,0.054050250791916644,0.88786531698088,0.02352110107708355,-0.15250113792717457,0.04867414536420256,1.6069628298282623,-0.04392723439891969,1.171888504177332,-1.0901957750320435,26.026859879493713,0.0,0.0,0.0,0.0,0.0,0.0,0.0,0.0,0.0,0.0,0.0,0.0,0.0,0.0,0.0,0.0,True,0,1.8347465991973877,0.034924072265625
STABILIZE,1.7585723400115967,29.858860547728714,0.0323670228322347,0.03250598907470703,0.0,0.0,0.0,0.66516661677986,-1.5199780248984727,60.59307382547349,3.16231383113382e-05,-0.003852166090977573,0.005315981233762493,0.4,-0.024412531057426103,0.05244444656164605,0.887939283971356,0.021359211087790767,-0.15250113792717457,0.04867414536420256,1.6069628298282623,-0.04392723439891969,1.171888504177332,-1.0901957750320435,26.026859879493713,0.0,0.0,0.0,0.0,0.0,0.0,0.0,0.0,0.0,0.0,0.0,0.0,0.0,0.0,0.0,0.0,True,0,1.863316297531128,0.034924072265625
STABILIZE,1.7920939922332764,29.831889500561886,0.03217676480611165,0.03236794471740723,0.0,0.0,0.0,0.6656122866232034,-1.5205977578439456,60.625715299516976,0.00037798936631694874,-0.002750473489933144,0.0046059894673778825,0.4,-0.022561495908940805,0.050520316890292745,0.8893726443163572,0.014164362600779374,0.1215064199641347,0.025895339786075056,1.6953859478235245,-0.3431397659585814,-0.48864614218473434,0.5603053141385317,13.45866173505783,0.0,0.0,0.0,0.0,0.0,0.0,0.0,0.0,0.0,0.0,0.0,0.0,0.0,0.0,0.0,0.0,True,1,1.892873764038086,0.034925048828125
STABILIZE,1.8254659175872803,29.96316669286051,0.03231933911641439,0.032454490661621094,0.0,0.0,0.0,0.6646323679207181,-1.520790497244587,60.644218281978546,0.0005147878158906228,-0.0035164808704296886,0.0047463483022778296,0.4,-0.027693502385745052,0.04863524518423157,0.8905580258557491,0.015464502621793861,-0.07338867289945483,0.07740086293779314,1.770314946770668,0.1356445953891178,0.1643383875489235,0.7938978262245655,21.478037536144257,0.0,0.0,0.0,0.0,0.0,0.0,0.0,0.0,0.0,0.0,0.0,0.0,0.0,0.0,0.0,0.0,True,0,1.9503157138824463,0.034925048828125
STABILIZE,1.858963966369629,29.852909985124448,0.03241732915242513,0.032561302185058594,0.0,0.0,0.0,0.6643104952560812,-1.5216953905879078,60.678403378774455,0.0003169416737847056,-0.0021860668758497295,0.004571162064200871,0.4,-0.025308298459455904,0.046464617614066006,0.890861335281339,0.01362149649587433,0.13903097715228796,-0.0017771328202798031,1.6202820464968681,-0.04176113395215337,-0.689307926222682,2.6163436472415924,16.472257673740387,0.0,0.0,0.0,0.0,0.0,0.0,0.0,0.0,0.0,0.0,0.0,0.0,0.0,0.0,0.0,0.0,True,0,1.9788827896118164,0.039913818359375
STABILIZE,1.8923735618591309,29.930879949762012,0.03237965901692708,0.032497406005859375,0.0,0.0,0.0,0.664058632030437,-1.521900402984714,60.69588183286052,-0.0006687408910406497,-0.0015992004947544662,0.004387858373895286,0.4,-0.026232868941966653,0.04791217771324054,0.8929466410973295,0.011710141898990436,-0.046316994121298194,0.2045217901468277,1.4810319058597088,-0.04154537934864964,-3.5926830023527145,0.7907487452030182,19.37721222639084,0.0,0.0,0.0,0.0,0.0,0.0,0.0,0.0,0.0,0.0,0.0,0.0,0.0,0.0,0.0,0.0,True,0,2.0077192783355713,0.024946044921875
STABILIZE,1.92612624168396,29.630625984613538,0.032403024037679036,0.03253960609436035,0.0,0.0,0.0,0.6629591850174765,-1.5218956005079538,60.712451871786975,-0.0006017065275263411,-0.00024574811921908144,0.004465728281094515,0.4,-0.024744352832683676,0.046225053620056175,0.8870396844718319,0.012405832622268754,0.040088093373924494,0.028621143428608775,1.8074994906783104,0.0864524123881356,2.2594382986426353,-0.9459724649786949,29.18565273284912,0.0,0.0,0.0,0.0,0.0,0.0,0.0,0.0,0.0,0.0,0.0,0.0,0.0,0.0,0.0,0.0,True,0,2.0367329120635986,0.034924072265625
STABILIZE,1.959319829940796,30.122189266246778,0.03210309346516927,0.032288551330566406,0.0,0.0,0.0,0.6631813796089135,-1.521407135260592,60.72766953325776,-0.0007048282760842829,-0.0004913474872162246,0.004525448554072055,0.4,-0.023798575570159693,0.044768895020599477,0.8905784835755988,0.012916523704221656,0.040088093373924494,0.028621143428608775,1.8074994906783104,0.0864524123881356,2.2594382986426353,-0.9459724649786949,29.18565273284912,0.0,0.0,0.0,0.0,0.0,0.0,0.0,0.0,0.0,0.0,0.0,0.0,0.0,0.0,0.0,0.0,True,0,2.0653698444366455,0.034924072265625
STABILIZE,1.9928004741668701,29.869492454832255,0.03243616422017415,0.03255462646484375,0.0,0.0,0.0,0.6627308005671042,-1.5220476789386923,60.76140383756845,-0.0008235274654655927,-0.0003135987331886105,0.004582929190192202,0.4,-0.02790871387346665,0.04339411661674775,0.8922598682431366,0.013401663649573146,-0.2639333251863718,0.03099209861829877,1.7034711316227913,0.08050781994301714,-1.6114776954054832,0.6906404159963131,18.597443401813507,0.0,0.0,0.0,0.0,0.0,0.0,0.0,0.0,0.0,0.0,0.0,0.0,0.0,0.0,0.0,0.0,True,1,2.094024896621704,0.034925048828125
STABILIZE,2.026238203048706,29.905271188495078,0.032384665807088216,0.032523393630981445,0.0,0.0,0.0,0.6618650740898051,-1.5221301748172615,60.77882765014115,-0.0009237721357594415,-0.001936336579071816,0.004716695634325174,0.4,-0.03065921108041115,0.0417063006630267,0.8874581820742682,0.014641358183627003,-0.11262636398896575,0.06023357273079455,1.601199433207512,0.0827815125444777,0.3404256422072649,0.8184413425624371,21.816274523735046,0.0,0.0,0.0,0.0,0.0,0.0,0.0,0.0,0.0,0.0,0.0,0.0,0.0,0.0,0.0,0.0,True,0,2.151313066482544,0.02993505859375
STABILIZE,2.063662052154541,26.722290534470787,0.03242066701253255,0.036464691162109375,0.0,0.0,0.0,0.6626665541002238,-1.5235994125407546,60.81270538842442,8.324578977706371e-05,-0.0016999634292205884,0.004612451754612083,0.4,-0.030775560752780658,0.039751244598584985,0.8828265429243233,0.013498005774541742,-0.04926566034555435,-0.009613029396859929,1.5792258083820343,-0.026230260950162933,1.8658844754099846,0.7335405331104994,20.552237331867218,0.0,0.0,0.0,0.0,0.0,0.0,0.0,0.0,0.0,0.0,0.0,0.0,0.0,0.0,0.0,0.0,True,0,2.180043935775757,0.0349248046875
STABILIZE,2.0970375537872314,29.9608123263306,0.03235343297322591,0.03246784210205078,0.0,0.0,0.0,0.6631459480025941,-1.522803268615625,60.84554493795384,-0.000666317179699823,-0.0013946022336432736,0.004281231481878983,0.4,-0.028482011727259386,0.04047514820343397,0.8836021392354664,0.010118182590382982,0.11052020126953721,0.14481496764346957,1.628025807440281,-0.16109214600886637,3.751232475042343,0.8551222272217274,25.41784942150116,0.0,0.0,0.0,0.0,0.0,0.0,0.0,0.0,0.0,0.0,0.0,0.0,0.0,0.0,0.0,0.0,True,0,2.208784818649292,0.034925048828125
STABILIZE,2.130568027496338,29.823404769692402,0.0324127991994222,0.03259849548339844,0.0,0.0,0.0,0.6626548147125879,-1.5230765829041313,60.86278433541895,-0.0011369769917999987,-0.001665716809746116,0.0043599052079589945,0.4,-0.028432797407285652,0.04056379000241973,0.8824094916518648,0.010832322209877263,-0.029257975984364748,0.1029474544338882,1.5194314531981945,0.08420536019248073,5.956223979592323,0.7191335316747427,19.6322500705719,0.0,0.0,0.0,0.0,0.0,0.0,0.0,0.0,0.0,0.0,0.0,0.0,0.0,0.0,0.0,0.0,True,0,2.2376222610473633,0.02993505859375
STABILIZE,2.164039373397827,29.87630084978168,0.03238371213277181,0.03255414962768555,0.0,0.0,0.0,0.6629704975182894,-1.5239197911015105,60.880652110287706,-0.001095159292725848,-0.0010412478914379442,0.004256593874979573,0.4,-0.03025620007876993,0.03916538539729002,0.8750705365119692,0.009734003673021586,-0.1574420020915568,0.016574560140725225,1.4107917435467243,-0.029726824217320223,-2.447591908276081,0.6720135919749737,17.51842200756073,0.0,0.0,0.0,0.0,0.0,0.0,0.0,0.0,0.0,0.0,0.0,0.0,0.0,0.0,0.0,0.0,True,0,2.268890619277954,0.034925048828125
STABILIZE,2.197488784790039,29.896744670083326,0.032412083943684895,0.03253793716430664,0.0,0.0,0.0,0.6637960966342147,-1.5242522292150198,60.91433177308504,-0.0006491641308801673,-0.0006281382956093129,0.004138269970611303,0.4,-0.03148341539015351,0.03625824584453757,0.8677892554106612,0.00849396007248436,0.012918520951643586,-0.0064354215282946825,1.3275965116918087,0.027943304410513865,-2.670910768210888,-1.38870133087039,12.825064361095428,0.0,0.0,0.0,0.0,0.0,0.0,0.0,0.0,0.0,0.0,0.0,0.0,0.0,0.0,0.0,0.0,True,0,2.3257150650024414,0.034924072265625
STABILIZE,2.230982542037964,29.855247423267468,0.032408984502156575,0.03253626823425293,0.0,0.0,0.0,0.6637258737518105,-1.523200806969661,60.92916694396231,-0.000559848639408259,0.00040704818854208003,0.004106305182704187,0.4,-0.02841698042558549,0.034379030908617006,0.8675993286385217,0.008119994259629641,0.14283070340752602,-0.022178253857418895,1.5888309106230736,0.010859227047953359,6.838466227054596,-1.0277198627591133,22.342412173748016,0.0,0.0,0.0,0.0,0.0,0.0,0.0,0.0,0.0,0.0,0.0,0.0,0.0,0.0,0.0,0.0,True,0,2.3543152809143066,0.06485986328125
STABILIZE,2.2650957107543945,29.31501219623,0.0323674996693929,0.03325319290161133,0.0,0.0,0.0,0.663871655601908,-1.5229513983432497,60.9633110596232,0.0003258184663760278,0.0014924051697072706,0.003856832562842247,0.4,-0.022907317179065585,0.032285562473444815,0.8908773987239255,0.005587034680307504,0.314945331774652,-0.043172581354156137,1.5832597389817238,-0.09677256808986702,5.018489435315132,0.9060378186404705,19.38217133283615,0.0,0.0,0.0,0.0,0.0,0.0,0.0,0.0,0.0,0.0,0.0,0.0,0.0,0.0,0.0,0.0,True,0,2.3830926418304443,0.034925048828125
STABILIZE,2.298611879348755,29.836558160710222,0.032460959752400716,0.03260540962219238,0.0,0.0,0.0,0.6639083678686968,-1.5225579154140334,60.978118909743785,0.001121904332841797,0.0036818547341855574,0.003632440906527314,0.4,-0.016197321858701787,0.029929998531227235,0.8877605607809265,0.003320896170376006,0.314945331774652,-0.043172581354156137,1.5832597389817238,-0.09677256808986702,5.018489435315132,0.9060378186404705,19.38217133283615,0.0,0.0,0.0,0.0,0.0,0.0,0.0,0.0,0.0,0.0,0.0,0.0,0.0,0.0,0.0,0.0,True,0,2.411731719970703,0.034925048828125
STABILIZE,2.334362268447876,27.97172353082402,0.03237655957539876,0.034716129302978516,0.0,0.0,0.0,0.6627421130679171,-1.5232982438870395,60.99557687326234,0.00036506042793057537,0.004085034285262083,0.0036355247336672084,0.4,-0.016642660923478932,0.031005462368462043,0.8863445231303618,0.0033279931454591473,-0.07871199632063508,0.1427347888238728,1.6654541715979576,0.026596434795385655,1.3569436967372894,1.0599520988762379,22.306114435195923,0.0,0.0,0.0,0.0,0.0,0.0,0.0,0.0,0.0,0.0,0.0,0.0,0.0,0.0,0.0,0.0,True,0,2.44047474861145,0.034924072265625
STABILIZE,2.3679237365722656,29.798614614045682,0.032225879033406575,0.03249955177307129,0.0,0.0,0.0,0.663752981065079,-1.5226581270957622,61.02847106430512,-0.0005793567422215664,0.004494018920716117,0.0034298832296685076,0.4,-0.016506098274542195,0.031218663743413665,0.8838867204496499,0.0012630981335050757,-0.043704581912606955,0.09173559956252575,1.5984183177351952,-0.08977811420433678,1.5450265258550644,-0.8196703158318996,22.806282341480255,0.0,0.0,0.0,0.0,0.0,0.0,0.0,0.0,0.0,0.0,0.0,0.0,0.0,0.0,0.0,0.0,True,0,2.47019100189209,0.029935791015625
STABILIZE,2.40132474899292,29.935579647565145,0.03233388264973958,0.03245282173156738,0.0,0.0,0.0,0.6641013207127496,-1.5222316671594596,61.04378434842429,-0.0012610237906026567,0.004199659472543376,0.003229261731557506,0.4,-0.014606584671999132,0.03156731904049947,0.8689372561137735,-0.0007381784852391225,0.05600973963737488,0.08759544580243528,1.4340093359351158,0.00930695983736218,1.791728101670742,0.990001205354929,21.424372494220734,0.0,0.0,0.0,0.0,0.0,0.0,0.0,0.0,0.0,0.0,0.0,0.0,0.0,0.0,0.0,0.0,True,0,2.527045726776123,0.064860107421875
STABILIZE,2.434835433959961,29.84335154826958,0.032393487294514973,0.03252434730529785,0.0,0.0,0.0,0.6637593843674259,-1.5234329266797355,61.078768577353095,-0.001778555284309474,0.004557741256186597,0.002812119507663326,0.4,-0.008619284406511548,0.031265772425029974,0.8862629444901959,-0.004876975495006052,0.26194467209279537,0.030831986805424094,1.3432526029646397,-0.16485073774414355,6.8163663148880005,0.9795197285711765,19.94324028491974,0.0,0.0,0.0,0.0,0.0,0.0,0.0,0.0,0.0,0.0,0.0,0.0,0.0,0.0,0.0,0.0,True,0,2.5558598041534424,0.034923828125
STABILIZE,2.468280553817749,29.899515255203877,0.03233173688252767,0.03252243995666504,0.0,0.0,0.0,0.6636731532291544,-1.5230998482359916,61.09536593703623,-0.002214844504400895,0.001423404576333265,0.002818466708821048,0.4,-0.012050387991569921,0.030434149729275245,0.8811715341283008,-0.0047814581796734885,-0.2231780905276537,0.02975473180413246,1.5387628227472305,0.0172400544706134,-9.100937098264694,-1.095037255436182,16.149407625198364,0.0,0.0,0.0,0.0,0.0,0.0,0.0,0.0,0.0,0.0,0.0,0.0,0.0,0.0,0.0,0.0,True,0,2.5846118927001953,0.034925048828125
STABILIZE,2.501774787902832,29.854822407288776,0.03239563306172689,0.032598018646240234,0.0,0.0,0.0,0.6631632369189306,-1.5233666525004452,61.112345787312876,-0.0016571844600112215,0.00040449342413269166,0.002829539202393533,0.4,-0.01552584966196971,0.029638611687945713,0.8764233129036006,-0.004639629624916888,-0.2231780905276537,0.02975473180413246,1.5387628227472305,0.0172400544706134,-9.100937098264694,-1.095037255436182,16.149407625198364,0.0,0.0,0.0,0.0,0.0,0.0,0.0,0.0,0.0,0.0,0.0,0.0,0.0,0.0,0.0,0.0,True,0,2.613668918609619,0.034925048828125
STABILIZE,2.5353715419769287,29.766258835552275,0.03243211110432943,0.03256034851074219,0.0,0.0,0.0,0.6617022167667826,-1.5217620916540213,61.14554733686831,-0.0014820293583520847,0.0005526182931146456,0.002878218254609095,0.4,-0.014944123208151453,0.02928430687855232,0.8747728564656116,-0.004125237031689464,-0.006322069384623319,0.05138081032782793,1.68741624802351,0.034974704016564315,2.0032981410622597,-0.985884852707386,17.839990556240082,0.0,0.0,0.0,0.0,0.0,0.0,0.0,0.0,0.0,0.0,0.0,0.0,0.0,0.0,0.0,0.0,True,0,2.6426496505737305,0.034925048828125
STABILIZE,2.5687100887298584,29.994665141059105,0.032271655400594075,0.032401323318481445,0.0,0.0,0.0,0.660910982040119,-1.5215698858619089,61.16603790437835,-0.0012764378803887151,0.00016731180801691557,0.002930409729519306,0.4,-0.014381814676981854,0.02896141353551045,0.8733809538016722,-0.003579379725798187,-0.006322069384623319,0.05138081032782793,1.68741624802351,0.034974704016564315,2.0032981410622597,-0.985884852707386,17.839990556240082,0.0,0.0,0.0,0.0,0.0,0.0,0.0,0.0,0.0,0.0,0.0,0.0,0.0,0.0,0.0,0.0,True,0,2.671262502670288,0.034925048828125
STABILIZE,2.6020917892456055,29.95653260768643,0.03239324887593587,0.032505035400390625,0.0,0.0,0.0,0.6605560256466899,-1.5212905951578788,61.196924019805145,-0.0011589490879741892,-0.0017443600666723553,0.0030454036892419043,0.4,-0.014743689874942165,0.028316191116732968,0.8996835144543998,-0.0024133124983376315,-0.17934993375092745,0.05875907954759896,1.7640914767980576,0.06801795860189597,-1.011150237172842,1.0378590784966946,22.596386075019836,0.0,0.0,0.0,0.0,0.0,0.0,0.0,0.0,0.0,0.0,0.0,0.0,0.0,0.0,0.0,0.0,True,0,2.7285304069519043,0.034925048828125
STABILIZE,2.635605573654175,29.83804394994629,0.032444032033284505,0.0325620174407959,0.0,0.0,0.0,0.66012038764369,-1.521542458383523,61.21414292670275,-0.00030991948166856384,-0.0013292065277129427,0.003312787957038035,0.4,-0.016586013069322343,0.024967688864808928,0.8946499618938804,0.00025879846579899635,-0.12627707328647375,-0.10285639436915517,1.6176208853721619,0.134532848699566,-4.092799872159958,-1.0838021524250507,15.025372803211212,0.0,0.0,0.0,0.0,0.0,0.0,0.0,0.0,0.0,0.0,0.0,0.0,0.0,0.0,0.0,0.0,True,0,2.75754451751709,0.02993603515625
STABILIZE,2.6712284088134766,28.073948139917807,0.03237441380818685,0.034560441970825195,0.0,0.0,0.0,0.6601795114686929,-1.5217259129957612,61.228998588147526,-0.0011503068597835165,0.0007578218119519717,0.0035932644340989648,0.4,-0.013208902610729534,0.026887056550607462,0.8878012257077721,0.0030419646768232757,0.1375182531774044,0.1655971398577094,1.7102250829339027,0.14417111273231345,2.752121537923813,1.1152717284858227,19.62902843952179,0.0,0.0,0.0,0.0,0.0,0.0,0.0,0.0,0.0,0.0,0.0,0.0,0.0,0.0,0.0,0.0,True,0,2.7859418392181396,0.034923828125
STABILIZE,2.704625368118286,29.938784833257195,0.0322454293568929,0.032389163970947266,0.0,0.0,0.0,0.6606194183399241,-1.5216505674714795,61.26293096794415,-0.001302872362980426,0.0006053749174750217,0.003647310841220592,0.4,-0.013136960040848841,0.027015232776522898,0.882751998270819,0.0035586085010781464,-0.028087443206459284,0.06952938856557012,1.5490596182644367,0.027145813123848762,1.0187085717916489,-0.7770929019898176,22.904914617538452,0.0,0.0,0.0,0.0,0.0,0.0,0.0,0.0,0.0,0.0,0.0,0.0,0.0,0.0,0.0,0.0,True,0,2.814516305923462,0.034925048828125
STABILIZE,2.738180637359619,29.80263756252842,0.032312663396199544,0.03252077102661133,0.0,0.0,0.0,0.6596996906794995,-1.5217843964905295,61.280238667300964,-0.0014063813206068889,0.0006863009059191334,0.0035670601204953697,0.4,-0.012371915851440492,0.02702266376325314,0.877688259376842,0.0027377417383499165,0.009133174899034202,0.06200106581673026,1.5313804149627686,-0.04236142020180088,2.7264006435871124,1.2094631791114807,24.267080426216125,0.0,0.0,0.0,0.0,0.0,0.0,0.0,0.0,0.0,0.0,0.0,0.0,0.0,0.0,0.0,0.0,True,0,2.843268632888794,0.02993505859375
STABILIZE,2.773729085922241,28.13250967529898,0.03228715260823568,0.0345914363861084,0.0,0.0,0.0,0.6597737555433119,-1.5210330756818282,61.312716216804375,-0.0013143867698508383,-2.8693092575259973e-05,0.0034826487736460856,0.4,-0.015012158560356257,0.02609059938271992,0.8655224702648537,0.0018802373241241694,-0.17382620135322213,0.015458853158634156,1.3487896881997585,-0.04281434045103074,-5.207128822803497,-1.0561887174844742,13.492636382579803,0.0,0.0,0.0,0.0,0.0,0.0,0.0,0.0,0.0,0.0,0.0,0.0,0.0,0.0,0.0,0.0,True,1,2.8719470500946045,0.034925048828125
STABILIZE,2.8072447776794434,29.835921439190777,0.03235915501912435,0.032495737075805664,0.0,0.0,0.0,0.6602516553418012,-1.5217029678290184,61.33015368975541,-0.002195800928015857,6.836860851323181e-05,0.0038851895941326734,0.4,-0.016382247582265072,0.025714423971122585,0.8552679880263561,0.0058663972248410995,0.04069195128977299,0.08140481659211218,1.5796078369021416,0.26288402935472666,3.384256735444069,1.028852816671133,17.495884001255035,0.0,0.0,0.0,0.0,0.0,0.0,0.0,0.0,0.0,0.0,0.0,0.0,0.0,0.0,0.0,0.0,True,0,2.9293746948242188,0.0349248046875
STABILIZE,2.8417105674743652,29.011468175467236,0.0323064645131429,0.03362894058227539,0.0,0.0,0.0,0.6602100338765464,-1.5211242160185654,61.36418852238959,-0.001476611915455126,-0.0004097055868833883,0.003679007912328447,0.4,-0.014890440524795571,0.02514092209770405,0.8559970647051178,0.0037784177065272226,0.05150311044417322,0.02559637650847435,1.7643768340349197,-0.1124179234666812,4.718808084726334,0.998796708881855,17.317843437194824,0.0,0.0,0.0,0.0,0.0,0.0,0.0,0.0,0.0,0.0,0.0,0.0,0.0,0.0,0.0,0.0,True,0,2.9581406116485596,0.034924072265625
STABILIZE,2.8753206729888916,29.75654468833804,0.03250077565511068,0.03262734413146973,0.0,0.0,0.0,0.6608166400522082,-1.52070490643655,61.38204946706917,-0.0010865364579080911,-0.002195635696268591,0.0034808741522487203,0.4,-0.02024759607892094,0.024058718495078634,0.8527327421594227,0.001785129035109921,-0.32458570785820484,-0.0033919357520062476,1.5342309139668941,-0.1068022606589944,-3.0776722356677055,-0.9688575752079487,17.73037612438202,0.0,0.0,0.0,0.0,0.0,0.0,0.0,0.0,0.0,0.0,0.0,0.0,0.0,0.0,0.0,0.0,True,0,2.986745595932007,0.02993505859375
STABILIZE,2.9090657234191895,29.632091334265894,0.03230145772298177,0.03274202346801758,0.0,0.0,0.0,0.6603026683171647,-1.5207908174097042,61.39731493986415,-0.000583257229697801,-0.00138622628199561,0.0039602447479350975,0.4,-0.01705822409269218,0.022511451108888865,0.8415492903941915,0.006534716544129485,0.1403513248078525,-0.0272303877864033,1.299097202718258,0.26968100139381496,9.984038770198822,-0.9506223723292351,16.70961230993271,0.0,0.0,0.0,0.0,0.0,0.0,0.0,0.0,0.0,0.0,0.0,0.0,0.0,0.0,0.0,0.0,True,0,3.0157063007354736,0.034925048828125
STABILIZE,2.9433789253234863,29.145934527159902,0.032352479298909505,0.03330564498901367,0.0,0.0,0.0,0.6598275432830257,-1.520025729500957,61.43058479131128,-0.0010410323880353394,-0.0008866334507045377,0.003977186135854347,0.4,-0.017800030149219007,0.02310807531254168,0.8370672408655147,0.006658499039333935,-0.0717412680387497,0.08746081730350852,1.4202447608113289,0.009703637747645214,0.5464678630232811,1.0464646853506565,18.657632172107697,0.0,0.0,0.0,0.0,0.0,0.0,0.0,0.0,0.0,0.0,0.0,0.0,0.0,0.0,0.0,0.0,True,1,3.0440969467163086,0.029935791015625
STABILIZE,2.9781272411346436,28.7752142205391,0.03223160107930501,0.033730268478393555,0.0,0.0,0.0,0.6603218782242054,-1.5190293756557813,61.45111633995634,-0.0012798972252041757,-0.0013713760507927135,0.003997688193711874,0.4,-0.020610892268203486,0.023494275964797733,0.8226722233326395,0.006816000554291439,-0.16351341037079692,0.04746198537759483,1.4883431605994701,0.01603346887020825,1.1208023875951767,1.0780947282910347,19.695277512073517,0.0,0.0,0.0,0.0,0.0,0.0,0.0,0.0,0.0,0.0,0.0,0.0,0.0,0.0,0.0,0.0,True,0,3.101740598678589,0.034924072265625
STABILIZE,3.0115909576416016,29.88588040814,0.03238633473714193,0.032543182373046875,0.0,0.0,0.0,0.6602386352936959,-1.5188232960419175,61.48031539865814,-0.0014494238349066044,-0.0018057357394674666,0.004002246425283731,0.4,-0.020610892268203486,0.023494275964797733,0.8226722233326395,0.006816000554291439,-0.16351341037079692,0.04746198537759483,1.4883431605994701,0.01603346887020825,1.1208023875951767,1.0780947282910347,19.695277512073517,0.0,0.0,0.0,0.0,0.0,0.0,0.0,0.0,0.0,0.0,0.0,0.0,0.0,0.0,0.0,0.0,True,0,3.101740598678589,0.034924072265625
STABILIZE,3.0450613498687744,29.87587523416743,0.032387526830037434,0.03251528739929199,0.0,0.0,0.0,0.660018788579786,-1.519174090288821,61.49760943763662,-0.0022720315259917236,-3.27754790947095e-05,0.003831379025873457,0.4,-0.020076009462840803,0.024998792340945323,0.8182877323368792,0.005073385723112179,0.015120719035621732,0.12954628327861428,1.442547794431448,-0.1602076898722026,2.1268701180815697,2.8179990127682686,13.555745780467987,0.0,0.0,0.0,0.0,0.0,0.0,0.0,0.0,0.0,0.0,0.0,0.0,0.0,0.0,0.0,0.0,True,0,3.1590301990509033,0.034924072265625
STABILIZE,3.0785293579101562,29.880131936083664,0.032373936971028645,0.03252267837524414,0.0,0.0,0.0,0.6609092744928264,-1.519561383359102,61.51367404256449,-0.003649585372171045,-0.00047094055308992514,0.0036214319674048707,0.4,-0.01852576459958242,0.02778030732859205,0.8203968347500339,0.002954141993152214,0.05856970674358308,0.20971281919628382,1.7153631895780563,-0.11579502512442938,2.45867483317852,1.0594917461276054,19.737958908081055,0.0,0.0,0.0,0.0,0.0,0.0,0.0,0.0,0.0,0.0,0.0,0.0,0.0,0.0,0.0,0.0,True,0,3.187516689300537,0.0349248046875
STABILIZE,3.111924648284912,29.9432732464751,0.032370599110921223,0.032495737075805664,0.0,0.0,0.0,0.6595541222728136,-1.520568836261679,61.54866510168246,-0.0030433413549188384,-0.0011858177350315472,0.0035325589527701816,0.4,-0.021345711064583908,0.026453626450752516,0.8158469545772055,0.0020516899998581266,-0.19609094597399235,-0.029532911139540374,1.3225698843598366,-0.04429302304548561,-2.0285170525312424,-0.987706333398819,17.68323928117752,0.0,0.0,0.0,0.0,0.0,0.0,0.0,0.0,0.0,0.0,0.0,0.0,0.0,0.0,0.0,0.0,True,0,3.2162444591522217,0.029936279296875
STABILIZE,3.1453351974487305,29.930025617788306,0.032427104314168294,0.03254055976867676,0.0,0.0,0.0,0.6591748333304663,-1.5206833486519824,61.56429940469262,-0.0031804147742642316,0.0006043306636864288,0.0033844630385154797,0.4,-0.018348476295332178,0.027192544492746516,0.8087107649872698,0.0005669414917410993,0.042915792437270284,0.10429738322272897,1.709279790520668,-0.02211284415962206,1.5077996999025345,1.1159557849168777,22.31997698545456,0.0,0.0,0.0,0.0,0.0,0.0,0.0,0.0,0.0,0.0,0.0,0.0,0.0,0.0,0.0,0.0,True,0,3.2741849422454834,0.0349248046875
STABILIZE,3.1788406372070312,29.84505037855069,0.032457621892293294,0.03258848190307617,0.0,0.0,0.0,0.6589432472289206,-1.5207736352150734,61.599071897757156,-0.003225653198373626,0.0006595266401668856,0.0033042261326084532,0.4,-0.018171493817749546,0.02731625483310041,0.8090028507118827,-0.00023386223132712157,-0.022326159523800015,0.05397088825702667,1.5451796352863312,-0.0398126857542217,1.2435072101652622,1.1522932909429073,25.141847133636475,0.0,0.0,0.0,0.0,0.0,0.0,0.0,0.0,0.0,0.0,0.0,0.0,0.0,0.0,0.0,0.0,True,0,3.3028368949890137,0.034924072265625
STABILIZE,3.2122464179992676,29.934938692778736,0.03240636189778646,0.03252434730529785,0.0,0.0,0.0,0.6595968109551262,-1.5209202708388172,61.61617469143887,-0.0028185678314003705,0.0005565594523252287,0.003224030499883495,0.4,-0.017989440555512066,0.027432089443952833,0.8093148172438529,-0.0010289376869484991,-0.022326159523800015,0.05397088825702667,1.5451796352863312,-0.0398126857542217,1.2435072101652622,1.1522932909429073,25.141847133636475,0.0,0.0,0.0,0.0,0.0,0.0,0.0,0.0,0.0,0.0,0.0,0.0,0.0,0.0,0.0,0.0,True,0,3.3312532901763916,0.034924072265625
STABILIZE,3.245790958404541,29.81238183239747,0.03244212468465169,0.032585859298706055,0.0,0.0,0.0,0.6588926611403803,-1.5199253043758167,61.634438617279486,-0.0023564609009761642,0.0008511490585945297,0.003040994156343731,0.4,-0.015676783393730135,0.028540036258186408,0.8117048461940372,-0.002840288818798559,0.10331061203032732,0.11301800841465592,1.6668440774083138,-0.10032097809571426,3.757166489958763,1.0907436721026897,23.276057839393616,0.0,0.0,0.0,0.0,0.0,0.0,0.0,0.0,0.0,0.0,0.0,0.0,0.0,0.0,0.0,0.0,True,0,3.3598849773406982,0.034925048828125
STABILIZE,3.279228925704956,29.905910873440284,0.032204421361287434,0.0323331356048584,0.0,0.0,0.0,0.6592015137569117,-1.5206546405131272,61.6678723932667,-0.0027848737924203817,0.0029215746793923698,0.003273546855956809,0.4,-0.011940346340802092,0.02862174101978586,0.8101873593935379,-0.0005113413263648017,0.18583756173029542,0.052379717817530036,1.434408687055111,0.14367145504605794,5.605246126651764,0.9129788726568222,21.05715572834015,0.0,0.0,0.0,0.0,0.0,0.0,0.0,0.0,0.0,0.0,0.0,0.0,0.0,0.0,0.0,0.0,True,0,3.3889379501342773,0.02993505859375
STABILIZE,3.3126461505889893,29.924687147729056,0.03237202962239583,0.03249621391296387,0.0,0.0,0.0,0.6595545491596367,-1.5206454624464298,61.68445609257149,-0.00221098657192753,0.0016806575236069064,0.003195118816214628,0.4,-0.012979419187892227,0.027535691313351787,0.8040934873731513,-0.0012870146317824345,-0.09720154339447618,-0.006959297024877742,1.3885186985135078,-0.04370856829388011,-0.6546426098793745,-1.1802871711552143,17.60401278734207,0.0,0.0,0.0,0.0,0.0,0.0,0.0,0.0,0.0,0.0,0.0,0.0,0.0,0.0,0.0,0.0,True,0,3.4173057079315186,0.0349248046875
STABILIZE,3.34621262550354,29.791629968463223,0.03240254720052083,0.03268718719482422,0.0,0.0,0.0,0.6589374842568084,-1.5193129352280428,61.71997990644472,-0.0021412580418787037,0.0023639219543115865,0.0032106311989133747,0.4,-0.010727423909950788,0.027421678624523323,0.8038904876629132,-0.0011243370618933839,0.10037474567070603,0.041539789526723325,1.489629689604044,0.013668602581477285,0.7046218030154705,0.7671959698200226,18.612417578697205,0.0,0.0,0.0,0.0,0.0,0.0,0.0,0.0,0.0,0.0,0.0,0.0,0.0,0.0,0.0,0.0,True,0,3.4459846019744873,0.034925048828125
STABILIZE,3.379687547683716,29.872257990997664,0.0324435551961263,0.03256058692932129,0.0,0.0,0.0,0.6588119795308094,-1.5196117560042308,61.73488337921369,-0.0020834181866716314,0.003196865902712231,0.0031548345859490267,0.4,-0.008025195972026979,0.027337382812238818,0.8044871235007205,-0.0016711207219650098,0.12668108101934195,0.04378571466077119,1.5380116179585457,-0.029253920328682785,4.864795133471489,-1.2434645555913448,15.755888819694519,0.0,0.0,0.0,0.0,0.0,0.0,0.0,0.0,0.0,0.0,0.0,0.0,0.0,0.0,0.0,0.0,True,0,3.482506275177002,0.02993505859375
STABILIZE,3.413215160369873,29.828919295650444,0.032412083943684895,0.03254413604736328,0.0,0.0,0.0,0.6592757920641357,-1.5191543467732516,61.75243013519145,-0.0014183805023402442,0.002569318072793848,0.003628015743452339,0.4,-0.007827924542112612,0.02630780772331434,0.8005615628264231,0.0030403475167437985,-0.025046628434211016,0.022281215933617204,1.4875472523272038,0.14174192660552934,-4.430871829390526,0.8879748173058033,21.529093384742737,0.0,0.0,0.0,0.0,0.0,0.0,0.0,0.0,0.0,0.0,0.0,0.0,0.0,0.0,0.0,0.0,True,0,3.5398268699645996,0.034925048828125
STABILIZE,3.446820020675659,29.75633358163953,0.03232005437215169,0.03244137763977051,0.0,0.0,0.0,0.6591556234234257,-1.5206826016000419,61.78688843955417,-0.0011732103153844328,0.0014885169216053698,0.0033733114069689272,0.4,-0.007713751219733127,0.02562430585497835,0.7977980513031778,0.00049002686452481,-0.022617477225139737,0.008534154039807618,1.3188919052481651,-0.15168366714887957,7.506823539733887,0.6199008319526911,12.560519576072693,0.0,0.0,0.0,0.0,0.0,0.0,0.0,0.0,0.0,0.0,0.0,0.0,0.0,0.0,0.0,0.0,True,0,3.5683743953704834,0.034923828125
STABILIZE,3.480100154876709,30.0470947267374,0.03216555913289388,0.03232884407043457,0.0,0.0,0.0,0.6598426977652466,-1.5204655296504823,61.80431908231604,-0.002080444314496347,0.00010567771284520281,0.0034974976924821693,0.4,-0.012859158059485088,0.0273822574857036,0.7986098386956249,0.0017203712864344756,-0.33250427804887295,0.15368997119367123,1.5350484289228916,0.0748089142048208,-2.2238293662667274,-1.1137505061924458,20.117366313934326,0.0,0.0,0.0,0.0,0.0,0.0,0.0,0.0,0.0,0.0,0.0,0.0,0.0,0.0,0.0,0.0,True,0,3.5971879959106445,0.02993603515625
STABILIZE,3.5136632919311523,29.794592751502407,0.03237322171529134,0.0326991081237793,0.0,0.0,0.0,0.6590247826121376,-1.5199716215961259,61.837541122438985,-0.001827904112380266,-0.0002974041085508664,0.003419080405283636,0.4,-0.012036457748574281,0.026493505232932292,0.7971578573106598,0.0009299434130045707,0.022010604152455926,0.0036186342185828835,1.6244065016508102,-0.04511976274964144,4.34253066778183,0.8372792042791843,18.761160969734192,0.0,0.0,0.0,0.0,0.0,0.0,0.0,0.0,0.0,0.0,0.0,0.0,0.0,0.0,0.0,0.0,True,0,3.625847101211548,0.0399140625
STABILIZE,3.547271251678467,29.7542226793885,0.03246310551961263,0.03258991241455078,0.0,0.0,0.0,0.6605348947489451,-1.5205447171561721,61.85359889717768,-0.002015967609785794,-0.0010869580588766215,0.003672690309030504,0.4,-0.011975079289269868,0.026975136302707804,0.8039522833667494,0.003443006026143282,-0.01707576448097825,0.06929332157596946,1.6438758000731468,0.14937007396966998,4.1701070964336395,0.8548392914235592,18.515115976333618,0.0,0.0,0.0,0.0,0.0,0.0,0.0,0.0,0.0,0.0,0.0,0.0,0.0,0.0,0.0,0.0,True,0,3.6547770500183105,0.02993505859375
STABILIZE,3.5806374549865723,29.972373677102166,0.03230312665303548,0.032422542572021484,0.0,0.0,0.0,0.6611784266348073,-1.5209388404156232,61.87654833278892,-0.0023962461511322004,-0.0010943471020570831,0.0039224687372867465,0.4,-0.011811912752534636,0.027181951639287265,0.8027206190672822,0.005901312908439163,-0.01707576448097825,0.06929332157596946,1.6438758000731468,0.14937007396966998,4.1701070964336395,0.8548392914235592,18.515115976333618,0.0,0.0,0.0,0.0,0.0,0.0,0.0,0.0,0.0,0.0,0.0,0.0,0.0,0.0,0.0,0.0,True,0,3.6833298206329346,0.02993505859375
STABILIZE,3.6140694618225098,29.910176139199887,0.03237346013387044,0.03250694274902344,0.0,0.0,0.0,0.6577138131783183,-1.5166292044927567,61.916573241325196,-0.0031191324610433894,-0.0007519022889222815,0.004089693509600701,0.4,-0.010661196387119381,0.02874346689823334,0.7987231224885886,0.007523230388455185,0.017752544954419136,0.16236084047704935,1.4283448457717896,-0.1686056609207845,-0.5969429854303598,4.882002621889114,22.327503561973572,0.0,0.0,0.0,0.0,0.0,0.0,0.0,0.0,0.0,0.0,0.0,0.0,0.0,0.0,0.0,0.0,True,0,3.7410895824432373,0.034924072265625
