Mode,Time,Freq,North-Vision,East-Vision,Down-Vision,Yaw-Vision,North-Desired,East-Desired,Down-Desired,Roll-UAV,Pitch-UAV,Yaw-UAV,Roll-Control,Pitch-Control,Yaw-Control,Thrust-Control,northVraw,eastVraw,downVraw,yawVraw,zGyro
STABILIZE,0.0028543472290039062,387.7869822485207,336.49752006908204,-100.64307128173122,-76.9200630143188,-4.408852616866314,336.00569583408503,-100.5864999221762,-76.77703530674084,1.2972818414443226,-0.3029534141618858,89.77515950719052,-0.021094820296602756,-0.18339569592074698,0.22044263084331572,0.500071513853789,336.49752006908204,-100.64307128173122,-76.9200630143188,-5.362574043370699,0.0
STABILIZE,0.013537406921386719,97.93368824133745,336.28929810338144,-100.62371621218898,-76.84093576009622,-4.42201148030058,336.0054384474353,-100.58634853348491,-76.77698811720151,1.2972818414443226,-0.3029534141618858,89.77515950719052,-0.0009708539815485718,-0.004471968947663316,0.22110057401502903,0.5000319738214474,336.08107613768084,-100.60436114264672,-76.76180850587363,-5.378680394018545,0.0
STABILIZE,0.050722599029541016,27.11705910495623,336.21280722538927,-100.6133300257449,-76.81884451463338,-4.434314191287484,336.00365751160734,-100.58530102948822,-76.77665968621781,1.2957975559603143,-0.3027249763506606,89.77528928078475,-0.0012772476754032433,-0.009463299835246578,0.22171570956437422,0.5000210924142078,336.0598254694049,-100.59255765285675,-76.77466202370773,-5.343313583622347,0.0
STABILIZE,0.0873100757598877,27.714810556502663,336.17456178639316,-100.5964921494534,-76.77037751776302,-4.4462950114810225,335.9988862174648,-100.58249466802079,-76.77577396858403,1.2955343802338573,-0.30225998987857083,89.77560346948657,-0.0005079555577650817,-0.00833111741547102,0.22231475057405115,0.4999973017745895,336.0598254694049,-100.59255765285675,-76.77466202370773,-5.343313583622347,0.0
STABILIZE,0.12371587753295898,27.826973090600287,336.15706672402814,-100.58993254658395,-76.78819914714919,-4.458617875385988,335.9897188875577,-100.57710266311767,-76.77406055299488,1.2970066061651122,-0.30145685568171254,89.77596546951258,-0.0006259235403537647,-0.008259097143166777,0.22293089376929942,0.5000070692970772,336.0870864745682,-100.5846823340384,-76.81527339403213,-5.393342380886693,0.0
STABILIZE,0.15906929969787598,28.53326258359014,336.06952780409273,-100.58993254658397,-76.7881991471492,-4.46998458753573,335.97481013292634,-100.56833368906678,-76.77125462384956,1.2960521939503087,-0.30131422212193565,89.77642309218697,-0.0012041625832787959,-0.0037167352304707346,0.22349922937678648,0.5000084722616498,336.0598254694049,-100.59255765285675,-76.77466202370773,-5.343313583622347,0.0
STABILIZE,0.19854116439819336,25.459216005244436,336.0623985545594,-100.58862437703537,-76.79376972297659,-4.480845775193257,335.95287400990605,-100.55543138446127,-76.76709692305583,1.2962071538671034,-0.3010770331308364,89.77670312994294,-0.0018070212895433132,-0.005667100246849627,0.22404228875966284,0.5000133363999604,336.0454298900143,-100.58863314421097,-76.7913737511899,-5.325977640833372,0.0
STABILIZE,0.24250340461730957,22.820679673982827,336.0623985545594,-100.59124948330815,-76.78023259953511,-4.491655753441508,335.9226831769311,-100.53767385625194,-76.76133371183406,1.2959816509027873,-0.30030559528059514,89.77711294129314,-0.002913110862262797,-0.007335510341279572,0.2245827876720754,0.5000094494438505,336.0598254694049,-100.59255765285675,-76.77466202370773,-5.343313583622347,0.0
STABILIZE,0.28139424324035645,25.80236842914706,336.1396743938425,-100.62326928792265,-76.80502416792831,-4.49971937573879,335.88306805133936,-100.51437318379962,-76.75371673252127,1.296209821909748,-0.3001761418514823,89.77644358275448,-0.006160753649868448,-0.014344130952078368,0.22498596878693952,0.5000256537177035,336.4462046658206,-100.68861706670033,-76.84903672888734,-5.1427584280367,0.0
STABILIZE,0.31981921195983887,26.696607472471516,336.1342221928099,-100.62457745747123,-76.79945359210092,-4.510041345408791,335.8329159661765,-100.48487492292765,-76.74400317037531,1.2965718219357587,-0.30019137637498255,89.7774407903733,-0.007400221235486894,-0.01567131579909779,0.22550206727043953,0.5000277252108628,336.0598254694049,-100.59255765285675,-76.77466202370773,-5.343313583622347,0.0
STABILIZE,0.35335469245910645,29.925541174959687,336.1149262273657,-100.60390385895175,-76.7774141503442,-4.523491068250036,335.77117032700016,-100.44855760997417,-76.73195561537874,1.2957475034803028,-0.2999708626504116,89.7777139979401,-0.008000145334306557,-0.017816919482133042,0.2261745534125018,0.5000227292674827,335.96334564218415,-100.53053685729826,-76.70854369843758,-5.6224078186761375,0.0
STABILIZE,0.3926565647125244,25.532988372800876,336.1057614292321,-100.5564878656085,-76.740122798863,-4.53578727140292,335.69682976868467,-100.4048322658447,-76.71734202404309,1.2958465412232678,-0.3003054885588894,89.77858826215386,-0.007541827204814212,-0.021291217211376466,0.226789363570146,0.5000113903874099,335.9996058993461,-100.54636908667055,-76.73716267444378,-5.552475345129537,0.0
STABILIZE,0.42551565170288086,31.048449540673186,336.0937175152203,-100.54109167687977,-76.72762301577502,-4.547797661245061,335.60894731222504,-100.35314190006437,-76.69993568121275,1.2955516691501938,-0.3007222635003924,89.77884097915316,-0.009965171729272304,-0.025427686668933958,0.22738988306225305,0.5000138436672812,335.9996058993461,-100.54636908667055,-76.73716267444378,-5.552475345129537,0.0
STABILIZE,0.46147704124450684,28.18998971684354,335.9297770428719,-100.55809188077698,-76.74237880730256,-4.556374981040094,335.50662952154136,-100.29296101483042,-76.67951516186919,1.297653232980442,-0.30237194094793557,89.77937373390841,-0.014334820502735834,-0.02031938498344862,0.22781874905200472,0.5000314318227167,335.6265023040783,-100.58153746898991,-76.75281107302017,-5.282295126035251,0.0
STABILIZE,0.4944949150085449,30.432540287179933,335.92986228774436,-100.5603151428362,-76.76775051265554,-4.56782482430341,335.38903566028324,-100.22379510906462,-76.65586429293488,1.298172327357363,-0.3019503101688195,89.78017969623048,-0.017908375965981316,-0.02882507220536481,0.22839124121517052,0.5000559431098603,336.0602516937672,-100.55303887284819,-76.81327779050271,-5.5480385370617995,0.0
STABILIZE,0.5330002307891846,26.115812806654876,336.0158345760239,-100.59362670694365,-76.81722303109446,-4.57540000123754,335.255376848634,-100.14518018246564,-76.6287721150775,1.2980129918506313,-0.30202354793941205,89.78058950758067,-0.023889312055446754,-0.04089690919293636,0.228770000061877,0.5000942254580085,336.3932070835819,-100.64630377899289,-76.88558022976052,-5.2312924269281496,0.0
STABILIZE,0.5733356475830078,25.654961495880457,336.0158345760239,-100.5819039128372,-76.81200689823567,-4.5864332529145635,335.1049152201151,-100.05668223956143,-76.59803284451385,1.2980633644957602,-0.30237845097198823,89.78120422460597,-0.02726625817361645,-0.04751126309106584,0.22932166264572817,0.500106987026861,335.9996058993461,-100.54636908667055,-76.73716267444378,-5.552475345129537,0.0
STABILIZE,0.6083991527557373,28.736179338033285,336.0158345760239,-100.579680650778,-76.78663519288268,-4.597223637440073,334.9369630783905,-99.95789679376172,-76.56344583481409,1.297986738311009,-0.30280234958735214,89.78138863971357,-0.032443913433944004,-0.05629976745003701,0.22986118187200366,0.5001115946790343,335.9996058993461,-100.54636908667055,-76.73716267444378,-5.552475345129537,0.0
STABILIZE,0.6439471244812012,28.204965435618796,336.09045110846967,-100.55370151023597,-76.74188587231804,-4.606248216714148,334.75088205407064,-99.84844837141036,-76.52481553870562,1.2975061704698752,-0.30285240206736364,89.78223558317065,-0.03645292627008265,-0.07066507122948297,0.23031241083570742,0.5001085351668062,335.9995849663068,-100.56836635736683,-76.75133226806656,-5.413941995380128,0.0
STABILIZE,0.6804890632629395,27.480387082402427,336.0783177629776,-100.5610339338014,-76.74660907019229,-4.615078119809996,334.5460822615175,-99.72799001583773,-76.48195146987729,1.2972878178598464,-0.3046693924691457,89.78173697936124,-0.043437318005571775,-0.07931321172473627,0.23075390599049983,0.5001323288001575,335.9995849663068,-100.56836635736683,-76.75133226806656,-5.413941995380128,0.0
STABILIZE,0.7170660495758057,27.81350256298035,336.08891727942535,-100.60844992714465,-76.78390042167348,-4.619798844698918,334.3220214556481,-99.59620279141318,-76.4346681647834,1.2968778997879398,-0.3057104093481909,89.7832054700328,-0.0531273637652777,-0.09165406216924492,0.23098994223494593,0.500174616128445,336.4462046658206,-100.68861706670033,-76.84903672888734,-5.1427584280367,0.057295779513082325
STABILIZE,0.7517619132995605,28.93561361268825,336.10096119343706,-100.61651369230795,-76.7916770068872,-4.627058768112207,334.07820418873933,-99.45279528759741,-76.38278514444778,1.2962774834712134,-0.3048367854646639,89.78295958322268,-0.06038632028267674,-0.10485670682506716,0.23135293840561033,0.5002044459312197,336.0598254694049,-100.59255765285675,-76.77466202370773,-5.343313583622347,0.0
STABILIZE,0.7941203117370605,24.078625884081934,336.10096119343706,-100.60918126874253,-76.78695380901293,-4.636630708261015,333.81418096723223,-99.29750312299488,-76.32612687626784,1.296934889178827,-0.3054109482417681,89.7828844511418,-0.06740680944367254,-0.11758959377160332,0.2318315354130508,0.5002304134663725,335.9996058993461,-100.54636908667055,-76.73716267444378,-5.552475345129537,0.0
STABILIZE,0.830437183380127,27.69522929116181,336.1359428291224,-100.58315800102797,-76.76861453482364,-4.640549813609283,333.5295474085362,-99.13008844940624,-76.26452273581864,1.2971655147850207,-0.3044757992948582,89.78269320584504,-0.07462977816093247,-0.1347622604967989,0.23202749068046416,0.5002520458995025,336.1744931447337,-100.61054726355663,-76.79401890631945,-5.026709853328285,0.0
STABILIZE,0.8695542812347412,25.65386309145178,336.1617972024013,-100.58047019620506,-76.7906765138181,-4.649413317045678,333.22394339783324,-98.95033945588072,-76.19780696865698,1.2967101332664515,-0.30344049202707235,89.78441441351589,-0.08382860097739496,-0.1512351323199883,0.2324706658522839,0.5002964347725806,336.12885683270116,-100.58449423838806,-76.84084796069108,-5.500045087042764,0.0
STABILIZE,0.9099142551422119,25.6237720541518,335.98839609433674,-100.59382018201904,-76.75227498655308,-4.654705104109051,332.8970522448827,-98.75806987276853,-76.12581865212545,1.2963233738046995,-0.3029394869792813,89.78419584746244,-0.0944853865834516,-0.15664846654436332,0.23273525520545257,0.5003132281672138,335.57919912549744,-100.5864190441125,-76.62195809264871,-5.167379753158073,0.0
STABILIZE,0.9435784816741943,29.833587026104276,335.9329456524836,-100.60373964563398,-76.7563187669194,-4.655730003375818,332.54859984082503,-98.55311847577327,-76.04840165715645,1.2969087423609107,-0.30298537731276737,89.78547309283724,-0.10568598792660817,-0.17353990195677235,0.2327865001687909,0.5003539585548815,335.78257326013966,-100.64030565440139,-76.80615024741843,-4.756865356512819,0.0
STABILIZE,0.9786138534545898,29.536728097293718,335.9449895664954,-100.60642745045686,-76.73425678792496,-4.662654256903594,332.1783538149866,-98.33534859000439,-75.96540461007635,1.2971029758654329,-0.3033525533415084,89.78565750794483,-0.11686015357875863,-0.19405914325405157,0.23313271284517972,0.5003844260889243,336.0598254694049,-100.59255765285675,-76.77466202370773,-5.343313583622347,0.0
STABILIZE,1.0128867626190186,29.29965351514474,335.92205603142963,-100.6084736533716,-76.78515809827798,-4.669445502095157,331.7861226916837,-98.1046475940295,-75.87668085440946,1.2977122500837392,-0.3025328239194011,89.78539796075637,-0.12859058158282546,-0.212196000851934,0.23347227510475788,0.5004542386219343,336.0598254694049,-100.59255765285675,-76.77466202370773,-5.343313583622347,0.0
STABILIZE,1.0489084720611572,27.868944392396063,335.90824975877047,-100.59255765285671,-76.77466202370773,-4.676106040568731,331.37175504702714,-97.86092642392688,-75.78208841268214,1.2967277423479053,-0.3019602352874572,89.78671618726618,-0.13983986545022156,-0.2325443639264752,0.23380530202843658,0.5004962868055128,336.0598254694049,-100.59255765285675,-76.77466202370773,-5.343313583622347,0.0
STABILIZE,1.0877578258514404,25.9205260360661,336.0017750453758,-100.58405347682913,-76.77561658476749,-4.683825196675375,330.93513866572624,-97.60411907733781,-75.6814899482269,1.2965373508247913,-0.30099421708714996,89.7875084892099,-0.15232552651839223,-0.26038895844430127,0.23419125983376876,0.5005470633182703,336.04682555852406,-100.56704512477397,-76.77752570688698,-5.464435442075455,0.0
STABILIZE,1.1250171661376953,27.280026016260162,336.0572254872289,-100.58405347682913,-76.77561658476749,-4.6902232209394175,330.47619969789355,-97.33418211751902,-75.57475272698636,1.2958089751828328,-0.30186661367106044,89.78773388545251,-0.16626546141949078,-0.2862163596571428,0.2345111610469709,0.5006004319288906,336.0598254694049,-100.59255765285675,-76.77466202370773,-5.343313583622347,0.0
STABILIZE,1.1606285572052002,28.837335936801722,336.06249339846653,-100.58672358974574,-76.78667569274641,-4.696460614895154,329.9949018158489,-97.0510941773951,-75.46174857931744,1.2949174220527346,-0.3013541360398979,89.78717380994057,-0.1809373274737428,-0.3104575179381601,0.23482303074475774,0.5006624635567145,336.0861650255933,-100.60056799160654,-76.80783934764447,-5.339145273074266,0.0
STABILIZE,1.1986820697784424,26.642850336981585,336.06249339846653,-100.59522776577332,-76.78572113168666,-4.702621082943971,329.49124537092376,-96.75485546361085,-75.34235386179535,1.2945621454941882,-0.3007222901808188,89.78681180991455,-0.1962405862867731,-0.3355485369499926,0.2351310541471986,0.5007216836349456,336.0598254694049,-100.59255765285675,-76.77466202370773,-5.343313583622347,0.0
STABILIZE,1.2328541278839111,29.57171361088589,336.05044948445476,-100.57983157704457,-76.77322134859867,-4.71064118027225,328.96526655026577,-96.44548726058379,-75.21644941901762,1.2943956596331692,-0.30107754005893883,89.7887379232605,-0.21103781492706877,-0.3618075870846084,0.23553205901361252,0.5007783859647905,335.9996058993461,-100.54636908667055,-76.73716267444378,-5.552475345129537,0.0
STABILIZE,1.2705309391021729,27.564545914578446,336.1083041716865,-100.57847231441788,-76.8039249526356,-4.718856116873892,328.4170365336428,-96.12303143455648,-75.08392054540829,1.2932376224037345,-0.3011534458721759,89.7881915081269,-0.22731666407667955,-0.3931152323199008,0.2359428058436946,0.5008600022036137,336.33609899468274,-100.5964902037265,-76.89995015975522,-5.589058906435881,0.0
STABILIZE,1.3082304000854492,26.846466495554715,336.09626025767477,-100.56307612568916,-76.79142516954761,-4.7265829963322,327.8466606502473,-95.78754993764895,-74.94465694702184,1.2926702898158005,-0.30225337313281236,89.79015860260786,-0.2430942214010793,-0.4200086953644811,0.23632914981661002,0.5009233841112629,335.9996058993461,-100.54636908667055,-76.73716267444378,-5.552475345129537,0.0
STABILIZE,1.3447833061218262,27.600460632382458,336.0881132305589,-100.5771641448693,-76.80949552846299,-4.7320903993764105,327.2542775355011,-95.43912431191112,-74.79855270334737,1.2921327325837793,-0.30267495055107557,89.79168856498195,-0.26203076173824685,-0.4499777376461971,0.23660451996882054,0.5010054714125578,336.0454298900143,-100.58863314421097,-76.7913737511899,-5.325977640833372,0.0
STABILIZE,1.384636402130127,25.179219344691376,336.14336793561444,-100.57716414486929,-76.80949552846295,-4.739894945768805,326.64005828785906,-95.07785519337523,-74.64550622911256,1.2920509837571508,-0.30241153470078047,89.79222131973721,-0.27969936849633986,-0.48391047742029136,0.23699474728844028,0.5010819946496752,336.33609899468235,-100.5964902037264,-76.89995015975512,-5.589058906435767,0.0
STABILIZE,1.4223902225494385,26.80323353676071,336.16086405065886,-100.58993522732523,-76.8355324349924,-4.74579553646795,326.0042056256137,-94.7038618161082,-74.48542023608782,1.2922410551151475,-0.3014562153514779,89.792815546195,-0.29969584559096246,-0.5169497321110988,0.23728977682339752,0.5011750560994523,336.0870864745682,-100.5846823340384,-76.81527339403213,-5.393342380886693,0.0
STABILIZE,1.4602434635162354,26.56270344897468,336.0230271808943,-100.59175506180141,-76.81837056960502,-4.750878980290015,325.3469530436996,-94.31728151626406,-74.31820169489028,1.2936441253810562,-0.30129917436142045,89.79347124435532,-0.31904149925776526,-0.5410027346528973,0.23754394901450074,0.5012500844373574,335.6469146458602,-100.5940926476395,-76.73988815502776,-5.313617654405164,0.0
STABILIZE,1.4969475269317627,27.97153698924301,336.1013096422192,-100.60742133305246,-76.78921542254783,-4.756228130209348,324.66856397049787,-93.91826923613637,-74.14376179678794,1.2945385599972106,-0.301293518111014,89.79359418776038,-0.34047297425877443,-0.5825858836397455,0.23781140651046742,0.5013227268128799,336.3910182059702,-100.64348901747952,-76.81248471858352,-5.3534855195826765,0.0
STABILIZE,1.5347201824188232,27.532338635035874,336.01752412503197,-100.60637304470295,-76.76839464887716,-4.76085845558201,323.9693309246399,-93.50699702821059,-73.96201591550367,1.2947490152010115,-0.30129293114163225,89.79350539530117,-0.3607590083658651,-0.6111484010030234,0.23804292277910052,0.5014031893666867,335.6265023040783,-100.58153746898991,-76.75281107302017,-5.282295126035251,0.0
STABILIZE,1.5719292163848877,27.147422994025927,335.88417188316674,-100.62270228793774,-76.78902055851215,-4.76245711229682,323.2495746718123,-93.08365355921654,-73.77288356901929,1.2944512616418813,-0.3009084661965546,89.79375811230047,-0.3829685381776371,-0.6398527306293692,0.23812285561484103,0.5015080684947464,335.6693377853563,-100.64308037734389,-76.80176588393269,-4.943951794839791,0.0
STABILIZE,1.610032081604004,27.516082686592622,335.8787196821341,-100.60572516639684,-76.77641299355355,-4.7674850318352355,322.509643381561,-92.64844361418078,-73.57628838137963,1.2955681042928842,-0.30073098799984,89.794864602946,-0.403844638465011,-0.678934324129279,0.2383742515917618,0.501600062306087,336.0598254694049,-100.59255765285675,-76.77466202370773,-5.343313583622347,0.0
STABILIZE,1.6444520950317383,29.178375896540448,335.96130184684296,-100.60939856101912,-76.78369664378273,-4.772428760841247,321.74991178409545,-92.20158760047902,-73.37215804449664,1.2959899751958381,-0.2999982901287975,89.79448894254165,-0.4269574105929049,-0.7227927441911978,0.23862143804206234,0.5017057692996431,336.0598254694049,-100.59255765285675,-76.77466202370773,-5.343313583622347,0.0
STABILIZE,1.6860320568084717,24.36523123217325,335.88301938551814,-100.577161464128,-76.76216224061976,-4.779071137440437,320.9707803270931,-91.7433210518885,-73.16042427995338,1.2968770460142935,-0.29996899502056046,89.79573203697059,-0.447216558332325,-0.7547158986346707,0.23895355687202186,0.5018008689803332,335.9996058993461,-100.54636908667055,-76.73716267444378,-5.552475345129537,0.0
STABILIZE,1.7216854095458984,28.154604159115014,335.88062720953707,-100.5652320739459,-76.75582061783659,-4.784332665867212,320.17267433250385,-91.27389413264046,-72.94102280080816,1.2968467370498515,-0.2998374338377584,89.79623064078001,-0.4712635797662996,-0.797028755099925,0.23921663329336063,0.5019073989085142,335.61454142417296,-100.55676948231046,-76.75563715535816,-5.401814232325648,0.0
STABILIZE,1.760312557220459,26.10573487856796,335.9516041676419,-100.54693841844262,-76.75675068960301,-4.791200414334301,319.35604315335405,-90.79357114147251,-72.71389327339851,1.2975384004250212,-0.30028230326830835,89.7973029804797,-0.4940530317077696,-0.8419613583677079,0.23956002071671506,0.5020214287081023,336.0242225758802,-100.53767668634688,-76.77745223900699,-5.603819206399322,0.0
STABILIZE,1.797360897064209,27.342090338394144,336.0178427149549,-100.57931172871228,-76.7818580376496,-4.795876284675307,318.52135933055104,-90.30263001568102,-72.47897927914539,1.2978455454942601,-0.30065585591896987,89.79726199934468,-0.5212978138399641,-0.8876662763847495,0.23979381423376536,0.5021514393792521,336.3910182059702,-100.64348901747952,-76.81248471858352,-5.3534855195826765,0.0
STABILIZE,1.837740182876587,24.97159493459869,336.0023753151062,-100.56693841228774,-76.77643793990141,-4.803125765348841,317.6691177496875,-89.80136183517355,-72.23622827635711,1.2980044541141689,-0.30078565619362657,89.79821822582848,-0.5447555335273752,-0.9277444129047824,0.24015628826744206,0.5022701048317721,335.98248847016146,-100.51964953303685,-76.73937686211357,-5.6746344298137785,0.0
STABILIZE,1.879077434539795,24.774827669716533,336.014419229118,-100.58523206779103,-76.77550786813498,-4.80754875354998,316.7998347978456,-89.29007032652129,-71.98559156203346,1.2993777490241645,-0.30083098623815724,89.7971663766963,-0.571785281474529,-0.972440577917768,0.24037743767749903,0.5023949581530508,336.0598254694049,-100.59255765285675,-76.77466202370773,-5.343313583622347,0.0
STABILIZE,1.912271499633789,30.73515747512201,336.10892823919704,-100.56562983997732,-76.77643742661786,-4.812308298374307,315.9140475204017,-88.76907136701142,-71.72702423366978,1.2989504353142156,-0.3003547139456811,89.79814309374761,-0.5976198088883075,-1.0248808900791897,0.24061541491871538,0.5025247065964741,336.0870864745682,-100.5846823340384,-76.81527339403213,-5.393342380886693,0.0
STABILIZE,1.9480812549591064,28.50979485854892,336.19065450985954,-100.60218578362723,-76.832062568662,-4.816583142007278,315.0123127778302,-88.2386924886995,-71.46048515106101,1.29863966170698,-0.30035116544896384,89.79874415039457,-0.6265350175781529,-1.0734101624888384,0.24082915710036393,0.5026857887088005,336.4328539291928,-100.62931736398657,-76.90625228824597,-5.342567424078837,0.0
STABILIZE,1.9833595752716064,29.04361073026161,336.11237204853467,-100.5867895948985,-76.81956278557402,-4.822470506314068,314.09520640250815,-87.69927238246196,-71.18593689810577,1.2985064730181648,-0.2998902610821202,89.79970037687838,-0.6522808676579167,-1.1135609017649055,0.2411235253157034,0.5028168129437341,335.9996058993461,-100.54636908667055,-76.73716267444378,-5.552475345129537,0.0
STABILIZE,2.0214390754699707,26.934735841665542,336.1157955343716,-100.57401851244255,-76.79352587904457,-4.8282668554550225,313.1633223555196,-87.15116040204843,-70.90334574461038,1.298788111599722,-0.29969234567874853,89.80086833922644,-0.6787199178295226,-1.1608427542590591,0.24141334277275114,0.5029450900672171,335.9996058993461,-100.54636908667055,-76.73716267444378,-5.552475345129537,0.0
STABILIZE,2.053750991821289,31.047760045006367,336.1157955343716,-100.5617652753993,-76.74966245753181,-4.83232657071287,312.2172718834598,-86.59471606813419,-70.612681608093,1.2983645331494755,-0.2989720275255766,89.80108690527989,-0.7069838215777842,-1.2099186494301777,0.24161632853564352,0.5030684904247195,336.0598254694049,-100.59255765285675,-76.77466202370773,-5.343313583622347,0.0
STABILIZE,2.0891916751861572,28.485785305823068,336.15229096050217,-100.59209539574307,-76.77460191107006,-4.8361854928793875,311.25768267523955,-86.03030857237256,-70.31391801558763,1.2975188703528633,-0.2995821821979556,89.80163332041349,-0.7371435286890295,-1.2599122492935815,0.2418092746439694,0.5032303419477412,336.2695636052211,-100.63735944770188,-76.81198103505852,-5.325623287022367,0.0
STABILIZE,2.1228525638580322,29.933015993091782,336.06564135453283,-100.59209539574307,-76.77460191107006,-4.841747162074555,310.2851980188898,-85.45831628144732,-70.00703206544821,1.2974087335524969,-0.29983959495230045,89.80217973554709,-0.7655632642246663,-1.3028458518079886,0.24208735810372778,0.5033837849228109,335.9996058993461,-100.54636908667055,-76.73716267444378,-5.552475345129537,0.0
STABILIZE,2.1607930660247803,26.924188930685187,336.15079747882976,-100.5850972914473,-76.79731890238041,-4.847739699876536,309.3004759583653,-84.8791262411251,-69.69200438915266,1.2974263426339507,-0.29939200411825306,89.80271249030235,-0.7935464472850937,-1.3578439252370134,0.24238698499382683,0.5035526572566139,336.4253865208309,-100.57156333996936,-76.84281299763875,-5.619218267478004,0.0
STABILIZE,2.194316864013672,30.0004577706569,336.15079747882976,-100.5547671711035,-76.77237944884216,-4.853132944111489,308.30418845034984,-84.2931336803078,-69.36881911310697,1.2980696610764013,-0.2996851686440347,89.80301301862583,-0.8217830899535682,-1.4078871738396945,0.24265664720557445,0.5037017801678676,335.9996058993461,-100.54636908667055,-76.73716267444378,-5.552475345129537,0.0
STABILIZE,2.2314486503601074,27.32338801089208,336.13875356481805,-100.5547671711035,-76.77237944884216,-4.85844610698459,307.29702052105984,-83.700741515085,-69.03746382044925,1.2981964464628697,-0.3002867055386718,89.80489132064758,-0.8513924015658906,-1.4567057745655172,0.2429223053492295,0.5038674578141965,335.9996058993461,-100.54636908667055,-76.73716267444378,-5.552475345129537,0.0
STABILIZE,2.2699568271636963,26.073278380764116,336.09680593765484,-100.5617652753993,-76.74966245753181,-4.86210415296362,306.27966942304903,-83.10235985278638,-68.69792951285379,1.2979318833542375,-0.2990829914191629,89.80464543383746,-0.8814295599076493,-1.5045522489604062,0.243105207648181,0.504025866472339,336.0598254694049,-100.59255765285675,-76.77466202370773,-5.343313583622347,0.0
STABILIZE,2.309593439102173,25.466945159566716,336.12046563724164,-100.58785294744564,-76.76772077081853,-4.866709299613275,305.2528437920127,-82.49840549603407,-68.35021057233514,1.2969361698392965,-0.29840851023862414,89.80529430180862,-0.9131810642768727,-1.5579291574932452,0.24333546498066375,0.5042087550992417,336.1179043972799,-100.62463210280958,-76.79133761430394,-5.476843539092442,0.0
STABILIZE,2.343738079071045,30.207446885127837,336.0473534269564,-100.60324913617437,-76.78022055390652,-4.8702552417291045,304.21726280359195,-81.88930144679516,-67.99430472305218,1.297301691681598,-0.2976992377820006,89.80577241505051,-0.9456415631932334,-1.6069304805537046,0.24351276208645523,0.5043929579154272,336.0598254694049,-100.59255765285675,-76.77466202370773,-5.343313583622347,0.0
STABILIZE,2.40220046043396,17.495219821473263,336.0593973409682,-100.60324913617437,-76.78022055390652,-4.873749685510005,303.1736553301783,-81.275476410434,-67.63021299311217,1.297452489451867,-0.297158478898806,89.80465909421581,-0.9727894321375006,-1.6552745472880512,0.24368748427550027,0.5045750037803972,336.0598254694049,-100.59255765285675,-76.77466202370773,-5.343313583622347,0.0
STABILIZE,2.4276485443115234,39.698111778903034,336.0523596730585,-100.57933002598999,-76.75743322348598,-4.878226390410549,302.12275909771756,-80.65736429976467,-67.25793967637479,1.2969083154740875,-0.29692347770267524,89.80519184897106,-1.0078853105582515,-1.717158889406858,0.24391131952052747,0.5047497467735556,335.96441755979777,-100.5528747722565,-76.7229756230423,-5.483786698497127,0.0
STABILIZE,2.468956470489502,24.903835648972805,336.06479959827976,-100.58174189754031,-76.78284014764883,-4.881569250457208,301.06531984251455,-80.0354037391034,-66.87749229425626,1.2973338149150382,-0.296573723992403,89.8054787169162,-1.0358665920815253,-1.7646157230626813,0.2440784625228604,0.5049526739266963,336.1220250955112,-100.59979326750774,-76.8508827961963,-5.337060151821461,0.0
STABILIZE,2.503875255584717,29.217604525126433,336.0565498362059,-100.59275711426703,-76.78304066534803,-4.88415619431933,300.0020904680374,-79.41003756832092,-66.48888155753338,1.297645975904449,-0.2964310103913467,89.80630516980578,-1.0688627243194657,-1.818881022778088,0.24420780971596653,0.5051470795539074,336.0766555869106,-100.62560330303685,-76.77526357680527,-5.238932736552869,0.0
STABILIZE,2.5423333644866943,26.156691798719077,336.06830948065726,-100.61541231006117,-76.83014615667895,-4.88641749113921,298.9338302017216,-78.7817123468949,-66.09212132814756,1.296916426323727,-0.29724262896381465,89.8069130566419,-1.1009159282500292,-1.8720740599908285,0.2443208745569605,0.5053690124142657,336.1186236916617,-100.62084035963899,-76.8642920970351,-5.198691808080895,0.0
STABILIZE,2.5800116062164307,27.404079605890733,336.1196903463744,-100.62794073933863,-76.82734911961604,-4.888453747668224,297.8613037517745,-78.1508778579624,-65.68722858100897,1.2965588018876533,-0.29783237310996297,89.8067764528585,-1.133443883065542,-1.9296366720716172,0.24442268738341122,0.5055700602693035,336.3167297979909,-100.63737855534006,-76.84249168500756,-5.17152413152526,0.0
STABILIZE,2.6166586875915527,29.046426592797783,336.13088274182263,-100.60523897387459,-76.81033949925897,-4.8934260583873375,296.7852804639798,-77.51798661237217,-65.27422336580051,1.2968414009645626,-0.29770873601381515,89.80697452834444,-1.1637558583693959,-1.9839529507999676,0.2446713029193669,0.5057680580667292,336.0203795370389,-100.55749800664474,-76.72423471573403,-5.589429173781852,0.0
STABILIZE,2.6485321521759033,31.70177997808095,336.0307197138164,-100.59864766284058,-76.7776478672651,-4.895224875501798,295.70653347850157,-76.88349335273719,-64.85312876878193,1.2966115224103094,-0.2980126527514543,89.8073911698838,-1.1958214359925132,-2.0,0.2447612437750899,0.5059622595492416,335.62120995547974,-100.6010664265369,-76.76621720105352,-5.148625191514924,0.0
STABILIZE,2.6876096725463867,26.027651599771637,336.0273536903152,-100.58370736201282,-76.75503798016516,-4.898361801752767,294.6258388866887,-76.24785455748697,-64.42397087459389,1.2972085236324509,-0.29776009583472246,89.80853864166437,-1.2257522098556368,-2.0,0.24491809008763835,0.5061655335527856,336.0598254694049,-100.59255765285675,-76.77466202370773,-5.343313583622347,0.0
STABILIZE,2.721008062362671,30.05376898824878,335.93939310643276,-100.60620504843762,-76.77665066822652,-4.899596150772072,293.54397488787953,-75.61152794492,-63.986778728062006,1.2969746963750837,-0.29791118708968256,89.80857962279939,-1.260285448975742,-2.0,0.2449798075386036,0.5063949359700822,335.67882077224965,-100.62499106591912,-76.78907277991813,-5.075737572248514,0.0
STABILIZE,2.762633800506592,26.871578030201107,335.91094577578133,-100.6093653274442,-76.78591790331517,-4.900474842064411,292.46172094620556,-74.97497197725622,-63.54158429600094,1.2965484498821924,-0.2988485771924139,89.80971343420161,-1.2912280388258455,-2.0,0.24502374210322056,0.5066221668036571,336.1744931447337,-100.61054726355663,-76.79401890631945,-5.026709853328285,0.0
STABILIZE,2.7963356971740723,29.80666159739051,335.91883496225455,-100.6093653274442,-76.78591790331517,-4.903515644470278,291.3798569473964,-74.33864536468928,-63.08842242901845,1.2977701999699784,-0.29867550126606285,89.80985003798502,-1.3229445375004403,-2.0,0.24517578222351388,0.5068487477371484,336.0598254694049,-100.59255765285675,-76.77466202370773,-5.343313583622347,0.0
STABILIZE,2.8356802463531494,26.71463147435734,336.0339005789648,-100.60854674603426,-76.78332445919905,-4.904615363953335,290.2991623555835,-73.70300656943903,-62.62733082331944,1.2978556840563096,-0.2990295238445664,89.81023252857854,-1.3548350910472198,-2.0,0.24523076819766676,0.5070779968179399,336.19653803903094,-100.62253532168933,-76.78129244756978,-5.0646250383565246,0.0
STABILIZE,2.873267889022827,26.78440563236374,336.0143942605793,-100.57677131262996,-76.73970750849257,-4.909711960199645,289.2204153701053,-73.06851330980406,-62.158349982510046,1.2981490620255027,-0.2996340489469654,89.81120924562984,-1.384079300819138,-2.0,0.24548559800998226,0.5072906787629913,335.9622938774776,-100.5152209633437,-76.66316805419999,-5.6562845633213215,0.0
STABILIZE,2.911353826522827,26.860564453637824,336.1196262756938,-100.58044985082749,-76.75993075463252,-4.910832375726365,288.14439208231056,-72.43562206421385,-61.68152317940172,1.2978069122367673,-0.29956219855854804,89.81116826449482,-1.4168082915888096,-2.0,0.24554161878631825,0.5075392037876154,336.2049808478222,-100.6035932674493,-76.83533176212752,-5.075854222115453,0.0
STABILIZE,2.9442858695983887,30.501367153412065,336.0895721619231,-100.55216363904668,-76.75865068511159,-4.915473666484564,287.0718656323635,-71.80478757528132,-61.19689641781524,1.2978309246205681,-0.299926252977395,89.81120241544068,-1.4472670602109194,-2.0,0.24577368332422822,0.5077808771336482,336.0242225758802,-100.53767668634688,-76.77745223900699,-5.603819206399322,0.0
STABILIZE,2.979750871658325,28.330703555603588,336.0848469437973,-100.58581368808673,-76.80102943827767,-4.917816704593969,286.0036053660477,-71.1764623538553,-60.70451839438482,1.2987420078228245,-0.29904363779015597,89.8113800003591,-1.4809363087380407,-2.0,0.24589083522969846,0.5080482555219464,336.03619937877573,-100.61617111046381,-76.79030431369823,-5.2674442672816895,0.0
STABILIZE,3.024667739868164,24.803983488864446,336.05277921174627,-100.59000630242491,-76.78602028880124,-4.920129884210134,284.9403759915705,-70.55109618307283,-60.204440460362164,1.2983138403392291,-0.2982481075148346,89.81216547211365,-1.5109444382580444,-2.0,0.2460064942105067,0.5082907899142195,336.03619937877573,-100.61617111046381,-76.79030431369823,-5.2674442672816895,0.0
STABILIZE,3.056981086730957,32.045229854760215,336.1470549910533,-100.61223031147517,-76.81307876106156,-4.923096706621783,283.8829367363675,-69.92913562241156,-59.696716583420525,1.2971955035843454,-0.29856632496104846,89.81403011375706,-1.5441344302812616,-2.0,0.24615483533108914,0.5085581810888206,336.43367277401285,-100.60434871349767,-76.858627655788,-5.521465109879642,0.057295779513082325
STABILIZE,3.0927178859710693,28.411304088655267,336.20819288485757,-100.61687754777404,-76.84539785748596,-4.922912583340521,282.8320405039068,-69.31102351174223,-59.18140330945877,1.2974221804874253,-0.2987891598827201,89.81500000061921,-1.575127145369361,-2.0,0.24614562916702606,0.5088319972740136,336.5106703168433,-100.63011281936042,-76.88726160297142,-4.972471076944103,0.0
STABILIZE,3.131814479827881,26.157344292761415,336.2696884746784,-100.62623127198445,-76.87804663930858,-4.925274745116463,281.78843303049314,-68.69719847538107,-58.65855972440545,1.297236698162777,-0.2996196415166849,89.81288947216566,-1.6056561128119693,-2.0,0.24626373725582315,0.5091097434574515,336.3317005249844,-100.64423228309506,-76.88825065916612,-5.321855936494188,0.0
STABILIZE,3.1711347103118896,26.94356009507291,336.27153457692606,-100.6209927488889,-76.85562867110922,-4.927710262072852,280.7528520420724,-68.08809442614216,-58.12824741602285,1.2979974104815872,-0.2994873599623688,89.8129304533007,-1.6358249369217381,-2.0,0.2463855131036426,0.5093636906275432,336.0454298900143,-100.58863314421097,-76.7913737511899,-5.325977640833372,0.0
STABILIZE,3.206529140472412,29.53090522491569,336.2762597950519,-100.60847436005433,-76.8180954780213,-4.930308193742306,279.72602641103606,-67.48414006938987,-57.5905304357111,1.2977121433620333,-0.2998563769405346,89.81271871743641,-1.665644716987917,-2.0,0.2465154096871153,0.5096137825211551,336.0598254694049,-100.59255765285675,-76.77466202370773,-5.343313583622347,0.0
STABILIZE,3.241945743560791,28.536951108329138,336.18944642011854,-100.57585329457949,-76.7677328164472,-4.934250288411777,278.7086753130252,-66.88575840709123,-57.04547526031217,1.298281290218966,-0.3002454575993873,89.81135267960242,-1.6934441646801262,-2.0,0.24671251442058884,0.5098611287780676,335.9996058993461,-100.54636908667055,-76.73716267444378,-5.552475345129537,0.0
STABILIZE,3.2770678997039795,28.644921597552315,336.09927745063084,-100.5771614641281,-76.76216224061982,-4.93683093731779,277.70150738373525,-66.29336624186844,-56.493150753914,1.2985372088694298,-0.300623092355295,89.81210400041111,-1.7238016074912024,-2.0,0.24684154686588952,0.510134505743353,336.0598254694049,-100.59255765285675,-76.77466202370773,-5.343313583622347,0.0
STABILIZE,3.312122106552124,28.701177662056836,336.0328585255032,-100.56176527539935,-76.74966245753183,-4.940708075023565,276.70521987571976,-65.70737368105112,-55.93362812965452,1.2977885561033728,-0.3002083184457754,89.81380471751444,-1.7520827801711134,-2.0,0.24703540375117827,0.5104080171639387,335.9996058993461,-100.54636908667055,-76.73716267444378,-5.552475345129537,0.0
STABILIZE,3.346029281616211,29.7787275735007,336.0236937273695,-100.56176527539935,-76.74966245753183,-4.944542260320923,275.7204978151953,-65.1281836407289,-55.36698091152573,1.2983777666409924,-0.3012304989437501,89.81351101938014,-1.7814598263798376,-2.0,0.24722711301604616,0.510691340773003,335.9996058993461,-100.54636908667055,-76.73716267444378,-5.552475345129537,0.0
STABILIZE,3.381582260131836,28.254936171646065,336.0903700502049,-100.57968065077807,-76.78663519288277,-4.9463294235342,274.74801315884554,-64.55619134980367,-54.793284896177774,1.2991728433490641,-0.30117062806680667,89.81403694394623,-1.8106995284929586,-2.0,0.24731647117671002,0.5109966751483525,336.3932070835819,-100.64630377899289,-76.88558022976052,-5.2312924269281496,0.0
STABILIZE,3.4147751331329346,30.292969709225904,336.1024139642167,-100.5950768395068,-76.79913497597074,-4.948790564481577,273.7884239506253,-63.99178385404204,-54.212618114723,1.2976704151750729,-0.2993571061204625,89.81451505718813,-1.840136401589993,-2.0,0.24743952822407886,0.5112932584306239,336.0598254694049,-100.59255765285675,-76.77466202370773,-5.343313583622347,0.0
STABILIZE,3.4567582607269287,24.007234846316752,336.1024139642167,-100.61047302823552,-76.81163475905873,-4.951222933065963,272.8423734785655,-63.43533952012778,-53.625060794540005,1.2980262253421482,-0.2998096861942552,89.81515026478094,-1.8671497056510113,-2.0,0.24756114665329815,0.5115932869822594,336.0598254694049,-100.59255765285675,-76.77466202370773,-5.343313583622347,0.0
STABILIZE,3.4883899688720703,31.746650721324876,336.16883288934434,-100.60978252960291,-76.81252490219394,-4.953496049823463,271.91048943157693,-62.88722753971426,-53.030695321077744,1.2968521798568464,-0.3001031442047277,89.81368177410938,-1.895935464110237,-2.0,0.24767480249117316,0.5118909147905581,336.3317005249844,-100.64423228309506,-76.88825065916612,-5.321855936494188,0.0
STABILIZE,3.526197910308838,26.874160643805425,336.2123554096082,-100.60319432807368,-76.83343084480089,-4.957783321970209,270.99338305625497,-62.34780743347673,-52.42960619965954,1.296418783009668,-0.2992556137782644,89.81501366099754,-1.9213034643116855,-2.0,0.24788916609851044,0.5122019123225707,336.2172185006654,-100.57279304826908,-76.83737985152855,-5.656619798801884,0.0
STABILIZE,3.5618724822998047,28.17048827993821,336.09022864491976,-100.61911032858855,-76.84392691937113,-4.956565847782142,270.0916483136834,-61.81742855516481,-51.82188001728719,1.2960851709573953,-0.2992134587044807,89.81580596294127,-1.949083549653558,-2.0,0.24782829238910709,0.5125110234510419,335.78257326013966,-100.64030565440139,-76.80615024741843,-4.756865356512819,0.0
STABILIZE,3.595895290374756,30.537787226606866,336.078184730908,-100.58648926311372,-76.793564257797,-4.960159620153165,269.2058610362395,-61.29642959565494,-51.20760540444503,1.295593077172037,-0.2986622410941195,89.81599720823802,-1.9732182093111061,-2.0,0.24800798100765828,0.512792979426676,335.9996058993461,-100.54636908667055,-76.73716267444378,-5.552475345129537,0.0
STABILIZE,3.6302099227905273,29.307023673104336,336.07753166243947,-100.59929388104342,-76.76733897719686,-4.961890094540683,268.3365780843976,-60.78513808700268,-50.58687299690396,1.2946205222672507,-0.2976005202041528,89.81493852891667,-1.9994940972715731,-2.0,0.24809450472703418,0.5130902329901464,336.0565601270622,-100.61120690205823,-76.7587040097281,-5.248642750725665,0.0
STABILIZE,3.675433874130249,22.59387305469217,335.94695571189254,-100.594189018216,-76.76164648803008,-4.961588883928951,267.4843365035341,-60.28386990649521,-49.95977539752558,1.2953717363542463,-0.29912952208288357,89.81775256685472,-2.0,-2.0,0.24807944419644756,0.5134009355452522,335.67882077224965,-100.62499106591912,-76.78907277991813,-5.075737572248514,0.057295779513082325
STABILIZE,3.7089149951934814,30.336351800954724,335.83927616620934,-100.62039634463218,-76.77894985652154,-4.961560945096864,266.64965268073104,-59.792928780703704,-49.32640713806615,1.2953535936642635,-0.2992306942599644,89.8178481895031,-2.0,-2.0,0.24807804725484323,0.5137262713592277,335.67882077224965,-100.62499106591912,-76.78907277991813,-5.075737572248514,0.0
STABILIZE,3.7438931465148926,28.720831022275178,335.83438463132245,-100.62090486935897,-76.77078165450116,-4.960779451766882,265.83302150158124,-59.312605789535766,-48.68686464098076,1.295429899683897,-0.29785019563482845,89.81719249134278,-2.0,-2.0,0.24803897258834412,0.5140419585067602,335.75811558570507,-100.61273247623855,-76.734199403667,-4.858296414704014,0.0
STABILIZE,3.7846148014068604,24.776730228491765,335.89870779595475,-100.58851422570079,-76.78601916160424,-4.966612346959694,265.0349155069919,-58.84317887028773,-48.04124618122732,1.2949582964660489,-0.2984334297569241,89.81792332158396,-2.0,-2.0,0.24833061734798473,0.5143723864901885,336.32122172250786,-100.52781913494458,-76.83478530122733,-5.972257446840658,0.0
STABILIZE,3.8229291439056396,26.309112806101968,335.8967608822471,-100.56919891198574,-76.78217013726054,-4.969448187907653,264.25578404998964,-58.38491232169723,-47.3896518480707,1.2940425175087382,-0.2986640020022649,89.81812822725907,-2.0,-2.0,0.24847240939538265,0.5146962591445949,336.04682555852406,-100.56704512477397,-76.77752570688698,-5.464435442075455,0.0
STABILIZE,3.8620781898498535,26.033628988709648,335.97807545447085,-100.56623762545966,-76.80390613647336,-4.971326020565446,263.4960524525241,-57.93805630799544,-46.73218350688671,1.2936308918895392,-0.2989961199506568,89.81816237820492,-2.0,-2.0,0.2485663010282723,0.5150358613147933,336.085393633368,-100.60384861666026,-76.7994074013055,-5.297743249907057,0.0
STABILIZE,3.8964438438415527,29.3702313595877,336.0542763939019,-100.58781713143037,-76.78386504396683,-4.973462173568773,262.75612116227273,-57.502846362959716,-46.06894476096622,1.293241357663437,-0.2990278696581268,89.81827849142081,-2.0,-2.0,0.24867310867843867,0.5153574601415003,336.0598254694049,-100.59255765285675,-76.77466202370773,-5.343313583622347,0.0
STABILIZE,3.9374217987060547,28.497010544624416,336.157643528621,-100.58868129442307,-76.8080908035547,-4.97758214697977,262.0363649094452,-57.07950289396565,-45.40004091331919,1.2930398670829215,-0.2989611152311605,89.81901615185117,-2.0,-2.0,0.2488791073489885,0.5157040249451178,336.27495125930074,-100.56963761375208,-76.85020298565064,-5.690845466757807,0.0
STABILIZE,3.969061851501465,32.081505901070074,336.0351299378041,-100.5935561789061,-76.81820711350134,-4.978408431244456,261.3371318635872,-56.66823068603988,-44.72557892847881,1.2933533087328017,-0.2982874611438415,89.81806675555654,-2.0,-2.0,0.24892042156222283,0.5160463140925112,335.7086537684228,-100.61847327010932,-76.8297563311454,-5.122405555273588,0.0
STABILIZE,4.011059999465942,24.72721270110775,336.0555180867039,-100.6151093725371,-76.85460437140783,-4.979499198287819,260.6587427903854,-56.269218405912156,-44.045667394305454,1.293183727942315,-0.2993118027563583,89.81952841603892,-2.0,-2.0,0.24897495991439095,0.5164044684885511,336.1487663030232,-100.65721723374976,-76.8838537974272,-5.1702642557450815,0.0
STABILIZE,4.045764207839966,29.656605080994705,336.05040445391126,-100.62274938557198,-76.82942405076018,-4.981559203558108,260.0014902084714,-55.882638106068,-43.36041648379082,1.2928352815729385,-0.2997312724209323,89.81971966133568,-2.0,-2.0,0.2490779601779054,0.5167345037834847,336.0598254694049,-100.59255765285675,-76.77466202370773,-5.343313583622347,0.0
STABILIZE,4.090585470199585,22.448039819101393,336.0471486050803,-100.62802287733768,-76.83257272296434,-4.9815088624118475,259.365637546226,-55.508644728801,-42.66993791686198,1.2920771305750671,-0.29903469984729675,89.81935766130967,-2.0,-2.0,0.24907544312059238,0.5170813174030512,336.0435462252498,-100.63429374540648,-76.83920234775788,-4.972613288547279,0.0
STABILIZE,4.127908229827881,26.877260435490278,336.0862800179953,-100.57709408876497,-76.83642146211491,-4.986672860010267,258.751418298584,-55.147375610265115,-41.97434492218545,1.2906276363671434,-0.2992525188487967,89.81776622723305,-2.0,-2.0,0.24933364300051336,0.5174310382699647,336.4706083238757,-100.50443086803162,-76.89540001487894,-5.902195935083228,0.0
STABILIZE,4.166918992996216,26.00119024003174,336.14447044417994,-100.56169790003624,-76.82392167902692,-4.989831468520445,258.1590351838378,-54.79894998452728,-41.27375219897123,1.289844085603296,-0.29977284052533415,89.81745203853123,-2.0,-2.0,0.24949157342602227,0.5177750847400279,335.9996058993461,-100.54636908667055,-76.73716267444378,-5.552475345129537,0.0
STABILIZE,4.204607725143433,26.71565242869336,336.1146383634445,-100.5323896804576,-76.7899084545889,-4.991932631806893,257.58865930044226,-54.46346848761972,-40.56827587877688,1.3041711544393384,-0.2960929160274311,89.8209217746296,-2.0,-2.0,0.24959663159034468,0.518110816287906,335.9996058993461,-100.54636908667055,-76.73716267444378,-5.552475345129537,0.057295779513082325
STABILIZE,4.2484283447265625,25.44701349916578,336.11463836344444,-100.56176527539931,-76.74966245753183,-4.9892378687429435,257.0404292838193,-54.14101266159243,-39.85803348731161,1.315145774331668,-0.29014841029369864,89.82591464291288,-2.0,-2.0,0.2494618934371472,0.5184458144851101,336.0598254694049,-100.59255765285675,-76.77466202370773,-5.343313583622347,0.2291831180523293
STABILIZE,4.282366514205933,29.74071999376015,336.06343500116077,-100.59038034568302,-76.72362400795576,-4.970310324980236,256.5144504631613,-53.83164445856538,-39.14314390624031,1.2863413724978432,-0.26088921391068626,89.86765392893084,-2.0,-2.0,0.2485155162490118,0.5187902400508577,335.78752941383135,-100.63221429752166,-76.65904732571556,-5.142187454540718,0.9740282517223995
STABILIZE,4.319382905960083,29.887158146759965,335.9899430598633,-100.62907228539454,-76.80416898235107,-4.975558141664476,256.01079401823625,-53.53540574478116,-38.42372733498764,1.2711097304835974,-0.2323768560247325,89.84891188984831,-2.0,-2.0,0.2487779070832238,0.5191902208236817,336.1031486173887,-100.6624449058051,-76.97879759762971,-5.10819601747059,-0.8594366926962349
STABILIZE,4.349852085113525,33.120683528510625,335.98463585067304,-100.68066532187497,-76.81976948744,-4.994516217206677,255.52949613619154,-53.25231780465721,-37.69990525254207,1.3014815540102342,-0.2742064819666244,89.77834237534374,-2.0,-2.0,0.24972581086033385,0.519559932117449,335.9730698533946,-100.74733676229802,-76.82146353897454,-5.4122622141860575,-0.8021409131831525
STABILIZE,4.398137092590332,30.81622546966725,336.0285052008518,-100.6932033300384,-76.91709067867932,-5.041937737505931,255.0705571683589,-52.982380844838374,-36.971800379259975,1.4759804008644835,-0.38127796813877235,89.71588712557315,-2.0,-2.0,0.2520968868752966,0.5199726451497096,336.21895265023966,-100.669828322012,-76.95101089943356,-6.2061036118575,-1.948056503444799
STABILIZE,4.417640686035156,53.83731885453169,336.0603306370187,-100.69566446877404,-76.90782844594729,-5.014369217234607,254.63394078705807,-52.7255734982494,-36.23953663866969,1.4140971794368755,-0.3045939935840111,89.75171146776987,-2.0,-2.0,0.25071846086173033,0.5203341459036388,336.21895265023966,-100.669828322012,-76.95101089943356,-6.2061036118575,2.9220847551671985
STABILIZE,4.451277017593384,29.85758522747496,336.1964774832718,-100.6366350911574,-76.94996954501157,-4.967184799212128,254.21957314240132,-52.481852328146786,-35.50323911927554,1.2920576005029092,-0.25081156327502335,89.80331354694931,-2.0,-2.0,0.2483592399606064,0.520723365212868,336.46826364509684,-100.57024862944812,-76.94788683616741,-5.262670024333175,2.177239621497128
STABILIZE,4.4905595779418945,25.64429526097935,336.18394919228393,-100.71309698339333,-76.82298885526225,-4.9796851897246,253.8273420190984,-52.25115133217183,-34.76303403636195,1.2639472099217812,-0.5362153666535168,89.77421011089588,-2.0,-2.0,0.24898425948623004,0.5210299774094501,336.04050716244967,-100.89921399871977,-76.57006883018562,-5.27517087967216,-1.948056503444799
STABILIZE,4.526117563247681,28.37248190489075,336.21909996239737,-100.68297768863543,-76.85235151059699,-4.99514457758633,253.45709599326,-52.03338144640291,-34.01904869379752,1.2896691687275204,-0.5835693349734796,89.76289931763034,-2.0,-2.0,0.2497572288793165,0.5214166514083998,336.14882370396185,-100.57947043773828,-77.03909886543774,-5.15434203333821,-0.6302535746439055
STABILIZE,4.566725969314575,24.708712812960236,336.20897855581086,-100.77083882942755,-76.84169089755817,-4.9092140259381605,253.1086435892023,-51.828430049407686,-33.27141144583901,1.2208777445629733,-1.0173329846547157,89.95079099150823,-2.0,-2.0,0.24546070129690803,0.5217851397258596,336.1683456173071,-100.8338320518245,-76.91590499705093,-5.271852874412048,5.443099053742821
STABILIZE,4.599769592285156,31.174913223478345,336.2983531795584,-100.66047022869468,-76.65872810084697,-4.767116069489257,252.78175243625174,-51.636160466295465,-32.52025165893553,1.0693605632751126,-1.5385854879099974,90.06638511302152,-2.0,-2.0,0.23835580347446284,0.5220692382209557,336.66582576897736,-100.56810819652115,-76.02118044005205,-5.461684400725929,5.271211715203574
STABILIZE,4.635226726531982,28.87386326869196,336.54682877906794,-100.71781473633786,-76.41388162034865,-4.5821456182727855,252.47614842554896,-51.45641147276997,-31.76569967353244,0.5446796252216022,-3.5603287393097647,90.39334626859004,-2.0,-2.0,0.2291072809136393,0.5223240909734082,337.7106416426446,-100.75150396066785,-76.30455942394276,-5.172281098113501,7.7349302342661135
STABILIZE,4.670628786087036,28.593563165106655,336.87898044396286,-100.97954300581004,-76.51626952870443,-4.34207157835138,252.1915148668528,-51.288996799181305,-31.007886765875625,0.35800196410783824,-4.783995975818454,90.57910692344687,-2.0,-2.0,0.217103578917569,0.5227541913814144,337.7012654869243,-101.61901686024103,-77.22306872211826,-5.008167272183812,8.36518380891002
STABILIZE,4.698363304138184,36.21023551350231,337.18946880055535,-101.32984589371665,-76.91689895605982,-4.068954115607992,251.92749164534575,-51.133704634578876,-30.246945109815307,0.28454391991458583,-6.221976619235571,90.79993376950254,-2.0,-2.0,0.2034477057803996,0.5233349769231223,337.7012654869243,-101.61901686024103,-77.22306872211826,-5.008167272183812,8.938141604040842
STABILIZE,4.731843709945679,34.653645639691,337.4960527744788,-101.61901686024105,-77.22306872211833,-3.839917193618335,251.683674378437,-50.99029713076301,-29.48300773861039,0.7252569669111926,-8.809257826365101,91.22228534701947,-2.0,-2.0,0.19199585968091676,0.523870030491754,337.7012654869243,-101.61901686024103,-77.22306872211826,-5.008167272183812,9.224620501606255
STABILIZE,4.754466772079468,44.51039986416504,337.7031407180682,-101.61901686024105,-77.22306872211833,-3.6209300292133624,251.4596135725676,-50.858509906338455,-28.7162085067323,1.2232280766893981,-9.969746239937995,91.43164430545869,-2.0,-2.0,0.18104650146066814,0.524253430107693,337.7012654869243,-101.61901686024103,-77.22306872211826,-5.008167272183812,8.479775367936185
STABILIZE,4.783267974853516,34.90541102844493,337.70126548692417,-101.61901686024105,-77.22306872211833,-3.4154661241305018,251.25481378001444,-50.73805155076589,-27.946682051669114,1.8140154275117002,-10.753912574584344,91.60575265759148,-2.0,-2.0,0.1707733062065251,0.5246381933352247,337.7012654869243,-101.61901686024103,-77.22306872211826,-5.008167272183812,8.193296470370772
STABILIZE,4.809926986694336,37.74299906414225,337.70126548692417,-101.61901686024105,-77.22306872211833,-3.204791676973462,251.06873275569455,-50.62860312841447,-27.174563755729714,2.5338038141360926,-11.327295002575866,91.78335123639016,-2.0,-2.0,0.1602395838486731,0.5250242524831943,337.7012654869243,-101.61901686024103,-77.22306872211826,-5.008167272183812,7.7349302342661135
STABILIZE,4.840781927108765,32.91870595068046,337.70126548692417,-101.61901686024105,-77.22306872211833,-3.0271886555696046,250.9007806139699,-50.52981768261476,-26.399989707847737,3.201738685242218,-11.563556368608484,91.9301388318429,-2.0,-2.0,0.15135943277848024,0.5254115395071353,337.7012654869243,-101.61901686024103,-77.22306872211826,-5.008167272183812,7.047380880109126
STABILIZE,4.8679351806640625,37.36640296486352,337.70126548692417,-101.61901686024105,-77.22306872211833,-2.8483061916507393,250.75031898545092,-50.44131973971055,-25.623096665385674,3.8491227977962437,-11.542670503900233,92.08571688075745,-2.0,-2.0,0.14241530958253698,0.5257999860283663,337.7012654869243,-101.61901686024103,-77.22306872211826,-5.008167272183812,5.958761069360562
STABILIZE,4.897467136383057,34.109738543487985,337.70126548692417,-101.61901686024105,-77.22306872211833,-2.7190898608255343,250.61666017380173,-50.36270481311159,-24.844022015938933,4.329119891247591,-10.83444818886161,92.37597259972631,-2.0,-2.0,0.1359544930412767,0.5261895233530897,337.7012654869243,-101.61901686024103,-77.22306872211826,-5.008167272183812,4.469070802020421
STABILIZE,4.924951076507568,36.68626507710205,337.70126548692417,-101.61901686024105,-77.22306872211833,-2.5860434180739187,250.49906631254373,-50.293538907345706,-24.062903739139983,4.167425834818117,-10.207576841932426,92.53471985641575,-2.0,-2.0,0.12930217090369595,0.5265800824914891,337.7012654869243,-101.61901686024103,-77.22306872211826,-5.008167272183812,4.411775022507339
STABILIZE,4.956351041793823,32.30264009118635,337.70126548692417,-101.61901686024105,-77.22306872211833,-2.476703422668406,250.3967485218601,-50.23335802211183,-23.279880368462287,3.9093172549515662,-9.56381614473309,92.66910382833575,-2.0,-2.0,0.12383517113342031,0.526971594176828,337.7012654869243,-101.61901686024103,-77.22306872211826,-5.008167272183812,4.068000345428845
STABILIZE,4.991104364395142,29.815136802746718,337.70126548692417,-101.61901686024105,-77.22306872211833,-2.397822182934825,250.30886606540025,-50.18166765633147,-22.495090953024487,3.426767378297927,-8.004407117591017,92.79723134697602,-2.0,-2.0,0.11989110914674127,0.5273639888845469,337.7012654869243,-101.61901686024103,-77.22306872211826,-5.008167272183812,1.948056503444799
STABILIZE,5.016037464141846,41.704904992492864,337.70126548692417,-101.61901686024105,-77.22306872211833,-2.386447037288849,250.23452550708498,-50.1379423122021,-21.70867501939432,3.378446778127849,-7.260347653750984,92.78819500670409,-2.0,-2.0,0.11932235186444246,0.527757196851362,337.7012654869243,-101.61901686024103,-77.22306872211826,-5.008167272183812,-2.2345354010102105
STABILIZE,5.042018413543701,39.69285220831086,337.70126548692417,-101.61901686024105,-77.22306872211833,-2.444645618062006,250.17277986790873,-50.101624999248614,-20.92077253339292,3.4096210421602566,-6.542540021985896,92.74557462628322,-2.0,-2.0,0.1222322809031003,0.5281511480943627,337.7012654869243,-101.61901686024103,-77.22306872211826,-5.008167272183812,-3.323155211758775
STABILIZE,5.074135780334473,31.916478332001674,337.70126548692417,-101.61901686024105,-77.22306872211833,-2.5158883577505056,250.12262778274578,-50.07212673837661,-20.131523861898543,3.460128156638385,-5.980272446208098,92.70649911404156,-2.0,-2.0,0.1257944178875253,0.5285457724301099,337.7012654869243,-101.61901686024103,-77.22306872211826,-5.008167272183812,-3.2658594322456924
STABILIZE,5.097374200820923,43.279511309228994,337.70126548692417,-101.61901686024105,-77.22306872211833,-2.5853226899410853,250.08301265715397,-50.0488260659243,-19.34106973465107,3.5502947645321927,-5.383339099071549,92.69141805635418,-2.0,-2.0,0.12926613449705426,0.5289409994937336,337.7012654869243,-101.61901686024103,-77.22306872211826,-5.008167272183812,-1.948056503444799
STABILIZE,5.123075723648071,39.523788882502046,337.70126548692417,-101.61901686024105,-77.22306872211833,-2.6077313744048167,250.05282182417898,-50.03106853771489,-18.54955120605557,3.597467892921709,-4.8571430329610585,92.72505673801649,-2.0,-2.0,0.13038656872024085,0.5293367587580314,337.7012654869243,-101.61901686024103,-77.22306872211826,-5.008167272183812,0.17188733853924698
STABILIZE,5.152154445648193,35.294596800659725,337.70126548692417,-101.61901686024105,-77.22306872211833,-2.61379210613545,250.03088570115892,-50.018166233109426,-17.75710961698688,3.566903223272725,-4.503957792961107,92.76941881667572,-2.0,-2.0,0.1306896053067725,0.5297329795525657,337.7012654869243,-101.61901686024103,-77.22306872211826,-5.008167272183812,0.9740282517223995
STABILIZE,5.180156707763672,35.952923427709344,337.70126548692417,-101.61901686024105,-77.22306872211833,-2.6006690225870823,250.01597694652753,-50.009397259058645,-16.96388655659318,3.490364763763797,-3.9939275039555686,92.90992946828123,-2.0,-2.0,0.13003345112935413,0.5301295910827626,337.7012654869243,-101.61901686024103,-77.22306872211826,-5.008167272183812,1.8334649444186344
STABILIZE,5.21040940284729,34.70209984611057,337.70126548692417,-101.61901686024105,-77.22306872211833,-2.548218910963578,250.00680961662044,-50.00400525415553,-16.17002382410051,3.5351528754725092,-3.880861406208824,93.00885109803052,-2.0,-2.0,0.12741094554817892,0.5305265224490089,337.7012654869243,-101.61901686024103,-77.22306872211826,-5.008167272183812,3.724225668350351
STABILIZE,5.238758563995361,35.59381523786894,337.70126548692417,-101.61901686024105,-77.22306872211833,-2.4755885245382587,250.0020383224777,-50.00119889268798,-15.375663390616452,3.6870590573779434,-3.826536215984658,93.11217819979447,-2.0,-2.0,0.12377942622691294,0.530923702665751,337.7012654869243,-101.61901686024103,-77.22306872211826,-5.008167272183812,4.010704565915763
STABILIZE,5.277332544326782,26.809401146699564,337.70126548692417,-101.61901686024105,-77.22306872211833,-2.3922877077787534,250.00025738664965,-50.00015138869118,-14.580947360934388,3.962774157377494,-3.8064554598248206,93.20403741394198,-2.0,-2.0,0.11961438538893768,0.5313210606805919,337.7012654869243,-101.61901686024103,-77.22306872211826,-5.008167272183812,3.896113006889598
STABILIZE,5.3085150718688965,32.85166909472563,337.70126548692417,-101.61901686024105,-77.22306872211833,-2.289373914334657,250.0,-50.000000000000014,-13.786017935337611,4.729710486068838,-3.7526126517107867,93.3748126337598,-2.0,-2.0,0.11446869571673286,0.5317185253933904,337.7012654869243,-101.61901686024103,-77.22306872211826,-5.008167272183812,3.4377467707849396
STABILIZE,5.340489149093628,31.786829959606216,334.5609524781767,-98.5982493259756,-61.03131954526855,-2.2033244754365175,250.0,-50.0,-12.99101737140333,5.072591958819002,-3.685457378017575,93.43993848749588,-2.0,-2.0,0.11016622377182589,0.5240201510869326,321.99970044318707,-92.55671425744475,-28.647821191568898,-1.4280034918662778,2.3491269600363753
STABILIZE,5.378647804260254,27.089912096571055,331.42063946942926,-95.57748179171017,-44.83957036841877,-2.1879792810150755,250.0,-50.0,-12.19608794580654,5.829195491956587,-3.3924328711139196,93.43704931747696,-2.0,-2.0,0.10939896405075378,0.5163217412113061,321.99970044318707,-92.55671425744475,-28.647821191568898,-1.4280034918662778,-1.4896902673401404
STABILIZE,5.415221452713013,27.53251936457923,328.2803264606818,-92.55671425744474,-28.647821191568983,-2.2322563075025306,250.0,-50.0,-11.401371916124504,6.421103100524476,-3.1447894217162977,93.36386384052028,-2.0,-2.0,0.11161281537512653,0.5086232246377222,321.99970044318707,-92.55671425744475,-28.647821191568898,-1.4280034918662778,-3.9534087864026803
STABILIZE,5.446859121322632,31.875001899898166,325.14001345193435,-92.55671425744474,-28.647821191568983,-2.420291858868306,250.0,-50.0,-10.607011482640445,7.758856694287181,-2.5319664932493593,93.04366457223009,-2.0,-2.0,0.12101459294341531,0.5090204048544643,321.99970044318707,-92.55671425744475,-28.647821191568898,-1.4280034918662778,-9.85487407625016
