Mode,Time,Freq,North-Vision,East-Vision,Down-Vision,Yaw-Vision,North-Desired,East-Desired,Down-Desired,Roll-UAV,Pitch-UAV,Yaw-UAV,Roll-Control,Pitch-Control,Yaw-Control,Thrust-Control,northVraw,eastVraw,downVraw,N-Velocity,E-Velocity,D-Velocity,yawVraw,yawRate,Q-Size
GUIDED_NOGPS,0.005106210708618164,196.601856191994,-8.271839712166255,24.798110203833218,72.19510091031333,10.307064905935723,-7.509764739918427,19.227187269191592,75.53168559557507,1.0146809502660468,-0.9194283060398125,-15.596339111204964,-3.219757802135981,-4.651146062594087,10.0,0.5066731693705235,-8.539981121323676,16.07802568730849,79.69868801654121,-4.8478394746780396,-38.17584812641144,28.881549835205078,8.834430317194016,-5.31649289143828,0
GUIDED_NOGPS,0.02212214469909668,58.782447829803935,-4.6690935590723495,17.641001420992982,80.21582100283419,9.835197667201308,-7.509799471284391,19.22747698806781,75.53145955417962,1.0151624786025326,-1.0085482941650215,-15.466193271664956,3.2579533289178113,4.624471873262216,0.5519797014364434,0.49063127710269083,-8.251727265912812,12.323400967016964,81.05464391093625,-4.8478394746780396,-38.17584812641144,28.881549835205078,8.67082145461876,-5.31649289143828,0
GUIDED_NOGPS,0.050054073333740234,35.80590746115759,-5.189864642629397,16.228403544971584,80.80185980243469,9.550836674670867,-7.510037892271756,19.22946582607079,75.52989550561607,1.214604002366905,-0.989985227383102,-15.215605583848236,3.904894363163219,-0.4506473801041613,3.6996717603522855,0.48945607140636277,-7.722908853228097,10.454694073986444,81.9483771258017,-8.47720056772232,-39.01052474975586,26.117336750030518,8.527941349494018,-7.258925266856329,0
GUIDED_NOGPS,0.08380651473999023,29.632719385628395,-5.6973953126489825,14.723421631053691,81.51871310662102,9.333441654612386,-7.510670915911547,19.234746323754823,75.52570527279995,1.1754599747901504,-1.0957185834473093,-15.051250741850218,3.5904903326982622,-0.3097493536343269,4.312036963878056,0.4880139843323579,-8.890469967692336,10.18811672271146,81.98884662562622,-6.722946465015411,-39.41361904144287,25.030457973480225,8.556331647007156,-4.3095475572940956,0
GUIDED_NOGPS,0.1168663501739502,30.252547910821317,-6.26248363865182,13.206851563777695,82.35726775171956,9.084955057347923,-7.511875809033555,19.244797189062737,75.51765436554805,1.2819189317319657,-1.1182848881347967,-14.904140419959191,3.837963705476637,-0.4809444917240233,3.9484561797003925,0.486320773227657,-10.064992466360534,9.862883302304311,82.67805778668773,-6.722946465015411,-39.41361904144287,25.030457973480225,8.173486916331768,-4.3095475572940956,0
GUIDED_NOGPS,0.15090465545654297,29.382987964636488,-6.676617985989758,11.652255917509905,83.10759190461039,8.891441508469788,-7.51381651335342,19.26098597574031,75.50456124006939,1.7206729950972481,-1.0619968722978985,-14.692792168924194,3.9206661610581643,-0.17053412849695382,4.194956540866969,0.484793938670918,-9.743552568251634,8.01221414488005,83.25386876469494,-3.673127666115761,-40.943172574043274,22.405385971069336,8.249291211442324,-3.57861059439695,0
GUIDED_NOGPS,0.18415331840515137,30.080279983074792,-7.081441479495903,10.0422403104338,83.79278211225339,8.723663342206862,-7.516643966559722,19.28457176175064,75.4852965584563,2.410384857154901,-0.8528567467163726,-14.506206768725079,4.07587390297598,-0.18936933085992125,4.227124670937619,0.4833850288924058,-9.30565152542003,6.236539727770061,83.77445172366625,-8.72555524110794,-42.97567009925842,19.7372168302536,8.050598982406722,-2.321473723407906,0
GUIDED_NOGPS,0.21806621551513672,29.49228291976346,-7.400677947077151,8.552969325147242,84.51371503404879,8.503797172944656,-7.520496423401071,19.316707827688536,75.45878244817538,3.024466034533003,-0.7448732168466163,-14.383048212705994,4.0507479082526405,-0.04202368542919732,3.804905513286713,0.4818901348282532,-8.913312586584489,5.954065231945412,85.49274949917145,-7.738260924816132,-43.53462755680084,17.52578765153885,7.661037788311582,-4.611658350227985,0
GUIDED_NOGPS,0.25157952308654785,29.8437762377083,-7.7420794268285595,7.178192363733493,85.32369847454477,8.3160695922376,-7.525499776773187,19.35844433519491,75.42399176155857,3.8253746569389326,-0.5446765302921345,-14.254363179874723,4.0008101541414325,-0.14608481540769758,3.8676249081726874,0.4802005865740276,-9.281724389581143,5.961677921983448,87.43327507409683,-8.843622356653214,-42.98313558101654,17.173247039318085,7.403019006353918,-2.68898400453149,0
GUIDED_NOGPS,0.2856135368347168,29.38669357098817,-8.065598847567811,5.251172263473144,86.0749557538028,8.126324542884587,-7.531767878805997,19.410731005371158,75.37994733529413,4.394365273294137,-0.4141372078229103,-14.159660045711556,4.058936905795396,-0.12861402000279865,3.75987167811756,0.47860998316298264,-9.404899591215123,-2.913058235072139,87.770913443931,-8.843622356653214,-42.98313558101654,17.173247039318085,7.1055023919857785,-2.68898400453149,0
GUIDED_NOGPS,0.3188755512237549,30.067988587322752,-8.359887944938725,3.556043682464867,86.77172635833982,7.922348464396286,-7.539402861950716,19.47441979719356,75.32572124991766,4.87827862646084,-0.390019729822316,-14.06739443530844,4.055066152025913,-0.11872300071651287,3.528158014330612,0.47710798978315566,-9.021225434575596,-2.1379941680226286,88.49506586597721,-10.072848945856094,-41.382578015327454,14.164263010025024,6.890078345028453,-3.528713074302245,0
GUIDED_NOGPS,0.35266590118408203,29.599678195637292,-8.608184092802954,2.159861347922424,87.41608550267988,7.781191705052822,-7.54849546006694,19.550267585927635,75.26043408930313,5.126670835346225,-0.4389924796559983,-14.02585578609736,4.043673952927395,-0.04757481290510479,3.8269814380431315,0.4756886971732465,-8.87706032836931,-0.36202209264714225,90.05262036925427,-9.062867611646652,-39.78562951087952,9.256061166524887,6.6574900384558955,-0.20184318903127807,0
GUIDED_NOGPS,0.3874373435974121,28.762782532367787,-8.927588266844213,0.9950294926878969,88.08344150866742,7.621937781961507,-7.5591253295097305,19.638938841542572,75.18325420015393,5.343394018371199,-0.40923894833180624,-13.946209803959489,4.058338800138393,-0.20348143009530628,3.664238385763611,0.474199625382973,-9.087912617858755,1.2120889246818214,90.47439471694548,-13.333931565284729,-37.39255368709564,12.222369760274887,6.5152618883564895,-1.5298859613415168,0
GUIDED_NOGPS,0.4213597774505615,29.484197503093014,-9.247889827701698,-0.4095858452207508,88.65975966487125,7.546079726979033,-7.571361370216703,19.741008307125586,75.09339695149377,5.3236436726124605,-0.5990568956381893,-13.965160163811689,4.068743002638672,-0.25514031480866006,4.0799379539711715,0.47286727457324507,-9.897712979964687,-3.928709050414562,90.36132291015242,-11.116969585418701,-34.760504961013794,9.638363122940063,6.544041356582355,2.4744262049168215,0
GUIDED_NOGPS,0.4534289836883545,31.18974992006068,-9.66423213769378,-1.6438171059219089,89.13860958175157,7.473268278829664,-7.585262046795118,19.856963677296314,74.99012399415787,5.381976903218955,-0.6643925642478272,-13.963805225035086,4.105379605650035,-0.54209688784649,4.026819513486421,0.47170302882481263,-11.333215026867375,-4.239499199246097,90.49806028242199,-13.151903450489044,-33.03748667240143,7.763864099979401,6.63855798616223,1.5206832419302765,0
GUIDED_NOGPS,0.4874873161315918,29.364885111388045,-9.984344222454713,-2.7011355268206168,89.67536998344985,7.397118711808615,-7.600875709608965,19.987208276621196,74.87274252028381,5.317773978794481,-0.7455907602354379,-13.995275321635921,4.07423874530835,-0.3132644199950797,3.994778720274848,0.4703947450736679,-10.598184141367572,-3.3967812876307057,91.62884757771086,-11.441458016633987,-31.187066435813904,10.222219675779343,6.407084360954812,1.310911483933083,0
STABILIZE,0.5202701091766357,30.50935436003375,-10.44600506577515,-3.8043899674914745,90.13930519167005,7.301694008860153,-7.618240915866051,20.132063738027878,74.74060452280268,5.241836362489102,-0.9942535620058311,-14.049642773655576,4.120591274378113,-0.6859186733101723,3.7983190975445984,0.46920259866226527,-12.321092260713623,-4.816170022981941,91.60410505916423,-14.32148665189743,-29.393672943115234,6.038661301136017,6.437804577333075,-0.10008404256866622,0
STABILIZE,0.5546863079071045,29.060715448731717,-10.949983286680867,-4.7416180972565325,90.58264285628131,7.274094077897391,-7.63738675070509,20.29177268121958,74.59310605493,5.10647311219685,-1.1921052525191773,-14.106300046594479,4.132017598710305,-0.780013372395426,4.202006701315882,0.46802092639729737,-13.556271895862047,-4.02063074567512,92.32242403076647,-14.49093371629715,-28.5733163356781,6.217221170663834,6.528117483707682,2.826298767935661,0
STABILIZE,0.5908761024475098,27.635376516244655,-11.4957414283193,-5.564807704647806,90.9783134440933,7.203538249271673,-7.658333148282791,20.466501391089505,74.4296864896568,4.7920346815847354,-1.1911547890074876,-14.0768670539136,4.138281183090375,-0.842282253606195,3.934479801041998,0.46690274609112703,-15.37689307459516,-3.7477098133989624,92.64995362126469,-11.76690086722374,-23.815204203128815,3.306684270501137,6.64775354484024,-0.34726645419731206,0
STABILIZE,0.6241664886474609,30.043651106319885,-12.03900820017913,-6.387430817586275,91.32533672976655,7.163849289842841,-7.681091212860944,20.656342496135196,74.24982777924062,4.063050299016567,-1.2428464076980845,-14.09277029562233,4.15367776410201,-0.9722966127789785,4.0607380405383315,0.46584898209894815,-15.37689307459516,-3.7477098133989624,92.64995362126469,-12.059183418750763,-22.107742726802826,0.33409008756279945,6.64775354484024,1.3858949014670698,0
STABILIZE,0.6638228893280029,25.220552599140134,-12.615725454715975,-7.105848724921631,91.62867454906291,7.133493743663525,-7.705663539893512,20.86131764687295,74.05305371469647,3.094255413368312,-1.1947456542419161,-14.045832381872355,4.012532314362884,-0.9249868770968536,4.1270696916743494,0.46484875833126715,-16.17921758567228,-5.654614969119205,93.12079052477628,-15.165458619594574,-19.53638643026352,0.8918771520256996,6.83725439854167,0.6425654140945821,0
STABILIZE,0.6917858123779297,35.76560474793642,-13.085572657362489,-8.061157877311834,91.95395888259895,7.015504608086096,-7.73204453711371,21.081380194252194,73.83892918528798,2.3570748037961287,-1.2407556227601202,-14.013789403154886,4.164399127407457,-1.0907409524225697,3.365973799736371,0.4637699406053781,-15.489559213876937,-10.995693711854539,92.69452491326597,-12.137195467948914,-18.760044872760773,4.842990264296532,6.591297783069502,-3.8729614386600577,0
STABILIZE,0.7250332832336426,30.083300459751978,-13.51728855518826,-8.848327585359279,92.16356337970717,6.918984442648754,-7.760220745621106,21.316417868069873,73.60705943801827,1.700716036116117,-1.1108826706217954,-13.93199874161763,4.135489901475102,-0.8747141645123369,3.57161391198099,0.4628869921166222,-16.44496274548016,-12.580249802893544,92.32501587358482,-12.137195467948914,-18.760044872760773,4.842990264296532,6.70703739812241,-3.8729614386600577,0
STABILIZE,0.758014440536499,30.324069521964198,-14.16519615427752,-9.613163963951925,92.41416674103209,6.877662388177485,-7.790171160968696,21.566255455384834,73.35708933712105,1.0277306670055908,-1.0086659014847927,-13.862878080990747,4.196942152268593,-1.392414913598647,3.8760828547031894,0.4618858451921779,-19.589863294095526,-9.5168990322585,92.92995881680994,-13.620862364768982,-19.281868636608124,2.47525405138731,6.966848710934778,-1.0395069803517507,0
STABILIZE,0.7940037250518799,27.792308303957167,-14.766294626727412,-10.415242606648938,92.63494211506477,6.806219748758088,-7.821867554250002,21.830657478932217,73.08870262355167,0.6244291274140826,-1.0056676618825686,-13.768989446886106,4.177770776871039,-1.2515936018434943,3.684778123977313,0.4609075210169738,-19.427161025378453,-10.768282460871067,92.79885296770007,-12.922784686088562,-20.510613918304443,2.293638698756695,6.714222298843289,-2.2643630966628447,0
STABILIZE,0.826439619064331,30.834802426024627,-15.366707829816782,-11.297878050906657,92.91521565101722,6.738110950123063,-7.855274793186153,22.109330875537847,72.80162117447802,0.3122554381203556,-0.8982363634793786,-13.662834646805768,4.194886147422437,-1.4140411961053498,3.624012412894729,0.4597728110469216,-19.410524839259978,-12.443366443657341,92.54161287765051,-14.229300618171692,-21.925847232341766,7.2726331651210785,6.65870219200931,-1.9623406693013434,0
STABILIZE,0.858475923538208,31.218768607836132,-15.936482180938672,-12.208199260609389,93.07392788214298,6.666635152474047,-7.890351163212976,22.401927674532605,72.49560426277164,-0.04059325498041383,-0.7409628268250783,-13.51201638596907,4.192362852753223,-1.4128048700278926,3.554727864518258,0.4588433527612573,-20.03717151727875,-14.462097029767666,91.94380490650438,-13.588239252567291,-23.98560643196106,3.946198523044586,6.506891706119518,-2.1036333775668123,0
STABILIZE,0.8930211067199707,28.95119240724763,-16.48934360765753,-13.19372099800302,93.20679155339964,6.56019029302253,-7.927048688568086,22.708047676166835,72.17044781649872,-0.1815529915238445,-0.6526308184145065,-13.402132302601904,4.181308213152936,-1.3473503027525697,3.320023955745163,0.45792731252619817,-20.05636914103046,-16.32846616000054,91.4905108429432,-13.586719334125519,-25.377851724624634,4.48005273938179,6.615746718556117,-4.818913610402851,0
STABILIZE,0.9266281127929688,29.76097862104688,-17.048664292996165,-14.28308203768765,93.3534927466389,6.4852048517878025,-7.965313453377968,23.027241130024713,71.82598367841112,-0.24779382028106775,-0.5558580302111213,-13.324379990411419,4.189451503988264,-1.4400023148986194,3.444395495372349,0.45694498186354443,-19.601108904705704,-17.057615211891264,91.8698158308795,-15.825994312763214,-29.69336211681366,3.698418289422989,6.5329604147202955,-2.554973131694901,0
STABILIZE,0.9752860069274902,20.5540669012359,-17.572514416109033,-15.420644117574899,93.47720022665902,6.426117193132949,-8.00508592274507,23.359011413438644,71.46207886543735,-0.3344075558677052,-0.5404020058104702,-13.271535670576675,4.149189932571727,-1.1000579932941286,3.612779119762117,0.4559697572775567,-19.85151179378242,-19.218209746406202,91.16655748142719,-14.956781268119812,-31.115245819091797,5.792556330561638,6.30310738465556,-1.1735269245333309,0
STABILIZE,0.9935870170593262,54.657457843571635,-17.967623651390287,-16.483599022027928,93.61365402094424,6.32615071277937,-8.046301263834891,23.702817709903655,71.07863482817365,-0.3017609058214839,-0.5165435147093809,-13.230102889297733,4.223546668655671,-1.7953732136166902,2.7005672568447854,0.4549299616144588,-20.068544128489002,-18.317185296412095,92.00806587148298,-7.115086168050766,-32.468605041503906,4.600712284445763,6.2239045849338925,-2.4718424724198527,0
STABILIZE,1.026474952697754,30.411136890951276,-18.39141248844051,-17.01267377823873,93.67896982138721,6.323090585353255,-8.088889666963063,24.05807768749176,70.67558671037493,-0.30032992782951334,-0.44736378361834805,-13.131446783152422,4.167060494971583,-1.2867024346868123,3.7752627196175004,0.4539932337779754,-23.323593732405868,-16.84326011738618,93.00030297069158,-12.967628240585327,-34.1280072927475,5.840716511011124,6.189650400525872,0.3048584499709376,0
STABILIZE,1.0609629154205322,28.999032052877567,-18.980900393965946,-18.093146876928127,93.95851919637607,6.245614665217014,-8.132776666682446,24.424170177266376,70.25290260844586,-0.38557890624261765,-0.5073351924085872,-13.114374725321975,4.202959719589902,-1.6362943592240646,3.298038993983509,0.45258876682413957,-22.803584118749598,-19.218168533633445,94.06323789672905,-14.585216343402863,-35.853639245033264,8.589078485965729,6.058704243947661,-2.267861647621772,0
STABILIZE,1.0943429470062256,29.962096480387466,-19.63475167735433,-19.2440352437119,94.19068715226702,6.199820969784041,-8.177883462870215,24.800437851696685,69.81058283093188,-0.33651829776465075,-0.4365752863809014,-13.081380642762582,4.225834303561681,-1.8622746047815444,3.4455010791749805,0.4512397913573297,-23.67142131527897,-20.829489037660757,93.141889526222,-17.362672090530396,-36.7683470249176,8.571163564920425,5.9869216943289,-0.13120024999312868,0
STABILIZE,1.1300928592681885,27.97638787911128,-20.256048219151822,-20.44260570094966,94.34652436625346,6.127915730714032,-8.22412724181494,25.186189903072034,69.34865915801011,-0.13093285875929325,-0.4420674521646792,-13.076469736749344,4.214856381330301,-1.7871246223559452,3.2680543794096693,0.4500042695835133,-24.231669836153543,-22.726352770523945,92.30387605033374,-15.72512686252594,-38.78985047340393,7.303795963525772,5.816171110800136,-1.5775807454288926,0
STABILIZE,1.1625642776489258,30.802646749946756,-20.903163076582928,-21.67929458190226,94.53419707949098,6.116588895368521,-8.271421497303686,25.58070472191632,68.86719410098054,0.595630008304694,-0.30691577765413947,-13.060704806371307,4.234673521028598,-1.976182349402582,3.6009313327361534,0.44866599404297913,-25.18292881663132,-22.39151002618406,93.41533341309972,-14.948108792304993,-42.57976412773132,5.8704674243927,5.874386407522184,1.951924630817074,0
STABILIZE,1.1956956386566162,30.188314212094603,-21.52625498733863,-22.971124846890984,94.72120036069148,6.132363475696831,-8.319676351709093,25.983232575402376,68.36628016175692,2.8659793922490846,-0.02526180816094256,-13.07029353819236,4.233441325054423,-1.9584852443510452,3.7743610599391433,0.44729015960213087,-25.44418096855513,-24.44692372350046,93.36360450664677,-15.75336903333664,-46.93796634674072,7.824978977441788,5.844185237333403,3.2547490640511563,0
STABILIZE,1.2308382987976074,28.476888816468417,-22.13760028234019,-24.393908315889448,94.88390552195615,6.094289772032061,-8.368798877076463,26.39299828576636,67.84603909235781,5.755809805079854,0.20132065287934564,-13.087765162089251,4.227704054902317,-1.919760403464089,3.440149984248742,0.4459242671408033,-25.19628303502978,-27.56735110742939,93.66104706452775,-17.91221648454666,-50.33777356147766,6.053140759468079,5.53024383213007,0.6804097847383302,0
STABILIZE,1.2631494998931885,30.950618377165796,-22.74709948852015,-25.925489462081106,95.0463327772717,6.126919846918495,-8.418693416210854,26.80920390872214,67.30662115439763,10.282414370894609,0.6142512384162645,-13.094690120133999,4.24429163058548,-2.0617004422473024,3.8782957148647865,0.4445205767542519,-25.418230736020153,-30.194263129266936,94.31821529960155,-16.997720301151276,-49.01282489299774,3.8833998143672943,5.380485698788609,5.380413216785844,0
STABILIZE,1.3051800727844238,23.795984364096427,-23.247515029490767,-27.334085280910568,95.21397884177111,6.113256859110952,-8.469261903764163,27.231031411875673,66.74820437857763,15.448375015667684,0.901589879640149,-13.10758380973969,4.199614067997523,-1.6501589717239284,3.602178822022519,0.44306845107361303,-25.39112410407555,-32.00982506857375,94.43685497503017,-13.70793730020523,-44.76215839385986,5.789384990930557,5.229144468774191,2.574202675529426,0
STABILIZE,1.3326997756958008,36.34515866276148,-23.925749421759548,-28.89791705333294,95.32699614442036,6.142477745674556,-8.520404187322216,27.657645353139415,66.17099382417692,20.262259899294115,0.9389898611010232,-13.215706558074638,4.295429604794831,-2.5305231589972643,3.8970563681813184,0.4416879953595131,-25.39112410407555,-32.00982506857375,94.43685497503017,-18.00844669342041,-37.12407350540161,-1.157922949641943,5.229144468774191,5.365332159098457,0
STABILIZE,1.3750886917114258,23.59359407784084,-24.394029799053413,-29.73661653242574,95.38682354454191,6.15378939992524,-8.572018348491856,28.088195559146683,65.57522083854352,22.61082215295029,0.879525860660922,-13.295299606246443,4.205565158739433,-1.6915655820506799,3.747241624697026,0.4403767945880032,-25.39112410407555,-32.00982506857375,94.43685497503017,-18.752235174179077,-24.898871779441833,2.2578302770853043,5.229144468774191,3.615294259768619,0
STABILIZE,1.3997528553009033,40.55288703252504,-25.005906509538494,-30.505309769461064,95.47007230355018,6.341108627753483,-8.624001023988027,28.521819803666048,64.96114231658532,24.348237862693946,0.5785297759439209,-13.512637079409895,4.302739777065619,-2.502688135536636,5.2272527655906105,0.4389821400260703,-25.39112410407555,-32.00982506857375,94.43685497503017,-23.3155757188797,-8.426360040903091,1.4047975651919842,5.229144468774191,14.408714356059608,0
STABILIZE,1.4332115650177002,29.89163109245494,-25.539878871931677,-30.683698383660936,95.44951418068538,6.393139405218281,-8.676247726720872,28.95764648601575,64.3290399602612,24.365612156395166,-0.003902482610150337,-13.815040289817624,4.256258882416143,-2.063677061535745,4.146657110386778,0.4377590515591516,-25.39112410407555,-32.00982506857375,94.43685497503017,-27.758222818374634,10.09090468287468,-1.7286477610468864,5.229144468774191,6.21343674833894,0
STABILIZE,1.4683387279510498,28.472635937818207,-26.16647803447533,-30.79851770148457,95.45837031920458,6.431260076538633,-8.728653166882808,29.39479730947803,63.67921953807188,22.450550056528648,-0.537802265057634,-14.072768940411594,4.279154044376102,-2.2517868267864483,4.076424817086182,0.4364416984377346,-25.39112410407555,-32.00982506857375,94.43685497503017,-27.041280269622803,27.640318870544434,-2.280879206955433,5.229144468774191,4.987800282915171,0
STABILIZE,1.5066883563995361,26.082033679078677,-26.81251073046187,-30.527751011129407,95.49592438836756,6.456737270007943,-8.78111157303562,29.832389959713574,63.01201014455111,20.48901876464395,-0.8387563547834102,-14.17619764123945,4.278739283456519,-2.2373751325918825,4.006672072350614,0.4350321715123671,-25.39112410407555,-32.00982506857375,94.43685497503017,-29.980576038360596,49.574318528175354,0.03209691494703293,5.229144468774191,4.098837502059672,0
STABILIZE,1.5340576171875,36.54370725332171,-27.593970610974072,-30.113365386088322,95.57041685144152,6.646919531051619,-8.833517013197556,30.26954078317585,62.327763459756575,13.872367775068835,-1.5074167734062904,-14.28133132803887,4.386597239270734,-3.085184356978683,5.392151046668526,0.4335146932166301,-25.39112410407555,-32.00982506857375,94.43685497503017,-34.59552228450775,61.703842878341675,1.4590687118470669,5.229144468774191,13.82530008772463,0
STABILIZE,1.567448616027832,29.950543055248104,-28.15574896182672,-29.288542244374778,95.71876979784074,6.772535388520453,-8.8857637159304,30.705367465525548,61.62685300876096,9.730275538769117,-1.7120622609879776,-14.30672341005204,4.292625684517059,-2.3030926869116604,4.809417225870862,0.43181616642184045,-25.39112410407555,-32.00982506857375,94.43685497503017,-34.522974491119385,71.21371030807495,10.015572607517242,5.229144468774191,10.90574938738102,0
STABILIZE,1.601006269454956,29.80666159739051,-28.697060933391654,-28.52673428970876,95.86863189808629,6.7988628135617075,-8.937746391426572,31.138991710044923,60.90967342114296,6.032331721175113,-1.7685248735355343,-14.309226674382849,4.303232736929999,-2.3058115366835352,4.2362218466539305,0.43008208304611334,-25.39112410407555,-32.00982506857375,94.43685497503017,-26.416435837745667,72.33826518058777,8.4689199924469,5.229144468774191,3.9897867017712483,0
STABILIZE,1.6352732181549072,29.185075914663845,-29.22354819786737,-27.76743487076945,95.99330137688011,6.767492116067526,-8.989360552596212,31.56954191605219,60.1766396904783,2.5675159203319833,-1.5377641576623033,-14.278619742938377,4.301069919939916,-2.300585697268893,3.8773508985272214,0.42836667662719635,-25.39112410407555,-32.00982506857375,94.43685497503017,-26.841402053833008,69.76177096366882,7.170417159795761,5.229144468774191,0.4536338439155669,0
STABILIZE,1.6722259521484375,27.068408281274202,-29.7182683575262,-27.068241339953595,96.15409631221694,6.759645253405388,-9.040502836154264,31.99615585731593,59.42818643383071,0.23098371087746145,-1.2734380779386312,-14.315962948451775,4.2922445892444205,-2.229375816080897,4.012416665456437,0.42654818024322755,-25.39112410407555,-32.00982506857375,94.43685497503017,-25.9414941072464,63.967180252075195,9.564447402954102,5.229144468774191,1.9039288915193944,0
STABILIZE,1.7012269496917725,34.48525808626445,-30.180901067617384,-26.34370327150421,96.3058179463693,6.750246961564155,-9.091071323707574,32.417983360469464,58.664767151243026,-1.0746794663695545,-0.9259031119295731,-14.402884789603004,4.298328271102415,-2.378518718361896,3.98699141484148,0.42471789840974744,-25.39112410407555,-32.00982506857375,94.43685497503017,-25.9414941072464,63.967180252075195,9.564447402954102,5.229144468774191,1.9039288915193944,0
STABILIZE,1.7392985820770264,26.270059688965997,-30.551385095454023,-25.7147943366379,96.35274851324161,6.748059354995345,-9.140965862841963,32.834188983425236,57.88685348522814,-1.449704449684033,-0.7365655190209123,-14.523914034148337,4.270892372192529,-2.053598072329078,4.036859437492585,0.42306820994397304,-25.39112410407555,-32.00982506857375,94.43685497503017,-24.24589991569519,57.19796419143677,4.30317334830761,5.229144468774191,2.8397706757432766,0
STABILIZE,1.7689406871795654,33.739594896793605,-31.12498159017248,-25.096264738815517,96.36603017768998,6.815407056118705,-9.190088388209336,33.24395469378923,57.09493448026002,-1.509945864389899,-0.5436879671314809,-14.60665494575387,4.345813189703813,-2.655275016184278,4.521469854463391,0.4214578086051401,-30.26308092505342,-28.976728127592153,95.79514479891334,-20.16616463661194,45.931240916252136,-3.472493216395378,5.848531368805865,4.642358342999899,0
STABILIZE,1.8028948307037354,29.457071221389594,-31.608092085568007,-24.559030584098878,96.31826601519052,6.858919300333339,-9.23834324261474,33.64648254727527,56.28951584226478,-1.4112726827716637,-0.6425416685150457,-14.762373013546407,4.318897164351991,-2.411452937335457,4.371709237710666,0.41994249965414854,-30.26308092505342,-28.976728127592153,95.79514479891334,-19.573988020420074,41.92819893360138,-5.288115888834,5.848531368805865,3.8591256098357274,0
STABILIZE,1.836761236190796,29.53464823642906,-32.283842238922986,-23.8564513334763,96.18966118965042,6.925948433777938,-9.285637498103487,34.04099736611957,55.47111919811163,-1.317617555759272,-0.5823206376549838,-14.865370558682907,4.372306069953227,-2.861972120041884,4.55126302581668,0.4185629160169224,-32.65599633901523,-24.12779900589492,94.79510087144062,-24.033154547214508,37.857142090797424,-7.805948704481125,6.3117068893610675,3.765841020585809,0
STABILIZE,1.8700439929962158,30.04774049345216,-33.23804901510688,-23.025779762841058,96.18155258059728,6.977414000783047,-9.331881277048213,34.42674941749492,54.640281355103944,-1.04384158915377,-0.6632248687040194,-14.965236462084956,4.1206102817895,-3.5255459933648474,4.495259767334103,0.4169174575490133,-39.3879330622887,-20.199209654965415,96.47425155331214,-25.33075213432312,35.43239235877991,-4.6070002019405365,6.5902988734412835,2.118460651037852,0
STABILIZE,1.9057948589324951,27.976014674003668,-34.31125535037259,-22.031128437943188,96.10687333188396,7.116993647988258,-9.376988073235982,34.80301709192523,53.79755356047025,-0.9978426129712613,-0.725002862529727,-15.11108319897953,3.801389243203229,-3.55642529100389,5.053922281459443,0.41538136045717255,-41.3072158545348,-15.456142101676981,93.52571447117646,-30.652275681495667,33.69664549827576,-0.015767104923725128,7.481468107891078,5.213978582185558,0
STABILIZE,1.9374473094940186,31.602414086693138,-35.38924481599838,-20.901752041061474,95.96688461295595,7.243815596408256,-9.420875072955365,35.16910958169984,52.94350076085525,-1.0303784325260286,-0.8222018438651504,-15.213295272361478,3.279564120218496,-3.6153290631016666,5.147690194825431,0.4139532322957986,-43.37454373789767,-11.64251269637499,92.21029765896847,-27.248704433441162,33.045682311058044,-0.2836004365235567,7.746144595104628,3.937020502225138,0
STABILIZE,1.9715023040771484,29.36858615281201,-36.391080261290824,-19.83378641904878,95.86026530925463,7.35797568079778,-9.463463476083536,35.52436955928795,52.07870086181087,-1.0899891219507265,-0.9437418584943539,-15.293761730973399,3.4563501946203696,-3.5868881478217145,5.083018049041528,0.4124368711051125,-43.37454373789767,-11.64251269637499,92.21029765896847,-27.49457061290741,32.55226910114288,1.9486773759126663,7.746144595104628,3.6626885155325146,0
STABILIZE,2.007904052734375,27.476606616442844,-37.36338823463765,-18.629720234654656,95.79887863079348,7.447493663790326,-9.504678817173358,35.868175855752966,51.20374398728722,-1.1414712459328744,-1.1314818808283191,-15.35664386756712,3.1716597051616833,-3.619430476075708,4.969190478952123,0.4108097307129875,-43.806920219209985,-8.445161423158787,93.72724626495643,-22.631117701530457,31.768646836280823,0.01675402163527906,8.204694280397451,0.7019890737298979,0
STABILIZE,2.0541982650756836,21.60275242588434,-38.34829797511096,-17.469226111597933,95.68376420917139,7.541878233400225,-9.544451286540461,36.1999461391669,50.31923173912365,-1.0748672965717296,-2.0033734576270184,-15.485652480610321,2.9275766309163758,-3.647305307896188,5.133631075386676,0.40927093505990453,-44.21622482573967,-8.513470311828584,92.72426159791942,-23.05685430765152,29.85532581806183,-0.6183008197695017,7.876909419867569,1.9983780280228,0
STABILIZE,2.0721311569213867,55.78941487875926,-39.28188900259207,-16.36365328902606,95.4971001137116,7.616036013596245,-9.582716051350342,36.51913959302475,49.42577645653976,-1.0693517053735329,-2.309372549189348,-15.515613105404583,3.1070139247497126,-3.62015082753306,5.009021606896632,0.4078573526856563,-45.62058413707257,-6.247147309968222,92.23171312051066,-25.297829508781433,27.353256940841675,-3.338460996747017,8.013561939854213,1.3673044072067644,0
STABILIZE,2.104883909225464,30.536897897373173,-40.33695907125254,-15.152761346483613,95.33561891603046,7.711426728248336,-9.619413576705451,36.82525959465899,48.52400047562643,-0.8600145715231343,-3.4026553164239015,-15.589956299425587,2.7426772543890197,-3.665122782633214,5.208883990788171,0.40637676311919196,-46.487215920565895,-3.204473925535832,93.31159412545611,-29.092204570770264,24.63306486606598,-5.253777280449867,8.522611714397314,1.0784638180565647,0
STABILIZE,2.1396090984344482,28.80090090708709,-41.439829169285474,-13.948641007375254,95.0362214121326,7.7939042815861965,-9.654489946732275,37.11785639365375,47.614535388836806,-0.3405914383875055,-4.611292508220566,-15.614116386067215,2.7713815232370544,-3.657963760616848,5.150887219219149,0.4051566279534084,-49.475985018879555,-1.1317852760554925,91.10660022023632,-27.274787425994873,21.815064549446106,-7.7400848269462585,8.656369241737785,0.3285133160573958,0
STABILIZE,2.1833512783050537,22.864718709114698,-42.56175086816073,-12.78794246704775,94.72349518154476,7.820734228277974,-9.687897185668426,37.39652979025938,46.698021304477344,0.9356819151086214,-6.414813776959364,-15.69993429789384,2.77081750490863,-3.6569783014874138,4.84603978452235,0.4039490522458652,-50.43207552579764,-0.7307224668486796,90.50077491004737,-26.01441740989685,18.204055726528168,-7.098919898271561,8.681913315927178,-3.150474273539864,0
STABILIZE,2.2061378955841064,43.895971784701366,-43.56942636204232,-11.763889555731796,94.4194842107176,7.8072637884449465,-9.71959357894973,37.660931813806755,45.7751061061988,2.012142139860845,-7.470096786746552,-15.762531274089714,2.7936524166921712,-3.654380791065817,4.599108752624226,0.4027112437909624,-50.43207552579764,-0.7307224668486796,90.50077491004737,-23.99298846721649,14.984911680221558,-6.924399733543396,8.681913315927178,-5.002748151913744,0
STABILIZE,2.2402398586273193,29.33202791725527,-44.41580102999287,-10.849166952302015,94.07763771577434,7.756643718322467,-9.749543994297323,37.910769401121726,44.8464447124873,3.9369816555242334,-8.997886306899698,-15.886758754713906,3.048959551699683,-3.6216316682042353,4.356297648174839,0.4015376139934259,-50.43207552579764,-0.7307224668486796,90.50077491004737,-18.020856380462646,12.261524051427841,-9.875798970460892,8.681913315927178,-6.956151518686126,0
STABILIZE,2.272866725921631,30.652722661930966,-45.16860932687844,-9.959031122196011,93.83430927313678,7.662341952181224,-9.777720202804716,38.1458070749394,43.912698336155316,6.812070812578823,-10.996789832601765,-16.12639423419651,2.9563104394542927,-3.63830712811625,4.020127763774377,0.40015677812603706,-49.96577501363023,-0.8500449689394646,91.85052990049778,-11.998993158340454,10.878623276948929,-7.709984481334686,8.76708458011724,-9.842616782690195,0
STABILIZE,2.307140350341797,29.183045281233476,-45.77072126537142,-9.090266660138393,93.56740930692094,7.536670065318869,-9.804101200024917,38.365869622318655,42.97453374383264,8.666957665197057,-12.190991206144197,-16.332828164123683,2.9725843238924528,-3.6415728607428717,3.7873747522993098,0.3988142488738234,-49.96577501363023,-0.8500449689394646,91.85052990049778,-4.9748145043849945,12.53935992717743,-9.570768475532532,8.76708458011724,-11.465538031376925,0
STABILIZE,2.351191282272339,22.702224050489033,-46.27887428186117,-8.18709446218337,93.29064173488405,7.4947409887015315,-9.828673527057482,38.57084477305642,42.032622515457504,10.52356529859931,-13.120498843686537,-16.515786733873522,3.131597283682896,-3.6224769216006996,4.306683053258757,0.3974839615611469,-49.96577501363023,-0.8500449689394646,91.85052990049778,0.06016921252012253,16.243308782577515,-10.336250066757202,8.76708458011724,-6.092784871745249,0
STABILIZE,2.3749308586120605,42.13432985755329,-46.55456308468818,-7.2253421885908296,93.1140415238658,7.442860093571793,-9.851431591635635,38.760685878102095,41.08764030376752,11.561713925079873,-13.487535280436452,-16.6146212787109,1.7904357284170298,-3.8000891482938863,4.005650206346053,0.39594719755980345,-49.96577501363023,-0.8500449689394646,91.85052990049778,12.236128002405167,23.488342761993408,-4.392263293266296,8.76708458011724,-6.287940451805438,0
STABILIZE,2.4192051887512207,22.59216926201031,-46.46349857015511,-6.409444668347538,92.9836246880074,7.393498488660227,-9.872377989213337,38.93541458797202,40.14026609379076,12.116538729096472,-13.395902316305207,-16.637113091647752,2.9397270852223887,-2.751490951904788,4.201536804502367,0.39431328281156675,-49.96577501363023,-0.8500449689394646,91.85052990049778,21.748048067092896,30.480411648750305,-3.923199698328972,8.76708458011724,-6.6596325162483625,0
STABILIZE,2.440603017807007,46.742045847124245,-46.40693991939167,-5.2536455175522425,92.92391032040577,7.387910959759896,-9.891523824052378,39.09512353116371,39.191181462336694,11.80722080592775,-12.644623342512471,-16.491211713239817,1.1058430175847522,-2.9535480266237477,4.387373653836687,0.39253454228386186,-49.96577501363023,-0.8500449689394646,91.85052990049778,32.68522024154663,39.70617651939392,2.6851020753383636,8.76708458011724,-3.413333036530747,0
STABILIZE,2.481069326400757,24.717595129914137,-46.0902896842943,-4.220870129951465,92.9000580500783,7.499110238832575,-9.90888903030946,39.2399789925704,38.24106983748726,10.587161189961298,-10.985740294071977,-16.175735520760682,2.2734385109530053,-2.4022094102391502,5.049211052554204,0.3906820235748179,-49.96577501363023,-0.8500449689394646,91.85052990049778,39.90969359874725,47.69352972507477,2.8428981080651283,8.76708458011724,3.440463615131095,0
STABILIZE,2.5105230808258057,33.95427757269607,-45.8429551212721,-2.727518091725466,92.96846445790068,7.499041755683693,-9.924502693123305,39.3702235918953,37.29061575808788,8.484808472863863,-8.65368490009243,-15.849800601114966,0.47652556811127006,-2.569234689676268,4.498961308200751,0.3886443026003744,-49.96577501363023,-0.8500449689394646,91.85052990049778,48.39082956314087,55.342257022857666,11.22252345085144,8.76708458011724,-2.7718956708662748,0
STABILIZE,2.546013832092285,28.180140957679104,-45.40197212448628,-1.4591838733520959,93.13453897061792,7.659736307024801,-9.938403369701721,39.486178962066006,36.340504133238454,6.561635523357959,-6.4172282488309635,-15.560791391669632,1.3076672712611863,-2.142390766337304,5.498331389501549,0.38641193032524107,-49.96577501363023,-0.8500449689394646,91.85052990049778,50.306129455566406,61.110591888427734,15.501563251018524,8.76708458011724,6.86198370059916,0
STABILIZE,2.582902669906616,27.111975850500638,-44.88597185686414,-0.01315867422687833,93.31282501603941,7.8003013716494065,-9.950639410408698,39.58824842764902,35.39141950178437,4.0166331871908065,-3.324188609134914,-15.339564979547504,0.8979399946526317,-2.036950650583735,5.443673176464747,0.3841571889714899,-49.96577501363023,-0.8500449689394646,91.85052990049778,57.41117596626282,63.744038343429565,16.403529047966003,8.76708458011724,5.7451862995995455,0
STABILIZE,2.6141037940979004,32.05796614055872,-44.332524927203664,1.346527436243884,93.41224833524842,7.880190580812083,-9.96126927985149,39.67691968326396,34.444045291807626,2.6739607900086355,-1.5854719617977846,-15.257896407641661,0.4598080327204238,-1.7801217456622749,5.240833069822525,0.3820635939131184,-49.96577501363023,-0.8500449689394646,91.85052990049778,57.264965772628784,63.379865884780884,10.764433443546295,8.76708458011724,2.00342425715897,0
STABILIZE,2.645806074142456,31.546082221453393,-43.77876726379033,2.562142873169715,93.4037365297613,7.948002771721324,-9.970361877967708,39.75276747199804,33.49906308011764,1.6054011731354123,-0.16079124415941556,-15.20548495104557,0.7052190369591773,-1.7199664892087811,5.196264080868308,0.38019065310071265,-49.96577501363023,-0.8500449689394646,91.85052990049778,55.71887493133545,61.635708808898926,3.6337442696094513,8.76708458011724,1.4202900265799614,0
STABILIZE,2.690661668777466,22.296370324693275,-43.25889763158448,3.7394827774013835,93.42073312056282,8.025046338715013,-9.97799686111243,39.816456263820484,32.5571518517425,0.7789584221259187,1.1415044363833724,-15.17439392994367,0.9365104509025189,-1.8334177624794878,5.25280054908306,0.3782728374623594,-49.96577501363023,-0.8500449689394646,91.85052990049778,52.67477631568909,58.51660370826721,5.136338621377945,8.76708458011724,2.091847886153955,0
STABILIZE,2.7167797088623047,38.29435395515302,-42.75968885870638,4.913619465081088,93.36195050999206,8.067708983111498,-9.984264963145236,39.86874293399667,31.61898725941984,0.3052276803925149,1.9102233377263842,-15.164234023553277,0.867126175795027,-1.8559476959849206,5.079482895096495,0.3765140734988556,-49.96577501363023,-0.8500449689394646,91.85052990049778,49.89020824432373,55.21782636642456,0.04129153676331043,8.76708458011724,-0.03178770039723934,0
STABILIZE,2.749281883239746,30.772589875275127,-42.13025984434718,6.340257431453168,93.23172197572013,8.10933170152406,-9.98926831651736,39.910479441503085,30.68524088308783,-0.011964276950467374,2.510015545917408,-15.15918822130393,-0.07324379623057595,-1.5545889947825033,5.121271576388325,0.3749070378147354,-45.97207016910784,6.7586336486202025,91.05157570318337,46.3489830493927,52.30531096458435,-2.291986159980297,8.226095621420612,1.549677715122098,0
STABILIZE,2.7827439308166504,29.887584083912895,-41.51414117335657,7.605186331246718,93.08205741065993,8.112138395322486,-9.993120773358697,39.94261550744095,29.756579489376335,-0.05740435155979861,3.1501741721032066,-15.104435717369816,0.22640331395325486,-1.5237769953159352,4.884051732299847,0.3733490441574328,-44.2597829062322,7.751743637995726,91.12214313945833,41.32027626037598,46.84154689311981,-3.795766830444336,8.24273304259775,-0.7385206073099756,0
STABILIZE,2.816953182220459,29.237156519678233,-40.60112848490632,9.276639897344799,92.74642532384891,8.095579587693097,-9.995948226565002,39.96620129345128,28.83366429109779,0.16347301388335794,3.6336179497644707,-15.072427743371843,-0.7813941286423032,-1.0016296758947667,4.760598819215877,0.37217447793449776,-37.05726067628686,17.84726744332069,88.57199420429043,40.55458605289459,45.51821053028107,-8.517657220363617,7.940799635386744,-1.0270875620065518,0
STABILIZE,2.8500614166259766,30.20940500284498,-39.650576708020914,10.950146521486758,92.41013671726719,8.104328095969253,-9.99788893088487,39.98239008012884,27.917150206738327,0.5774761659035935,4.128697381563676,-15.04238344876025,-1.0755962317704781,-0.8156148454410204,4.915420442490087,0.37101402697894226,-33.582357187862044,20.002751473415422,87.93298491881009,34.00046527385712,42.57446527481079,-7.002709060907364,7.685590555972379,1.2711434545426243,0
STABILIZE,2.8836493492126465,29.775979327284862,-38.72370355873273,12.602941749443172,92.03193207154847,8.121094469983127,-9.99909382400688,39.9924409454368,27.007685119948675,1.4073974041913277,4.759070481102961,-14.986382727755315,-1.1282049257669293,-0.8185686192503445,4.972494509272063,0.3699515060968004,-32.41674535158302,22.188397678159124,86.79445931649965,30.89839816093445,41.503140330314636,-6.934506446123123,7.772251819475284,1.5515526020492665,0
STABILIZE,2.9176483154296875,29.41699104368745,-37.708382151652124,14.26390814902368,91.66060280067171,8.135521300660741,-9.999726847646674,39.997721443120824,26.105909139035376,2.0853165177601305,4.961343118278304,-14.946642979616888,-1.2884529760585672,-0.5852708367781864,4.966381897403712,0.3688906126767273,-29.9383324875868,23.2966735610281,86.78224433863117,30.89839816093445,41.503140330314636,-6.934506446123123,7.717587971593503,1.5515526020492665,0
STABILIZE,2.9506237506866455,30.333938425266325,-36.61940347869674,15.949989603776116,91.2621516659875,8.16452352800755,-9.999965268634035,39.9997102811238,25.21245385645146,2.641884941005786,4.922761514091017,-14.914464250889665,-1.6201358234970906,-0.3182318908387679,5.074513174785059,0.3679006043809279,-26.600872550241046,25.16153815638044,86.68329512066919,28.029760718345642,41.986438632011414,-8.838585019111633,7.72457262213687,2.4113368147704715,0
STABILIZE,2.9849627017974854,29.126504308938006,-35.632089254889976,17.56542823255235,90.84787133550415,8.16017517498846,-10.000000000000004,39.999999999999986,24.32794160828793,2.9675419573296473,4.757085030488604,-14.88885957923858,-1.4390511936474715,-0.5045361297477924,4.870791515778189,0.3669601405455676,-26.600872550241046,25.16153815638044,86.68329512066919,23.49078059196472,42.519789934158325,-10.537116974592209,7.72457262213687,0.4144080675121836,0
STABILIZE,3.0183653831481934,29.9432732464751,-34.73784920425157,19.220184910472426,90.381964366112,8.109498604087982,-10.0,40.0,23.452984733764282,3.10625135998497,4.126820360202391,-14.871818257259399,-1.7675817888819074,-0.592486813333093,4.5598125727292285,0.36614204073530454,-24.963935878014855,26.152515558533693,86.40971066230802,14.09093588590622,44.38815116882324,-13.340581953525543,7.707231423051731,-2.379942277137331,0
STABILIZE,3.051243305206299,30.418856293287885,-33.86783877331499,20.82629188614288,89.81305767454347,8.060001806558155,-10.0,40.0,22.588184834719854,2.7771544896403615,3.3602821034736117,-14.84674975545816,-1.7979755487197273,-0.567487143564614,4.537184068056574,0.36555025432035276,-23.41579952154349,27.210967517008985,86.0797075226561,11.155480146408081,44.91798281669617,-19.801080226898193,7.729528794652047,-2.307311326163885,0
STABILIZE,3.0858306884765625,28.916861431122324,-32.97868059186948,22.507876512774942,89.26156002252438,8.021992355119941,-10.0,40.0,21.734132035104906,2.343339293375233,2.815446024231334,-14.806127205369508,-1.9747045426093095,-0.5355166662102481,4.591715864017207,0.3649451440251611,-21.626759157055353,29.358528756030466,85.71943771570616,9.15558710694313,46.5836375951767,-18.251395225524902,7.808091298725735,-1.8238124801024374,0
STABILIZE,3.1195476055145264,29.663946136328274,-32.06085123622769,24.224762332525415,88.66076659661921,7.991220419871522,-10.0,40.0,20.891404240471203,1.7877245352924402,2.039032808066597,-14.795403808372589,-2.239897878142588,-0.4099248131168793,4.613598505378547,0.364461275287704,-20.630496342738567,31.085715376774296,84.94618843967693,9.985276311635971,46.24793231487274,-19.553998112678528,7.710389840300318,-1.101038447037103,0
STABILIZE,3.15373158454895,29.260204401967282,-31.18055807083981,25.86852668065289,88.06731058021164,7.958213836110774,-10.0,40.0,20.060566397463518,1.269046373024019,1.571461536262796,-14.720712274703914,-2.208530014739263,-0.40885969270990924,4.581336202137666,0.36398651163450374,-20.359308854719565,31.794223774597427,84.69311401875808,9.985276311635971,46.24793231487274,-19.553998112678528,7.6597368354244315,-1.101038447037103,0
STABILIZE,3.1880781650543213,29.11639466029864,-30.220771797865112,27.483941552839237,87.48997480722737,7.872417060875658,-10.0,40.0,19.242169753310307,0.925926057096316,1.1391278507173253,-14.650733571562549,-2.2778895089022684,-0.1831475383724843,4.225297925007645,0.3635043898921659,-19.39067412851942,33.17301419766321,84.35583635112752,15.393802523612976,45.37147581577301,-18.635432422161102,7.581425533069092,-4.117959470414769,0
STABILIZE,3.2203261852264404,31.017223146607506,-29.427026314974096,29.068044399822035,86.90781663793669,7.805651515023319,-10.0,40.0,18.43675111531512,0.6663321245286993,0.8194404197280554,-14.580150396679636,-2.539522092910319,-0.3725332412180902,4.269006162340645,0.3630578689547569,-19.51694595885272,33.85775366300235,83.97886360319754,5.838530883193016,42.87046492099762,-18.151743710041046,7.5377411749060235,-2.818723447815882,0
STABILIZE,3.2541470527648926,29.57108814281081,-28.70618689173252,30.507579987934268,86.37424096424608,7.719611394024902,-10.0,40.0,17.644832110346997,0.5841270626078935,0.7081130853727549,-14.477120408144579,-2.170177395792366,-0.4894621769270545,4.123616193389024,0.3625411822922018,-19.264065680272992,34.363762169837,83.71432300417601,4.836760461330414,41.407400369644165,-16.539601981639862,7.483058605331904,-3.9501357460920317,0
STABILIZE,3.28794002532959,29.59508336684942,-28.17766406897247,31.96158860605744,85.72722219893066,7.6559777107414355,-10.0,40.0,16.866918444332114,0.5432195655648061,0.7039012065323842,-14.312206344408267,-2.335410632385625,-0.8388856126300723,4.209782925967332,0.3622793924908029,-19.226350162938424,35.17199237891019,83.40188796871885,-7.45324045419693,39.73853588104248,-22.872480750083923,7.4346448549402755,-2.4545176975901155,0
STABILIZE,3.326077461242676,26.225217902384735,-27.528513188135513,33.40469032044677,85.09670017691403,7.563863939940314,-10.0,40.0,16.103499161744438,0.5148389556246395,0.6188617228277289,-14.190161109223896,-2.3397738620509494,-0.5757855327455407,4.005274086777595,0.3620135979696608,-17.59756407089288,37.785013370690265,82.56227135687502,-1.1588677763938904,38.01016807556152,-21.13291323184967,7.256511629727633,-3.799582581972495,0
STABILIZE,3.3546502590179443,35.00358022115585,-26.856068360368244,34.828339338530256,84.48603601434031,7.4481619217870385,-10.0,40.0,15.355045905096873,0.39597786925396206,0.578689858502593,-14.025484394561241,-2.598979503249306,-0.41915818643158587,3.7618079854123057,0.3617380197815131,-17.668825099237736,38.42234528947739,82.21321686175548,2.2999105975031853,36.58396899700165,-19.182981550693512,7.2024165502075945,-5.081830216558267,0
STABILIZE,3.387404680252075,30.533785652927218,-26.230223316088914,36.16694090773176,83.88096216917972,7.311817512226858,-10.0,40.0,14.622012174432157,0.4092232602410564,0.44589937505204147,-13.888744861151231,-2.5132133831924204,-0.44869332445345544,3.555793632828131,0.36148210001050485,-17.643973222513345,39.72039894436613,81.55381791175449,2.317638136446476,35.51425337791443,-19.32382583618164,7.094419994732631,-6.259646393168661,0
STABILIZE,3.4220094680786133,28.902713653716287,-25.624491495471656,37.51853597154666,83.35005971330544,7.189519661651307,-10.0,40.0,13.90483258681418,0.37513656085787306,0.18169968050844107,-13.721617816123837,-2.5036320079356726,-0.4935605954525155,3.604255880721726,0.3611095457470175,-16.133881296189674,41.540891373948085,80.93444120832541,-2.0159825682640076,33.450886607170105,-13.882571458816528,6.939303023305461,-5.081625310883167,0
STABILIZE,3.455254554748535,30.082653163685396,-25.047701680042692,38.892351026544794,82.79367744763442,7.062139057201425,-10.0,40.0,13.203922135818587,0.321658740977612,-0.10234733647391969,-13.558254205329117,-2.753814960247595,-0.4868193270972354,3.473959989452715,0.36082048937636835,-16.326182195479927,42.671681154976625,80.21304053057335,-2.1591579541563988,32.518020272254944,-13.749045133590698,6.802653544000428,-5.005463152108825,0
STABILIZE,3.48919677734375,29.467211847855104,-24.49723885214778,40.208162385220795,82.15967698105169,6.914399900753059,-10.0,40.0,12.519675451024042,0.3226259064362564,-0.3145065190604037,-13.40936718048024,-2.6968993726378683,-0.4950288904441039,3.2759920062345733,0.3607199969399447,-16.232995778183138,44.37398249774251,79.26326903287682,-1.2441208586096764,31.09208047389984,-18.2076558470726,6.549851167449506,-5.804462096311501,0
STABILIZE,3.5227856636047363,29.775556565197636,-23.965980960991455,41.465015888855845,81.55461781718905,6.758718098924434,-10.0,40.0,11.852466057503236,0.21635594029516678,-0.5151461540547315,-13.263344566214538,-2.7000223862593806,-0.4707550013308718,3.128194210807717,0.3605956964806284,-15.933717064058204,44.921772473891124,79.03095126403537,-1.5349657274782658,29.24569547176361,-16.70038551092148,6.452833984074732,-6.158283824564733,0
STABILIZE,3.556838035583496,29.37413946452458,-23.460285322723404,42.725598381579466,80.82540962022287,6.646435680268721,-10.0,40.0,11.202645635313942,0.2643424615055095,-0.7187009991641853,-13.07106534956857,-2.7689572877033606,-0.49634265994199267,3.3287938667936414,0.3607544720301821,-15.867481121820461,47.081727106631206,77.76576500586971,-1.2939875945448875,28.145942091941833,-22.757059335708618,6.157251221902159,-2.9867495164927806,0
STABILIZE,3.5902750492095947,29.909962847016708,-22.98112399979023,43.947850706318704,80.1229906112316,6.518038368150753,-10.0,40.0,10.570543278989774,0.23127362039121677,-0.9063488139443555,-12.977647144743013,-2.8339571309941856,-0.4913078864457169,3.1437850493683897,0.3608951053355164,-15.728257975145166,48.05061311068509,77.17989647844615,-1.6209620982408524,26.97431445121765,-20.676961541175842,5.993631760241176,-3.7191110007186974,0
STABILIZE,3.6239523887634277,29.699233852123548,-22.51164239288978,45.12702727968427,79.44171673763012,6.391092741102488,-10.0,40.0,9.956464757031583,0.21882660114486022,-1.1388739597792712,-12.7985322639486,-2.856100983863235,-0.45968909531421875,3.072032035690961,0.36102949603880297,-15.258012426436665,48.624796048874295,76.98214047678081,-1.6209620982408524,26.97431445121765,-20.676961541175842,5.916745949595512,-3.7191110007186974,0
STABILIZE,3.6577796936035156,29.565043315217775,-22.024556884547447,46.24313011992478,78.77342173580001,6.3025644955824385,-10.0,40.0,9.360691771398237,0.14861114923943167,-1.3185368565328734,-12.673261471928688,-2.7642122378820244,-0.3883170691586525,3.2624102983676493,0.3611745400711964,-15.064719855407532,49.61599706515175,76.36916759577622,0.8483214303851128,24.95425045490265,-20.116078853607178,5.786855834615137,-1.349656372330215,0
STABILIZE,3.691958427429199,29.261837487878218,-21.528286001934415,47.33044255076816,78.14092538176044,6.179478645827147,-10.0,40.0,8.783481216997515,0.0037253079032866033,-1.9794174228868446,-12.558323048575714,-2.7893537457600277,-0.3256361978383937,2.989093208998705,0.36128511167047417,-15.036563396390859,50.08307931488217,76.07140867057822,2.653300017118454,23.882289230823517,-17.662779986858368,5.719756472194057,-3.4690554273270036,0
STABILIZE,3.7260587215423584,29.33448965604062,-21.166593442980446,48.35335878303517,77.4175450420597,6.014157700619107,-10.0,40.0,8.22506444117748,-0.08987733871028708,-2.6002709462704257,-12.437748011610186,-2.7917203108620097,-0.5352140223634003,2.609162898622629,0.36161503879823553,-15.042927959270717,50.82436925057176,75.43460601864442,-4.226255789399147,22.854819893836975,-23.770862817764282,5.560016842198529,-5.808548683869284,0
STABILIZE,3.76143741607666,28.26845673770337,-20.85666387701072,49.305738082314086,76.73209211344087,5.893555167332932,-10.0,40.0,7.685646503217285,-0.015446873014380517,-3.526131476239392,-12.335987584487105,-2.6273472973239795,-0.6211813399434096,2.836835810292015,0.3619071087795528,-15.26992755876773,51.656051542171966,74.72069634773061,-5.034876614809036,21.175557374954224,-21.829426288604736,5.4220794767391824,-3.2858061476506157,0
STABILIZE,3.791463613510132,33.310598419568755,-20.46924465944984,50.250174197324824,76.0462148270542,5.738303597152917,-10.0,40.0,7.165405433818179,0.08584604633631185,-4.197006957226619,-12.228741661686858,-2.88323795352967,-0.37652317237621696,2.463046293531789,0.3622383812135279,-15.21974854895289,52.39443351373578,74.11149599900357,-0.04882293287664652,17.554959654808044,-19.799354672431946,5.269738120953502,-4.8914758325977745,0
STABILIZE,3.828706741333008,26.853169776047736,-20.0819608383247,51.08482256365686,75.39440299455589,5.586324544939328,-10.0,40.0,6.6644914945945715,0.27984816486020203,-4.584439192611837,-12.119378380243905,-2.418745652770877,-0.42032864961957395,2.539481770130463,0.36254017700007735,-15.271825713514236,53.32431099793823,74.2986425347816,3.110727295279503,16.613461077213287,-22.47108668088913,5.273600859697267,-5.529708345437629,0
STABILIZE,3.8612284660339355,30.75431328410849,-19.597029874827058,52.07253184043527,74.69881528598424,5.409777159379963,-10.0,40.0,6.183026437564976,0.6083852264971342,-4.517246352878191,-11.917760587455238,-3.09343248772381,-0.11282828471058687,2.160894273003527,0.3629684223031615,-14.87020908466788,54.63148339345133,73.41946394485187,6.625600904226303,15.537568926811218,-18.969401717185974,5.100973382392174,-5.808864580118398,0
STABILIZE,3.903317928314209,23.761069567187853,-19.048485410440442,52.88965243386337,74.14811070315568,5.250973777515907,-10.0,40.0,5.721102764643248,0.8051320805513779,-4.108208094714106,-11.728703512550224,-2.519049887334306,-0.05028862282911947,2.327722390598052,0.36314598412297516,-14.523832838957784,55.165626653600725,72.04691767124768,13.621890544891357,14.628657698631287,-11.98110282421112,4.879880726569398,-5.2967122367151,0
STABILIZE,3.9277477264404297,40.94040937442044,-18.52290097496524,53.74799090639487,73.60136424911853,5.09090835390845,-10.0,40.0,5.278782987129304,0.9136499660019818,-3.533027405980166,-11.568728529357477,-3.2849391580477927,0.2584829126388413,1.9094312084809912,0.36335483747602154,-14.833314872776285,56.67540160958604,71.89810773753223,13.621890544891357,14.628657698631287,-11.98110282421112,4.818798186715476,-5.2967122367151,0
STABILIZE,3.9616663455963135,29.486477556328868,-18.02686483170477,54.40136331187484,73.14511416864002,4.957730721967398,-10.0,40.0,4.856098885200183,1.1367379248380556,-2.5841858507750457,-11.332041130275378,-2.5185469770660305,0.08491133149419175,2.1886206406356967,0.36342196943312033,-14.876892248247685,56.966937979001706,71.54875053093984,16.584885120391846,14.048236608505249,-12.7723827958107,4.7254215354714955,-4.978963298789644,0
STABILIZE,3.99619197845459,28.969388882749474,-17.49416640653777,55.20024460705954,72.68604860430281,4.845503293275462,-10.0,40.0,4.45305076740145,1.0995206509374793,-1.830435629163234,-11.158665315931067,-2.871236871625022,0.17084712385043954,2.2528526456550226,0.3635340043261973,-14.314179465898727,57.37432055236933,70.9963380369825,14.499366283416748,13.653475046157837,-7.020561397075653,4.573867638698326,-2.3600070893841796,0
STABILIZE,4.029102563858032,30.388882851160332,-16.9672507754289,55.997099884244975,72.14674404633429,4.710638747541388,-10.0,40.0,4.0696067301378065,0.9920723837830698,-1.2234561409746532,-10.975942387707594,-2.9989309447441648,0.2443103565847335,2.0096653449136737,0.36384572536760706,-14.22212245642475,58.55244128057461,70.56031015249134,15.269903838634491,13.798394799232483,-12.771867215633392,4.46306683464398,-3.7552243452946703,0
STABILIZE,4.064824104309082,27.999172235165318,-16.499955285618437,56.72140893163568,71.65408538498146,4.5679222895160025,-10.0,40.0,3.705701917164035,0.9026323372622223,-0.7127260777443051,-10.7418393614527,-2.7712134953700756,0.10824329132007604,1.9435498487829066,0.36410323306436515,-14.088541108002982,58.64633568515822,70.28287755679355,12.70543783903122,13.02112340927124,-11.34122684597969,4.370212507506078,-4.562810544831345,0
STABILIZE,4.096928834915161,31.152684626068613,-16.053661889150106,57.41188276828151,71.03771854850113,4.405207792853464,-10.0,40.0,3.3612377790763475,0.842632647219951,-0.588447424062191,-10.609781068945088,-2.9221930417439994,0.2040487096709305,1.6298452906666108,0.36464703846115043,-13.863685974852029,58.74306680958487,68.9692964086067,11.427154392004013,12.278357148170471,-16.35335385799408,4.098604641932257,-5.143041518126275,0
STABILIZE,4.131713151931763,28.75233244445663,-15.634439172171415,57.97430979185622,70.46030838335746,4.282822847066666,-10.0,40.0,3.036081332803505,0.7747010798388851,-0.4647801256716459,-10.440355665261983,-2.586637243093408,0.14300045904066966,1.8666605401877523,0.3651515458988921,-12.842927727954029,58.35801041696965,68.19301817223413,9.091989696025848,10.304364562034607,-14.784063398838043,3.9248875354937365,-2.956887502554662,0
STABILIZE,4.163243532180786,31.720480688512936,-15.233481316800857,58.55475226528994,69.768525895614,4.0984770326179545,-10.0,40.0,2.730064421097026,0.8676358353372521,-0.5389702807665591,-10.345687535818314,-2.7971714556020086,0.22064909851035103,1.288640360206268,0.36592307705096605,-12.76469017974865,59.36548168415416,67.70693235058242,8.155757188796997,9.58402007818222,-21.23953402042389,3.7949304509720156,-6.5688072219864715,0
STABILIZE,4.196869850158691,29.7434617348386,-14.872523813946717,59.09208715346859,69.1978061485349,3.9690006719954525,-10.0,40.0,2.4429829720234437,1.0660533643346515,-0.5624676789761368,-10.201783133968961,-2.661215959687621,0.12896639892444,1.6113328106695985,0.36649035364697713,-12.80660653620189,60.40139503197905,67.48479582078377,7.8928835690021515,8.397500216960907,-16.21859073638916,3.8469854290409433,-4.062715192860413,0
STABILIZE,4.2312257289886475,29.116596784494487,-14.449255747506566,59.59984032091512,68.54885307947113,3.8470588637788987,-10.0,40.0,2.1745962584540024,0.970110337393717,-0.7446536902978239,-10.138256398272318,-2.6283451804459066,0.28681502331346764,1.5979171937474488,0.3672514863579658,-11.530027326175926,60.01673501472969,66.85421272756003,8.112151175737381,7.157224416732788,-19.029508531093597,3.360835306598923,-2.1010765389397004,0
STABILIZE,4.263282060623169,31.198101769549467,-14.10200231313151,60.08655598859872,67.95515407437989,3.697108021261518,-10.0,40.0,1.9246261575568013,1.22728510233468,-0.8331082685874857,-10.001431487497685,-2.688099249994936,0.21541065048838567,1.2837129006429404,0.3679389441663538,-11.98758905128366,60.59259297608181,66.48140983791463,5.512690171599388,6.060827895998955,-15.96996933221817,3.423378884625442,-4.408225861554209,0
STABILIZE,4.297586917877197,29.155862030613523,-13.743132186903495,60.55913862744822,67.38958761960215,3.5960278453144143,-10.0,40.0,1.6927564102871742,1.3265992545178387,-0.9088411926611755,-9.899561777347884,-2.6373634639851122,0.23673242066124806,1.5632552681189091,0.36860633758137007,-11.704190831070665,61.85579197917737,66.30693381688809,7.32356458902359,5.377120152115822,-16.546612977981567,3.351435865489025,-1.892661213822989,0
STABILIZE,4.33206582069397,29.00725474601473,-13.319912288959543,61.02870439208387,66.80600030498893,3.4759552866495675,-10.0,40.0,1.4786318808786376,1.6443437101316516,-1.0061621035454542,-9.779700495150623,-2.6567517835252072,0.3932368299834881,1.3946262968335752,0.3693452631517794,-10.463076878727051,61.6940291010647,65.57631041956056,7.897105813026428,5.255813151597977,-15.321677923202515,3.10402439646296,-2.323037623284428,0
STABILIZE,4.365278482437134,30.112457641720752,-12.844458339651307,61.42737783745158,66.20005197185934,3.2801336307785545,-10.0,40.0,1.2818578163344654,1.9334978476534375,-0.9135104807325254,-9.653367608714774,-2.597925340805182,0.6039839754203379,0.7823357030545457,0.3701636116889503,-9.901664561148657,60.765565062948,63.799304461352975,10.788682848215103,5.1880646497011185,-12.981264293193817,2.7681587800055336,-6.294432546611536,0
